[{"vid":"817671","name":"Adria Watsica","party":"","address":"628 E 50 N, American Fork, UT 84003","precinct":"25AF15","hd":"55","v_score":"0","decile":"1","lat":40.37756603972116,"lng":-111.78152411939129,"phone":"(511) 265-1686","sd":"21","ssbd":"11","lsbd":"School Board Aspen Peaks 7"},{"vid":"1230016","name":"Rowland Borer","party":"Rep","address":"32 N 825 E, American Fork, UT 84003","precinct":"25AF15","hd":"55","v_score":"26.89878031","decile":"10","lat":40.37740566540199,"lng":-111.77528232037007,"phone":"(194) 377-1344","sd":"21","ssbd":"11","lsbd":"School Board Aspen Peaks 7"},{"vid":"1238374","name":"Yaritza Feil PhD","party":"Dem","address":"180 N 600 E, American Fork, UT 84003","precinct":"25AF15","hd":"55","v_score":"9.549140629","decile":"8","lat":40.38029969914864,"lng":-111.78224794546546,"phone":"(711) 732-2343","sd":"21","ssbd":"11","lsbd":"School Board Aspen Peaks 7"},{"vid":"6ee46d3e09daed5d1e2cca35ddf4e13baf29f42e751ce32309e11577e65cf132","name":"Melbourne Koch","party":"Rep","address":"165 N 800 E, American Fork, UT 84003","precinct":"25AF15","hd":"55","v_score":"12.05946382","decile":"9","lat":40.38010825881975,"lng":-111.77667809845252,"phone":"(116) 721-4778","sd":"21","ssbd":"11","lsbd":"School Board Aspen Peaks 7"},{"vid":"1253730","name":"Elbert Feeney","party":"Rep","address":"73 N 775 E, American Fork, UT 84003","precinct":"25AF15","hd":"55","v_score":"1.121327652","decile":"3","lat":40.37859923955543,"lng":-111.77758756934472,"phone":"(279) 026-5225","sd":"21","ssbd":"11","lsbd":"School Board Aspen Peaks 7"},{"vid":"1274362","name":"Unique Kshlerin","party":"Dem","address":"264 N 600 E, American Fork, UT 84003","precinct":"25AF15","hd":"55","v_score":"2.315214949","decile":"5","lat":40.3820139211664,"lng":-111.78221988703673,"phone":"(685) 611-2078","sd":"21","ssbd":"11","lsbd":"School Board Aspen Peaks 7"},{"vid":"1285587","name":"Georgina Gerhold","party":"Rep","address":"885 E 30 N, American Fork, UT 84003","precinct":"25AF15","hd":"55","v_score":"5.258122542","decile":"7","lat":40.377402025681214,"lng":-111.77409894486915,"phone":"(356) 599-8720","sd":"21","ssbd":"11","lsbd":"School Board Aspen Peaks 7"},{"vid":"1302268","name":"Ian Jones","party":"","address":"92 N 775 E, American Fork, UT 84003","precinct":"25AF15","hd":"55","v_score":"6.74007049","decile":"8","lat":40.379044281906346,"lng":-111.77706301322625,"phone":"(565) 439-1572","sd":"21","ssbd":"11","lsbd":"School Board Aspen Peaks 7"},{"vid":"1314592","name":"Louis Dach","party":"Dem","address":"680 E 170 N, American Fork, UT 84003","precinct":"25AF15","hd":"55","v_score":"23.7942762","decile":"10","lat":40.38009533591105,"lng":-111.7804928520144,"phone":"(211) 723-0475","sd":"21","ssbd":"11","lsbd":"School Board Aspen Peaks 7"},{"vid":"1375980","name":"Lavera Kovacek","party":"","address":"628 E 50 N, American Fork, UT 84003","precinct":"25AF15","hd":"55","v_score":"0","decile":"1","lat":40.37756603972116,"lng":-111.78152411939129,"phone":"(731) 230-4888","sd":"21","ssbd":"11","lsbd":"School Board Aspen Peaks 7"},{"vid":"1cf0e9b538ae00dfc24719a7cc4f13aaed4995082c905e6e2688a3028c034a62","name":"Antwan Jaskolski-Shields","party":"Dem","address":"58 N 800 E, American Fork, UT 84003","precinct":"25AF15","hd":"55","v_score":"16.04222202","decile":"9","lat":40.378260221772315,"lng":-111.77618144703061,"phone":"(976) 061-2985","sd":"21","ssbd":"11","lsbd":"School Board Aspen Peaks 7"},{"vid":"1397830","name":"Javier Marks","party":"Rep","address":"684 E 100 N, American Fork, UT 84003","precinct":"25AF15","hd":"55","v_score":"5.40460374","decile":"7","lat":40.37880110909137,"lng":-111.78006973987956,"phone":"(305) 087-2691","sd":"21","ssbd":"11","lsbd":"School Board Aspen Peaks 7"},{"vid":"1404815","name":"Kyle Stiedemann","party":"Dem","address":"39 N 825 E, American Fork, UT 84003","precinct":"25AF15","hd":"55","v_score":"0","decile":"1","lat":40.377590028565116,"lng":-111.77581363614944,"phone":"(512) 222-1874","sd":"21","ssbd":"11","lsbd":"School Board Aspen Peaks 7"},{"vid":"1423791","name":"Cooper Collins","party":"","address":"150 N 825 E, American Fork, UT 84003","precinct":"25AF15","hd":"55","v_score":"38.98393022","decile":"10","lat":40.379860054024384,"lng":-111.77509881523682,"phone":"(536) 982-4530","sd":"21","ssbd":"11","lsbd":"School Board Aspen Peaks 7"},{"vid":"1426409","name":"Broderick Bins","party":"","address":"894 E 300 N, American Fork, UT 84003","precinct":"25AF15","hd":"55","v_score":"19.62473182","decile":"10","lat":40.3829770497571,"lng":-111.77341529139173,"phone":"(602) 043-5458","sd":"21","ssbd":"11","lsbd":"School Board Aspen Peaks 7"},{"vid":"700fb32d680ba6746cb0f9c7985300bf6adf782400731831bf34f5c8264448ec","name":"Hernan Christiansen-Altenwerth","party":"","address":"190 N 600 E, American Fork, UT 84003","precinct":"25AF15","hd":"55","v_score":"14.46680193","decile":"9","lat":40.380452117207675,"lng":-111.78226059838596,"phone":"(523) 092-0854","sd":"21","ssbd":"11","lsbd":"School Board Aspen Peaks 7"},{"vid":"1456032","name":"Jayda Greenholt-West","party":"Dem","address":"607 E 230 N, American Fork, UT 84003","precinct":"25AF15","hd":"55","v_score":"4.283276088","decile":"7","lat":40.38166556092738,"lng":-111.78227030687357,"phone":"(108) 397-2802","sd":"21","ssbd":"11","lsbd":"School Board Aspen Peaks 7"},{"vid":"1469515","name":"Freddie Flatley-Deckow","party":"Rep","address":"56 N 775 E, American Fork, UT 84003","precinct":"25AF15","hd":"55","v_score":"1.121327652","decile":"3","lat":40.378239548002796,"lng":-111.77706419256451,"phone":"(244) 498-2999","sd":"21","ssbd":"11","lsbd":"School Board Aspen Peaks 7"},{"vid":"1469517","name":"Atticus Rutherford-Okuneva","party":"Dem","address":"56 N 775 E, American Fork, UT 84003","precinct":"25AF15","hd":"55","v_score":"3.781490609","decile":"6","lat":40.378239548002796,"lng":-111.77706419256451,"phone":"(471) 646-5160","sd":"21","ssbd":"11","lsbd":"School Board Aspen Peaks 7"},{"vid":"1471191","name":"Rowland Jacobson-Schroeder","party":"","address":"607 E 230 N, American Fork, UT 84003","precinct":"25AF15","hd":"55","v_score":"11.09694254","decile":"9","lat":40.38166556092738,"lng":-111.78227030687357,"phone":"(720) 943-5703","sd":"21","ssbd":"11","lsbd":"School Board Aspen Peaks 7"},{"vid":"d664a1a46d250bfed921b0f07cea1d2b1968cd1e208524b22981f8982c61620b","name":"Kelsea McLaughlin","party":"Dem","address":"607 E 230 N, American Fork, UT 84003","precinct":"25AF15","hd":"55","v_score":"19.74179771","decile":"10","lat":40.38166556092738,"lng":-111.78227030687357,"phone":"(708) 282-8180","sd":"21","ssbd":"11","lsbd":"School Board Aspen Peaks 7"},{"vid":"1495468","name":"Ms. Star Littel","party":"Rep","address":"241 N 860 E, American Fork, UT 84003","precinct":"25AF15","hd":"55","v_score":"2.315214949","decile":"5","lat":40.38200272642415,"lng":-111.77488307096922,"phone":"(361) 867-9790","sd":"21","ssbd":"11","lsbd":"School Board Aspen Peaks 7"},{"vid":"1520046","name":"Dr. Hobson Huel","party":"Rep","address":"63 N 825 E, American Fork, UT 84003","precinct":"25AF15","hd":"55","v_score":"4.137918904","decile":"7","lat":40.37833095753735,"lng":-111.77581249618734,"phone":"(923) 353-2765","sd":"21","ssbd":"11","lsbd":"School Board Aspen Peaks 7"},{"vid":"1539437","name":"Evangelina Koelpin-Schmidt","party":"","address":"32 S 750 E, American Fork, UT 84003","precinct":"25AF15","hd":"55","v_score":"11.30609121","decile":"9","lat":40.376342172970546,"lng":-111.7780520757215,"phone":"(917) 223-7092","sd":"21","ssbd":"11","lsbd":"School Board Aspen Peaks 7"},{"vid":"1556500","name":"Ocie Runte","party":"","address":"16 N 700 E, Apt 14, American Fork, UT 84003","precinct":"25AF15","hd":"55","v_score":"2.315214949","decile":"5","lat":40.37709898770964,"lng":-111.77906807142001,"phone":"(178) 700-6988","sd":"21","ssbd":"11","lsbd":"School Board Aspen Peaks 7"},{"vid":"1569493","name":"Denny McLaughlin-Leffler","party":"","address":"619 E 30 N, American Fork, UT 84003","precinct":"25AF15","hd":"55","v_score":"1.46627566","decile":"4","lat":40.37725301622733,"lng":-111.78200077326645,"phone":"(945) 491-9781","sd":"21","ssbd":"11","lsbd":"School Board Aspen Peaks 7"},{"vid":"1578768","name":"Jewel Jenkins","party":"","address":"761 E 10 S, American Fork, UT 84003","precinct":"25AF15","hd":"55","v_score":"2.315214949","decile":"5","lat":40.37686948508583,"lng":-111.77751107582198,"phone":"(551) 934-6430","sd":"21","ssbd":"11","lsbd":"School Board Aspen Peaks 7"},{"vid":"1578907","name":"Rashida Legros","party":"","address":"32 S 750 E, American Fork, UT 84003","precinct":"25AF15","hd":"55","v_score":"11.30609121","decile":"9","lat":40.376342172970546,"lng":-111.7780520757215,"phone":"(642) 583-1018","sd":"21","ssbd":"11","lsbd":"School Board Aspen Peaks 7"},{"vid":"1582197","name":"Mr. Cephus Mante","party":"","address":"217 N 800 E, American Fork, UT 84003","precinct":"25AF15","hd":"55","v_score":"0","decile":"1","lat":40.381387166661774,"lng":-111.77695706954147,"phone":"(791) 227-6265","sd":"21","ssbd":"11","lsbd":"School Board Aspen Peaks 7"},{"vid":"1585538","name":"Dr. Dionicio Windler MD","party":"Rep","address":"807 E 10 S, American Fork, UT 84003","precinct":"25AF15","hd":"55","v_score":"2.315214949","decile":"5","lat":40.376793534368474,"lng":-111.77625773376117,"phone":"(134) 157-3507","sd":"21","ssbd":"11","lsbd":"School Board Aspen Peaks 7"},{"vid":"1592845","name":"Grant Mayer DVM","party":"Rep","address":"190 N 600 E, American Fork, UT 84003","precinct":"25AF15","hd":"55","v_score":"2.315214949","decile":"5","lat":40.380452117207675,"lng":-111.78226059838596,"phone":"(659) 090-7332","sd":"21","ssbd":"11","lsbd":"School Board Aspen Peaks 7"},{"vid":"1592888","name":"Dr. Buna Bode","party":"","address":"270 N 700 E, American Fork, UT 84003","precinct":"25AF15","hd":"55","v_score":"0","decile":"1","lat":40.38225773602048,"lng":-111.77924242877013,"phone":"(478) 970-8985","sd":"21","ssbd":"11","lsbd":"School Board Aspen Peaks 7"},{"vid":"1625463","name":"Glynis Eichmann","party":"","address":"49 N 775 E, American Fork, UT 84003","precinct":"25AF15","hd":"55","v_score":"3.781490609","decile":"6","lat":40.378050383436715,"lng":-111.77758839238118,"phone":"(128) 949-9726","sd":"21","ssbd":"11","lsbd":"School Board Aspen Peaks 7"},{"vid":"1625624","name":"Kaya Boyer","party":"","address":"680 E 170 N, American Fork, UT 84003","precinct":"25AF15","hd":"55","v_score":"1.623113131","decile":"4","lat":40.38009533591105,"lng":-111.7804928520144,"phone":"(767) 157-7942","sd":"21","ssbd":"11","lsbd":"School Board Aspen Peaks 7"},{"vid":"1627037","name":"Suzann Kris MD","party":"Rep","address":"676 E 100 N, American Fork, UT 84003","precinct":"25AF15","hd":"55","v_score":"3.93832808","decile":"6","lat":40.378800863284745,"lng":-111.78035092783483,"phone":"(480) 001-2426","sd":"21","ssbd":"11","lsbd":"School Board Aspen Peaks 7"},{"vid":"1627112","name":"Mrs. Miriah Stokes","party":"Dem","address":"292 N 860 E, American Fork, UT 84003","precinct":"25AF15","hd":"55","v_score":"5.40460374","decile":"7","lat":40.38293083073769,"lng":-111.77398030257906,"phone":"(786) 833-3860","sd":"21","ssbd":"11","lsbd":"School Board Aspen Peaks 7"},{"vid":"1630491","name":"Giovanny Kemmer","party":"Rep","address":"19 S 800 E, American Fork, UT 84003","precinct":"25AF15","hd":"55","v_score":"1.121327652","decile":"3","lat":40.37648455702978,"lng":-111.7763224241397,"phone":"(886) 575-4669","sd":"21","ssbd":"11","lsbd":"School Board Aspen Peaks 7"},{"vid":"6735901e799cd47fce2493ed0117021c4e683547ac0adcf3a5164100e54303f7","name":"Anabella Lehner","party":"Rep","address":"610 E 50 N, American Fork, UT 84003","precinct":"25AF15","hd":"55","v_score":"2.315214949","decile":"5","lat":40.37750725199705,"lng":-111.78230030472002,"phone":"(636) 760-6966","sd":"21","ssbd":"11","lsbd":"School Board Aspen Peaks 7"},{"vid":"1643017","name":"Brycen Feest-Haag","party":"","address":"16 N 700 E, Apt 14, American Fork, UT 84003","precinct":"25AF15","hd":"55","v_score":"5.258122542","decile":"7","lat":40.37709898770964,"lng":-111.77906807142001,"phone":"(309) 032-4325","sd":"21","ssbd":"11","lsbd":"School Board Aspen Peaks 7"},{"vid":"1648685","name":"Dejah Altenwerth","party":"Rep","address":"65 N 630 E, American Fork, UT 84003","precinct":"25AF15","hd":"55","v_score":"10.11789853","decile":"9","lat":40.37795650569949,"lng":-111.78179072998519,"phone":"(837) 536-7817","sd":"21","ssbd":"11","lsbd":"School Board Aspen Peaks 7"},{"vid":"1651675","name":"Micky Kub","party":"Rep","address":"636 E 30 N, American Fork, UT 84003","precinct":"25AF15","hd":"55","v_score":"2.315214949","decile":"5","lat":40.376877905419974,"lng":-111.78142810835203,"phone":"(763) 207-1170","sd":"21","ssbd":"11","lsbd":"School Board Aspen Peaks 7"},{"vid":"b69dfd5405c9cb784bb38376b4d35aab63f4b4a511afb8b4ecf96814666b997b","name":"Adolph Kris DDS","party":"Rep","address":"629 E 30 N, American Fork, UT 84003","precinct":"25AF15","hd":"55","v_score":"5.693042993","decile":"7","lat":40.37731718439117,"lng":-111.78153082102293,"phone":"(744) 129-0487","sd":"21","ssbd":"11","lsbd":"School Board Aspen Peaks 7"},{"vid":"1663309","name":"Ether Watsica","party":"","address":"163 N 700 E, American Fork, UT 84003","precinct":"25AF15","hd":"55","v_score":"9.923865181","decile":"9","lat":40.38004202199661,"lng":-111.779838085568,"phone":"(934) 139-0385","sd":"21","ssbd":"11","lsbd":"School Board Aspen Peaks 7"},{"vid":"1678531","name":"Ms. Denice Aufderhar","party":"Dem","address":"28 N 800 E, American Fork, UT 84003","precinct":"25AF15","hd":"55","v_score":"0","decile":"1","lat":40.37739713124601,"lng":-111.77622806252346,"phone":"(670) 334-2379","sd":"21","ssbd":"11","lsbd":"School Board Aspen Peaks 7"},{"vid":"1684777","name":"Alesha Shanahan DDS","party":"Rep","address":"77 N 630 E, American Fork, UT 84003","precinct":"25AF15","hd":"55","v_score":"9.830961897","decile":"8","lat":40.378107439362644,"lng":-111.7817913882507,"phone":"(168) 616-7332","sd":"21","ssbd":"11","lsbd":"School Board Aspen Peaks 7"},{"vid":"1684778","name":"Dr. Babe Becker","party":"Dem","address":"77 N 630 E, American Fork, UT 84003","precinct":"25AF15","hd":"55","v_score":"9.830961897","decile":"8","lat":40.378107439362644,"lng":-111.7817913882507,"phone":"(308) 132-0072","sd":"21","ssbd":"11","lsbd":"School Board Aspen Peaks 7"},{"vid":"0633ba237c64ba206fa7ef313cfdb7a516f5740be2127e1e48dc0708f8e66113","name":"Dr. Linden Weber Sr.","party":"Rep","address":"124 N 825 E, American Fork, UT 84003","precinct":"25AF15","hd":"55","v_score":"1.46627566","decile":"4","lat":40.37947941134547,"lng":-111.77526333923277,"phone":"(784) 449-7475","sd":"21","ssbd":"11","lsbd":"School Board Aspen Peaks 7"},{"vid":"f3719267f38b9daebc17d13205667f59779850f53bada0152e0e1c86dc329785","name":"Mr. Delvin Donnelly","party":"","address":"208 N 775 E, American Fork, UT 84003","precinct":"25AF15","hd":"55","v_score":"8.347511332","decile":"8","lat":40.38111675651912,"lng":-111.77736607171518,"phone":"(131) 554-2181","sd":"21","ssbd":"11","lsbd":"School Board Aspen Peaks 7"},{"vid":"1735040","name":"Dr. Alvira Rippin","party":"Dem","address":"39 N 825 E, American Fork, UT 84003","precinct":"25AF15","hd":"55","v_score":"0","decile":"1","lat":40.377590028565116,"lng":-111.77581363614944,"phone":"(753) 610-7392","sd":"21","ssbd":"11","lsbd":"School Board Aspen Peaks 7"},{"vid":"1735515","name":"Corbin Toy-Wehner","party":"Rep","address":"36 S 750 E, American Fork, UT 84003","precinct":"25AF15","hd":"55","v_score":"2.744440783","decile":"5","lat":40.37624387818808,"lng":-111.77784164093451,"phone":"(262) 646-9875","sd":"21","ssbd":"11","lsbd":"School Board Aspen Peaks 7"},{"vid":"1759737","name":"Mr. Geno Kshlerin","party":"Rep","address":"16 S 600 E, Apt 1, American Fork, UT 84003","precinct":"25AF15","hd":"55","v_score":"5.40460374","decile":"7","lat":40.37637975209339,"lng":-111.78299899592541,"phone":"(720) 312-7036","sd":"21","ssbd":"11","lsbd":"School Board Aspen Peaks 7"},{"vid":"1760186","name":"Dr. Hollis Jacobson","party":"Rep","address":"717 E 50 N, American Fork, UT 84003","precinct":"25AF15","hd":"55","v_score":"5.687348376","decile":"7","lat":40.37795817420659,"lng":-111.778971485305,"phone":"(453) 164-8286","sd":"21","ssbd":"11","lsbd":"School Board Aspen Peaks 7"},{"vid":"1e0b01b168bad29dc60d24d6ae0ba857990ad848b6ca9977865b4a482067c809","name":"Shandra Ruecker","party":"","address":"647 E 220 N, American Fork, UT 84003","precinct":"25AF15","hd":"55","v_score":"0","decile":"1","lat":40.38135209102886,"lng":-111.78109272144421,"phone":"(126) 505-5878","sd":"21","ssbd":"11","lsbd":"School Board Aspen Peaks 7"},{"vid":"08bcecc842d1edafeb53a30c364503d62554ea9d174dbf75d6eeea7e4198675a","name":"Roxie Yost","party":"","address":"15 S 800 E, American Fork, UT 84003","precinct":"25AF15","hd":"55","v_score":"2.315214949","decile":"5","lat":40.37663314220464,"lng":-111.77615619370363,"phone":"(145) 763-4288","sd":"21","ssbd":"11","lsbd":"School Board Aspen Peaks 7"},{"vid":"9ea5e29664d71d8830ff6d17abb5bb5241804a18d7673446fc6f5d98d5c00373","name":"Rebeca Crona","party":"Dem","address":"264 N 600 E, American Fork, UT 84003","precinct":"25AF15","hd":"55","v_score":"6.884189957","decile":"8","lat":40.3820139211664,"lng":-111.78221988703673,"phone":"(837) 084-9078","sd":"21","ssbd":"11","lsbd":"School Board Aspen Peaks 7"},{"vid":"1785702","name":"Dr. Khloe Stoltenberg DVM","party":"Dem","address":"16 S 750 E, American Fork, UT 84003","precinct":"25AF15","hd":"55","v_score":"3.93832808","decile":"6","lat":40.37652318283319,"lng":-111.7778228961488,"phone":"(670) 386-1530","sd":"21","ssbd":"11","lsbd":"School Board Aspen Peaks 7"},{"vid":"1786973","name":"Shania Bode-Goodwin","party":"Rep","address":"163 N 700 E, American Fork, UT 84003","precinct":"25AF15","hd":"55","v_score":"9.923865181","decile":"9","lat":40.38004202199661,"lng":-111.779838085568,"phone":"(632) 995-4607","sd":"21","ssbd":"11","lsbd":"School Board Aspen Peaks 7"},{"vid":"1817528","name":"Mr. Bluford Schoen","party":"","address":"213 N 900 E, American Fork, UT 84003","precinct":"25AF15","hd":"55","v_score":"7.821996458","decile":"8","lat":40.38136325440756,"lng":-111.7735498570196,"phone":"(330) 431-8716","sd":"21","ssbd":"11","lsbd":"School Board Aspen Peaks 7"},{"vid":"1829829","name":"Brett Turner","party":"Rep","address":"32 N 825 E, American Fork, UT 84003","precinct":"25AF15","hd":"55","v_score":"42.53235191","decile":"10","lat":40.37740566540199,"lng":-111.77528232037007,"phone":"(521) 142-9364","sd":"21","ssbd":"11","lsbd":"School Board Aspen Peaks 7"},{"vid":"1837850","name":"Jazmyne Stehr","party":"","address":"647 E 100 N, American Fork, UT 84003","precinct":"25AF15","hd":"55","v_score":"6.814370645","decile":"8","lat":40.379287159543914,"lng":-111.78139661407695,"phone":"(742) 225-0070","sd":"21","ssbd":"11","lsbd":"School Board Aspen Peaks 7"},{"vid":"1840746","name":"Layton Treutel","party":"","address":"22 S 700 E, Apt 5, American Fork, UT 84003","precinct":"25AF15","hd":"55","v_score":"2.744440783","decile":"5","lat":40.37629111575743,"lng":-111.78001309678898,"phone":"(417) 892-9561","sd":"21","ssbd":"11","lsbd":"School Board Aspen Peaks 7"},{"vid":"1844095","name":"Hassan Schimmel","party":"Dem","address":"846 E 300 N, American Fork, UT 84003","precinct":"25AF15","hd":"55","v_score":"2.315214949","decile":"5","lat":40.3828627002957,"lng":-111.77498644803222,"phone":"(918) 232-1226","sd":"21","ssbd":"11","lsbd":"School Board Aspen Peaks 7"},{"vid":"1865560","name":"Cecil Kling","party":"","address":"44 N 640 E, American Fork, UT 84003","precinct":"25AF15","hd":"55","v_score":"11.26189763","decile":"9","lat":40.37755937978133,"lng":-111.78120408337233,"phone":"(750) 526-2337","sd":"21","ssbd":"11","lsbd":"School Board Aspen Peaks 7"},{"vid":"1875324","name":"Alois Jacobi","party":"Dem","address":"177 N 800 E, American Fork, UT 84003","precinct":"25AF15","hd":"55","v_score":"1.121327652","decile":"3","lat":40.38051415004756,"lng":-111.77683377798793,"phone":"(401) 087-5751","sd":"21","ssbd":"11","lsbd":"School Board Aspen Peaks 7"},{"vid":"28f894020a2b751ecf0a9256fde46e181c109744812f5757c73a94819a7b2a3d","name":"Miss Rosemary Mayer DDS","party":"","address":"610 E 50 N, American Fork, UT 84003","precinct":"25AF15","hd":"55","v_score":"2.315214949","decile":"5","lat":40.37750725199705,"lng":-111.78230030472002,"phone":"(458) 511-8363","sd":"21","ssbd":"11","lsbd":"School Board Aspen Peaks 7"},{"vid":"1887914","name":"Mr. Jaheem Kerluke","party":"Dem","address":"58 N 750 E, American Fork, UT 84003","precinct":"25AF15","hd":"55","v_score":"7.650280567","decile":"8","lat":40.37783442572698,"lng":-111.77805373807729,"phone":"(184) 034-4287","sd":"21","ssbd":"11","lsbd":"School Board Aspen Peaks 7"},{"vid":"1889857","name":"Brycen Rolfson","party":"Dem","address":"194 N 600 E, American Fork, UT 84003","precinct":"25AF15","hd":"55","v_score":"5.546183193","decile":"7","lat":40.38083557314832,"lng":-111.78190926543893,"phone":"(605) 535-5623","sd":"21","ssbd":"11","lsbd":"School Board Aspen Peaks 7"},{"vid":"fb8e7c392a1ed9335089e174875e8f4196c8b5e12cfa1787024eadfa8f2ffa8c","name":"Hernan Stoltenberg V","party":"","address":"52 N 750 E, American Fork, UT 84003","precinct":"25AF15","hd":"55","v_score":"25.1107121","decile":"10","lat":40.37761949834535,"lng":-111.77805325480095,"phone":"(722) 943-3264","sd":"21","ssbd":"11","lsbd":"School Board Aspen Peaks 7"},{"vid":"1895123","name":"Alyssa Schmidt","party":"","address":"124 N 825 E, American Fork, UT 84003","precinct":"25AF15","hd":"55","v_score":"1.193887297","decile":"3","lat":40.37947941134547,"lng":-111.77526333923277,"phone":"(593) 232-3197","sd":"21","ssbd":"11","lsbd":"School Board Aspen Peaks 7"},{"vid":"1896681","name":"Jeane Heathcote DVM","party":"","address":"36 N 800 E, American Fork, UT 84003","precinct":"25AF15","hd":"55","v_score":"2.315214949","decile":"5","lat":40.37771356040567,"lng":-111.77618224185997,"phone":"(954) 122-9673","sd":"21","ssbd":"11","lsbd":"School Board Aspen Peaks 7"},{"vid":"1901501","name":"Dr. Le Witting","party":"Dem","address":"19 N 700 E, Apt 17, American Fork, UT 84003","precinct":"25AF15","hd":"55","v_score":"15.09172736","decile":"9","lat":40.376940373138545,"lng":-111.78085786942789,"phone":"(280) 077-9099","sd":"21","ssbd":"11","lsbd":"School Board Aspen Peaks 7"},{"vid":"1902901","name":"Roseanne Satterfield","party":"Dem","address":"16 N 700 E, Apt 2, American Fork, UT 84003","precinct":"25AF15","hd":"55","v_score":"6.814370645","decile":"8","lat":40.37709898770964,"lng":-111.77906807142001,"phone":"(837) 634-7401","sd":"21","ssbd":"11","lsbd":"School Board Aspen Peaks 7"},{"vid":"1907448","name":"Trish Hudson PhD","party":"","address":"61 N 775 E, American Fork, UT 84003","precinct":"25AF15","hd":"55","v_score":"0","decile":"1","lat":40.37832481137067,"lng":-111.77758796244747,"phone":"(612) 033-3608","sd":"21","ssbd":"11","lsbd":"School Board Aspen Peaks 7"},{"vid":"1914704","name":"Mrs. Belle Gaylord DDS","party":"","address":"42 N 870 E, American Fork, UT 84003","precinct":"25AF15","hd":"55","v_score":"19.29176194","decile":"10","lat":40.3776918439401,"lng":-111.77394306003993,"phone":"(371) 034-2634","sd":"21","ssbd":"11","lsbd":"School Board Aspen Peaks 7"},{"vid":"64217873e5522c549f0f547e7d0a8236f1f07e525eedfcdca8453c396fd51d75","name":"Dr. Wirt Satterfield","party":"","address":"878 E Fleming Dr, American Fork, UT 84003","precinct":"25AF15","hd":"55","v_score":"13.54010118","decile":"9","lat":40.37923019220193,"lng":-111.77416564078818,"phone":"(634) 103-0663","sd":"21","ssbd":"11","lsbd":"School Board Aspen Peaks 7"},{"vid":"1916453","name":"Haywood Stokes-Fay","party":"Rep","address":"14 S 750 E, American Fork, UT 84003","precinct":"25AF15","hd":"55","v_score":"0","decile":"1","lat":40.37663295334424,"lng":-111.7778233415335,"phone":"(236) 054-3021","sd":"21","ssbd":"11","lsbd":"School Board Aspen Peaks 7"},{"vid":"a74d71ed1104f46a27f0890ed81ff3b2173cd3667e90ef85c0f2e662a66ab1e0","name":"Zaiden Hoeger","party":"Dem","address":"675 E 170 N, American Fork, UT 84003","precinct":"25AF15","hd":"55","v_score":"11.687527","decile":"9","lat":40.38049142213173,"lng":-111.78049551796802,"phone":"(468) 263-2191","sd":"21","ssbd":"11","lsbd":"School Board Aspen Peaks 7"},{"vid":"1918990","name":"Dorinda Hauck","party":"","address":"130 N 600 E, American Fork, UT 84003","precinct":"25AF15","hd":"55","v_score":"14.24014515","decile":"9","lat":40.379595061161844,"lng":-111.78210260634695,"phone":"(332) 700-1960","sd":"21","ssbd":"11","lsbd":"School Board Aspen Peaks 7"},{"vid":"1933952","name":"Korey Mayert","party":"","address":"218 N 860 E, American Fork, UT 84003","precinct":"25AF15","hd":"55","v_score":"2.315214949","decile":"5","lat":40.38135054384078,"lng":-111.77397154202434,"phone":"(182) 901-4928","sd":"21","ssbd":"11","lsbd":"School Board Aspen Peaks 7"},{"vid":"1960052","name":"Lafayette Herman","party":"","address":"38 N 640 E, American Fork, UT 84003","precinct":"25AF15","hd":"55","v_score":"11.46976548","decile":"9","lat":40.37734865141116,"lng":-111.78120440137593,"phone":"(363) 382-4263","sd":"21","ssbd":"11","lsbd":"School Board Aspen Peaks 7"},{"vid":"1964429","name":"Phoenix Wisoky","party":"Rep","address":"611 E 30 N, American Fork, UT 84003","precinct":"25AF15","hd":"55","v_score":"4.192796624","decile":"7","lat":40.37725404964554,"lng":-111.78219813662781,"phone":"(491) 678-0609","sd":"21","ssbd":"11","lsbd":"School Board Aspen Peaks 7"},{"vid":"1971356","name":"Clare Ondricka","party":"Dem","address":"152 N 860 E, American Fork, UT 84003","precinct":"25AF15","hd":"55","v_score":"6.550708384","decile":"7","lat":40.380343424500076,"lng":-111.77402242713721,"phone":"(820) 174-8827","sd":"21","ssbd":"11","lsbd":"School Board Aspen Peaks 7"},{"vid":"1973160","name":"Cody Toy","party":"Rep","address":"781 E 10 S, American Fork, UT 84003","precinct":"25AF15","hd":"55","v_score":"3.61989409","decile":"6","lat":40.37687067145153,"lng":-111.77701043465301,"phone":"(786) 570-3442","sd":"21","ssbd":"11","lsbd":"School Board Aspen Peaks 7"},{"vid":"1978638","name":"Regena West","party":"Dem","address":"619 E 30 N, American Fork, UT 84003","precinct":"25AF15","hd":"55","v_score":"2.315214949","decile":"5","lat":40.37725301622733,"lng":-111.78200077326645,"phone":"(215) 873-9465","sd":"21","ssbd":"11","lsbd":"School Board Aspen Peaks 7"},{"vid":"1992428","name":"Janeen Gerlach","party":"Dem","address":"99 N 800 E, American Fork, UT 84003","precinct":"25AF15","hd":"55","v_score":"7.781882349","decile":"8","lat":40.37917333298552,"lng":-111.77676376733713,"phone":"(847) 096-4075","sd":"21","ssbd":"11","lsbd":"School Board Aspen Peaks 7"},{"vid":"1994118","name":"Jeanmarie Hintz-Moore","party":"","address":"182 N 775 E, American Fork, UT 84003","precinct":"25AF15","hd":"55","v_score":"5.258122542","decile":"7","lat":40.38058996320088,"lng":-111.77721291719378,"phone":"(110) 367-5131","sd":"21","ssbd":"11","lsbd":"School Board Aspen Peaks 7"},{"vid":"c103bf24bbde3e084411c8baabdaa68840728b1b008150bea41370e9572f7efc","name":"Colvin Beer","party":"","address":"208 N 775 E, Bsmt, American Fork, UT 84003","precinct":"25AF15","hd":"55","v_score":"13.61621523","decile":"9","lat":40.38111675651912,"lng":-111.77736607171518,"phone":"(771) 834-4394","sd":"21","ssbd":"11","lsbd":"School Board Aspen Peaks 7"},{"vid":"2026841","name":"Dellar Swaniawski","party":"","address":"195 N 775 E, American Fork, UT 84003","precinct":"25AF15","hd":"55","v_score":"25.60455543","decile":"10","lat":40.380738561441895,"lng":-111.7777963379964,"phone":"(772) 472-0246","sd":"21","ssbd":"11","lsbd":"School Board Aspen Peaks 7"},{"vid":"2031581","name":"Mr. Selmer Rath DDS","party":"Dem","address":"16 N 700 E, Apt 20, American Fork, UT 84003","precinct":"25AF15","hd":"55","v_score":"0","decile":"1","lat":40.37709898770964,"lng":-111.77906807142001,"phone":"(223) 573-1397","sd":"21","ssbd":"11","lsbd":"School Board Aspen Peaks 7"},{"vid":"2045118","name":"Robert Daugherty","party":"Rep","address":"33 N 870 E, American Fork, UT 84003","precinct":"25AF15","hd":"55","v_score":"1.121327652","decile":"3","lat":40.37739873772581,"lng":-111.77452120060298,"phone":"(852) 048-1083","sd":"21","ssbd":"11","lsbd":"School Board Aspen Peaks 7"},{"vid":"2052187","name":"Celestia Bogisich","party":"Rep","address":"155 N 825 E, American Fork, UT 84003","precinct":"25AF15","hd":"55","v_score":"6.030048853","decile":"7","lat":40.38019532436237,"lng":-111.77584268574931,"phone":"(197) 043-4339","sd":"21","ssbd":"11","lsbd":"School Board Aspen Peaks 7"},{"vid":"2057358","name":"Jodi Collins","party":"Dem","address":"254 N 860 E, American Fork, UT 84003","precinct":"25AF15","hd":"55","v_score":"0","decile":"1","lat":40.38196529764464,"lng":-111.77396912609518,"phone":"(516) 620-8817","sd":"21","ssbd":"11","lsbd":"School Board Aspen Peaks 7"},{"vid":"fe0ac78ee1fb5b7b9725f13744bd15bc62d1a82ae8a1c8e08cd96d066895abb6","name":"Ennis Zboncak","party":"","address":"160 N 800 E, American Fork, UT 84003","precinct":"25AF15","hd":"55","v_score":"13.46861423","decile":"9","lat":40.38007304043728,"lng":-111.77630220604374,"phone":"(775) 485-5077","sd":"21","ssbd":"11","lsbd":"School Board Aspen Peaks 7"},{"vid":"7b99a7ad6ec37be7f4ed51deb8e0cc17252409886aaf0976f740dbdc8bc15058","name":"Dione Flatley DVM","party":"","address":"675 E 170 N, American Fork, UT 84003","precinct":"25AF15","hd":"55","v_score":"5.331806201","decile":"7","lat":40.38049142213173,"lng":-111.78049551796802,"phone":"(898) 001-6362","sd":"21","ssbd":"11","lsbd":"School Board Aspen Peaks 7"},{"vid":"2073089","name":"Cassidy Jenkins","party":"","address":"196 N 860 E, American Fork, UT 84003","precinct":"25AF15","hd":"55","v_score":"1.193887297","decile":"3","lat":40.38104318974343,"lng":-111.77396733233924,"phone":"(949) 372-1015","sd":"21","ssbd":"11","lsbd":"School Board Aspen Peaks 7"},{"vid":"2073178","name":"Vesta Corwin MD","party":"","address":"165 N 860 E, American Fork, UT 84003","precinct":"25AF15","hd":"55","v_score":"2.315214949","decile":"5","lat":40.38070155282143,"lng":-111.77476672596559,"phone":"(894) 013-1611","sd":"21","ssbd":"11","lsbd":"School Board Aspen Peaks 7"},{"vid":"dc017ebd8ecebea46f2cd9097665f8e1c33af573119d0ce51ca493ca7270d6e5","name":"Kayson Dickinson","party":"","address":"45 N 900 E, American Fork, UT 84003","precinct":"25AF15","hd":"55","v_score":"23.36528826","decile":"10","lat":40.37778062916136,"lng":-111.77356521318039,"phone":"(406) 148-7483","sd":"21","ssbd":"11","lsbd":"School Board Aspen Peaks 7"},{"vid":"2108859","name":"Dr. Dimitri Schultz","party":"Rep","address":"894 E 300 N, American Fork, UT 84003","precinct":"25AF15","hd":"55","v_score":"4.283276088","decile":"7","lat":40.3829770497571,"lng":-111.77341529139173,"phone":"(831) 424-2245","sd":"21","ssbd":"11","lsbd":"School Board Aspen Peaks 7"},{"vid":"2112125","name":"Dr. Consuela Wuckert","party":"Rep","address":"270 N 700 E, American Fork, UT 84003","precinct":"25AF15","hd":"55","v_score":"6.724398202","decile":"8","lat":40.38225773602048,"lng":-111.77924242877013,"phone":"(519) 334-9083","sd":"21","ssbd":"11","lsbd":"School Board Aspen Peaks 7"},{"vid":"2114576","name":"Mr. Bud Kertzmann IV","party":"Dem","address":"33 N 870 E, American Fork, UT 84003","precinct":"25AF15","hd":"55","v_score":"0","decile":"1","lat":40.37739873772581,"lng":-111.77452120060298,"phone":"(898) 221-5895","sd":"21","ssbd":"11","lsbd":"School Board Aspen Peaks 7"},{"vid":"2117065","name":"Donta Hand","party":"Dem","address":"84 N 600 E, American Fork, UT 84003","precinct":"25AF15","hd":"55","v_score":"2.587603312","decile":"5","lat":40.378355022747265,"lng":-111.7820568569237,"phone":"(829) 753-2802","sd":"21","ssbd":"11","lsbd":"School Board Aspen Peaks 7"},{"vid":"2120726","name":"Ms. Lina Runte MD","party":"","address":"700 E 300 N, American Fork, UT 84003","precinct":"25AF15","hd":"55","v_score":"2.660162957","decile":"5","lat":40.38294006591181,"lng":-111.77919360597606,"phone":"(560) 104-5244","sd":"21","ssbd":"11","lsbd":"School Board Aspen Peaks 7"},{"vid":"3c167b5644bd862b06c96cd2fe4bfc874116d9db20e503462795976b13ea90bd","name":"Izetta Wisozk","party":"Dem","address":"161 N 670 E, American Fork, UT 84003","precinct":"25AF15","hd":"55","v_score":"0","decile":"1","lat":40.379966906286235,"lng":-111.78107234058501,"phone":"(648) 500-5936","sd":"21","ssbd":"11","lsbd":"School Board Aspen Peaks 7"},{"vid":"bc563c5ad386000a353b37319ace54772f68c126bc61e094e12d4bdf9c78e0bf","name":"Ples Torphy","party":"Dem","address":"79 N 670 E, American Fork, UT 84003","precinct":"25AF15","hd":"55","v_score":"13.90948566","decile":"9","lat":40.37816017086918,"lng":-111.78099645315876,"phone":"(774) 407-0546","sd":"21","ssbd":"11","lsbd":"School Board Aspen Peaks 7"},{"vid":"2153578","name":"Carmel Gislason MD","party":"","address":"196 N 860 E, American Fork, UT 84003","precinct":"25AF15","hd":"55","v_score":"2.315214949","decile":"5","lat":40.38104318974343,"lng":-111.77396733233924,"phone":"(846) 619-0973","sd":"21","ssbd":"11","lsbd":"School Board Aspen Peaks 7"},{"vid":"05717d7017dd0fce898af3cb723a273e40833fc610eeb5fa31fa2f3eb10b9cde","name":"Mr. Jair Hermann Sr.","party":"","address":"623 E 30 N, American Fork, UT 84003","precinct":"25AF15","hd":"55","v_score":"2.587603312","decile":"5","lat":40.377318218492746,"lng":-111.78172818438432,"phone":"(556) 112-2264","sd":"21","ssbd":"11","lsbd":"School Board Aspen Peaks 7"},{"vid":"ee4197ddbc2c76f24189eabdec59dd6fa3c2140cb286ee2a984f106498098215","name":"Kennth Lynch","party":"Rep","address":"98 N 600 E, American Fork, UT 84003","precinct":"25AF15","hd":"55","v_score":"4.424855541","decile":"7","lat":40.37887483646767,"lng":-111.78233298332337,"phone":"(426) 060-3237","sd":"21","ssbd":"11","lsbd":"School Board Aspen Peaks 7"},{"vid":"2177836","name":"Miss Shirl Ebert PhD","party":"","address":"894 E 300 N, American Fork, UT 84003","precinct":"25AF15","hd":"55","v_score":"2.744440783","decile":"5","lat":40.3829770497571,"lng":-111.77341529139173,"phone":"(156) 256-6579","sd":"21","ssbd":"11","lsbd":"School Board Aspen Peaks 7"},{"vid":"2180904","name":"Gerry Bechtelar MD","party":"Dem","address":"798 E 30 N, American Fork, UT 84003","precinct":"25AF15","hd":"55","v_score":"2.315214949","decile":"5","lat":40.37735831316649,"lng":-111.77640034184131,"phone":"(847) 948-7705","sd":"21","ssbd":"11","lsbd":"School Board Aspen Peaks 7"},{"vid":"2196077","name":"Georgette Murazik-Schamberger","party":"Rep","address":"639 E Main St, American Fork, UT 84003","precinct":"25AF15","hd":"55","v_score":"0","decile":"1","lat":40.37664177533878,"lng":-111.78142557405491,"phone":"(704) 025-1119","sd":"21","ssbd":"11","lsbd":"School Board Aspen Peaks 7"},{"vid":"66084397ab0dc22959f491e03bd6ec327589d233c1ae71db15e07615530c7f57","name":"Velia Satterfield-Champlin","party":"Rep","address":"792 E 30 N, American Fork, UT 84003","precinct":"25AF15","hd":"55","v_score":"0","decile":"1","lat":40.37730642731568,"lng":-111.77672726106161,"phone":"(445) 347-7671","sd":"21","ssbd":"11","lsbd":"School Board Aspen Peaks 7"},{"vid":"2213318","name":"Meda Gorczany-Abernathy","party":"Rep","address":"16 N 700 E, Apt 24, American Fork, UT 84003","precinct":"25AF15","hd":"55","v_score":"1.193887297","decile":"3","lat":40.37709898770964,"lng":-111.77906807142001,"phone":"(405) 822-3506","sd":"21","ssbd":"11","lsbd":"School Board Aspen Peaks 7"},{"vid":"243421fc0fa1b98fd84e124e523702a1ac736803d1ee41e77051fd9d5a31fabd","name":"Mr. Ole Lemke III","party":"Rep","address":"72 N 825 E, American Fork, UT 84003","precinct":"25AF15","hd":"55","v_score":"6.636485342","decile":"7","lat":40.37858596499888,"lng":-111.77520852504517,"phone":"(745) 944-7743","sd":"21","ssbd":"11","lsbd":"School Board Aspen Peaks 7"},{"vid":"dd61980ccc49a4d5e2bd893ca2485f167fd6b1fd1f1fc3c6a8f445af5fc0af4e","name":"Carissa Kihn","party":"Dem","address":"610 E 50 N, American Fork, UT 84003","precinct":"25AF15","hd":"55","v_score":"1.193887297","decile":"3","lat":40.37750725199705,"lng":-111.78230030472002,"phone":"(865) 133-3554","sd":"21","ssbd":"11","lsbd":"School Board Aspen Peaks 7"},{"vid":"d9d74e05e13b8decda6f10af30e4d11454c638323589f8728d2a06f39c29ce5c","name":"Hadley McLaughlin","party":"","address":"152 N 860 E, American Fork, UT 84003","precinct":"25AF15","hd":"55","v_score":"1.193887297","decile":"3","lat":40.380343424500076,"lng":-111.77402242713721,"phone":"(766) 103-1307","sd":"21","ssbd":"11","lsbd":"School Board Aspen Peaks 7"},{"vid":"fce20d3395b17a2dd686c553ca4802a217ff303cc02776c1d9bb239a64ac5975","name":"Arturo Koss","party":"","address":"21 S 750 E, American Fork, UT 84003","precinct":"25AF15","hd":"55","v_score":"1.193887297","decile":"3","lat":40.37635366503092,"lng":-111.77732701892543,"phone":"(346) 745-0624","sd":"21","ssbd":"11","lsbd":"School Board Aspen Peaks 7"},{"vid":"fc006dc1c4e58d74cc659862c1ab46c097bd251352a5841fef094d78eaaccc48","name":"Dona Schiller","party":"Rep","address":"131 N 775 E, American Fork, UT 84003","precinct":"25AF15","hd":"55","v_score":"20.18299619","decile":"10","lat":40.37969695274968,"lng":-111.7775859241701,"phone":"(528) 918-5314","sd":"21","ssbd":"11","lsbd":"School Board Aspen Peaks 7"},{"vid":"62039532385102d35598a90d94459a92e392732d4a5fb689989bbb0f48c0f782","name":"Barnie Fadel","party":"Rep","address":"16 N 700 E, Apt 5, American Fork, UT 84003","precinct":"25AF15","hd":"55","v_score":"1.121327652","decile":"3","lat":40.37709898770964,"lng":-111.77906807142001,"phone":"(579) 900-1297","sd":"21","ssbd":"11","lsbd":"School Board Aspen Peaks 7"},{"vid":"7edf87f6f7de0a12ca358e406257060b070d665d2eb8c763aaafcd01c28dd15c","name":"Mrs. Tamekia Kub","party":"Dem","address":"177 N 800 E, American Fork, UT 84003","precinct":"25AF15","hd":"55","v_score":"6.814370645","decile":"8","lat":40.38051415004756,"lng":-111.77683377798793,"phone":"(464) 079-6437","sd":"21","ssbd":"11","lsbd":"School Board Aspen Peaks 7"},{"vid":"892bae1bff5afd3e489bc4c5154e93a0f6cec2bb8ead403eaa7a23b2e1c6863f","name":"Angella Howe","party":"","address":"180 N 825 E, American Fork, UT 84003","precinct":"25AF15","hd":"55","v_score":"2.817000428","decile":"6","lat":40.380677905722294,"lng":-111.7752148170251,"phone":"(911) 128-2817","sd":"21","ssbd":"11","lsbd":"School Board Aspen Peaks 7"},{"vid":"e2b5da8835f39505418ddef47671662f1a3bdd16a2cc89774dd68cbc47c22bd4","name":"Dr. Charline Schmeler","party":"Dem","address":"844 E Fleming Dr, Apt C, American Fork, UT 84003","precinct":"25AF15","hd":"55","v_score":"13.59500114","decile":"9","lat":40.379256085205654,"lng":-111.77488580445804,"phone":"(801) 726-3721","sd":"21","ssbd":"11","lsbd":"School Board Aspen Peaks 7"},{"vid":"2264143","name":"Dr. Delora Kozey","party":"Rep","address":"717 E 50 N, American Fork, UT 84003","precinct":"25AF15","hd":"55","v_score":"1.121327652","decile":"3","lat":40.37795817420659,"lng":-111.778971485305,"phone":"(305) 655-7458","sd":"21","ssbd":"11","lsbd":"School Board Aspen Peaks 7"},{"vid":"9cb9f94c07e19ca0c40a1ada571f3fca8f6c8365bab005d843be2e4259691601","name":"Ms. Pat Carroll DVM","party":"Dem","address":"894 E 300 N, American Fork, UT 84003","precinct":"25AF15","hd":"55","v_score":"2.817000428","decile":"6","lat":40.3829770497571,"lng":-111.77341529139173,"phone":"(954) 637-5106","sd":"21","ssbd":"11","lsbd":"School Board Aspen Peaks 7"},{"vid":"848076ce33bb9109cdcbe16692fdffe4d639961ef1ac20809063ee62396e7d9c","name":"Mr. Amarion Ankunding","party":"Dem","address":"285 N 860 E, American Fork, UT 84003","precinct":"25AF15","hd":"55","v_score":"1.193887297","decile":"3","lat":40.382586318847174,"lng":-111.77459409083562,"phone":"(510) 778-7938","sd":"21","ssbd":"11","lsbd":"School Board Aspen Peaks 7"},{"vid":"a877017e85c7e24ad46e7890b5dc6c6983d7e0f650a348e42755ee6d7f090270","name":"Edie Aufderhar","party":"Rep","address":"47 N 870 E, American Fork, UT 84003","precinct":"25AF15","hd":"55","v_score":"2.817000428","decile":"6","lat":40.377726158333914,"lng":-111.7746213719821,"phone":"(349) 930-1752","sd":"21","ssbd":"11","lsbd":"School Board Aspen Peaks 7"},{"vid":"eadaff01e64d2cafb6d96b2b466b6e9216b39af850643d879e1a9ce71c45e052","name":"Roslyn Skiles","party":"","address":"886 E 30 N, American Fork, UT 84003","precinct":"25AF15","hd":"55","v_score":"3.93832808","decile":"6","lat":40.3770557017517,"lng":-111.77374637899894,"phone":"(499) 235-0725","sd":"21","ssbd":"11","lsbd":"School Board Aspen Peaks 7"},{"vid":"46f9c57d229b87ebbc1542ea536c4246763d1bbfdcae82533459d4eb4b0184ad","name":"Luda Kozey","party":"","address":"16 S 600 E, Apt 3, American Fork, UT 84003","precinct":"25AF15","hd":"55","v_score":"0","decile":"1","lat":40.37637975209339,"lng":-111.78299899592541,"phone":"(252) 126-7270","sd":"21","ssbd":"11","lsbd":"School Board Aspen Peaks 7"},{"vid":"6a812b18cbb0717c828421d6fb58eb846b414994c231a94c446b1457264487c8","name":"Kali Jakubowski-Jacobi","party":"","address":"626 E 50 N, American Fork, UT 84003","precinct":"25AF15","hd":"55","v_score":"0","decile":"1","lat":40.37756662368222,"lng":-111.78163469371829,"phone":"(550) 675-6396","sd":"21","ssbd":"11","lsbd":"School Board Aspen Peaks 7"},{"vid":"9b25b7dbd5b45b49395394a0c570c5a6fc7669194edb66a6c4d6c7b9ea06063d","name":"Cassidy Muller","party":"Dem","address":"37 S 800 E, American Fork, UT 84003","precinct":"25AF15","hd":"55","v_score":"2.817000428","decile":"6","lat":40.376201860619446,"lng":-111.77633710656406,"phone":"(809) 179-4128","sd":"21","ssbd":"11","lsbd":"School Board Aspen Peaks 7"},{"vid":"2324010","name":"Kamari Ziemann","party":"","address":"675 E 170 N, American Fork, UT 84003","precinct":"25AF15","hd":"55","v_score":"7.47704845","decile":"8","lat":40.38049142213173,"lng":-111.78049551796802,"phone":"(625) 124-8778","sd":"21","ssbd":"11","lsbd":"School Board Aspen Peaks 7"},{"vid":"2337103","name":"Shelly Altenwerth-Schroeder","party":"Rep","address":"116 N 670 E, American Fork, UT 84003","precinct":"25AF15","hd":"55","v_score":"2.315214949","decile":"5","lat":40.3792395672746,"lng":-111.78039280495776,"phone":"(650) 273-8844","sd":"21","ssbd":"11","lsbd":"School Board Aspen Peaks 7"},{"vid":"2338493","name":"Mrs. Roxana Mertz","party":"","address":"54 N 870 E, American Fork, UT 84003","precinct":"25AF15","hd":"55","v_score":"1.121327652","decile":"3","lat":40.37798822156086,"lng":-111.7739453148113,"phone":"(117) 995-3872","sd":"21","ssbd":"11","lsbd":"School Board Aspen Peaks 7"},{"vid":"2340059","name":"Dr. Saul Emard V","party":"Dem","address":"129 N 670 E, American Fork, UT 84003","precinct":"25AF15","hd":"55","v_score":"11.02844566","decile":"9","lat":40.37942377448139,"lng":-111.78097069854623,"phone":"(724) 966-7598","sd":"21","ssbd":"11","lsbd":"School Board Aspen Peaks 7"},{"vid":"2352874","name":"Myrl Marquardt","party":"","address":"209 N 775 E, American Fork, UT 84003","precinct":"25AF15","hd":"55","v_score":"6.954919332","decile":"8","lat":40.3810151715896,"lng":-111.7779717917275,"phone":"(562) 030-7857","sd":"21","ssbd":"11","lsbd":"School Board Aspen Peaks 7"},{"vid":"2357051","name":"Kwame Nitzsche","party":"Dem","address":"58 N 750 E, American Fork, UT 84003","precinct":"25AF15","hd":"55","v_score":"8.15240309","decile":"8","lat":40.37783442572698,"lng":-111.77805373807729,"phone":"(693) 985-9471","sd":"21","ssbd":"11","lsbd":"School Board Aspen Peaks 7"},{"vid":"2359515","name":"Gerhardt Schmitt-Stark","party":"","address":"129 N 670 E, American Fork, UT 84003","precinct":"25AF15","hd":"55","v_score":"11.02844566","decile":"9","lat":40.37942377448139,"lng":-111.78097069854623,"phone":"(418) 530-7251","sd":"21","ssbd":"11","lsbd":"School Board Aspen Peaks 7"},{"vid":"2366290","name":"Kali Davis","party":"Dem","address":"6 S 900 E, American Fork, UT 84003","precinct":"25AF15","hd":"55","v_score":"1.121327652","decile":"3","lat":40.37672536953757,"lng":-111.77353085223956,"phone":"(329) 211-8889","sd":"21","ssbd":"11","lsbd":"School Board Aspen Peaks 7"},{"vid":"2372069","name":"Joanie Jacobson","party":"Rep","address":"795 E 10 S, American Fork, UT 84003","precinct":"25AF15","hd":"55","v_score":"3.93832808","decile":"6","lat":40.377024821602156,"lng":-111.77679270716287,"phone":"(759) 116-2386","sd":"21","ssbd":"11","lsbd":"School Board Aspen Peaks 7"},{"vid":"2387194","name":"Ms. Carma Brakus DVM","party":"Dem","address":"208 N 775 E, American Fork, UT 84003","precinct":"25AF15","hd":"55","v_score":"3.93832808","decile":"6","lat":40.38111675651912,"lng":-111.77736607171518,"phone":"(387) 214-0270","sd":"21","ssbd":"11","lsbd":"School Board Aspen Peaks 7"},{"vid":"2393310","name":"Sabina Abshire","party":"Dem","address":"36 S 750 E, American Fork, UT 84003","precinct":"25AF15","hd":"55","v_score":"2.744440783","decile":"5","lat":40.37624387818808,"lng":-111.77784164093451,"phone":"(197) 170-1697","sd":"21","ssbd":"11","lsbd":"School Board Aspen Peaks 7"},{"vid":"2395695","name":"Donita Renner PhD","party":"Dem","address":"132 N 670 E, American Fork, UT 84003","precinct":"25AF15","hd":"55","v_score":"1.121327652","decile":"3","lat":40.37950659325094,"lng":-111.78039389784814,"phone":"(714) 303-4401","sd":"21","ssbd":"11","lsbd":"School Board Aspen Peaks 7"},{"vid":"2397913","name":"Delois Hagenes MD","party":"","address":"16 N 700 E, Apt 2, American Fork, UT 84003","precinct":"25AF15","hd":"55","v_score":"5.191257514","decile":"7","lat":40.37709898770964,"lng":-111.77906807142001,"phone":"(458) 499-1183","sd":"21","ssbd":"11","lsbd":"School Board Aspen Peaks 7"},{"vid":"2402231","name":"Belva Auer","party":"Rep","address":"148 N 670 E, American Fork, UT 84003","precinct":"25AF15","hd":"55","v_score":"1.121327652","decile":"3","lat":40.379773639656214,"lng":-111.78039499379277,"phone":"(820) 571-5592","sd":"21","ssbd":"11","lsbd":"School Board Aspen Peaks 7"},{"vid":"2408476","name":"Mr. Denton Hand Jr.","party":"","address":"230 N 800 E, American Fork, UT 84003","precinct":"25AF15","hd":"55","v_score":"0","decile":"1","lat":40.38163872505652,"lng":-111.77645547706477,"phone":"(147) 697-5164","sd":"21","ssbd":"11","lsbd":"School Board Aspen Peaks 7"},{"vid":"2433334","name":"Erastus Schaden","party":"Rep","address":"131 N 775 E, American Fork, UT 84003","precinct":"25AF15","hd":"55","v_score":"20.18299619","decile":"10","lat":40.37969695274968,"lng":-111.7775859241701,"phone":"(645) 771-7488","sd":"21","ssbd":"11","lsbd":"School Board Aspen Peaks 7"},{"vid":"2435546","name":"Jamya Rutherford","party":"Dem","address":"615 E 30 N, American Fork, UT 84003","precinct":"25AF15","hd":"55","v_score":"1.121327652","decile":"3","lat":40.377253544608095,"lng":-111.78210044543954,"phone":"(538) 671-1314","sd":"21","ssbd":"11","lsbd":"School Board Aspen Peaks 7"},{"vid":"2441823","name":"Dr. Raul Hirthe","party":"Dem","address":"623 E 30 N, American Fork, UT 84003","precinct":"25AF15","hd":"55","v_score":"6.814370645","decile":"8","lat":40.377318218492746,"lng":-111.78172818438432,"phone":"(755) 077-8717","sd":"21","ssbd":"11","lsbd":"School Board Aspen Peaks 7"},{"vid":"2445995","name":"Mr. Odis Satterfield III","party":"Dem","address":"16 S 600 E, Apt 2, American Fork, UT 84003","precinct":"25AF15","hd":"55","v_score":"3.781490609","decile":"6","lat":40.37637975209339,"lng":-111.78299899592541,"phone":"(310) 141-2243","sd":"21","ssbd":"11","lsbd":"School Board Aspen Peaks 7"},{"vid":"2447940","name":"Honora Homenick","party":"Dem","address":"129 N 670 E, American Fork, UT 84003","precinct":"25AF15","hd":"55","v_score":"8.15240309","decile":"8","lat":40.37942377448139,"lng":-111.78097069854623,"phone":"(680) 200-2916","sd":"21","ssbd":"11","lsbd":"School Board Aspen Peaks 7"},{"vid":"2448482","name":"Dr. Tamia Kling","party":"Dem","address":"632 E 30 N, American Fork, UT 84003","precinct":"25AF15","hd":"55","v_score":"1.121327652","decile":"3","lat":40.37699607092997,"lng":-111.78152632271913,"phone":"(152) 306-9090","sd":"21","ssbd":"11","lsbd":"School Board Aspen Peaks 7"},{"vid":"2458004","name":"Dr. Delle Crona","party":"Dem","address":"623 E 30 N, American Fork, UT 84003","precinct":"25AF15","hd":"55","v_score":"6.814370645","decile":"8","lat":40.377318218492746,"lng":-111.78172818438432,"phone":"(379) 005-3415","sd":"21","ssbd":"11","lsbd":"School Board Aspen Peaks 7"},{"vid":"2459631","name":"Liddie Bode","party":"","address":"672 E 100 N, American Fork, UT 84003","precinct":"25AF15","hd":"55","v_score":"0","decile":"1","lat":40.37884408027065,"lng":-111.78062552534952,"phone":"(430) 743-0288","sd":"21","ssbd":"11","lsbd":"School Board Aspen Peaks 7"},{"vid":"2464574","name":"Granville Kozey","party":"Rep","address":"16 N 700 E, Apt 17, American Fork, UT 84003","precinct":"25AF15","hd":"55","v_score":"1.193887297","decile":"3","lat":40.37709898770964,"lng":-111.77906807142001,"phone":"(699) 428-9956","sd":"21","ssbd":"11","lsbd":"School Board Aspen Peaks 7"},{"vid":"2476654","name":"Krystin Collier","party":"Rep","address":"21 S 750 E, American Fork, UT 84003","precinct":"25AF15","hd":"55","v_score":"2.817000428","decile":"6","lat":40.37635366503092,"lng":-111.77732701892543,"phone":"(373) 735-7246","sd":"21","ssbd":"11","lsbd":"School Board Aspen Peaks 7"},{"vid":"2476659","name":"Ricki Johns","party":"","address":"96 N 825 E, American Fork, UT 84003","precinct":"25AF15","hd":"55","v_score":"1.193887297","decile":"3","lat":40.379118294414134,"lng":-111.77514287867949,"phone":"(845) 208-8414","sd":"21","ssbd":"11","lsbd":"School Board Aspen Peaks 7"},{"vid":"2479069","name":"Marge Kovacek","party":"Dem","address":"180 N 825 E, American Fork, UT 84003","precinct":"25AF15","hd":"55","v_score":"1.193887297","decile":"3","lat":40.380677905722294,"lng":-111.7752148170251,"phone":"(333) 120-3476","sd":"21","ssbd":"11","lsbd":"School Board Aspen Peaks 7"},{"vid":"2479250","name":"Ms. Jaeda Abshire","party":"","address":"147 N 700 E, American Fork, UT 84003","precinct":"25AF15","hd":"55","v_score":"0","decile":"1","lat":40.37977475493972,"lng":-111.77992934685503,"phone":"(999) 224-3225","sd":"21","ssbd":"11","lsbd":"School Board Aspen Peaks 7"},{"vid":"2484598","name":"Jasmin Kilback","party":"Dem","address":"231 N 825 E, American Fork, UT 84003","precinct":"25AF15","hd":"55","v_score":"10.14056997","decile":"9","lat":40.38193336309985,"lng":-111.77600735545762,"phone":"(254) 633-9096","sd":"21","ssbd":"11","lsbd":"School Board Aspen Peaks 7"},{"vid":"2497789","name":"Merle Fritsch DDS","party":"Dem","address":"47 N 870 E, American Fork, UT 84003","precinct":"25AF15","hd":"55","v_score":"0","decile":"1","lat":40.377726158333914,"lng":-111.7746213719821,"phone":"(541) 964-5029","sd":"21","ssbd":"11","lsbd":"School Board Aspen Peaks 7"},{"vid":"2501376","name":"Soloman Dach","party":"","address":"645 E 100 N, American Fork, UT 84003","precinct":"25AF15","hd":"55","v_score":"0","decile":"1","lat":40.37928768030529,"lng":-111.78154948434144,"phone":"(263) 711-7226","sd":"21","ssbd":"11","lsbd":"School Board Aspen Peaks 7"},{"vid":"2501377","name":"Blanchie Littel DVM","party":"Rep","address":"645 E 100 N, American Fork, UT 84003","precinct":"25AF15","hd":"55","v_score":"0","decile":"1","lat":40.37928768030529,"lng":-111.78154948434144,"phone":"(383) 996-0479","sd":"21","ssbd":"11","lsbd":"School Board Aspen Peaks 7"},{"vid":"2502218","name":"John Cassin","party":"Rep","address":"610 E 50 N, American Fork, UT 84003","precinct":"25AF15","hd":"55","v_score":"1.193887297","decile":"3","lat":40.37750725199705,"lng":-111.78230030472002,"phone":"(193) 744-9099","sd":"21","ssbd":"11","lsbd":"School Board Aspen Peaks 7"},{"vid":"2503230","name":"Dr. Devan Parker IV","party":"","address":"885 E 50 S, American Fork, UT 84003","precinct":"25AF15","hd":"55","v_score":"4.905839784","decile":"7","lat":40.37592881834228,"lng":-111.77363103232608,"phone":"(341) 817-0303","sd":"21","ssbd":"11","lsbd":"School Board Aspen Peaks 7"},{"vid":"2505939","name":"Dr. Latricia Zboncak","party":"Dem","address":"56 N 775 E, American Fork, UT 84003","precinct":"25AF15","hd":"55","v_score":"8.875197818","decile":"8","lat":40.378239548002796,"lng":-111.77706419256451,"phone":"(158) 603-4641","sd":"21","ssbd":"11","lsbd":"School Board Aspen Peaks 7"},{"vid":"2513019","name":"Mr. Larue Little","party":"","address":"130 N 600 E, American Fork, UT 84003","precinct":"25AF15","hd":"55","v_score":"2.817000428","decile":"6","lat":40.379595061161844,"lng":-111.78210260634695,"phone":"(237) 961-1091","sd":"21","ssbd":"11","lsbd":"School Board Aspen Peaks 7"},{"vid":"2518382","name":"Gerald Wintheiser","party":"","address":"16 N 700 E, Apt 20, American Fork, UT 84003","precinct":"25AF15","hd":"55","v_score":"3.016591252","decile":"6","lat":40.37709898770964,"lng":-111.77906807142001,"phone":"(651) 311-8895","sd":"21","ssbd":"11","lsbd":"School Board Aspen Peaks 7"},{"vid":"2518482","name":"Gaylen King","party":"","address":"624 E 300 N, American Fork, UT 84003","precinct":"25AF15","hd":"55","v_score":"1.193887297","decile":"4","lat":40.38279578111835,"lng":-111.78170117080604,"phone":"(603) 176-9820","sd":"21","ssbd":"11","lsbd":"School Board Aspen Peaks 7"},{"vid":"2526201","name":"Reggie Hermann II","party":"Rep","address":"97 N 750 E, American Fork, UT 84003","precinct":"25AF15","hd":"55","v_score":"0","decile":"1","lat":40.37914244810397,"lng":-111.7786146949258,"phone":"(393) 271-8758","sd":"21","ssbd":"11","lsbd":"School Board Aspen Peaks 7"},{"vid":"2532976","name":"Irine Keebler","party":"","address":"145 N 900 E, American Fork, UT 84003","precinct":"25AF15","hd":"55","v_score":"0","decile":"1","lat":40.38032527537402,"lng":-111.77354819417812,"phone":"(434) 602-8772","sd":"21","ssbd":"11","lsbd":"School Board Aspen Peaks 7"},{"vid":"2533851","name":"Kayla Shanahan","party":"Dem","address":"743 E 10 S, American Fork, UT 84003","precinct":"25AF15","hd":"55","v_score":"14.13760315","decile":"9","lat":40.37683098320903,"lng":-111.77791250705098,"phone":"(873) 320-5134","sd":"21","ssbd":"11","lsbd":"School Board Aspen Peaks 7"},{"vid":"2537438","name":"Enrique Rodriguez","party":"Dem","address":"629 E Main St, American Fork, UT 84003","precinct":"25AF15","hd":"55","v_score":"0","decile":"1","lat":40.376669256403204,"lng":-111.78188913942498,"phone":"(794) 600-3678","sd":"21","ssbd":"11","lsbd":"School Board Aspen Peaks 7"},{"vid":"2545602","name":"Alda Crist","party":"Rep","address":"37 N 800 E, American Fork, UT 84003","precinct":"25AF15","hd":"55","v_score":"0","decile":"1","lat":40.3776641765527,"lng":-111.77664686801137,"phone":"(754) 381-2051","sd":"21","ssbd":"11","lsbd":"School Board Aspen Peaks 7"},{"vid":"2547314","name":"Lone Rau DDS","party":"Dem","address":"16 N 700 E, Apt 6, American Fork, UT 84003","precinct":"25AF15","hd":"55","v_score":"0","decile":"1","lat":40.37709898770964,"lng":-111.77906807142001,"phone":"(515) 939-1975","sd":"21","ssbd":"11","lsbd":"School Board Aspen Peaks 7"},{"vid":"2550881","name":"Floy Ruecker DVM","party":"Dem","address":"47 N 870 E, American Fork, UT 84003","precinct":"25AF15","hd":"55","v_score":"2.426006793","decile":"5","lat":40.377726158333914,"lng":-111.7746213719821,"phone":"(691) 274-9586","sd":"21","ssbd":"11","lsbd":"School Board Aspen Peaks 7"},{"vid":"2559480","name":"Lincoln Armstrong","party":"Dem","address":"684 E 100 N, American Fork, UT 84003","precinct":"25AF15","hd":"55","v_score":"2.817000428","decile":"6","lat":40.37880110909137,"lng":-111.78006973987956,"phone":"(657) 207-5718","sd":"21","ssbd":"11","lsbd":"School Board Aspen Peaks 7"},{"vid":"2559495","name":"Mr. Adrien Krajcik PhD","party":"Rep","address":"165 N 800 E, American Fork, UT 84003","precinct":"25AF15","hd":"55","v_score":"1.193887297","decile":"4","lat":40.38010825881975,"lng":-111.77667809845252,"phone":"(730) 456-3228","sd":"21","ssbd":"11","lsbd":"School Board Aspen Peaks 7"},{"vid":"2593447","name":"Krysten Christiansen DVM","party":"","address":"622 E 30 N, American Fork, UT 84003","precinct":"25AF15","hd":"55","v_score":"0","decile":"1","lat":40.37688019178784,"lng":-111.78173604723818,"phone":"(851) 323-0602","sd":"21","ssbd":"11","lsbd":"School Board Aspen Peaks 7"},{"vid":"2593840","name":"Mr. Randle Armstrong III","party":"Dem","address":"16 N 700 E, Apt 4, American Fork, UT 84003","precinct":"25AF15","hd":"55","v_score":"1.193887297","decile":"4","lat":40.37709898770964,"lng":-111.77906807142001,"phone":"(190) 943-8315","sd":"21","ssbd":"11","lsbd":"School Board Aspen Peaks 7"},{"vid":"2606339","name":"Merilyn Predovic","party":"","address":"675 E 170 N, American Fork, UT 84003","precinct":"25AF15","hd":"55","v_score":"0","decile":"1","lat":40.38049142213173,"lng":-111.78049551796802,"phone":"(301) 468-2550","sd":"21","ssbd":"11","lsbd":"School Board Aspen Peaks 7"},{"vid":"2615824","name":"Mr. Kelton Hartmann DDS","party":"Dem","address":"34 N 640 E, American Fork, UT 84003","precinct":"25AF15","hd":"55","v_score":"5.693042993","decile":"7","lat":40.37726360098117,"lng":-111.78120451851625,"phone":"(279) 117-1658","sd":"21","ssbd":"11","lsbd":"School Board Aspen Peaks 7"},{"vid":"2632337","name":"Ms. Mina Schmidt","party":"","address":"124 N 825 E, American Fork, UT 84003","precinct":"25AF15","hd":"55","v_score":"11.26156058","decile":"9","lat":40.37947941134547,"lng":-111.77526333923277,"phone":"(123) 616-5235","sd":"21","ssbd":"11","lsbd":"School Board Aspen Peaks 7"},{"vid":"2633968","name":"Merry King","party":"Rep","address":"169 N 670 E, American Fork, UT 84003","precinct":"25AF15","hd":"55","v_score":"11.30609121","decile":"9","lat":40.38032048289189,"lng":-111.78107463685853,"phone":"(167) 353-4064","sd":"21","ssbd":"11","lsbd":"School Board Aspen Peaks 7"},{"vid":"2640608","name":"Deidre Ratke","party":"","address":"885 E 50 S, American Fork, UT 84003","precinct":"25AF15","hd":"55","v_score":"3.61989409","decile":"6","lat":40.37592881834228,"lng":-111.77363103232608,"phone":"(392) 683-2611","sd":"21","ssbd":"11","lsbd":"School Board Aspen Peaks 7"},{"vid":"2644152","name":"Octavio Prosacco","party":"Dem","address":"213 N 900 E, American Fork, UT 84003","precinct":"25AF15","hd":"55","v_score":"2.817000428","decile":"6","lat":40.38136325440756,"lng":-111.7735498570196,"phone":"(891) 235-4953","sd":"21","ssbd":"11","lsbd":"School Board Aspen Peaks 7"},{"vid":"2649293","name":"Ernie Muller DVM","party":"Rep","address":"16 N 700 E, Apt 11, American Fork, UT 84003","precinct":"25AF15","hd":"55","v_score":"13.85252246","decile":"9","lat":40.37709898770964,"lng":-111.77906807142001,"phone":"(796) 124-5507","sd":"21","ssbd":"11","lsbd":"School Board Aspen Peaks 7"},{"vid":"2652855","name":"Danita Medhurst-Sawayn","party":"","address":"216 N 800 E, American Fork, UT 84003","precinct":"25AF15","hd":"55","v_score":"0","decile":"1","lat":40.38140565664512,"lng":-111.77645220367832,"phone":"(173) 577-5577","sd":"21","ssbd":"11","lsbd":"School Board Aspen Peaks 7"},{"vid":"2654024","name":"Mr. Daxton Klein PhD","party":"Dem","address":"230 N 800 E, American Fork, UT 84003","precinct":"25AF15","hd":"55","v_score":"1.193887297","decile":"4","lat":40.38163872505652,"lng":-111.77645547706477,"phone":"(948) 464-0447","sd":"21","ssbd":"11","lsbd":"School Board Aspen Peaks 7"},{"vid":"2655971","name":"Dema Morissette","party":"","address":"129 N 670 E, American Fork, UT 84003","precinct":"25AF15","hd":"55","v_score":"12.65863516","decile":"9","lat":40.37942377448139,"lng":-111.78097069854623,"phone":"(332) 156-7885","sd":"21","ssbd":"11","lsbd":"School Board Aspen Peaks 7"},{"vid":"2657504","name":"Kellee Greenholt MD","party":"","address":"801 E Evergreen Dr, American Fork, UT 84003","precinct":"25AF15","hd":"55","v_score":"1.193887297","decile":"4","lat":40.38241043078007,"lng":-111.77666910017754,"phone":"(715) 984-9552","sd":"21","ssbd":"11","lsbd":"School Board Aspen Peaks 7"},{"vid":"2659260","name":"Hazen Krajcik-Hettinger","party":"","address":"894 E 300 N, American Fork, UT 84003","precinct":"25AF15","hd":"55","v_score":"4.069929862","decile":"6","lat":40.3829770497571,"lng":-111.77341529139173,"phone":"(109) 697-4283","sd":"21","ssbd":"11","lsbd":"School Board Aspen Peaks 7"},{"vid":"2660969","name":"Lottie Christiansen PhD","party":"Dem","address":"130 N 600 E, American Fork, UT 84003","precinct":"25AF15","hd":"55","v_score":"0","decile":"1","lat":40.379595061161844,"lng":-111.78210260634695,"phone":"(388) 762-4696","sd":"21","ssbd":"11","lsbd":"School Board Aspen Peaks 7"},{"vid":"2662348","name":"Ms. Lisette Kerluke DVM","party":"","address":"16 N 700 E, Apt 20, American Fork, UT 84003","precinct":"25AF15","hd":"55","v_score":"0","decile":"1","lat":40.37709898770964,"lng":-111.77906807142001,"phone":"(726) 905-1536","sd":"21","ssbd":"11","lsbd":"School Board Aspen Peaks 7"},{"vid":"2669953","name":"Josue Shields-Kerluke","party":"Dem","address":"792 E 30 N, American Fork, UT 84003","precinct":"25AF15","hd":"55","v_score":"0","decile":"2","lat":40.37730642731568,"lng":-111.77672726106161,"phone":"(383) 450-6301","sd":"21","ssbd":"11","lsbd":"School Board Aspen Peaks 7"},{"vid":"2681976","name":"Johannah Breitenberg","party":"Rep","address":"49 N 775 E, American Fork, UT 84003","precinct":"25AF15","hd":"55","v_score":"1.193887297","decile":"4","lat":40.378050383436715,"lng":-111.77758839238118,"phone":"(369) 156-7463","sd":"21","ssbd":"11","lsbd":"School Board Aspen Peaks 7"},{"vid":"2683584","name":"Winifred Gulgowski","party":"","address":"138 N 750 E, American Fork, UT 84003","precinct":"25AF15","hd":"55","v_score":"7.331846577","decile":"8","lat":40.37971503256911,"lng":-111.77801578060996,"phone":"(216) 147-5563","sd":"21","ssbd":"11","lsbd":"School Board Aspen Peaks 7"},{"vid":"2695259","name":"Philomene Russel","party":"","address":"16 S 600 E, Apt 2, American Fork, UT 84003","precinct":"25AF15","hd":"55","v_score":"3.61989409","decile":"6","lat":40.37637975209339,"lng":-111.78299899592541,"phone":"(296) 423-7705","sd":"21","ssbd":"11","lsbd":"School Board Aspen Peaks 7"},{"vid":"2697519","name":"Caddie Lesch","party":"Dem","address":"807 E 10 S, American Fork, UT 84003","precinct":"25AF15","hd":"55","v_score":"0","decile":"2","lat":40.376793534368474,"lng":-111.77625773376117,"phone":"(408) 321-8696","sd":"21","ssbd":"11","lsbd":"School Board Aspen Peaks 7"},{"vid":"2700135","name":"Calleigh Pfannerstill","party":"Rep","address":"888 E 120 N, American Fork, UT 84003","precinct":"25AF15","hd":"55","v_score":"0","decile":"2","lat":40.3798089224859,"lng":-111.77386540899508,"phone":"(345) 756-8142","sd":"21","ssbd":"11","lsbd":"School Board Aspen Peaks 7"},{"vid":"2710862","name":"Lori Grimes","party":"","address":"648 E 220 N, American Fork, UT 84003","precinct":"25AF15","hd":"55","v_score":"0","decile":"2","lat":40.381058719268005,"lng":-111.78112979891205,"phone":"(143) 022-7483","sd":"21","ssbd":"11","lsbd":"School Board Aspen Peaks 7"},{"vid":"2711627","name":"Mr. Schuyler Maggio III","party":"Rep","address":"292 N 860 E, American Fork, UT 84003","precinct":"25AF15","hd":"55","v_score":"0","decile":"2","lat":40.38293083073769,"lng":-111.77398030257906,"phone":"(361) 944-7298","sd":"21","ssbd":"11","lsbd":"School Board Aspen Peaks 7"},{"vid":"2722105","name":"Dr. Vollie Gorczany DDS","party":"Dem","address":"270 N 700 E, American Fork, UT 84003","precinct":"25AF15","hd":"55","v_score":"0","decile":"2","lat":40.38225773602048,"lng":-111.77924242877013,"phone":"(501) 430-8997","sd":"21","ssbd":"11","lsbd":"School Board Aspen Peaks 7"},{"vid":"2723151","name":"Mariana Wisozk","party":"Dem","address":"131 N 775 E, American Fork, UT 84003","precinct":"25AF15","hd":"55","v_score":"7.090117576","decile":"8","lat":40.37969695274968,"lng":-111.7775859241701,"phone":"(466) 117-2556","sd":"21","ssbd":"11","lsbd":"School Board Aspen Peaks 7"},{"vid":"2724788","name":"Sawyer Considine","party":"","address":"17 N 700 E, Apt 31, American Fork, UT 84003","precinct":"25AF15","hd":"55","v_score":"3.61989409","decile":"6","lat":40.37696485182454,"lng":-111.77990415486053,"phone":"(501) 683-0657","sd":"21","ssbd":"11","lsbd":"School Board Aspen Peaks 7"},{"vid":"2727177","name":"Chadd Lehner","party":"Dem","address":"131 N 775 E, American Fork, UT 84003","precinct":"25AF15","hd":"55","v_score":"0","decile":"2","lat":40.37969695274968,"lng":-111.7775859241701,"phone":"(511) 658-2863","sd":"21","ssbd":"11","lsbd":"School Board Aspen Peaks 7"},{"vid":"2729641","name":"Jarred Rath","party":"","address":"37 N 800 E, American Fork, UT 84003","precinct":"25AF15","hd":"55","v_score":"1.193887297","decile":"4","lat":40.3776641765527,"lng":-111.77664686801137,"phone":"(749) 729-5627","sd":"21","ssbd":"11","lsbd":"School Board Aspen Peaks 7"},{"vid":"2737414","name":"Vernell Baumbach DDS","party":"Dem","address":"798 E 30 N, American Fork, UT 84003","precinct":"25AF15","hd":"55","v_score":"0","decile":"2","lat":40.37735831316649,"lng":-111.77640034184131,"phone":"(424) 708-5200","sd":"21","ssbd":"11","lsbd":"School Board Aspen Peaks 7"},{"vid":"2744228","name":"Marcie Deckow","party":"","address":"645 E 100 N, American Fork, UT 84003","precinct":"25AF15","hd":"55","v_score":"1.193887297","decile":"4","lat":40.37928768030529,"lng":-111.78154948434144,"phone":"(553) 224-7805","sd":"21","ssbd":"11","lsbd":"School Board Aspen Peaks 7"},{"vid":"2745970","name":"Freida Pfannerstill DVM","party":"Rep","address":"625 E 230 N, American Fork, UT 84003","precinct":"25AF15","hd":"55","v_score":"1.193887297","decile":"4","lat":40.381754558859505,"lng":-111.7819134286187,"phone":"(774) 443-9787","sd":"21","ssbd":"11","lsbd":"School Board Aspen Peaks 7"},{"vid":"2746598","name":"Ms. Rhoda Balistreri","party":"","address":"888 E 120 N, American Fork, UT 84003","precinct":"25AF15","hd":"55","v_score":"1.193887297","decile":"4","lat":40.3798089224859,"lng":-111.77386540899508,"phone":"(842) 116-6255","sd":"21","ssbd":"11","lsbd":"School Board Aspen Peaks 7"},{"vid":"2751590","name":"Nova McLaughlin","party":"","address":"187 N 860 E, American Fork, UT 84003","precinct":"25AF15","hd":"55","v_score":"2.876042565","decile":"6","lat":40.38102829945665,"lng":-111.77479128361686,"phone":"(823) 994-8560","sd":"21","ssbd":"11","lsbd":"School Board Aspen Peaks 7"},{"vid":"2755088","name":"Arnett Hegmann","party":"","address":"817 E Evergreen Dr, American Fork, UT 84003","precinct":"25AF15","hd":"55","v_score":"0","decile":"2","lat":40.38227162672367,"lng":-111.77595784755287,"phone":"(674) 995-4543","sd":"21","ssbd":"11","lsbd":"School Board Aspen Peaks 7"},{"vid":"2770530","name":"Magnolia Streich-Bradtke","party":"","address":"798 E 30 N, American Fork, UT 84003","precinct":"25AF15","hd":"55","v_score":"1.193887297","decile":"4","lat":40.37735831316649,"lng":-111.77640034184131,"phone":"(651) 714-0693","sd":"21","ssbd":"11","lsbd":"School Board Aspen Peaks 7"},{"vid":"2780327","name":"Nicolas Fritsch PhD","party":"Rep","address":"124 N 825 E, American Fork, UT 84003","precinct":"25AF15","hd":"55","v_score":"0","decile":"2","lat":40.37947941134547,"lng":-111.77526333923277,"phone":"(700) 730-6192","sd":"21","ssbd":"11","lsbd":"School Board Aspen Peaks 7"},{"vid":"2782578","name":"Mr. Bartholomew Volkman","party":"Rep","address":"622 E 30 N, American Fork, UT 84003","precinct":"25AF15","hd":"55","v_score":"0","decile":"2","lat":40.37688019178784,"lng":-111.78173604723818,"phone":"(589) 595-0065","sd":"21","ssbd":"11","lsbd":"School Board Aspen Peaks 7"},{"vid":"2783447","name":"Ewing Goodwin MD","party":"Rep","address":"809 E Evergreen Dr, American Fork, UT 84003","precinct":"25AF15","hd":"55","v_score":"0","decile":"2","lat":40.3824183598765,"lng":-111.77633223613813,"phone":"(781) 039-6546","sd":"21","ssbd":"11","lsbd":"School Board Aspen Peaks 7"},{"vid":"2789648","name":"Meta Wunsch DVM","party":"","address":"19 S 750 E, American Fork, UT 84003","precinct":"25AF15","hd":"55","v_score":"4.069929862","decile":"7","lat":40.37649917946634,"lng":-111.7772989023757,"phone":"(885) 724-0802","sd":"21","ssbd":"11","lsbd":"School Board Aspen Peaks 7"},{"vid":"2796296","name":"Kenan Bauch","party":"Dem","address":"180 N 825 E, American Fork, UT 84003","precinct":"25AF15","hd":"55","v_score":"0","decile":"2","lat":40.380677905722294,"lng":-111.7752148170251,"phone":"(708) 441-1879","sd":"21","ssbd":"11","lsbd":"School Board Aspen Peaks 7"},{"vid":"2796586","name":"Heber Legros","party":"Dem","address":"886 E 30 N, American Fork, UT 84003","precinct":"25AF15","hd":"55","v_score":"1.193887297","decile":"4","lat":40.3770557017517,"lng":-111.77374637899894,"phone":"(110) 795-9594","sd":"21","ssbd":"11","lsbd":"School Board Aspen Peaks 7"},{"vid":"2797495","name":"Enid Miller","party":"Rep","address":"675 E 170 N, American Fork, UT 84003","precinct":"25AF15","hd":"55","v_score":"1.193887297","decile":"4","lat":40.38049142213173,"lng":-111.78049551796802,"phone":"(416) 642-3061","sd":"21","ssbd":"11","lsbd":"School Board Aspen Peaks 7"},{"vid":"2802922","name":"Friend Rau","party":"Dem","address":"295 N 700 E, American Fork, UT 84003","precinct":"25AF15","hd":"55","v_score":"0","decile":"2","lat":40.38300206092988,"lng":-111.77984927631411,"phone":"(279) 141-0274","sd":"21","ssbd":"11","lsbd":"School Board Aspen Peaks 7"},{"vid":"2820960","name":"Reason Wehner","party":"Rep","address":"16 N 700 E, Apt 19, American Fork, UT 84003","precinct":"25AF15","hd":"55","v_score":"8.284004873","decile":"8","lat":40.37709898770964,"lng":-111.77906807142001,"phone":"(552) 843-4071","sd":"21","ssbd":"11","lsbd":"School Board Aspen Peaks 7"},{"vid":"2821995","name":"Elinore Hegmann","party":"Dem","address":"195 N 775 E, American Fork, UT 84003","precinct":"25AF15","hd":"55","v_score":"1.193887297","decile":"4","lat":40.380738561441895,"lng":-111.7777963379964,"phone":"(462) 658-5629","sd":"21","ssbd":"11","lsbd":"School Board Aspen Peaks 7"},{"vid":"2823883","name":"Chiquita Kiehn DVM","party":"","address":"761 E 10 S, American Fork, UT 84003","precinct":"25AF15","hd":"55","v_score":"1.193887297","decile":"4","lat":40.37686948508583,"lng":-111.77751107582198,"phone":"(617) 509-2639","sd":"21","ssbd":"11","lsbd":"School Board Aspen Peaks 7"},{"vid":"2825778","name":"Waldemar Gislason II","party":"Rep","address":"894 E 300 N, American Fork, UT 84003","precinct":"25AF15","hd":"55","v_score":"0","decile":"2","lat":40.3829770497571,"lng":-111.77341529139173,"phone":"(715) 179-2034","sd":"21","ssbd":"11","lsbd":"School Board Aspen Peaks 7"},{"vid":"2827404","name":"Damarcus Jakubowski","party":"Dem","address":"625 E 230 N, American Fork, UT 84003","precinct":"25AF15","hd":"55","v_score":"0","decile":"2","lat":40.381754558859505,"lng":-111.7819134286187,"phone":"(888) 125-4805","sd":"21","ssbd":"11","lsbd":"School Board Aspen Peaks 7"},{"vid":"2834692","name":"Lizette Feeney","party":"","address":"610 E 50 N, American Fork, UT 84003","precinct":"25AF15","hd":"55","v_score":"1.193887297","decile":"4","lat":40.37750725199705,"lng":-111.78230030472002,"phone":"(999) 353-8144","sd":"21","ssbd":"11","lsbd":"School Board Aspen Peaks 7"},{"vid":"2840477","name":"Ashely Grady","party":"Rep","address":"892 E 120 N, American Fork, UT 84003","precinct":"25AF15","hd":"55","v_score":"4.069929862","decile":"7","lat":40.37982504802605,"lng":-111.77344721092331,"phone":"(590) 815-3260","sd":"21","ssbd":"11","lsbd":"School Board Aspen Peaks 7"},{"vid":"2846249","name":"Erna Kuphal","party":"Dem","address":"58 N 750 E, American Fork, UT 84003","precinct":"25AF15","hd":"55","v_score":"8.284004873","decile":"8","lat":40.37783442572698,"lng":-111.77805373807729,"phone":"(456) 767-8409","sd":"21","ssbd":"11","lsbd":"School Board Aspen Peaks 7"},{"vid":"2854591","name":"Reid Kuphal","party":"Rep","address":"254 N 860 E, American Fork, UT 84003","precinct":"25AF15","hd":"55","v_score":"0","decile":"2","lat":40.38196529764464,"lng":-111.77396912609518,"phone":"(302) 938-9066","sd":"21","ssbd":"11","lsbd":"School Board Aspen Peaks 7"},{"vid":"2857021","name":"Cleo Stark","party":"","address":"37 S 800 E, American Fork, UT 84003","precinct":"25AF15","hd":"55","v_score":"0","decile":"2","lat":40.376201860619446,"lng":-111.77633710656406,"phone":"(509) 522-7054","sd":"21","ssbd":"11","lsbd":"School Board Aspen Peaks 7"},{"vid":"2857173","name":"Mr. Orlo Frami II","party":"","address":"97 N 775 E, American Fork, UT 84003","precinct":"25AF15","hd":"55","v_score":"0","decile":"2","lat":40.37914809640375,"lng":-111.77758674666757,"phone":"(556) 006-0686","sd":"21","ssbd":"11","lsbd":"School Board Aspen Peaks 7"},{"vid":"2857625","name":"Florida Bogisich MD","party":"","address":"795 E 10 S, American Fork, UT 84003","precinct":"25AF15","hd":"55","v_score":"0","decile":"2","lat":40.377024821602156,"lng":-111.77679270716287,"phone":"(828) 576-7757","sd":"21","ssbd":"11","lsbd":"School Board Aspen Peaks 7"},{"vid":"2870591","name":"Arno Klein-Bergstrom","party":"Dem","address":"131 N 700 E, American Fork, UT 84003","precinct":"25AF15","hd":"55","v_score":"1.193887297","decile":"4","lat":40.37945452451612,"lng":-111.77983451530375,"phone":"(545) 470-8853","sd":"21","ssbd":"11","lsbd":"School Board Aspen Peaks 7"},{"vid":"2875680","name":"Davy Bergstrom","party":"Rep","address":"185 N 700 E, American Fork, UT 84003","precinct":"25AF15","hd":"55","v_score":"0","decile":"2","lat":40.38049046630192,"lng":-111.77984961544469,"phone":"(307) 733-3897","sd":"21","ssbd":"11","lsbd":"School Board Aspen Peaks 7"},{"vid":"2880015","name":"Denine Johnston","party":"Rep","address":"16 N 700 E, Apt 12, American Fork, UT 84003","precinct":"25AF15","hd":"55","v_score":"1.193887297","decile":"4","lat":40.37709898770964,"lng":-111.77906807142001,"phone":"(271) 092-4780","sd":"21","ssbd":"11","lsbd":"School Board Aspen Peaks 7"},{"vid":"2880057","name":"Elijah Kertzmann","party":"","address":"161 N 670 E, American Fork, UT 84003","precinct":"25AF15","hd":"55","v_score":"1.193887297","decile":"4","lat":40.379966906286235,"lng":-111.78107234058501,"phone":"(354) 603-7650","sd":"21","ssbd":"11","lsbd":"School Board Aspen Peaks 7"},{"vid":"2880702","name":"Desmond Halvorson","party":"Rep","address":"195 N 775 E, American Fork, UT 84003","precinct":"25AF15","hd":"55","v_score":"1.193887297","decile":"4","lat":40.380738561441895,"lng":-111.7777963379964,"phone":"(317) 561-0863","sd":"21","ssbd":"11","lsbd":"School Board Aspen Peaks 7"},{"vid":"2887381","name":"Dequan Walter","party":"Rep","address":"663 E 220 N, American Fork, UT 84003","precinct":"25AF15","hd":"55","v_score":"1.193887297","decile":"4","lat":40.381396755992945,"lng":-111.78081429904185,"phone":"(213) 231-7762","sd":"21","ssbd":"11","lsbd":"School Board Aspen Peaks 7"},{"vid":"2887404","name":"Mrs. Giselle Kuphal","party":"","address":"663 E 220 N, American Fork, UT 84003","precinct":"25AF15","hd":"55","v_score":"0","decile":"2","lat":40.381396755992945,"lng":-111.78081429904185,"phone":"(689) 060-9439","sd":"21","ssbd":"11","lsbd":"School Board Aspen Peaks 7"},{"vid":"2888337","name":"Oscar McClure","party":"Rep","address":"295 N 700 E, American Fork, UT 84003","precinct":"25AF15","hd":"55","v_score":"1.193887297","decile":"4","lat":40.38300206092988,"lng":-111.77984927631411,"phone":"(441) 201-6728","sd":"21","ssbd":"11","lsbd":"School Board Aspen Peaks 7"},{"vid":"2888870","name":"Alecia Bayer","party":"","address":"266 N 860 E, American Fork, UT 84003","precinct":"25AF15","hd":"55","v_score":"0","decile":"2","lat":40.38227266765286,"lng":-111.77397087457607,"phone":"(116) 287-4197","sd":"21","ssbd":"11","lsbd":"School Board Aspen Peaks 7"},{"vid":"2889218","name":"Richelle Kertzmann","party":"","address":"888 E 120 N, American Fork, UT 84003","precinct":"25AF15","hd":"55","v_score":"1.193887297","decile":"4","lat":40.3798089224859,"lng":-111.77386540899508,"phone":"(660) 399-7187","sd":"21","ssbd":"11","lsbd":"School Board Aspen Peaks 7"},{"vid":"2895212","name":"Alan Hyatt-Langworth","party":"Rep","address":"231 N 825 E, American Fork, UT 84003","precinct":"25AF15","hd":"55","v_score":"4.214075011","decile":"7","lat":40.38193336309985,"lng":-111.77600735545762,"phone":"(753) 830-2532","sd":"21","ssbd":"11","lsbd":"School Board Aspen Peaks 7"},{"vid":"2902010","name":"Adrian Hirthe","party":"Dem","address":"254 N 860 E, American Fork, UT 84003","precinct":"25AF15","hd":"55","v_score":"0","decile":"2","lat":40.38196529764464,"lng":-111.77396912609518,"phone":"(205) 915-5884","sd":"21","ssbd":"11","lsbd":"School Board Aspen Peaks 7"},{"vid":"2903848","name":"Mr. Emery Schmitt","party":"Rep","address":"19 S 800 E, American Fork, UT 84003","precinct":"25AF15","hd":"55","v_score":"0","decile":"2","lat":40.37648455702978,"lng":-111.7763224241397,"phone":"(431) 681-4966","sd":"21","ssbd":"11","lsbd":"School Board Aspen Peaks 7"},{"vid":"2905936","name":"Ica Douglas PhD","party":"Rep","address":"165 N 800 E, American Fork, UT 84003","precinct":"25AF15","hd":"55","v_score":"0","decile":"2","lat":40.38010825881975,"lng":-111.77667809845252,"phone":"(650) 378-3570","sd":"21","ssbd":"11","lsbd":"School Board Aspen Peaks 7"},{"vid":"2911223","name":"Kristian Streich","party":"","address":"43 S 750 E, American Fork, UT 84003","precinct":"25AF15","hd":"55","v_score":"0","decile":"2","lat":40.37612863680795,"lng":-111.77737128466869,"phone":"(367) 428-4457","sd":"21","ssbd":"11","lsbd":"School Board Aspen Peaks 7"},{"vid":"2916250","name":"Citlalli Ledner-Walter","party":"","address":"43 S 750 E, American Fork, UT 84003","precinct":"25AF15","hd":"55","v_score":"0","decile":"2","lat":40.37612863680795,"lng":-111.77737128466869,"phone":"(636) 092-6712","sd":"21","ssbd":"11","lsbd":"School Board Aspen Peaks 7"},{"vid":"2923310","name":"Nakia Prohaska","party":"Rep","address":"208 N 775 E, American Fork, UT 84003","precinct":"25AF15","hd":"55","v_score":"0","decile":"2","lat":40.38111675651912,"lng":-111.77736607171518,"phone":"(989) 198-0814","sd":"21","ssbd":"11","lsbd":"School Board Aspen Peaks 7"},{"vid":"2925199","name":"Mrs. Saige Price PhD","party":"","address":"185 N 700 E, American Fork, UT 84003","precinct":"25AF15","hd":"55","v_score":"0","decile":"2","lat":40.38049046630192,"lng":-111.77984961544469,"phone":"(796) 266-6266","sd":"21","ssbd":"11","lsbd":"School Board Aspen Peaks 7"},{"vid":"2929514","name":"Corey Crooks","party":"Rep","address":"143 N 860 E, American Fork, UT 84003","precinct":"25AF15","hd":"55","v_score":"0","decile":"2","lat":40.38033232171628,"lng":-111.77468546623861,"phone":"(688) 570-9770","sd":"21","ssbd":"11","lsbd":"School Board Aspen Peaks 7"},{"vid":"2930247","name":"Ms. Lashonda Kris","party":"Dem","address":"161 N 670 E, American Fork, UT 84003","precinct":"25AF15","hd":"55","v_score":"0","decile":"2","lat":40.379966906286235,"lng":-111.78107234058501,"phone":"(500) 241-5899","sd":"21","ssbd":"11","lsbd":"School Board Aspen Peaks 7"},{"vid":"2937895","name":"Dr. Carolyn Hoeger DVM","party":"","address":"72 N 825 E, American Fork, UT 84003","precinct":"25AF15","hd":"55","v_score":"2.876042565","decile":"6","lat":40.37858596499888,"lng":-111.77520852504517,"phone":"(217) 835-2781","sd":"21","ssbd":"11","lsbd":"School Board Aspen Peaks 7"},{"vid":"2942531","name":"Dakota Fritsch","party":"","address":"798 E 30 N, American Fork, UT 84003","precinct":"25AF15","hd":"55","v_score":"0","decile":"2","lat":40.37735831316649,"lng":-111.77640034184131,"phone":"(751) 193-0191","sd":"21","ssbd":"11","lsbd":"School Board Aspen Peaks 7"},{"vid":"2951227","name":"Dr. Abbigail Volkman DDS","party":"Rep","address":"16 N 700 E, Apt 6, American Fork, UT 84003","precinct":"25AF15","hd":"55","v_score":"0","decile":"2","lat":40.37709898770964,"lng":-111.77906807142001,"phone":"(135) 528-8391","sd":"21","ssbd":"11","lsbd":"School Board Aspen Peaks 7"},{"vid":"2970964","name":"Tamara Vandervort","party":"","address":"167 N 900 E, American Fork, UT 84003","precinct":"25AF15","hd":"55","v_score":"0","decile":"2","lat":40.380567333667194,"lng":-111.77355170135071,"phone":"(996) 752-8654","sd":"21","ssbd":"11","lsbd":"School Board Aspen Peaks 7"},{"vid":"2980786","name":"Joseluis Terry DVM","party":"Rep","address":"16 N 700 E, Apt 18, American Fork, UT 84003","precinct":"25AF15","hd":"55","v_score":"0","decile":"2","lat":40.37709898770964,"lng":-111.77906807142001,"phone":"(949) 524-9586","sd":"21","ssbd":"11","lsbd":"School Board Aspen Peaks 7"},{"vid":"2984120","name":"Neely Considine III","party":"","address":"16 S 600 E, Apt 2, American Fork, UT 84003","precinct":"25AF15","hd":"55","v_score":"0","decile":"2","lat":40.37637975209339,"lng":-111.78299899592541,"phone":"(152) 609-3655","sd":"21","ssbd":"11","lsbd":"School Board Aspen Peaks 7"},{"vid":"3039552","name":"Mrs. Frederica Windler DDS","party":"Rep","address":"221 N 825 E, American Fork, UT 84003","precinct":"25AF15","hd":"55","v_score":"3.781490609","decile":"6","lat":40.381567076344325,"lng":-111.77589343803902,"phone":"(587) 082-5629","sd":"21","ssbd":"11","lsbd":"School Board Aspen Peaks 7"},{"vid":"3123453","name":"Jarrod Roob IV","party":"Rep","address":"19 N 700 E, Apt 24, American Fork, UT 84003","precinct":"25AF15","hd":"55","v_score":"0","decile":"2","lat":40.376940373138545,"lng":-111.78085786942789,"phone":"(774) 650-3260","sd":"21","ssbd":"11","lsbd":"School Board Aspen Peaks 7"},{"vid":"3254560","name":"Fleet Jones","party":"","address":"213 N 900 E, American Fork, UT 84003","precinct":"25AF15","hd":"55","v_score":"2.315214949","decile":"5","lat":40.38136325440756,"lng":-111.7735498570196,"phone":"(674) 391-3907","sd":"21","ssbd":"11","lsbd":"School Board Aspen Peaks 7"},{"vid":"3274297","name":"Ferrell Turner","party":"","address":"174 N 800 E, American Fork, UT 84003","precinct":"25AF15","hd":"55","v_score":"7.947838735","decile":"8","lat":40.38045738341376,"lng":-111.77620952207818,"phone":"(327) 238-2758","sd":"21","ssbd":"11","lsbd":"School Board Aspen Peaks 7"},{"vid":"3289956","name":"Acie Gottlieb-Hartmann","party":"Dem","address":"16 S 600 E, Apt 1, American Fork, UT 84003","precinct":"25AF15","hd":"55","v_score":"0","decile":"2","lat":40.37637975209339,"lng":-111.78299899592541,"phone":"(220) 360-4283","sd":"21","ssbd":"11","lsbd":"School Board Aspen Peaks 7"},{"vid":"3367092","name":"Mrs. Mandi Gleichner DDS","party":"","address":"180 N 825 E, American Fork, UT 84003","precinct":"25AF15","hd":"55","v_score":"1.193887297","decile":"4","lat":40.380677905722294,"lng":-111.7752148170251,"phone":"(518) 068-4588","sd":"21","ssbd":"11","lsbd":"School Board Aspen Peaks 7"},{"vid":"e5a521e75eb93d03fda2de9c191ba473f0e513e7eb1851c375254e1472621144","name":"Jaiden Williamson-Schuppe","party":"Rep","address":"273 N 900 E, American Fork, UT 84003","precinct":"25AF15","hd":"55","v_score":"9.242463391","decile":"8","lat":40.38267026755407,"lng":-111.77358811081776,"phone":"(734) 566-4762","sd":"21","ssbd":"11","lsbd":"School Board Aspen Peaks 7"},{"vid":"3539954","name":"Isabella Ondricka","party":"","address":"808 E 300 N, American Fork, UT 84003","precinct":"25AF15","hd":"55","v_score":"13.26092733","decile":"9","lat":40.382736823892806,"lng":-111.77651105537747,"phone":"(693) 266-2581","sd":"21","ssbd":"11","lsbd":"School Board Aspen Peaks 7"},{"vid":"4423205","name":"Vince Maggio-Satterfield","party":"","address":"16 N 700 E, Apt 3, American Fork, UT 84003","precinct":"25AF15","hd":"55","v_score":"19.65333578","decile":"10","lat":40.37709898770964,"lng":-111.77906807142001,"phone":"(865) 799-0501","sd":"21","ssbd":"11","lsbd":"School Board Aspen Peaks 7"},{"vid":"5225682","name":"Mr. Rylan Jaskolski","party":"","address":"295 N 700 E, American Fork, UT 84003","precinct":"25AF15","hd":"55","v_score":"2.315214949","decile":"5","lat":40.38300206092988,"lng":-111.77984927631411,"phone":"(665) 812-1199","sd":"21","ssbd":"11","lsbd":"School Board Aspen Peaks 7"},{"vid":"7e03bbad63c5874521b0b4334d612623426f3acf7db223990451225ee9e3db9d","name":"Christoper Gottlieb DDS","party":"Rep","address":"165 N 800 E, American Fork, UT 84003","precinct":"25AF15","hd":"55","v_score":"12.13314748","decile":"9","lat":40.38010825881975,"lng":-111.77667809845252,"phone":"(193) 386-0708","sd":"21","ssbd":"11","lsbd":"School Board Aspen Peaks 7"},{"vid":"5866715","name":"Margurite Ebert-Lesch","party":"Dem","address":"35 S 800 E, American Fork, UT 84003","precinct":"25AF15","hd":"55","v_score":"18.35167816","decile":"10","lat":40.37630051341985,"lng":-111.77639719047164,"phone":"(195) 679-7493","sd":"21","ssbd":"11","lsbd":"School Board Aspen Peaks 7"},{"vid":"6084611","name":"Lota Torphy","party":"Dem","address":"685 E 170 N, American Fork, UT 84003","precinct":"25AF15","hd":"55","v_score":"1.193887297","decile":"4","lat":40.38049094449056,"lng":-111.78017254972818,"phone":"(717) 501-9585","sd":"21","ssbd":"11","lsbd":"School Board Aspen Peaks 7"},{"vid":"3b2614910cd74a74f39d27d4469ea965dc388fd02976e5db4072e74f58a80459","name":"Mr. Westley Schmeler","party":"","address":"16 N 700 E, Apt 7, American Fork, UT 84003","precinct":"25AF15","hd":"55","v_score":"0","decile":"3","lat":40.37709898770964,"lng":-111.77906807142001,"phone":"(865) 096-7816","sd":"21","ssbd":"11","lsbd":"School Board Aspen Peaks 7"},{"vid":"6097031","name":"Mason Greenfelder-Keeling","party":"","address":"632 E 30 N, American Fork, UT 84003","precinct":"25AF15","hd":"55","v_score":"6.657533174","decile":"7","lat":40.37699607092997,"lng":-111.78152632271913,"phone":"(524) 950-9744","sd":"21","ssbd":"11","lsbd":"School Board Aspen Peaks 7"},{"vid":"6161695","name":"Coley Hammes","party":"","address":"632 E 30 N, American Fork, UT 84003","precinct":"25AF15","hd":"55","v_score":"6.657533174","decile":"7","lat":40.37699607092997,"lng":-111.78152632271913,"phone":"(227) 042-0615","sd":"21","ssbd":"11","lsbd":"School Board Aspen Peaks 7"},{"vid":"c1caaf9fd426f30a7595b8341864c2d1a3e0a57ff593fb27a0f8cb5444440c77","name":"Sherilyn Rohan","party":"","address":"795 E 10 S, American Fork, UT 84003","precinct":"25AF15","hd":"55","v_score":"8.363183621","decile":"8","lat":40.377024821602156,"lng":-111.77679270716287,"phone":"(510) 798-0835","sd":"21","ssbd":"11","lsbd":"School Board Aspen Peaks 7"},{"vid":"6177579","name":"Gwendolyn Hand","party":"Dem","address":"705 E 50 N, American Fork, UT 84003","precinct":"25AF15","hd":"55","v_score":"3.93832808","decile":"6","lat":40.37785787432726,"lng":-111.77939328790941,"phone":"(626) 979-2140","sd":"21","ssbd":"11","lsbd":"School Board Aspen Peaks 7"},{"vid":"6185183","name":"Bert Bartell","party":"","address":"765 E 10 S, American Fork, UT 84003","precinct":"25AF15","hd":"55","v_score":"26.38204183","decile":"10","lat":40.37702906174112,"lng":-111.77737775774898,"phone":"(838) 649-7231","sd":"21","ssbd":"11","lsbd":"School Board Aspen Peaks 7"},{"vid":"1872d4d2d8a2c23ed21ae3858ab8abe757b7a0b0905bfe425022f75c3569f54a","name":"Miss Gerda Mosciski DDS","party":"Dem","address":"232 N 860 E, American Fork, UT 84003","precinct":"25AF15","hd":"55","v_score":"25.1107121","decile":"10","lat":40.38165789763074,"lng":-111.77397141913481,"phone":"(956) 595-6282","sd":"21","ssbd":"11","lsbd":"School Board Aspen Peaks 7"},{"vid":"5e72d7b7ad1b9b64e282772d8e1cc7eec3bb4093491af2ded73396466b6c5dba","name":"Amado Boehm","party":"Rep","address":"700 E 300 N, American Fork, UT 84003","precinct":"25AF15","hd":"55","v_score":"29.68136853","decile":"10","lat":40.38294006591181,"lng":-111.77919360597606,"phone":"(982) 225-8890","sd":"21","ssbd":"11","lsbd":"School Board Aspen Peaks 7"},{"vid":"6204695","name":"Deloris Hintz","party":"Dem","address":"230 N 800 E, American Fork, UT 84003","precinct":"25AF15","hd":"55","v_score":"11.37977487","decile":"9","lat":40.38163872505652,"lng":-111.77645547706477,"phone":"(676) 050-5760","sd":"21","ssbd":"11","lsbd":"School Board Aspen Peaks 7"},{"vid":"6205611","name":"Ms. Princess Adams","party":"","address":"160 N 825 E, American Fork, UT 84003","precinct":"25AF15","hd":"55","v_score":"11.46588297","decile":"9","lat":40.38010378330223,"lng":-111.7752582693738,"phone":"(683) 910-3056","sd":"21","ssbd":"11","lsbd":"School Board Aspen Peaks 7"},{"vid":"6206343","name":"Miss Elenore Fay","party":"Dem","address":"230 N 800 E, American Fork, UT 84003","precinct":"25AF15","hd":"55","v_score":"8.421194992","decile":"8","lat":40.38163872505652,"lng":-111.77645547706477,"phone":"(427) 843-2502","sd":"21","ssbd":"11","lsbd":"School Board Aspen Peaks 7"},{"vid":"6208068","name":"Dani Hayes","party":"","address":"733 E 50 S, American Fork, UT 84003","precinct":"25AF15","hd":"55","v_score":"20.91067752","decile":"10","lat":40.37606074781421,"lng":-111.77834611737075,"phone":"(542) 058-3511","sd":"21","ssbd":"11","lsbd":"School Board Aspen Peaks 7"},{"vid":"6209516","name":"Dr. Billye Thompson","party":"Dem","address":"126 N 600 E, American Fork, UT 84003","precinct":"25AF15","hd":"55","v_score":"17.35851679","decile":"9","lat":40.37931080881264,"lng":-111.78225353373512,"phone":"(859) 732-5541","sd":"21","ssbd":"11","lsbd":"School Board Aspen Peaks 7"},{"vid":"6209556","name":"Dr. Delmus Rogahn","party":"Dem","address":"31 N 775 E, American Fork, UT 84003","precinct":"25AF15","hd":"55","v_score":"20.39377672","decile":"10","lat":40.37748523857719,"lng":-111.7775183639594,"phone":"(316) 010-4557","sd":"21","ssbd":"11","lsbd":"School Board Aspen Peaks 7"},{"vid":"6210520","name":"Vinie Koelpin","party":"Dem","address":"21 S 800 E, American Fork, UT 84003","precinct":"25AF15","hd":"55","v_score":"15.67698213","decile":"9","lat":40.37649236291244,"lng":-111.77611600745709,"phone":"(642) 165-6611","sd":"21","ssbd":"11","lsbd":"School Board Aspen Peaks 7"},{"vid":"7a6d1f512ae38172dea76bdfc349ff737e713eb2cd0787e1a4a15435c11700ed","name":"Zavier Crona III","party":"Rep","address":"17 N 700 E, Apt 28, American Fork, UT 84003","precinct":"25AF15","hd":"55","v_score":"25.80307694","decile":"10","lat":40.37696485182454,"lng":-111.77990415486053,"phone":"(272) 314-6028","sd":"21","ssbd":"11","lsbd":"School Board Aspen Peaks 7"},{"vid":"6215170","name":"Dr. Hillard Crona","party":"Dem","address":"716 E 50 N, American Fork, UT 84003","precinct":"25AF15","hd":"55","v_score":"10.38488476","decile":"9","lat":40.377491664797695,"lng":-111.77900230829904,"phone":"(710) 942-7036","sd":"21","ssbd":"11","lsbd":"School Board Aspen Peaks 7"},{"vid":"6215548","name":"Donte Bednar","party":"Rep","address":"790 E Fleming Dr, American Fork, UT 84003","precinct":"25AF15","hd":"55","v_score":"8.347511332","decile":"8","lat":40.379735490306224,"lng":-111.77670309287703,"phone":"(648) 901-2013","sd":"21","ssbd":"11","lsbd":"School Board Aspen Peaks 7"},{"vid":"6216367","name":"Litzy White","party":"Dem","address":"177 N 800 E, American Fork, UT 84003","precinct":"25AF15","hd":"55","v_score":"2.587603312","decile":"5","lat":40.38051415004756,"lng":-111.77683377798793,"phone":"(989) 550-4465","sd":"21","ssbd":"11","lsbd":"School Board Aspen Peaks 7"},{"vid":"ff97038b89eea980f95df71e5f67d6e8900580b77ea547eb9d834a2517ac8852","name":"Ruffin Klein","party":"Dem","address":"160 N 800 E, American Fork, UT 84003","precinct":"25AF15","hd":"55","v_score":"13.46861423","decile":"9","lat":40.38007304043728,"lng":-111.77630220604374,"phone":"(108) 784-3046","sd":"21","ssbd":"11","lsbd":"School Board Aspen Peaks 7"},{"vid":"6222506","name":"Davian Kub I","party":"","address":"878 E Fleming Dr, American Fork, UT 84003","precinct":"25AF15","hd":"55","v_score":"35.592808","decile":"10","lat":40.37923019220193,"lng":-111.77416564078818,"phone":"(353) 446-2354","sd":"21","ssbd":"11","lsbd":"School Board Aspen Peaks 7"},{"vid":"6222507","name":"Brien Botsford-Rath","party":"","address":"878 E Fleming Dr, American Fork, UT 84003","precinct":"25AF15","hd":"55","v_score":"31.97291391","decile":"10","lat":40.37923019220193,"lng":-111.77416564078818,"phone":"(269) 637-0466","sd":"21","ssbd":"11","lsbd":"School Board Aspen Peaks 7"},{"vid":"6225917","name":"Donie Lebsack-Donnelly","party":"Rep","address":"646 E 300 N, American Fork, UT 84003","precinct":"25AF15","hd":"55","v_score":"18.28437571","decile":"10","lat":40.382819940172816,"lng":-111.78104041877171,"phone":"(372) 649-9695","sd":"21","ssbd":"11","lsbd":"School Board Aspen Peaks 7"},{"vid":"6226054","name":"Miss Astrid Haag","party":"Rep","address":"48 N 825 E, American Fork, UT 84003","precinct":"25AF15","hd":"55","v_score":"6.814370645","decile":"8","lat":40.37776970127573,"lng":-111.77518107181143,"phone":"(395) 160-7413","sd":"21","ssbd":"11","lsbd":"School Board Aspen Peaks 7"},{"vid":"6227240","name":"Cecilia Barrows","party":"","address":"48 N 825 E, American Fork, UT 84003","precinct":"25AF15","hd":"55","v_score":"8.280646305","decile":"8","lat":40.37776970127573,"lng":-111.77518107181143,"phone":"(373) 941-4286","sd":"21","ssbd":"11","lsbd":"School Board Aspen Peaks 7"},{"vid":"6227294","name":"Peyton Bechtelar","party":"","address":"150 N 600 E, American Fork, UT 84003","precinct":"25AF15","hd":"55","v_score":"8.280646305","decile":"8","lat":40.379933870380846,"lng":-111.78225229331143,"phone":"(401) 399-2529","sd":"21","ssbd":"11","lsbd":"School Board Aspen Peaks 7"},{"vid":"6228073","name":"Mrs. Shawnna Littel","party":"Dem","address":"220 N 600 E, American Fork, UT 84003","precinct":"25AF15","hd":"55","v_score":"35.592808","decile":"10","lat":40.38134239387513,"lng":-111.78227401698234,"phone":"(789) 161-2802","sd":"21","ssbd":"11","lsbd":"School Board Aspen Peaks 7"},{"vid":"6229754","name":"Kegan Medhurst","party":"Dem","address":"194 N 600 E, American Fork, UT 84003","precinct":"25AF15","hd":"55","v_score":"18.19442671","decile":"10","lat":40.38083557314832,"lng":-111.78190926543893,"phone":"(695) 695-5120","sd":"21","ssbd":"11","lsbd":"School Board Aspen Peaks 7"},{"vid":"2878e5c16e9f7e38cb0ef51f3d938c93599490aa342d24fc3a236796d339e45b","name":"Karie Casper","party":"Rep","address":"675 E Seymore Dr, American Fork, UT 84003","precinct":"25AF15","hd":"55","v_score":"3.93832808","decile":"6","lat":40.3785364775359,"lng":-111.78037505691275,"phone":"(640) 374-2582","sd":"21","ssbd":"11","lsbd":"School Board Aspen Peaks 7"},{"vid":"6252180","name":"Lular Jacobs","party":"Rep","address":"182 N 775 E, American Fork, UT 84003","precinct":"25AF15","hd":"55","v_score":"5.40460374","decile":"7","lat":40.38058996320088,"lng":-111.77721291719378,"phone":"(919) 797-0827","sd":"21","ssbd":"11","lsbd":"School Board Aspen Peaks 7"},{"vid":"6252850","name":"Dr. Neva Pouros DDS","party":"","address":"647 E 220 N, American Fork, UT 84003","precinct":"25AF15","hd":"55","v_score":"9.116556227","decile":"8","lat":40.38135209102886,"lng":-111.78109272144421,"phone":"(832) 389-6362","sd":"21","ssbd":"11","lsbd":"School Board Aspen Peaks 7"},{"vid":"6253118","name":"Aurelia Koss-Effertz","party":"Rep","address":"647 E 220 N, American Fork, UT 84003","precinct":"25AF15","hd":"55","v_score":"9.116556227","decile":"8","lat":40.38135209102886,"lng":-111.78109272144421,"phone":"(590) 719-9265","sd":"21","ssbd":"11","lsbd":"School Board Aspen Peaks 7"},{"vid":"6253421","name":"Shirlene Rogahn","party":"Dem","address":"92 N 775 E, American Fork, UT 84003","precinct":"25AF15","hd":"55","v_score":"6.74007049","decile":"8","lat":40.379044281906346,"lng":-111.77706301322625,"phone":"(949) 783-8557","sd":"21","ssbd":"11","lsbd":"School Board Aspen Peaks 7"},{"vid":"6253740","name":"Sherrill Schaden","party":"Rep","address":"92 N 775 E, American Fork, UT 84003","precinct":"25AF15","hd":"55","v_score":"5.273794831","decile":"7","lat":40.379044281906346,"lng":-111.77706301322625,"phone":"(797) 251-5846","sd":"21","ssbd":"11","lsbd":"School Board Aspen Peaks 7"},{"vid":"6261095","name":"Murdock White","party":"","address":"232 N 860 E, American Fork, UT 84003","precinct":"25AF15","hd":"55","v_score":"30.379416","decile":"10","lat":40.38165789763074,"lng":-111.77397141913481,"phone":"(280) 067-4941","sd":"21","ssbd":"11","lsbd":"School Board Aspen Peaks 7"},{"vid":"6264464","name":"Theta Kassulke","party":"Rep","address":"108 N 775 E, American Fork, UT 84003","precinct":"25AF15","hd":"55","v_score":"3.93832808","decile":"6","lat":40.37931253535385,"lng":-111.77706260808606,"phone":"(606) 565-3937","sd":"21","ssbd":"11","lsbd":"School Board Aspen Peaks 7"},{"vid":"6265516","name":"Clinton Feil III","party":"Dem","address":"169 N 670 E, American Fork, UT 84003","precinct":"25AF15","hd":"55","v_score":"11.30609121","decile":"9","lat":40.38032048289189,"lng":-111.78107463685853,"phone":"(761) 251-1682","sd":"21","ssbd":"11","lsbd":"School Board Aspen Peaks 7"},{"vid":"6265527","name":"Jameson Auer","party":"Dem","address":"276 N 600 E, American Fork, UT 84003","precinct":"25AF15","hd":"55","v_score":"33.79250644","decile":"10","lat":40.3822719249108,"lng":-111.78215683488581,"phone":"(645) 941-8323","sd":"21","ssbd":"11","lsbd":"School Board Aspen Peaks 7"},{"vid":"6265789","name":"Dr. Marcus Champlin IV","party":"","address":"202 N 800 E, American Fork, UT 84003","precinct":"25AF15","hd":"55","v_score":"36.86397541","decile":"10","lat":40.381069058245,"lng":-111.77628914694834,"phone":"(809) 799-9778","sd":"21","ssbd":"11","lsbd":"School Board Aspen Peaks 7"},{"vid":"6265821","name":"Mrs. Stefanie Hilpert","party":"Dem","address":"685 E 170 N, American Fork, UT 84003","precinct":"25AF15","hd":"55","v_score":"13.09579129","decile":"9","lat":40.38049094449056,"lng":-111.78017254972818,"phone":"(831) 159-7947","sd":"21","ssbd":"11","lsbd":"School Board Aspen Peaks 7"},{"vid":"6266025","name":"Alvaro Kohler","party":"Dem","address":"685 E 170 N, American Fork, UT 84003","precinct":"25AF15","hd":"55","v_score":"11.90190399","decile":"9","lat":40.38049094449056,"lng":-111.78017254972818,"phone":"(301) 717-1091","sd":"21","ssbd":"11","lsbd":"School Board Aspen Peaks 7"},{"vid":"6274231","name":"Vinton Heathcote","party":"","address":"670 E 300 N, American Fork, UT 84003","precinct":"25AF15","hd":"55","v_score":"12.07513611","decile":"9","lat":40.38292963106206,"lng":-111.7804267443273,"phone":"(232) 729-1767","sd":"21","ssbd":"11","lsbd":"School Board Aspen Peaks 7"},{"vid":"6279244","name":"Hoy Bartell MD","party":"Dem","address":"126 N 600 E, American Fork, UT 84003","precinct":"25AF15","hd":"55","v_score":"25.80307694","decile":"10","lat":40.37931080881264,"lng":-111.78225353373512,"phone":"(424) 624-2231","sd":"21","ssbd":"11","lsbd":"School Board Aspen Peaks 7"},{"vid":"6294321","name":"Sunny Anderson-Jacobs","party":"Rep","address":"54 N 870 E, American Fork, UT 84003","precinct":"25AF15","hd":"55","v_score":"3.93832808","decile":"6","lat":40.37798822156086,"lng":-111.7739453148113,"phone":"(495) 717-2665","sd":"21","ssbd":"11","lsbd":"School Board Aspen Peaks 7"},{"vid":"6299685","name":"Isabela Kunze","party":"","address":"16 N 700 E, Apt 13, American Fork, UT 84003","precinct":"25AF15","hd":"55","v_score":"3.781490609","decile":"6","lat":40.37709898770964,"lng":-111.77906807142001,"phone":"(625) 844-6033","sd":"21","ssbd":"11","lsbd":"School Board Aspen Peaks 7"},{"vid":"6299702","name":"Maeve Ortiz","party":"","address":"864 E 120 N, American Fork, UT 84003","precinct":"25AF15","hd":"55","v_score":"6.724398202","decile":"8","lat":40.38000600748644,"lng":-111.77438863378514,"phone":"(125) 176-8345","sd":"21","ssbd":"11","lsbd":"School Board Aspen Peaks 7"},{"vid":"6300579","name":"Acy Nicolas","party":"Dem","address":"625 E 230 N, American Fork, UT 84003","precinct":"25AF15","hd":"55","v_score":"1.193887297","decile":"4","lat":40.381754558859505,"lng":-111.7819134286187,"phone":"(616) 967-4190","sd":"21","ssbd":"11","lsbd":"School Board Aspen Peaks 7"},{"vid":"7d378317daada1a182f3042cc4a57f1b64d22ae5feb9acf49a6baf95d7c39090","name":"Yasmine Strosin","party":"","address":"798 E 30 N, American Fork, UT 84003","precinct":"25AF15","hd":"55","v_score":"12.14993957","decile":"9","lat":40.37735831316649,"lng":-111.77640034184131,"phone":"(598) 846-6533","sd":"21","ssbd":"11","lsbd":"School Board Aspen Peaks 7"},