[{"id":"134","name":"Laurene Ondricka","party":"Rep","address":"1317 N 200 E, American Fork, UT 84003","precinct":"25AF04","hd":"55","v_score":"1.121327652","decile":"3","lat":40.402433941854,"lng":-111.791335661217},{"id":"244","name":"Lynn Murazik-Dietrich","party":"","address":"856 N 750 E, American Fork, UT 84003","precinct":"25AF04","hd":"55","v_score":"3.93832808","decile":"6","lat":40.394325477117,"lng":-111.778626793932},{"id":"1683","name":"Kaydence Wunsch","party":"Dem","address":"366 E 925 N, American Fork, UT 84003","precinct":"25AF04","hd":"55","v_score":"0","decile":"1","lat":40.395687037349,"lng":-111.78958852898},{"id":"1737","name":"Conner Haley","party":"Rep","address":"539 E 900 N, American Fork, UT 84003","precinct":"25AF04","hd":"55","v_score":"2.315214949","decile":"5","lat":40.388172659382,"lng":-111.773319688597},{"id":"1942","name":"Marni Goodwin","party":"Dem","address":"811 N 350 E, American Fork, UT 84003","precinct":"25AF04","hd":"55","v_score":"2.315214949","decile":"5","lat":40.393099018958,"lng":-111.789791373512},{"id":"2172","name":"Les Leuschke","party":"Dem","address":"926 N 400 E, American Fork, UT 84003","precinct":"25AF04","hd":"55","v_score":"2.744440783","decile":"5","lat":40.394073437688,"lng":-111.787622701489},{"id":"3138","name":"Ford Kutch","party":"Rep","address":"715 E 700 N, American Fork, UT 84003","precinct":"25AF04","hd":"55","v_score":"5.40460374","decile":"7","lat":40.391905422147,"lng":-111.779702113351},{"id":"3205","name":"Aura Frami","party":"","address":"715 E 700 N, American Fork, UT 84003","precinct":"25AF04","hd":"55","v_score":"8.280646305","decile":"8","lat":40.391905422147,"lng":-111.779702113351},{"id":"3213","name":"Orval Lindgren","party":"","address":"722 N 350 E, American Fork, UT 84003","precinct":"25AF04","hd":"55","v_score":"13.76678889","decile":"9","lat":40.39140841364,"lng":-111.789541930936},{"id":"4085","name":"Annamae D'Amore","party":"","address":"851 N 400 E, American Fork, UT 84003","precinct":"25AF04","hd":"55","v_score":"5.40460374","decile":"7","lat":40.393759777534,"lng":-111.787785998423},{"id":"4283","name":"Meryl Buckridge-Wolf","party":"","address":"735 N 200 E, American Fork, UT 84003","precinct":"25AF04","hd":"55","v_score":"28.3499084","decile":"10","lat":40.391651900202,"lng":-111.79319491082},{"id":"6090","name":"Dr. Thaddeus Simonis","party":"Dem","address":"609 N 200 E, American Fork, UT 84003","precinct":"25AF04","hd":"55","v_score":"0","decile":"1","lat":40.389231567674,"lng":-111.793216102098},{"id":"6667","name":"Admiral Metz","party":"Dem","address":"618 E 875 N, American Fork, UT 84003","precinct":"25AF04","hd":"55","v_score":"11.39481209","decile":"9","lat":40.394872013236,"lng":-111.781428088135},{"id":"6893","name":"Dozier Larson","party":"","address":"770 N 200 E, American Fork, UT 84003","precinct":"25AF04","hd":"55","v_score":"2.587603312","decile":"5","lat":40.392380200429,"lng":-111.793030242224},{"id":"7497","name":"Donn Cormier-Glover","party":"","address":"904 N 290 E, American Fork, UT 84003","precinct":"25AF04","hd":"55","v_score":"0","decile":"1","lat":40.394991291901,"lng":-111.790935725922},{"id":"7499","name":"Dedric Fritsch","party":"Rep","address":"527 E 700 N, American Fork, UT 84003","precinct":"25AF04","hd":"55","v_score":"2.315214949","decile":"5","lat":40.391846670453,"lng":-111.785102965836},{"id":"8933","name":"Hermann Schoen Sr.","party":"Rep","address":"735 N 200 E, American Fork, UT 84003","precinct":"25AF04","hd":"55","v_score":"32.56038695","decile":"10","lat":40.391651900202,"lng":-111.79319491082},{"id":"10733","name":"Dameon Tremblay-Kutch","party":"","address":"402 E 920 N, American Fork, UT 84003","precinct":"25AF04","hd":"55","v_score":"19.82433503","decile":"10","lat":40.395252888156,"lng":-111.788003813846},{"id":"11039","name":"Lucetta Hilll DDS","party":"Dem","address":"370 E 800 N, American Fork, UT 84003","precinct":"25AF04","hd":"55","v_score":"6.881235673","decile":"8","lat":40.392860982458,"lng":-111.78859415885},{"id":"11143","name":"Hence Graham","party":"","address":"370 E 800 N, American Fork, UT 84003","precinct":"25AF04","hd":"55","v_score":"3.93832808","decile":"6","lat":40.392860982458,"lng":-111.78859415885},{"id":"11452","name":"Alisson Fay-Greenfelder","party":"Dem","address":"635 N 200 E, American Fork, UT 84003","precinct":"25AF04","hd":"55","v_score":"31.89473363","decile":"10","lat":40.389719308864,"lng":-111.793213854379},{"id":"14301","name":"Danial Stark","party":"Dem","address":"840 N 100 E, American Fork, UT 84003","precinct":"25AF04","hd":"55","v_score":"8.347511332","decile":"8","lat":40.393717239132,"lng":-111.795693594155},{"id":"14796","name":"Gaylene Thompson","party":"Rep","address":"301 E 925 N, American Fork, UT 84003","precinct":"25AF04","hd":"55","v_score":"3.93832808","decile":"6","lat":40.395679880106,"lng":-111.790302504442},{"id":"15033","name":"Earlean Osinski DVM","party":"","address":"854 N 400 E, American Fork, UT 84003","precinct":"25AF04","hd":"55","v_score":"1.121327652","decile":"3","lat":40.393772922661,"lng":-111.787634931791},{"id":"16200","name":"Matt Aufderhar","party":"","address":"349 E 925 N, American Fork, UT 84003","precinct":"25AF04","hd":"55","v_score":"3.781490609","decile":"6","lat":40.395726082837,"lng":-111.78989740728},{"id":"16264","name":"Elby Lehner","party":"Dem","address":"961 N 200 E, American Fork, UT 84003","precinct":"25AF04","hd":"55","v_score":"5.69030266","decile":"7","lat":40.395869163715,"lng":-111.793116053993},{"id":"16310","name":"Nikki Zulauf","party":"Rep","address":"936 N 100 E, American Fork, UT 84003","precinct":"25AF04","hd":"55","v_score":"0","decile":"1","lat":40.396039023394,"lng":-111.795760907921},{"id":"16472","name":"Kaycee Greenholt","party":"Dem","address":"1090 N 100 E, American Fork, UT 84003","precinct":"25AF04","hd":"55","v_score":"1.121327652","decile":"3","lat":40.398496160711,"lng":-111.795139580824},{"id":"16711","name":"Britany Stark DDS","party":"Rep","address":"1230 N 100 E, American Fork, UT 84003","precinct":"25AF04","hd":"55","v_score":"2.315214949","decile":"5","lat":40.401014792555,"lng":-111.793642903846},{"id":"16834","name":"Slade Schiller","party":"Rep","address":"865 N 520 E, American Fork, UT 84003","precinct":"25AF04","hd":"55","v_score":"13.25735655","decile":"9","lat":40.394244681344,"lng":-111.785024858939},{"id":"16838","name":"Mari Johnston","party":"Dem","address":"840 N 610 E, American Fork, UT 84003","precinct":"25AF04","hd":"55","v_score":"22.51168949","decile":"10","lat":40.393739302186,"lng":-111.78186653581},{"id":"18101","name":"Elouise Miller","party":"Rep","address":"728 E 875 N, American Fork, UT 84003","precinct":"25AF04","hd":"55","v_score":"13.46923073","decile":"9","lat":40.394887521409,"lng":-111.779144483982},{"id":"19968","name":"Mr. Luigi Gerhold","party":"Dem","address":"895 N 900 E, American Fork, UT 84003","precinct":"25AF04","hd":"55","v_score":"1.121327652","decile":"3","lat":40.394934103245,"lng":-111.773362559839},{"id":"20883","name":"Marrion Hansen-Shanahan","party":"Dem","address":"895 N 900 E, American Fork, UT 84003","precinct":"25AF04","hd":"55","v_score":"1.121327652","decile":"3","lat":40.394934103245,"lng":-111.773362559839},{"id":"22299","name":"Buffy Nikolaus","party":"Dem","address":"963 N 400 E, American Fork, UT 84003","precinct":"25AF04","hd":"55","v_score":"2.315214949","decile":"5","lat":40.394227245354,"lng":-111.78776697351},{"id":"23475","name":"Dallas Wiegand-Barton","party":"Dem","address":"848 N 100 E, American Fork, UT 84003","precinct":"25AF04","hd":"55","v_score":"8.280646305","decile":"8","lat":40.393844939917,"lng":-111.795694291957},{"id":"24349","name":"Paige Marquardt","party":"","address":"931 N 500 E, American Fork, UT 84003","precinct":"25AF04","hd":"55","v_score":"3.781490609","decile":"6","lat":40.395572315403,"lng":-111.786088982716},{"id":"24350","name":"Pearly Reichert","party":"Dem","address":"931 N 500 E, American Fork, UT 84003","precinct":"25AF04","hd":"55","v_score":"2.315214949","decile":"5","lat":40.395572315403,"lng":-111.786088982716},{"id":"25058","name":"Farrah Schowalter-Daugherty","party":"Rep","address":"728 E 875 N, American Fork, UT 84003","precinct":"25AF04","hd":"55","v_score":"19.02905697","decile":"10","lat":40.394887521409,"lng":-111.779144483982},{"id":"25339","name":"Josefa Hammes MD","party":"Rep","address":"770 N 200 E, American Fork, UT 84003","precinct":"25AF04","hd":"55","v_score":"1.121327652","decile":"3","lat":40.392380200429,"lng":-111.793030242224},{"id":"26266","name":"Odalys Padberg","party":"Rep","address":"782 N 310 E, American Fork, UT 84003","precinct":"25AF04","hd":"55","v_score":"1.46627566","decile":"4","lat":40.392790056483,"lng":-111.790677225134},{"id":"27006","name":"Oswald Hane","party":"Dem","address":"789 N 500 E, American Fork, UT 84003","precinct":"25AF04","hd":"55","v_score":"1.121327652","decile":"3","lat":40.393013246935,"lng":-111.786081498334},{"id":"27656","name":"Bebe Rohan","party":"Rep","address":"850 N 350 E, American Fork, UT 84003","precinct":"25AF04","hd":"55","v_score":"14.24014515","decile":"9","lat":40.393544086247,"lng":-111.789637779247},{"id":"27925","name":"Amma Kautzer","party":"","address":"228 E 900 N, American Fork, UT 84003","precinct":"25AF04","hd":"55","v_score":"13.61621523","decile":"9","lat":40.394843700589,"lng":-111.792282628154},{"id":"28351","name":"Miss Britt Jenkins","party":"","address":"972 N 370 E, American Fork, UT 84003","precinct":"25AF04","hd":"55","v_score":"0","decile":"1","lat":40.396335641978,"lng":-111.788450265523},{"id":"28830","name":"Albertina Stark","party":"","address":"291 E 700 N, American Fork, UT 84003","precinct":"25AF04","hd":"55","v_score":"1.193887297","decile":"3","lat":40.391018184713,"lng":-111.790748578284},{"id":"29031","name":"Willis Lakin-Koepp","party":"Dem","address":"619 N 230 E, American Fork, UT 84003","precinct":"25AF04","hd":"55","v_score":"24.96756651","decile":"10","lat":40.38916407994,"lng":-111.792314567502},{"id":"29550","name":"Hedy O'Connell","party":"","address":"912 N 290 E, American Fork, UT 84003","precinct":"25AF04","hd":"55","v_score":"10.8238813","decile":"9","lat":40.395037018811,"lng":-111.790936929256},{"id":"29554","name":"Ms. Clevie Gulgowski","party":"","address":"1166 N 100 E, American Fork, UT 84003","precinct":"25AF04","hd":"55","v_score":"1.121327652","decile":"3","lat":40.399877911798,"lng":-111.794347381358},{"id":"29938","name":"Kaylene Gaylord","party":"Rep","address":"734 N 350 E, American Fork, UT 84003","precinct":"25AF04","hd":"55","v_score":"8.547102156","decile":"8","lat":40.391624570126,"lng":-111.789563546554},{"id":"30399","name":"Wayman Miller","party":"Dem","address":"945 N 370 E, American Fork, UT 84003","precinct":"25AF04","hd":"55","v_score":"2.660162957","decile":"5","lat":40.395844591622,"lng":-111.788596041123},{"id":"30410","name":"Noelia Marvin","party":"","address":"718 N 350 E, American Fork, UT 84003","precinct":"25AF04","hd":"55","v_score":"6.881235673","decile":"8","lat":40.391336361478,"lng":-111.78953472573},{"id":"30538","name":"Yoshio Johnson","party":"","address":"783 E 700 N, American Fork, UT 84003","precinct":"25AF04","hd":"55","v_score":"6.657533174","decile":"7","lat":40.391907291256,"lng":-111.778464809769},{"id":"30788","name":"Mickey Lynch DDS","party":"","address":"695 N 200 E, American Fork, UT 84003","precinct":"25AF04","hd":"55","v_score":"2.315214949","decile":"5","lat":40.390844865456,"lng":-111.793208667335},{"id":"30986","name":"Neppie Jones","party":"Dem","address":"366 E 870 N, American Fork, UT 84003","precinct":"25AF04","hd":"55","v_score":"8.421194992","decile":"8","lat":40.394622491071,"lng":-111.788688504446},{"id":"31147","name":"Rena McCullough","party":"","address":"614 N 100 E, American Fork, UT 84003","precinct":"25AF04","hd":"55","v_score":"2.587603312","decile":"5","lat":40.389450338513,"lng":-111.795696258807},{"id":"31710","name":"Mr. Oakley Robel PhD","party":"Rep","address":"822 N 100 E, American Fork, UT 84003","precinct":"25AF04","hd":"55","v_score":"4.568975008","decile":"7","lat":40.393429912365,"lng":-111.795692024102},{"id":"32250","name":"Lurline Ernser","party":"Rep","address":"672 E 875 N, American Fork, UT 84003","precinct":"25AF04","hd":"55","v_score":"1.193887297","decile":"3","lat":40.394879626339,"lng":-111.780307046096},{"id":"32278","name":"Christina Becker II","party":"Rep","address":"789 N 310 E, American Fork, UT 84003","precinct":"25AF04","hd":"55","v_score":"3.711952487","decile":"6","lat":40.392829001256,"lng":-111.790821629231},{"id":"32641","name":"Kenya Reilly-Huels","party":"Dem","address":"782 N 310 E, American Fork, UT 84003","precinct":"25AF04","hd":"55","v_score":"2.660162957","decile":"5","lat":40.392790056483,"lng":-111.790677225134},{"id":"33005","name":"Ms. Dorthey Goldner DDS","party":"Rep","address":"851 N 360 E, American Fork, UT 84003","precinct":"25AF04","hd":"55","v_score":"6.481563075","decile":"7","lat":40.393836383374,"lng":-111.788938335046},{"id":"33072","name":"Bo Veum Sr.","party":"","address":"795 N 310 E, American Fork, UT 84003","precinct":"25AF04","hd":"55","v_score":"9.907118004","decile":"8","lat":40.392855295267,"lng":-111.790815883023},{"id":"33147","name":"Jason Boehm I","party":"Rep","address":"920 N 100 E, American Fork, UT 84003","precinct":"25AF04","hd":"55","v_score":"2.315214949","decile":"5","lat":40.395830984783,"lng":-111.795757818267},{"id":"33399","name":"Miss Nicolle Bins DDS","party":"Rep","address":"352 E 800 N, American Fork, UT 84003","precinct":"25AF04","hd":"55","v_score":"8.280646305","decile":"8","lat":40.384067915226,"lng":-111.776786090358},{"id":"34285","name":"Mr. Kolton Wolf Jr.","party":"Dem","address":"777 N 390 E, American Fork, UT 84003","precinct":"25AF04","hd":"55","v_score":"2.587603312","decile":"5","lat":40.392208992675,"lng":-111.788037562268},{"id":"34456","name":"Alijah Fritsch","party":"Dem","address":"851 N 360 E, American Fork, UT 84003","precinct":"25AF04","hd":"55","v_score":"5.191257514","decile":"7","lat":40.393836383374,"lng":-111.788938335046},{"id":"34824","name":"Ah Wyman","party":"Rep","address":"609 N 200 E, American Fork, UT 84003","precinct":"25AF04","hd":"55","v_score":"2.587603312","decile":"5","lat":40.389231567674,"lng":-111.793216102098},{"id":"34870","name":"Booker Senger Sr.","party":"","address":"291 E 700 N, American Fork, UT 84003","precinct":"25AF04","hd":"55","v_score":"7.721463142","decile":"8","lat":40.391018184713,"lng":-111.790748578284},{"id":"36304","name":"Mr. Darrien Zboncak DDS","party":"","address":"868 N 400 E, American Fork, UT 84003","precinct":"25AF04","hd":"55","v_score":"3.781490609","decile":"6","lat":40.393831356138,"lng":-111.787632553676},{"id":"38787","name":"Tobias Yundt","party":"Rep","address":"635 N 200 E, American Fork, UT 84003","precinct":"25AF04","hd":"55","v_score":"8.363183621","decile":"8","lat":40.389719308864,"lng":-111.793213854379},{"id":"39745","name":"Alto Quitzon","party":"Rep","address":"301 E 925 N, American Fork, UT 84003","precinct":"25AF04","hd":"55","v_score":"3.93832808","decile":"6","lat":40.395679880106,"lng":-111.790302504442},{"id":"40779","name":"Lorine Crooks","party":"Dem","address":"801 N 500 E, American Fork, UT 84003","precinct":"25AF04","hd":"55","v_score":"2.315214949","decile":"5","lat":40.393160330517,"lng":-111.78618771759},{"id":"41646","name":"Kortney Roob-Johns","party":"Dem","address":"963 N 400 E, American Fork, UT 84003","precinct":"25AF04","hd":"55","v_score":"2.315214949","decile":"5","lat":40.394227245354,"lng":-111.78776697351},{"id":"41650","name":"Juana Conroy","party":"","address":"709 N Riverwalk Dr, American Fork, UT 84003","precinct":"25AF04","hd":"55","v_score":"2.998909327","decile":"6","lat":40.391505812692,"lng":-111.786685634639},{"id":"43218","name":"Kyree Torphy","party":"Rep","address":"329 E 700 N, American Fork, UT 84003","precinct":"25AF04","hd":"55","v_score":"2.315214949","decile":"5","lat":40.391011168732,"lng":-111.789981581076},{"id":"43266","name":"Squire Pagac-Blanda","party":"","address":"787 N 610 E, American Fork, UT 84003","precinct":"25AF04","hd":"55","v_score":"2.315214949","decile":"5","lat":40.393263276724,"lng":-111.782014627917},{"id":"43566","name":"Wilkie Prosacco","party":"Rep","address":"638 N 100 E, American Fork, UT 84003","precinct":"25AF04","hd":"55","v_score":"1.121327652","decile":"3","lat":40.390068071541,"lng":-111.795692042119},{"id":"43600","name":"Rollie Kassulke","party":"","address":"1346 N 100 E, American Fork, UT 84003","precinct":"25AF04","hd":"55","v_score":"0","decile":"1","lat":40.403298293384,"lng":-111.792215734972},{"id":"44359","name":"Babe Hintz-Keeling","party":"Dem","address":"258 E 900 N, American Fork, UT 84003","precinct":"25AF04","hd":"55","v_score":"15.07605507","decile":"9","lat":40.394846930455,"lng":-111.79164886809},{"id":"44479","name":"Miss Phylicia Bradtke MD","party":"Dem","address":"258 E 900 N, American Fork, UT 84003","precinct":"25AF04","hd":"55","v_score":"11.36410258","decile":"9","lat":40.394846930455,"lng":-111.79164886809},{"id":"44788","name":"Lyn Reinger","party":"","address":"509 E 900 N, American Fork, UT 84003","precinct":"25AF04","hd":"55","v_score":"3.93832808","decile":"6","lat":40.387521734205,"lng":-111.773321430075},{"id":"45107","name":"Carri Ullrich-Johns","party":"Rep","address":"926 N 400 E, American Fork, UT 84003","precinct":"25AF04","hd":"55","v_score":"2.744440783","decile":"5","lat":40.394073437688,"lng":-111.787622701489},{"id":"45257","name":"Fulton Ullrich","party":"","address":"1152 N 100 E, American Fork, UT 84003","precinct":"25AF04","hd":"55","v_score":"16.57131358","decile":"9","lat":40.399629219132,"lng":-111.794501485814},{"id":"45579","name":"Miss Malissa Parisian","party":"Dem","address":"742 N 730 E, American Fork, UT 84003","precinct":"25AF04","hd":"55","v_score":"8.507303088","decile":"8","lat":40.392830941755,"lng":-111.77915188088},{"id":"45825","name":"Santino Waters","party":"Dem","address":"425 E 700 N, American Fork, UT 84003","precinct":"25AF04","hd":"55","v_score":"3.93832808","decile":"6","lat":40.391037256775,"lng":-111.787394680795},{"id":"46783","name":"Phyliss Goodwin DVM","party":"","address":"718 N 350 E, American Fork, UT 84003","precinct":"25AF04","hd":"55","v_score":"5.273794831","decile":"7","lat":40.391336361478,"lng":-111.78953472573},{"id":"46862","name":"Miss Porsha Mante DDS","party":"","address":"1182 N 100 E, American Fork, UT 84003","precinct":"25AF04","hd":"55","v_score":"3.93832808","decile":"6","lat":40.400162131987,"lng":-111.79417126198},{"id":"47073","name":"Dr. Brandy Hessel MD","party":"","address":"267 E 800 N, American Fork, UT 84003","precinct":"25AF04","hd":"55","v_score":"23.45391251","decile":"10","lat":40.393178535779,"lng":-111.791544344275},{"id":"47894","name":"Jackson Harris","party":"Dem","address":"1331 N 200 E, American Fork, UT 84003","precinct":"25AF04","hd":"55","v_score":"37.66929909","decile":"10","lat":40.402714889219,"lng":-111.791216838757},{"id":"48254","name":"Khalilah Hickle","party":"","address":"949 N 400 E, American Fork, UT 84003","precinct":"25AF04","hd":"55","v_score":"2.587603312","decile":"5","lat":40.394168811877,"lng":-111.787769351624},{"id":"48712","name":"Dr. Yahir Cormier","party":"Rep","address":"357 E 700 N, American Fork, UT 84003","precinct":"25AF04","hd":"55","v_score":"15.53273099","decile":"9","lat":40.391019874708,"lng":-111.789083391055},{"id":"48713","name":"Kazuo White","party":"","address":"357 E 700 N, American Fork, UT 84003","precinct":"25AF04","hd":"55","v_score":"15.53273099","decile":"9","lat":40.391019874708,"lng":-111.789083391055},{"id":"48993","name":"Taraji Will","party":"Rep","address":"1331 N 200 E, American Fork, UT 84003","precinct":"25AF04","hd":"55","v_score":"37.66929909","decile":"10","lat":40.402714889219,"lng":-111.791216838757},{"id":"49087","name":"Kyara Marks","party":"Dem","address":"712 E 750 N, American Fork, UT 84003","precinct":"25AF04","hd":"55","v_score":"2.315214949","decile":"5","lat":40.392962699775,"lng":-111.778915956693},{"id":"50057","name":"Mr. Clemence Mayer","party":"Dem","address":"1152 N 100 E, American Fork, UT 84003","precinct":"25AF04","hd":"55","v_score":"5.258122542","decile":"7","lat":40.399629219132,"lng":-111.794501485814},{"id":"50697","name":"Murray Hintz","party":"Rep","address":"945 N 370 E, American Fork, UT 84003","precinct":"25AF04","hd":"55","v_score":"4.409183253","decile":"7","lat":40.395844591622,"lng":-111.788596041123},{"id":"51176","name":"Ms. Lovey Hoeger","party":"Rep","address":"665 E 700 N, American Fork, UT 84003","precinct":"25AF04","hd":"55","v_score":"2.587603312","decile":"5","lat":40.391900157934,"lng":-111.780707592751},{"id":"51448","name":"Dr. Jeb Fritsch","party":"Dem","address":"783 E 700 N, American Fork, UT 84003","precinct":"25AF04","hd":"55","v_score":"9.35760564","decile":"8","lat":40.391907291256,"lng":-111.778464809769},{"id":"51452","name":"Debrah West","party":"","address":"551 E 700 N, American Fork, UT 84003","precinct":"25AF04","hd":"55","v_score":"3.781490609","decile":"6","lat":40.391877005406,"lng":-111.784550285255},{"id":"52113","name":"Jenelle Rosenbaum","party":"Dem","address":"366 E 870 N, American Fork, UT 84003","precinct":"25AF04","hd":"55","v_score":"3.93832808","decile":"6","lat":40.394622491071,"lng":-111.788688504446},{"id":"53934","name":"Jasiah Konopelski","party":"Rep","address":"1342 N 100 E, American Fork, UT 84003","precinct":"25AF04","hd":"55","v_score":"2.660162957","decile":"5","lat":40.403210319156,"lng":-111.79227291823},{"id":"54406","name":"Alijah Wunsch","party":"Dem","address":"764 N 610 E, American Fork, UT 84003","precinct":"25AF04","hd":"55","v_score":"1.121327652","decile":"3","lat":40.392740013834,"lng":-111.781861572589},{"id":"54917","name":"Miss Priscila Runolfsson MD","party":"","address":"873 N 610 E, American Fork, UT 84003","precinct":"25AF04","hd":"55","v_score":"0","decile":"1","lat":40.39465597199,"lng":-111.782021065921},{"id":"55746","name":"Junious Abshire-Denesik","party":"Dem","address":"728 E 875 N, American Fork, UT 84003","precinct":"25AF04","hd":"55","v_score":"16.15301441","decile":"9","lat":40.394887521409,"lng":-111.779144483982},{"id":"55915","name":"Ronny Labadie","party":"Dem","address":"787 N 610 E, American Fork, UT 84003","precinct":"25AF04","hd":"55","v_score":"1.193887297","decile":"3","lat":40.393263276724,"lng":-111.782014627917},{"id":"56086","name":"Rube Wolff","party":"","address":"1075 N 200 E, American Fork, UT 84003","precinct":"25AF04","hd":"55","v_score":"1.623113131","decile":"5","lat":40.397534604343,"lng":-111.793113235745},{"id":"56526","name":"Dr. Theron Wiza","party":"Dem","address":"825 N 730 E, American Fork, UT 84003","precinct":"25AF04","hd":"55","v_score":"3.93832808","decile":"6","lat":40.393419187411,"lng":-111.779304930774},{"id":"57095","name":"Caroline Murray","party":"","address":"1005 N 200 E, American Fork, UT 84003","precinct":"25AF04","hd":"55","v_score":"24.71310576","decile":"10","lat":40.396639895094,"lng":-111.793119019183},{"id":"59010","name":"Jaden Lowe","party":"Dem","address":"138 E 1120 N, American Fork, UT 84003","precinct":"25AF04","hd":"55","v_score":"1.121327652","decile":"3","lat":40.399064639862,"lng":-111.794187758882},{"id":"59842","name":"Dr. Aidyn Purdy","party":"Rep","address":"401 E 980 N, American Fork, UT 84003","precinct":"25AF04","hd":"55","v_score":"1.193887297","decile":"3","lat":40.3968968292,"lng":-111.787604383666},{"id":"59913","name":"Mr. Jamison Waelchi","party":"Rep","address":"655 N 200 E, American Fork, UT 84003","precinct":"25AF04","hd":"55","v_score":"2.744440783","decile":"5","lat":40.390094494395,"lng":-111.793212125364},{"id":"60227","name":"Cornelia Ferry","party":"Dem","address":"1166 N 100 E, American Fork, UT 84003","precinct":"25AF04","hd":"55","v_score":"6.881235673","decile":"8","lat":40.399877911798,"lng":-111.794347381358},{"id":"60396","name":"Deirdre Funk","party":"","address":"746 N 730 E, American Fork, UT 84003","precinct":"25AF04","hd":"55","v_score":"1.193887297","decile":"3","lat":40.392918892503,"lng":-111.779152219141},{"id":"60744","name":"Clinton Hettinger","party":"Rep","address":"937 N 240 E, American Fork, UT 84003","precinct":"25AF04","hd":"55","v_score":"0","decile":"1","lat":40.395246591082,"lng":-111.792084792705},{"id":"61828","name":"Ryan Goodwin","party":"Rep","address":"957 N 400 E, American Fork, UT 84003","precinct":"25AF04","hd":"55","v_score":"16.26158998","decile":"9","lat":40.394202202436,"lng":-111.787767992702},{"id":"62082","name":"Erna Halvorson","party":"","address":"757 N 500 E, American Fork, UT 84003","precinct":"25AF04","hd":"55","v_score":"1.121327652","decile":"3","lat":40.392867787288,"lng":-111.785975546275},{"id":"62194","name":"Deb Corkery","party":"Rep","address":"818 N 100 E, American Fork, UT 84003","precinct":"25AF04","hd":"55","v_score":"1.121327652","decile":"3","lat":40.393366061972,"lng":-111.795691675201},{"id":"62497","name":"Ms. Angelina Schuppe","party":"","address":"535 E 900 N, American Fork, UT 84003","precinct":"25AF04","hd":"55","v_score":"6.881235673","decile":"8","lat":40.388082167693,"lng":-111.773318924966},{"id":"62860","name":"Tiera Emard","party":"Rep","address":"868 N 400 E, American Fork, UT 84003","precinct":"25AF04","hd":"55","v_score":"1.623113131","decile":"5","lat":40.393831356138,"lng":-111.787632553676},{"id":"63070","name":"Mr. Eino Jacobson","party":"","address":"619 N 200 E, American Fork, UT 84003","precinct":"25AF04","hd":"55","v_score":"2.876042565","decile":"6","lat":40.38941916044,"lng":-111.793215237591},{"id":"63454","name":"Thor Boyer","party":"","address":"745 E 750 N, American Fork, UT 84003","precinct":"25AF04","hd":"55","v_score":"0","decile":"1","lat":40.393077291165,"lng":-111.779005351297},{"id":"63556","name":"Sherie Wolf","party":"Rep","address":"1352 N 100 E, American Fork, UT 84003","precinct":"25AF04","hd":"55","v_score":"9.678939211","decile":"8","lat":40.403430254725,"lng":-111.792129960086},{"id":"64295","name":"Markell Kris","party":"Rep","address":"757 N 500 E, American Fork, UT 84003","precinct":"25AF04","hd":"55","v_score":"1.121327652","decile":"3","lat":40.392867787288,"lng":-111.785975546275},{"id":"64571","name":"Stephen Jacobi","party":"Dem","address":"892 N 340 E, American Fork, UT 84003","precinct":"25AF04","hd":"55","v_score":"4.905839784","decile":"7","lat":40.394805252046,"lng":-111.789916669725},{"id":"64719","name":"Dr. Andres Feeney Sr.","party":"Dem","address":"942 N 240 E, American Fork, UT 84003","precinct":"25AF04","hd":"55","v_score":"7.650280567","decile":"8","lat":40.395295113715,"lng":-111.791934572051},{"id":"64844","name":"Shenna Metz","party":"","address":"877 N 340 E, American Fork, UT 84003","precinct":"25AF04","hd":"55","v_score":"0","decile":"1","lat":40.394675518543,"lng":-111.790051594723},{"id":"65207","name":"Kerwin Aufderhar DVM","party":"Dem","address":"293 E 925 N, American Fork, UT 84003","precinct":"25AF04","hd":"55","v_score":"0","decile":"1","lat":40.395675500828,"lng":-111.790347200871},{"id":"65425","name":"Thea McGlynn","party":"Rep","address":"1126 N 100 E, American Fork, UT 84003","precinct":"25AF04","hd":"55","v_score":"2.942907593","decile":"6","lat":40.399167361325,"lng":-111.794787679803},{"id":"65477","name":"Rosalind Legros","party":"","address":"868 N 400 E, American Fork, UT 84003","precinct":"25AF04","hd":"55","v_score":"2.315214949","decile":"5","lat":40.393831356138,"lng":-111.787632553676},{"id":"66040","name":"Dianne Kozey","party":"Dem","address":"825 N 730 E, American Fork, UT 84003","precinct":"25AF04","hd":"55","v_score":"5.258122542","decile":"7","lat":40.393419187411,"lng":-111.779304930774},{"id":"66422","name":"Wiley Dibbert","party":"","address":"836 N 100 E, American Fork, UT 84003","precinct":"25AF04","hd":"55","v_score":"1.121327652","decile":"3","lat":40.393653388739,"lng":-111.795693245254},{"id":"67727","name":"Star Ritchie DVM","party":"Dem","address":"1147 N 160 E, American Fork, UT 84003","precinct":"25AF04","hd":"55","v_score":"5.815909755","decile":"7","lat":40.399683600593,"lng":-111.793208506724},{"id":"68319","name":"Arron Torphy-Hills","party":"Rep","address":"825 N 520 E, American Fork, UT 84003","precinct":"25AF04","hd":"55","v_score":"1.623113131","decile":"5","lat":40.393703536871,"lng":-111.785084046683},{"id":"68906","name":"Malakai Rogahn","party":"","address":"896 N 290 E, American Fork, UT 84003","precinct":"25AF04","hd":"55","v_score":"1.121327652","decile":"3","lat":40.394816879465,"lng":-111.790932649823},{"id":"68916","name":"Tayshaun Reinger","party":"Rep","address":"734 N Riverwalk Dr, American Fork, UT 84003","precinct":"25AF04","hd":"55","v_score":"5.335402662","decile":"7","lat":40.391909954905,"lng":-111.786607805887},{"id":"69799","name":"Dr. Eduardo Hackett I","party":"Rep","address":"868 N 100 E, American Fork, UT 84003","precinct":"25AF04","hd":"55","v_score":"0","decile":"1","lat":40.39452202401,"lng":-111.795717088657},{"id":"69960","name":"Sula Daniel-Gutmann","party":"Dem","address":"521 E 900 N, American Fork, UT 84003","precinct":"25AF04","hd":"55","v_score":"0","decile":"1","lat":40.387652350811,"lng":-111.773319945779},{"id":"70024","name":"Alvira Hammes-Ruecker","party":"Dem","address":"1147 N 160 E, American Fork, UT 84003","precinct":"25AF04","hd":"55","v_score":"2.817000428","decile":"6","lat":40.399683600593,"lng":-111.793208506724},{"id":"70744","name":"Sanjuanita Collins","party":"Dem","address":"746 N 730 E, American Fork, UT 84003","precinct":"25AF04","hd":"55","v_score":"3.93832808","decile":"6","lat":40.392918892503,"lng":-111.779152219141},{"id":"72210","name":"Geneva Renner","party":"Rep","address":"638 N 100 E, American Fork, UT 84003","precinct":"25AF04","hd":"55","v_score":"0","decile":"1","lat":40.390068071541,"lng":-111.795692042119},{"id":"72218","name":"Hailie Brown-Swift","party":"Rep","address":"734 N 350 E, American Fork, UT 84003","precinct":"25AF04","hd":"55","v_score":"2.315214949","decile":"5","lat":40.391624570126,"lng":-111.789563546554},{"id":"72655","name":"Grover Hackett","party":"Dem","address":"918 N 200 E, American Fork, UT 84003","precinct":"25AF04","hd":"55","v_score":"14.40759057","decile":"9","lat":40.395194420206,"lng":-111.792976393902},{"id":"72719","name":"Mr. Lucky Armstrong Jr.","party":"Dem","address":"1147 N 160 E, American Fork, UT 84003","precinct":"25AF04","hd":"55","v_score":"9.567299636","decile":"8","lat":40.399683600593,"lng":-111.793208506724},{"id":"72826","name":"Octave Hilpert","party":"Dem","address":"221 E 900 N, American Fork, UT 84003","precinct":"25AF04","hd":"55","v_score":"2.315214949","decile":"5","lat":40.394958292013,"lng":-111.792797828858},{"id":"73456","name":"Miss Danyel Treutel","party":"","address":"746 N 730 E, American Fork, UT 84003","precinct":"25AF04","hd":"55","v_score":"6.52928996","decile":"7","lat":40.392918892503,"lng":-111.779152219141},{"id":"73471","name":"Dorris Jacobs-Maggio","party":"Dem","address":"745 N 730 E, American Fork, UT 84003","precinct":"25AF04","hd":"55","v_score":"2.315214949","decile":"5","lat":40.392552095388,"lng":-111.779301264429},{"id":"73936","name":"Miss Peyton Pfannerstill","party":"","address":"1152 N 160 E, American Fork, UT 84003","precinct":"25AF04","hd":"55","v_score":"1.121327652","decile":"3","lat":40.399737574117,"lng":-111.793048115594},{"id":"73943","name":"Mr. Chin Hahn","party":"Rep","address":"138 E 1120 N, American Fork, UT 84003","precinct":"25AF04","hd":"55","v_score":"2.315214949","decile":"5","lat":40.399064639862,"lng":-111.794187758882},{"id":"74825","name":"Dr. Truman Mann","party":"Dem","address":"513 E 800 N, American Fork, UT 84003","precinct":"25AF04","hd":"55","v_score":"9.830961897","decile":"8","lat":40.393249893066,"lng":-111.786011524952},{"id":"75069","name":"Dr. Alpheus Mraz Sr.","party":"Dem","address":"937 N 240 E, American Fork, UT 84003","precinct":"25AF04","hd":"55","v_score":"0","decile":"1","lat":40.395246591082,"lng":-111.792084792705},{"id":"75318","name":"Pearley Jenkins","party":"","address":"895 N 900 E, American Fork, UT 84003","precinct":"25AF04","hd":"55","v_score":"2.315214949","decile":"5","lat":40.394934103245,"lng":-111.773362559839},{"id":"75319","name":"Brandi Lesch-Hettinger","party":"Rep","address":"895 N 900 E, American Fork, UT 84003","precinct":"25AF04","hd":"55","v_score":"6.481563075","decile":"7","lat":40.394934103245,"lng":-111.773362559839},{"id":"75320","name":"Una Boyer","party":"Dem","address":"895 N 900 E, American Fork, UT 84003","precinct":"25AF04","hd":"55","v_score":"1.121327652","decile":"3","lat":40.394934103245,"lng":-111.773362559839},{"id":"75322","name":"Ester Beahan","party":"","address":"895 N 900 E, American Fork, UT 84003","precinct":"25AF04","hd":"55","v_score":"1.121327652","decile":"3","lat":40.394934103245,"lng":-111.773362559839},{"id":"75566","name":"Dr. Kalvin Kassulke","party":"Rep","address":"782 N 310 E, American Fork, UT 84003","precinct":"25AF04","hd":"55","v_score":"2.817000428","decile":"6","lat":40.392790056483,"lng":-111.790677225134},{"id":"75936","name":"Jonell Hickle","party":"Dem","address":"225 E 700 N, American Fork, UT 84003","precinct":"25AF04","hd":"55","v_score":"12.08307454","decile":"9","lat":40.391029622684,"lng":-111.792441378608},{"id":"76104","name":"Ms. Bina Luettgen DDS","party":"Dem","address":"305 E 800 N, American Fork, UT 84003","precinct":"25AF04","hd":"55","v_score":"1.121327652","decile":"3","lat":40.392944803155,"lng":-111.790609900019},{"id":"77030","name":"Lesley Lebsack","party":"","address":"945 N 370 E, American Fork, UT 84003","precinct":"25AF04","hd":"55","v_score":"3.93832808","decile":"6","lat":40.395844591622,"lng":-111.788596041123},{"id":"77388","name":"Cheyenne Buckridge Sr.","party":"","address":"1369 N 200 E, American Fork, UT 84003","precinct":"25AF04","hd":"55","v_score":"1.121327652","decile":"3","lat":40.403512300401,"lng":-111.804018164217},{"id":"77523","name":"Mr. Arvil Hauck","party":"Dem","address":"1228 N 160 E, American Fork, UT 84003","precinct":"25AF04","hd":"55","v_score":"25.03283206","decile":"10","lat":40.400527937911,"lng":-111.792661397531},{"id":"79562","name":"Dr. Glynda McCullough","party":"Dem","address":"854 N 400 E, American Fork, UT 84003","precinct":"25AF04","hd":"55","v_score":"3.93832808","decile":"6","lat":40.393772922661,"lng":-111.787634931791},{"id":"80067","name":"Dr. Marlen McDermott","party":"","address":"770 N 350 E, American Fork, UT 84003","precinct":"25AF04","hd":"55","v_score":"3.93832808","decile":"6","lat":40.392271463455,"lng":-111.789631932428},{"id":"83502","name":"Montie Sipes","party":"","address":"785 N 390 E, American Fork, UT 84003","precinct":"25AF04","hd":"55","v_score":"0","decile":"1","lat":40.392443795516,"lng":-111.788037562237},{"id":"83926","name":"Arbie Blick-Becker","party":"Dem","address":"976 N 200 E, American Fork, UT 84003","precinct":"25AF04","hd":"55","v_score":"4.069929862","decile":"6","lat":40.395957544547,"lng":-111.792964164246},{"id":"84297","name":"Earlie Kub","party":"","address":"1126 N 100 E, American Fork, UT 84003","precinct":"25AF04","hd":"55","v_score":"0","decile":"1","lat":40.399167361325,"lng":-111.794787679803},{"id":"84727","name":"Tiesha Adams","party":"Dem","address":"413 E 775 N, American Fork, UT 84003","precinct":"25AF04","hd":"55","v_score":"1.193887297","decile":"3","lat":40.392150291943,"lng":-111.787750758245},{"id":"85024","name":"Evelynn Kub","party":"Rep","address":"918 N 200 E, American Fork, UT 84003","precinct":"25AF04","hd":"55","v_score":"4.905839784","decile":"7","lat":40.395194420206,"lng":-111.792976393902},{"id":"86532","name":"Marty Volkman","party":"Rep","address":"522 E 900 N, American Fork, UT 84003","precinct":"25AF04","hd":"55","v_score":"1.193887297","decile":"4","lat":40.387583329513,"lng":-111.773170279024},{"id":"86765","name":"Erica Schuppe DVM","party":"","address":"742 N 730 E, American Fork, UT 84003","precinct":"25AF04","hd":"55","v_score":"0","decile":"1","lat":40.392830941755,"lng":-111.77915188088},{"id":"86882","name":"Darrion Hoeger-Rath","party":"Rep","address":"1152 N 100 E, American Fork, UT 84003","precinct":"25AF04","hd":"55","v_score":"9.638447451","decile":"8","lat":40.399629219132,"lng":-111.794501485814},{"id":"86947","name":"Dr. Jaxton Borer MD","party":"Rep","address":"509 E 900 N, American Fork, UT 84003","precinct":"25AF04","hd":"55","v_score":"5.926494964","decile":"7","lat":40.387521734205,"lng":-111.773321430075},{"id":"88214","name":"Mace Fay","party":"","address":"258 E 900 N, American Fork, UT 84003","precinct":"25AF04","hd":"55","v_score":"0","decile":"1","lat":40.394846930455,"lng":-111.79164886809},{"id":"88936","name":"Noma Labadie","party":"","address":"367 E 870 N, American Fork, UT 84003","precinct":"25AF04","hd":"55","v_score":"16.1686867","decile":"9","lat":40.39461562323,"lng":-111.788962383928},{"id":"89803","name":"Chas Goldner","party":"","address":"840 N 610 E, American Fork, UT 84003","precinct":"25AF04","hd":"55","v_score":"20.51460138","decile":"10","lat":40.393739302186,"lng":-111.78186653581},{"id":"90893","name":"Mr. Archibald Metz I","party":"","address":"801 N 500 E, American Fork, UT 84003","precinct":"25AF04","hd":"55","v_score":"0","decile":"1","lat":40.393160330517,"lng":-111.78618771759},{"id":"91292","name":"Maricela Rohan DDS","party":"Dem","address":"535 E 900 N, American Fork, UT 84003","precinct":"25AF04","hd":"55","v_score":"3.737122292","decile":"6","lat":40.388082167693,"lng":-111.773318924966},{"id":"91591","name":"Darrien Wolff","party":"Dem","address":"851 N 400 E, American Fork, UT 84003","precinct":"25AF04","hd":"55","v_score":"1.193887297","decile":"4","lat":40.393759777534,"lng":-111.787785998423},{"id":"92011","name":"Mrs. Delsie Herman","party":"Rep","address":"783 E 700 N, American Fork, UT 84003","precinct":"25AF04","hd":"55","v_score":"8.236277988","decile":"8","lat":40.391907291256,"lng":-111.778464809769},{"id":"92573","name":"Laurence Gibson","party":"Dem","address":"266 E 800 N, American Fork, UT 84003","precinct":"25AF04","hd":"55","v_score":"0","decile":"1","lat":40.393073558417,"lng":-111.791484018636},{"id":"93920","name":"Mallie Beahan","party":"Rep","address":"730 N 200 E, American Fork, UT 84003","precinct":"25AF04","hd":"55","v_score":"1.193887297","decile":"4","lat":40.39161062047,"lng":-111.793045245603},{"id":"93993","name":"Chloie Mayer DVM","party":"Dem","address":"518 E 800 N, American Fork, UT 84003","precinct":"25AF04","hd":"55","v_score":"0","decile":"1","lat":40.39317404326,"lng":-111.78589305586},{"id":"94983","name":"Noel Effertz-Jakubowski","party":"","address":"925 N 240 E, American Fork, UT 84003","precinct":"25AF04","hd":"55","v_score":"1.193887297","decile":"4","lat":40.395150418509,"lng":-111.792084311855},{"id":"95191","name":"Anjelica Senger","party":"Dem","address":"765 N 350 E, American Fork, UT 84003","precinct":"25AF04","hd":"55","v_score":"0","decile":"1","lat":40.392156674795,"lng":-111.7897739729},{"id":"95464","name":"Collette Wilderman","party":"Rep","address":"258 E 900 N, American Fork, UT 84003","precinct":"25AF04","hd":"55","v_score":"1.193887297","decile":"4","lat":40.394846930455,"lng":-111.79164886809},{"id":"97280","name":"Parker Cormier","party":"","address":"384 E 920 N, American Fork, UT 84003","precinct":"25AF04","hd":"55","v_score":"9.40499548","decile":"8","lat":40.395254974906,"lng":-111.788081371165},{"id":"97557","name":"Trae O'Reilly III","party":"Rep","address":"857 N 360 E, American Fork, UT 84003","precinct":"25AF04","hd":"55","v_score":"1.193887297","decile":"4","lat":40.393918123692,"lng":-111.78893431502},{"id":"98152","name":"Kaitlin Bartell","party":"Rep","address":"708 N 500 E, American Fork, UT 84003","precinct":"25AF04","hd":"55","v_score":"1.623113131","decile":"5","lat":40.391979138557,"lng":-111.785706581866},{"id":"99103","name":"Mrs. Lilian Little","party":"","address":"1126 N 100 E, American Fork, UT 84003","precinct":"25AF04","hd":"55","v_score":"0","decile":"1","lat":40.399167361325,"lng":-111.794787679803},{"id":"99627","name":"Mrs. Shreya Hamill DDS","party":"Dem","address":"853 N 340 E, American Fork, UT 84003","precinct":"25AF04","hd":"55","v_score":"1.193887297","decile":"4","lat":40.394493133163,"lng":-111.790023474633},{"id":"100132","name":"Chet Bergstrom","party":"","address":"891 N 400 E, American Fork, UT 84003","precinct":"25AF04","hd":"55","v_score":"1.193887297","decile":"4","lat":40.393926730327,"lng":-111.787779203811},{"id":"100491","name":"Bartholomew Cummerata","party":"","address":"886 N 200 E, American Fork, UT 84003","precinct":"25AF04","hd":"55","v_score":"1.193887297","decile":"4","lat":40.394611982309,"lng":-111.792986732425},{"id":"102928","name":"Sonya Huel PhD","party":"Rep","address":"225 E 700 N, American Fork, UT 84003","precinct":"25AF04","hd":"55","v_score":"4.069929862","decile":"7","lat":40.391029622684,"lng":-111.792441378608},{"id":"102941","name":"Dr. Colette Dare MD","party":"Dem","address":"746 N 730 E, American Fork, UT 84003","precinct":"25AF04","hd":"55","v_score":"0","decile":"2","lat":40.392918892503,"lng":-111.779152219141},{"id":"103114","name":"Deacon Fisher","party":"","address":"892 N 340 E, American Fork, UT 84003","precinct":"25AF04","hd":"55","v_score":"4.905839784","decile":"7","lat":40.394805252046,"lng":-111.789916669725},{"id":"103408","name":"Jules Stark DVM","party":"Rep","address":"638 N 100 E, American Fork, UT 84003","precinct":"25AF04","hd":"55","v_score":"0","decile":"2","lat":40.390068071541,"lng":-111.795692042119},{"id":"104715","name":"Mr. Salomon Dietrich","party":"","address":"742 N 100 E, American Fork, UT 84003","precinct":"25AF04","hd":"55","v_score":"0","decile":"2","lat":40.392122772124,"lng":-111.795684586871},{"id":"104716","name":"Dewitt Batz","party":"Dem","address":"742 N 100 E, American Fork, UT 84003","precinct":"25AF04","hd":"55","v_score":"0","decile":"2","lat":40.392122772124,"lng":-111.795684586871},{"id":"104749","name":"Nayely Nicolas","party":"Dem","address":"745 E 750 N, American Fork, UT 84003","precinct":"25AF04","hd":"55","v_score":"0","decile":"2","lat":40.393077291165,"lng":-111.779005351297},{"id":"105962","name":"Judy Hessel","party":"Dem","address":"957 N 400 E, American Fork, UT 84003","precinct":"25AF04","hd":"55","v_score":"3.711952487","decile":"6","lat":40.394202202436,"lng":-111.787767992702},{"id":"106078","name":"Dr. Benjamine Emmerich","party":"","address":"976 N 200 E, American Fork, UT 84003","precinct":"25AF04","hd":"55","v_score":"0","decile":"2","lat":40.395957544547,"lng":-111.792964164246},{"id":"106113","name":"Miss Adina Wintheiser","party":"","address":"937 N 200 E, American Fork, UT 84003","precinct":"25AF04","hd":"55","v_score":"26.60266161","decile":"10","lat":40.395414075366,"lng":-111.793123347135},{"id":"106862","name":"Alwin McLaughlin","party":"Rep","address":"521 E 900 N, American Fork, UT 84003","precinct":"25AF04","hd":"55","v_score":"0","decile":"2","lat":40.387652350811,"lng":-111.773319945779},{"id":"107146","name":"Ms. Sarah Williamson MD","party":"","address":"294 E 780 N, American Fork, UT 84003","precinct":"25AF04","hd":"55","v_score":"1.193887297","decile":"4","lat":40.392332700776,"lng":-111.791010092178},{"id":"108222","name":"Giselle Deckow-Wilderman","party":"Dem","address":"949 N 400 E, American Fork, UT 84003","precinct":"25AF04","hd":"55","v_score":"0","decile":"2","lat":40.394168811877,"lng":-111.787769351624},{"id":"108349","name":"Dr. Kyson Christiansen IV","party":"","address":"852 N 520 E, American Fork, UT 84003","precinct":"25AF04","hd":"55","v_score":"0","decile":"2","lat":40.394072825302,"lng":-111.784892675948},{"id":"108838","name":"Marianne Medhurst-Marks","party":"Rep","address":"391 E 920 N, American Fork, UT 84003","precinct":"25AF04","hd":"55","v_score":"2.876042565","decile":"6","lat":40.395358152556,"lng":-111.787654505787},{"id":"108954","name":"Marnie Batz","party":"Rep","address":"732 N 610 E, American Fork, UT 84003","precinct":"25AF04","hd":"55","v_score":"0","decile":"2","lat":40.392319260843,"lng":-111.781859482812},{"id":"109270","name":"Jana Price-Beatty","party":"Dem","address":"715 N 610 E, American Fork, UT 84003","precinct":"25AF04","hd":"55","v_score":"1.193887297","decile":"4","lat":40.392120316618,"lng":-111.782008951113},{"id":"109631","name":"Clare Kuhlman","party":"","address":"826 N 520 E, American Fork, UT 84003","precinct":"25AF04","hd":"55","v_score":"0","decile":"2","lat":40.393721081395,"lng":-111.784931147981},{"id":"111277","name":"Mohammad Batz","party":"","address":"1352 N 100 E, American Fork, UT 84003","precinct":"25AF04","hd":"55","v_score":"8.284004873","decile":"8","lat":40.403430254725,"lng":-111.792129960086},{"id":"111728","name":"Lorinda Stark DDS","party":"Rep","address":"1126 N 100 E, American Fork, UT 84003","precinct":"25AF04","hd":"55","v_score":"0","decile":"2","lat":40.399167361325,"lng":-111.794787679803},{"id":"112534","name":"Rexford Collier","party":"Dem","address":"665 E 700 N, American Fork, UT 84003","precinct":"25AF04","hd":"55","v_score":"1.193887297","decile":"4","lat":40.391900157934,"lng":-111.780707592751},{"id":"112616","name":"Ean Leffler","party":"","address":"522 E 900 N, American Fork, UT 84003","precinct":"25AF04","hd":"55","v_score":"0","decile":"2","lat":40.387583329513,"lng":-111.773170279024},{"id":"113144","name":"Bradley O'Connell","party":"Rep","address":"692 E 750 N, American Fork, UT 84003","precinct":"25AF04","hd":"55","v_score":"0","decile":"2","lat":40.39296269977,"lng":-111.778860921736},{"id":"113196","name":"Dr. Billy Pollich","party":"","address":"294 E 780 N, American Fork, UT 84003","precinct":"25AF04","hd":"55","v_score":"1.193887297","decile":"4","lat":40.392332700776,"lng":-111.791010092178},{"id":"113385","name":"Luka Stark","party":"","address":"844 N 750 E, American Fork, UT 84003","precinct":"25AF04","hd":"55","v_score":"0","decile":"2","lat":40.394204131542,"lng":-111.778639605612},{"id":"113818","name":"Sheri Bogisich MD","party":"Dem","address":"695 N 200 E, American Fork, UT 84003","precinct":"25AF04","hd":"55","v_score":"1.193887297","decile":"4","lat":40.390844865456,"lng":-111.793208667335},{"id":"114932","name":"Ima Towne-Heller","party":"Dem","address":"796 N 610 E, American Fork, UT 84003","precinct":"25AF04","hd":"55","v_score":"1.193887297","decile":"4","lat":40.393160766824,"lng":-111.781863662366},{"id":"114936","name":"Isaiah Rolfson","party":"Dem","address":"942 N 240 E, American Fork, UT 84003","precinct":"25AF04","hd":"55","v_score":"1.193887297","decile":"4","lat":40.395295113715,"lng":-111.791934572051},{"id":"115105","name":"Nora VonRueden","party":"Rep","address":"706 N Riverwalk Dr, American Fork, UT 84003","precinct":"25AF04","hd":"55","v_score":"1.193887297","decile":"4","lat":40.391526281301,"lng":-111.786532495655},{"id":"116589","name":"Roxy Mayer","party":"Dem","address":"789 N 500 E, American Fork, UT 84003","precinct":"25AF04","hd":"55","v_score":"1.193887297","decile":"4","lat":40.393013246935,"lng":-111.786081498334},{"id":"117752","name":"Mr. Emett Goodwin MD","party":"","address":"1124 N 160 E, American Fork, UT 84003","precinct":"25AF04","hd":"55","v_score":"22.89070912","decile":"10","lat":40.399429014946,"lng":-111.793066059333},{"id":"118057","name":"Ottie Schulist","party":"","address":"527 E 700 N, American Fork, UT 84003","precinct":"25AF04","hd":"55","v_score":"5.258122542","decile":"7","lat":40.391846670453,"lng":-111.785102965836},{"id":"119509","name":"Zed Gislason III","party":"","address":"221 E 900 N, American Fork, UT 84003","precinct":"25AF04","hd":"55","v_score":"0","decile":"2","lat":40.394958292013,"lng":-111.792797828858},{"id":"119647","name":"Kenton Treutel","party":"","address":"925 N 240 E, American Fork, UT 84003","precinct":"25AF04","hd":"55","v_score":"0","decile":"2","lat":40.395150418509,"lng":-111.792084311855},{"id":"119823","name":"Lemuel Spencer","party":"Rep","address":"528 E 750 N, American Fork, UT 84003","precinct":"25AF04","hd":"55","v_score":"0","decile":"2","lat":40.392512700329,"lng":-111.785462165432},{"id":"120032","name":"Weston Kihn","party":"Dem","address":"799 N 200 E, American Fork, UT 84003","precinct":"25AF04","hd":"55","v_score":"0","decile":"2","lat":40.392812866539,"lng":-111.793172277151},{"id":"120526","name":"Bryan Cummings DVM","party":"Rep","address":"528 E 750 N, American Fork, UT 84003","precinct":"25AF04","hd":"55","v_score":"7.090117576","decile":"8","lat":40.392512700329,"lng":-111.785462165432},{"id":"120609","name":"Trent Reilly","party":"","address":"527 E 700 N, American Fork, UT 84003","precinct":"25AF04","hd":"55","v_score":"1.193887297","decile":"4","lat":40.391846670453,"lng":-111.785102965836},{"id":"122172","name":"Sharleen Kautzer","party":"","address":"527 E 700 N, American Fork, UT 84003","precinct":"25AF04","hd":"55","v_score":"2.315214949","decile":"5","lat":40.391846670453,"lng":-111.785102965836},{"id":"124771","name":"Merle Cremin","party":"Dem","address":"695 N 200 E, American Fork, UT 84003","precinct":"25AF04","hd":"55","v_score":"0","decile":"2","lat":40.390844865456,"lng":-111.793208667335},{"id":"125160","name":"Dane Von-Bauch","party":"Rep","address":"734 N Riverwalk Dr, American Fork, UT 84003","precinct":"25AF04","hd":"55","v_score":"7.090117576","decile":"8","lat":40.391909954905,"lng":-111.786607805887},{"id":"125314","name":"Gerardo Grant","party":"Dem","address":"527 E 700 N, American Fork, UT 84003","precinct":"25AF04","hd":"55","v_score":"0","decile":"2","lat":40.391846670453,"lng":-111.785102965836},{"id":"125895","name":"Zeb Schroeder-O'Reilly","party":"","address":"715 N 610 E, American Fork, UT 84003","precinct":"25AF04","hd":"55","v_score":"0","decile":"2","lat":40.392120316618,"lng":-111.782008951113},{"id":"126357","name":"Cornel Mraz III","party":"Dem","address":"886 N 200 E, American Fork, UT 84003","precinct":"25AF04","hd":"55","v_score":"0","decile":"2","lat":40.394611982309,"lng":-111.792986732425},{"id":"127447","name":"Jesus Toy","party":"Dem","address":"706 N Riverwalk Dr, American Fork, UT 84003","precinct":"25AF04","hd":"55","v_score":"0","decile":"2","lat":40.391526281301,"lng":-111.786532495655},{"id":"127856","name":"Drema Boyle-Marvin","party":"Rep","address":"513 E 800 N, American Fork, UT 84003","precinct":"25AF04","hd":"55","v_score":"0","decile":"2","lat":40.393249893066,"lng":-111.786011524952},{"id":"127900","name":"Mr. Alpheus Hirthe DDS","party":"Dem","address":"715 E 700 N, American Fork, UT 84003","precinct":"25AF04","hd":"55","v_score":"2.876042565","decile":"6","lat":40.391905422147,"lng":-111.779702113351},{"id":"127981","name":"Kip Schmeler","party":"Rep","address":"732 N 610 E, American Fork, UT 84003","precinct":"25AF04","hd":"55","v_score":"0","decile":"2","lat":40.392319260843,"lng":-111.781859482812},{"id":"128465","name":"Luciano Grimes","party":"","address":"826 N 520 E, American Fork, UT 84003","precinct":"25AF04","hd":"55","v_score":"0","decile":"2","lat":40.393721081395,"lng":-111.784931147981},{"id":"128645","name":"Capitola Barton DDS","party":"","address":"748 N 350 E, American Fork, UT 84003","precinct":"25AF04","hd":"55","v_score":"0","decile":"2","lat":40.39187468378,"lng":-111.789601986847},{"id":"129804","name":"Hilda Green","party":"Rep","address":"661 E 875 N, American Fork, UT 84003","precinct":"25AF04","hd":"55","v_score":"0","decile":"2","lat":40.39499038527,"lng":-111.780872054184},{"id":"131309","name":"Laverne Ebert","party":"Dem","address":"409 E 980 N, American Fork, UT 84003","precinct":"25AF04","hd":"55","v_score":"0","decile":"2","lat":40.396930595699,"lng":-111.787209353138},{"id":"131404","name":"Kaydence Champlin","party":"","address":"782 N 310 E, American Fork, UT 84003","precinct":"25AF04","hd":"55","v_score":"0","decile":"2","lat":40.392790056483,"lng":-111.790677225134},{"id":"132613","name":"Eura Turner-White","party":"Dem","address":"305 E 800 N, American Fork, UT 84003","precinct":"25AF04","hd":"55","v_score":"0","decile":"2","lat":40.392944803155,"lng":-111.790609900019},{"id":"132618","name":"Cecilia Lindgren DDS","party":"Rep","address":"841 N 350 E, American Fork, UT 84003","precinct":"25AF04","hd":"55","v_score":"0","decile":"2","lat":40.393433280386,"lng":-111.789789019515},{"id":"132819","name":"Kieran Hills PhD","party":"","address":"838 N 400 E, American Fork, UT 84003","precinct":"25AF04","hd":"55","v_score":"2.876042565","decile":"6","lat":40.393601080409,"lng":-111.787640428108},{"id":"132970","name":"Clemon Hamill","party":"","address":"1331 N 200 E, American Fork, UT 84003","precinct":"25AF04","hd":"55","v_score":"0","decile":"2","lat":40.402714889219,"lng":-111.791216838757},{"id":"133561","name":"Gilford Stracke","party":"Dem","address":"665 E 700 N, American Fork, UT 84003","precinct":"25AF04","hd":"55","v_score":"0","decile":"2","lat":40.391900157934,"lng":-111.780707592751},{"id":"134362","name":"Eve Pouros","party":"Rep","address":"975 N 240 E, American Fork, UT 84003","precinct":"25AF04","hd":"55","v_score":"0","decile":"2","lat":40.395551137563,"lng":-111.792086315397},{"id":"134859","name":"Dr. Micheal Davis V","party":"Dem","address":"296 E 980 N, American Fork, UT 84003","precinct":"25AF04","hd":"55","v_score":"5.874951892","decile":"7","lat":40.396457820913,"lng":-111.790838171519},{"id":"135890","name":"Ms. Jayla Murazik","party":"Dem","address":"978 N 200 E, American Fork, UT 84003","precinct":"25AF04","hd":"55","v_score":"16.41341546","decile":"9","lat":40.395983859179,"lng":-111.792963742533},{"id":"136264","name":"Gabriella Smith","party":"Rep","address":"895 N 900 E, American Fork, UT 84003","precinct":"25AF04","hd":"55","v_score":"5.287675778","decile":"7","lat":40.394934103245,"lng":-111.773362559839},{"id":"136426","name":"Corliss Yundt","party":"","address":"714 E 750 N, American Fork, UT 84003","precinct":"25AF04","hd":"55","v_score":"11.23922619","decile":"9","lat":40.392962699775,"lng":-111.778921460188},{"id":"136728","name":"Jordyn Corwin","party":"Rep","address":"353 E 870 N, American Fork, UT 84003","precinct":"25AF04","hd":"55","v_score":"11.99259879","decile":"9","lat":40.394491218356,"lng":-111.789199053952},{"id":"137587","name":"Dr. Davian Macejkovic","party":"Rep","address":"1309 N 200 E, American Fork, UT 84003","precinct":"25AF04","hd":"55","v_score":"3.781490609","decile":"6","lat":40.402272052927,"lng":-111.79140648764},{"id":"137894","name":"Margarite Veum","party":"","address":"522 E 750 N, American Fork, UT 84003","precinct":"25AF04","hd":"55","v_score":"14.18213378","decile":"9","lat":40.392512700332,"lng":-111.78550640275},{"id":"139932","name":"Ms. Anie Hand","party":"","address":"787 N 610 E, American Fork, UT 84003","precinct":"25AF04","hd":"55","v_score":"12.72912257","decile":"9","lat":40.393263276724,"lng":-111.782014627917},{"id":"140350","name":"Jade Metz MD","party":"Rep","address":"780 N 390 E, American Fork, UT 84003","precinct":"25AF04","hd":"55","v_score":"2.315214949","decile":"5","lat":40.39227836623,"lng":-111.787887106363},{"id":"140654","name":"Ms. Natosha Nicolas PhD","party":"Rep","address":"1147 N 160 E, American Fork, UT 84003","precinct":"25AF04","hd":"55","v_score":"13.32779236","decile":"9","lat":40.399683600593,"lng":-111.793208506724},{"id":"141513","name":"Mr. Ephriam Hilpert V","party":"Rep","address":"778 N 730 E, American Fork, UT 84003","precinct":"25AF04","hd":"55","v_score":"3.781490609","decile":"6","lat":40.39323800458,"lng":-111.77915362523},{"id":"142068","name":"Mrs. Nila DuBuque MD","party":"Rep","address":"892 N 340 E, American Fork, UT 84003","precinct":"25AF04","hd":"55","v_score":"1.46627566","decile":"4","lat":40.394805252046,"lng":-111.789916669725},{"id":"142474","name":"Dr. Ximena Olson DVM","party":"Dem","address":"692 E 750 N, American Fork, UT 84003","precinct":"25AF04","hd":"55","v_score":"5.40460374","decile":"7","lat":40.39296269977,"lng":-111.778860921736},{"id":"142644","name":"Alverta Waelchi","party":"","address":"692 E 750 N, American Fork, UT 84003","precinct":"25AF04","hd":"55","v_score":"9.913499214","decile":"9","lat":40.39296269977,"lng":-111.778860921736},{"id":"143608","name":"Keifer Tremblay-Bernier","party":"Dem","address":"1352 N 100 E, American Fork, UT 84003","precinct":"25AF04","hd":"55","v_score":"2.315214949","decile":"5","lat":40.403430254725,"lng":-111.792129960086},{"id":"143627","name":"Mrs. Vivien Schuster PhD","party":"","address":"1230 N 100 E, American Fork, UT 84003","precinct":"25AF04","hd":"55","v_score":"3.93832808","decile":"6","lat":40.401014792555,"lng":-111.793642903846},{"id":"143934","name":"Rupert Thiel","party":"Rep","address":"1230 N 100 E, American Fork, UT 84003","precinct":"25AF04","hd":"55","v_score":"3.93832808","decile":"6","lat":40.401014792555,"lng":-111.793642903846},{"id":"144745","name":"Altha Harber","party":"Dem","address":"852 N 520 E, American Fork, UT 84003","precinct":"25AF04","hd":"55","v_score":"21.84903737","decile":"10","lat":40.394072825302,"lng":-111.784892675948},{"id":"144909","name":"Kandice White-Hills","party":"","address":"710 N 200 E, American Fork, UT 84003","precinct":"25AF04","hd":"55","v_score":"0","decile":"3","lat":40.391225830491,"lng":-111.793052747292},{"id":"145541","name":"Mr. Babe Morar","party":"Rep","address":"366 E 870 N, American Fork, UT 84003","precinct":"25AF04","hd":"55","v_score":"1.46627566","decile":"4","lat":40.394622491071,"lng":-111.788688504446},{"id":"146746","name":"Dr. Ah Goodwin PhD","party":"Dem","address":"1246 N 100 E, American Fork, UT 84003","precinct":"25AF04","hd":"55","v_score":"24.45344915","decile":"10","lat":40.401299012744,"lng":-111.793466784468},{"id":"146901","name":"Corrina Towne","party":"Dem","address":"732 N 610 E, American Fork, UT 84003","precinct":"25AF04","hd":"55","v_score":"12.70146297","decile":"9","lat":40.392319260843,"lng":-111.781859482812},{"id":"147598","name":"Dusty Swaniawski","party":"Rep","address":"731 N 350 E, American Fork, UT 84003","precinct":"25AF04","hd":"55","v_score":"25.28454428","decile":"10","lat":40.391543815472,"lng":-111.789706360841},{"id":"147599","name":"Laron Effertz","party":"","address":"731 N 350 E, American Fork, UT 84003","precinct":"25AF04","hd":"55","v_score":"30.01715195","decile":"10","lat":40.391543815472,"lng":-111.789706360841},{"id":"147637","name":"Ms. Evette Zboncak DVM","party":"","address":"711 N 390 E, American Fork, UT 84003","precinct":"25AF04","hd":"55","v_score":"11.38334565","decile":"9","lat":40.391150810806,"lng":-111.788052404106},{"id":"148009","name":"Sophronia Bogan","party":"Rep","address":"402 E 920 N, American Fork, UT 84003","precinct":"25AF04","hd":"55","v_score":"22.76724262","decile":"10","lat":40.395252888156,"lng":-111.788003813846},{"id":"148094","name":"Dr. Tom Witting MD","party":"Rep","address":"764 N 610 E, American Fork, UT 84003","precinct":"25AF04","hd":"55","v_score":"14.25581744","decile":"9","lat":40.392740013834,"lng":-111.781861572589},{"id":"148565","name":"Dr. Marylin Pollich DVM","party":"Dem","address":"840 N 610 E, American Fork, UT 84003","precinct":"25AF04","hd":"55","v_score":"28.34631194","decile":"10","lat":40.393739302186,"lng":-111.78186653581},{"id":"148682","name":"Tori Renner","party":"Rep","address":"665 E 700 N, American Fork, UT 84003","precinct":"25AF04","hd":"55","v_score":"24.04343341","decile":"10","lat":40.391900157934,"lng":-111.780707592751},{"id":"148782","name":"Dr. Sammy Anderson II","party":"","address":"735 N 200 E, American Fork, UT 84003","precinct":"25AF04","hd":"55","v_score":"32.56038695","decile":"10","lat":40.391651900202,"lng":-111.79319491082},{"id":"149211","name":"Concetta Osinski PhD","party":"Rep","address":"329 E 700 N, American Fork, UT 84003","precinct":"25AF04","hd":"55","v_score":"2.315214949","decile":"5","lat":40.391011168732,"lng":-111.789981581076},{"id":"149275","name":"Ogden McDermott","party":"Dem","address":"513 E 800 N, American Fork, UT 84003","precinct":"25AF04","hd":"55","v_score":"12.61703202","decile":"9","lat":40.393249893066,"lng":-111.786011524952},{"id":"149439","name":"Ashlyn Torphy","party":"","address":"351 E 800 N, American Fork, UT 84003","precinct":"25AF04","hd":"55","v_score":"1.121327652","decile":"3","lat":40.392913612926,"lng":-111.790414397278},{"id":"149834","name":"Dr. Daisye Ebert MD","party":"Dem","address":"945 N 370 E, American Fork, UT 84003","precinct":"25AF04","hd":"55","v_score":"14.76249057","decile":"9","lat":40.395844591622,"lng":-111.788596041123},{"id":"149916","name":"Dr. Aileen Kunde","party":"Rep","address":"789 N 500 E, American Fork, UT 84003","precinct":"25AF04","hd":"55","v_score":"10.2407653","decile":"9","lat":40.393013246935,"lng":-111.786081498334},{"id":"150273","name":"Dr. Kassie Terry DVM","party":"","address":"1374 N 100 E, American Fork, UT 84003","precinct":"25AF04","hd":"55","v_score":"3.93832808","decile":"6","lat":40.403923370856,"lng":-111.791816147145},{"id":"150963","name":"Junior Reichel","party":"","address":"781 N 650 E, American Fork, UT 84003","precinct":"25AF04","hd":"55","v_score":"30.20822132","decile":"10","lat":40.392686198387,"lng":-111.781142585378},{"id":"150986","name":"Emelie Bradtke","party":"","address":"749 N 650 E, American Fork, UT 84003","precinct":"25AF04","hd":"55","v_score":"8.347511332","decile":"8","lat":40.392370962772,"lng":-111.781141271938},{"id":"150989","name":"Kristy Bednar","party":"Dem","address":"349 E 925 N, American Fork, UT 84003","precinct":"25AF04","hd":"55","v_score":"3.781490609","decile":"6","lat":40.395726082837,"lng":-111.78989740728},{"id":"151395","name":"Mrs. Caryn Fisher DDS","party":"","address":"727 N 390 E, American Fork, UT 84003","precinct":"25AF04","hd":"55","v_score":"3.089388791","decile":"6","lat":40.391379347856,"lng":-111.788048805068},{"id":"151396","name":"Hamp Bartoletti","party":"Dem","address":"727 N 390 E, American Fork, UT 84003","precinct":"25AF04","hd":"55","v_score":"3.089388791","decile":"6","lat":40.391379347856,"lng":-111.788048805068},{"id":"151957","name":"Gladstone Ryan","party":"","address":"618 E 875 N, American Fork, UT 84003","precinct":"25AF04","hd":"55","v_score":"16.4922578","decile":"9","lat":40.394872013236,"lng":-111.781428088135},{"id":"152013","name":"Aarav D'Amore MD","party":"Dem","address":"762 N Riverwalk Dr, American Fork, UT 84003","precinct":"25AF04","hd":"55","v_score":"10.02998477","decile":"9","lat":40.392362792833,"lng":-111.786606805794},{"id":"152462","name":"Euna McKenzie-Emmerich","party":"","address":"1100 N 100 E, American Fork, UT 84003","precinct":"25AF04","hd":"55","v_score":"29.4576876","decile":"10","lat":40.398665179332,"lng":-111.795056970581},{"id":"152463","name":"Mrs. Wende Durgan","party":"","address":"1100 N 100 E, American Fork, UT 84003","precinct":"25AF04","hd":"55","v_score":"29.4576876","decile":"10","lat":40.398665179332,"lng":-111.795056970581},{"id":"152674","name":"Boris Cummerata","party":"Rep","address":"760 N 200 E, American Fork, UT 84003","precinct":"25AF04","hd":"55","v_score":"35.50329454","decile":"10","lat":40.392187805439,"lng":-111.793033993068},{"id":"153004","name":"Frank Moore","party":"Dem","address":"1246 N 100 E, American Fork, UT 84003","precinct":"25AF04","hd":"55","v_score":"24.04214313","decile":"10","lat":40.401299012744,"lng":-111.793466784468},{"id":"153065","name":"Marcellus Torphy","party":"","address":"945 N 370 E, American Fork, UT 84003","precinct":"25AF04","hd":"55","v_score":"13.13937744","decile":"9","lat":40.395844591622,"lng":-111.788596041123},{"id":"153342","name":"Dr. Lum Bednar PhD","party":"Dem","address":"516 E 900 N, American Fork, UT 84003","precinct":"25AF04","hd":"55","v_score":"1.623113131","decile":"5","lat":40.387542511824,"lng":-111.773170742867},{"id":"153470","name":"Christen Ratke","party":"Dem","address":"920 N 100 E, American Fork, UT 84003","precinct":"25AF04","hd":"55","v_score":"18.3488229","decile":"10","lat":40.395830984783,"lng":-111.795757818267},{"id":"153727","name":"Okey Raynor-DuBuque","party":"","address":"864 N 360 E, American Fork, UT 84003","precinct":"25AF04","hd":"55","v_score":"21.75831688","decile":"10","lat":40.394038793864,"lng":-111.788777815482},{"id":"153951","name":"Lizette Leffler","party":"Rep","address":"734 N 350 E, American Fork, UT 84003","precinct":"25AF04","hd":"55","v_score":"3.781490609","decile":"6","lat":40.391624570126,"lng":-111.789563546554},{"id":"154130","name":"Walter Lehner","party":"Rep","address":"828 N 350 E, American Fork, UT 84003","precinct":"25AF04","hd":"55","v_score":"23.45391251","decile":"10","lat":40.3932989612,"lng":-111.789639505512},{"id":"154500","name":"Elise Buckridge","party":"Rep","address":"794 N 390 E, American Fork, UT 84003","precinct":"25AF04","hd":"55","v_score":"28.18652018","decile":"10","lat":40.392726626199,"lng":-111.787887106304},{"id":"154632","name":"Leigh Upton","party":"Rep","address":"627 E 875 N, American Fork, UT 84003","precinct":"25AF04","hd":"55","v_score":"16.97287982","decile":"9","lat":40.394986802299,"lng":-111.781399652719},{"id":"154818","name":"Ermine Schneider","party":"Rep","address":"354 E 925 N, American Fork, UT 84003","precinct":"25AF04","hd":"55","v_score":"37.38087621","decile":"10","lat":40.395671236109,"lng":-111.789647783644},{"id":"154891","name":"Miss Alberta Harris PhD","party":"","address":"826 N 520 E, American Fork, UT 84003","precinct":"25AF04","hd":"55","v_score":"8.421194992","decile":"8","lat":40.393721081395,"lng":-111.784931147981},{"id":"155275","name":"Louvenia Moen PhD","party":"Dem","address":"783 E 700 N, American Fork, UT 84003","precinct":"25AF04","hd":"55","v_score":"18.74706992","decile":"10","lat":40.391907291256,"lng":-111.778464809769},{"id":"155381","name":"Dr. Derald Paucek II","party":"","address":"844 N 750 E, American Fork, UT 84003","precinct":"25AF04","hd":"55","v_score":"1.121327652","decile":"3","lat":40.394204131542,"lng":-111.778639605612},{"id":"155820","name":"Dr. Cullen Willms","party":"Rep","address":"767 E 750 N, American Fork, UT 84003","precinct":"25AF04","hd":"55","v_score":"14.31864359","decile":"9","lat":40.393077291153,"lng":-111.778843370031},{"id":"155966","name":"Liliana Hirthe-Swaniawski","party":"Dem","address":"918 N 200 E, American Fork, UT 84003","precinct":"25AF04","hd":"55","v_score":"15.87386623","decile":"9","lat":40.395194420206,"lng":-111.792976393902},{"id":"156321","name":"Hayes Halvorson","party":"","address":"754 N 500 E, American Fork, UT 84003","precinct":"25AF04","hd":"55","v_score":"5.693042993","decile":"7","lat":40.392831227324,"lng":-111.785779643237},{"id":"156528","name":"Webb Smitham","party":"Dem","address":"850 N 350 E, American Fork, UT 84003","precinct":"25AF04","hd":"55","v_score":"29.74327159","decile":"10","lat":40.393544086247,"lng":-111.789637779247},{"id":"156681","name":"Dedric Grimes","party":"","address":"844 N 750 E, American Fork, UT 84003","precinct":"25AF04","hd":"55","v_score":"1.121327652","decile":"3","lat":40.394204131542,"lng":-111.778639605612},{"id":"156962","name":"Charity Gottlieb DVM","party":"","address":"895 N 900 E, American Fork, UT 84003","precinct":"25AF04","hd":"55","v_score":"0","decile":"3","lat":40.394934103245,"lng":-111.773362559839},{"id":"157190","name":"Alvaro Hand","party":"Dem","address":"221 E 900 N, American Fork, UT 84003","precinct":"25AF04","hd":"55","v_score":"11.29723756","decile":"9","lat":40.394958292013,"lng":-111.792797828858},{"id":"158761","name":"Antoine Raynor V","party":"","address":"322 E 800 N, American Fork, UT 84003","precinct":"25AF04","hd":"55","v_score":"30.29075864","decile":"10","lat":40.383570414001,"lng":-111.776771239642},{"id":"158762","name":"Elizah Leuschke","party":"","address":"735 N 200 E, American Fork, UT 84003","precinct":"25AF04","hd":"55","v_score":"32.56038695","decile":"10","lat":40.391651900202,"lng":-111.79319491082},{"id":"159873","name":"Alpha Bayer","party":"","address":"284 E 800 N, American Fork, UT 84003","precinct":"25AF04","hd":"55","v_score":"35.50329454","decile":"10","lat":40.393079700718,"lng":-111.791357010369},{"id":"159962","name":"Allyson Mann-Barton","party":"Rep","address":"1192 N 160 E, American Fork, UT 84003","precinct":"25AF04","hd":"55","v_score":"15.83182192","decile":"9","lat":40.40015719354,"lng":-111.792886586663},{"id":"160343","name":"Aisha Greenholt","party":"Dem","address":"838 N 400 E, American Fork, UT 84003","precinct":"25AF04","hd":"55","v_score":"1.193887297","decile":"4","lat":40.393601080409,"lng":-111.787640428108},{"id":"160463","name":"Freeda Ledner","party":"Rep","address":"895 N 900 E, American Fork, UT 84003","precinct":"25AF04","hd":"55","v_score":"4.833280139","decile":"7","lat":40.394934103245,"lng":-111.773362559839},{"id":"160859","name":"Ozzie Lehner","party":"Dem","address":"734 N 350 E, American Fork, UT 84003","precinct":"25AF04","hd":"55","v_score":"3.781490609","decile":"6","lat":40.391624570126,"lng":-111.789563546554},{"id":"161256","name":"Mrs. Jalynn Lind DVM","party":"Dem","address":"661 E 875 N, American Fork, UT 84003","precinct":"25AF04","hd":"55","v_score":"6.814370645","decile":"8","lat":40.39499038527,"lng":-111.780872054184},{"id":"162146","name":"Dr. Shawnda Wolff MD","party":"","address":"760 N 200 E, American Fork, UT 84003","precinct":"25AF04","hd":"55","v_score":"35.592808","decile":"10","lat":40.392187805439,"lng":-111.793033993068},{"id":"162228","name":"Tamera Carter","party":"","address":"817 N 200 E, American Fork, UT 84003","precinct":"25AF04","hd":"55","v_score":"2.315214949","decile":"5","lat":40.393139388322,"lng":-111.793165911432},{"id":"162230","name":"Art Wiza","party":"Dem","address":"825 N 730 E, American Fork, UT 84003","precinct":"25AF04","hd":"55","v_score":"3.93832808","decile":"6","lat":40.393419187411,"lng":-111.779304930774},{"id":"162250","name":"Mr. Thurston Bahringer","party":"Dem","address":"801 N 500 E, American Fork, UT 84003","precinct":"25AF04","hd":"55","v_score":"2.315214949","decile":"5","lat":40.393160330517,"lng":-111.78618771759},{"id":"162520","name":"Hubert Hartmann-Kerluke","party":"Dem","address":"393 E 980 N, American Fork, UT 84003","precinct":"25AF04","hd":"55","v_score":"2.315214949","decile":"5","lat":40.396864426022,"lng":-111.787920314863},{"id":"162531","name":"Mr. Lora Schuster DVM","party":"Rep","address":"1374 N 100 E, American Fork, UT 84003","precinct":"25AF04","hd":"55","v_score":"3.93832808","decile":"6","lat":40.403923370856,"lng":-111.791816147145},{"id":"162792","name":"Camila Schoen","party":"Dem","address":"745 E 750 N, American Fork, UT 84003","precinct":"25AF04","hd":"55","v_score":"3.93832808","decile":"6","lat":40.393077291165,"lng":-111.779005351297},{"id":"163056","name":"Mia McDermott","party":"","address":"221 E 900 N, American Fork, UT 84003","precinct":"25AF04","hd":"55","v_score":"8.280646305","decile":"8","lat":40.394958292013,"lng":-111.792797828858},{"id":"163341","name":"Aspen Cremin","party":"","address":"764 N 610 E, American Fork, UT 84003","precinct":"25AF04","hd":"55","v_score":"14.25581744","decile":"9","lat":40.392740013834,"lng":-111.781861572589},{"id":"164089","name":"Dr. Wendel Greenholt","party":"Dem","address":"402 E 920 N, American Fork, UT 84003","precinct":"25AF04","hd":"55","v_score":"19.82433503","decile":"10","lat":40.395252888156,"lng":-111.788003813846},{"id":"164245","name":"Linda Robel","party":"Dem","address":"516 E 900 N, American Fork, UT 84003","precinct":"25AF04","hd":"55","v_score":"1.623113131","decile":"5","lat":40.387542511824,"lng":-111.773170742867},{"id":"164276","name":"Maricela Johnston","party":"","address":"522 E 900 N, American Fork, UT 84003","precinct":"25AF04","hd":"55","v_score":"21.84619848","decile":"10","lat":40.387583329513,"lng":-111.773170279024},{"id":"164585","name":"Nevada Breitenberg","party":"Dem","address":"742 E 750 N, American Fork, UT 84003","precinct":"25AF04","hd":"55","v_score":"1.193887297","decile":"4","lat":40.392962699781,"lng":-111.778998509128},{"id":"165311","name":"Mr. Lula Fritsch","party":"","address":"1346 N 100 E, American Fork, UT 84003","precinct":"25AF04","hd":"55","v_score":"19.39191047","decile":"10","lat":40.403298293384,"lng":-111.792215734972},{"id":"165353","name":"Zandra Prosacco PhD","party":"Rep","address":"828 N 100 E, American Fork, UT 84003","precinct":"25AF04","hd":"55","v_score":"3.93832808","decile":"6","lat":40.393525687954,"lng":-111.795692547453},{"id":"165539","name":"Vesta Lynch","party":"","address":"267 E 800 N, American Fork, UT 84003","precinct":"25AF04","hd":"55","v_score":"15.80416232","decile":"9","lat":40.393178535779,"lng":-111.791544344275},{"id":"165711","name":"Maci Morar","party":"Dem","address":"661 E 875 N, American Fork, UT 84003","precinct":"25AF04","hd":"55","v_score":"6.814370645","decile":"8","lat":40.39499038527,"lng":-111.780872054184},{"id":"166055","name":"Alba Stiedemann","party":"","address":"1352 N 100 E, American Fork, UT 84003","precinct":"25AF04","hd":"55","v_score":"1.193887297","decile":"4","lat":40.403430254725,"lng":-111.792129960086},{"id":"166183","name":"Alexande Will","party":"","address":"796 N 610 E, American Fork, UT 84003","precinct":"25AF04","hd":"55","v_score":"8.421194992","decile":"8","lat":40.393160766824,"lng":-111.781863662366},{"id":"166186","name":"Heber Dickens-Sipes","party":"Dem","address":"796 N 610 E, American Fork, UT 84003","precinct":"25AF04","hd":"55","v_score":"8.421194992","decile":"8","lat":40.393160766824,"lng":-111.781863662366},{"id":"167859","name":"Lolla Grady DVM","party":"Rep","address":"957 N 400 E, American Fork, UT 84003","precinct":"25AF04","hd":"55","v_score":"16.80774378","decile":"9","lat":40.394202202436,"lng":-111.787767992702},{"id":"168220","name":"Gene O'Reilly","party":"Dem","address":"925 N 240 E, American Fork, UT 84003","precinct":"25AF04","hd":"55","v_score":"16.20846797","decile":"9","lat":40.395150418509,"lng":-111.792084311855},{"id":"168541","name":"Corrina Kirlin-Hoeger","party":"","address":"868 N 520 E, American Fork, UT 84003","precinct":"25AF04","hd":"55","v_score":"6.798081861","decile":"8","lat":40.394289283091,"lng":-111.784869000851},{"id":"168601","name":"Rolla Denesik","party":"","address":"742 N 100 E, American Fork, UT 84003","precinct":"25AF04","hd":"55","v_score":"3.93832808","decile":"6","lat":40.392122772124,"lng":-111.795684586871},{"id":"168699","name":"Miss Leta Casper","party":"Dem","address":"722 N 350 E, American Fork, UT 84003","precinct":"25AF04","hd":"55","v_score":"9.35760564","decile":"8","lat":40.39140841364,"lng":-111.789541930936},{"id":"169391","name":"Helmer Leannon","party":"","address":"1126 N 100 E, American Fork, UT 84003","precinct":"25AF04","hd":"55","v_score":"2.315214949","decile":"5","lat":40.399167361325,"lng":-111.794787679803},{"id":"169681","name":"Martina Marks","party":"","address":"521 E 900 N, American Fork, UT 84003","precinct":"25AF04","hd":"55","v_score":"5.40460374","decile":"7","lat":40.387652350811,"lng":-111.773319945779},{"id":"169686","name":"Dr. Darcy Schimmel PhD","party":"","address":"728 E 875 N, American Fork, UT 84003","precinct":"25AF04","hd":"55","v_score":"19.02905697","decile":"10","lat":40.394887521409,"lng":-111.779144483982},{"id":"170500","name":"Maybelle Zulauf","party":"Dem","address":"1126 N 100 E, American Fork, UT 84003","precinct":"25AF04","hd":"55","v_score":"2.315214949","decile":"5","lat":40.399167361325,"lng":-111.794787679803},{"id":"171154","name":"Luann Bailey","party":"Rep","address":"361 E 980 N, American Fork, UT 84003","precinct":"25AF04","hd":"55","v_score":"0","decile":"3","lat":40.396753077102,"lng":-111.788963796106},{"id":"171609","name":"Blake Satterfield DVM","party":"Dem","address":"937 N 240 E, American Fork, UT 84003","precinct":"25AF04","hd":"55","v_score":"1.193887297","decile":"4","lat":40.395246591082,"lng":-111.792084792705},{"id":"171639","name":"Woody Torphy","party":"Dem","address":"799 N 200 E, American Fork, UT 84003","precinct":"25AF04","hd":"55","v_score":"3.93832808","decile":"6","lat":40.392812866539,"lng":-111.793172277151},{"id":"171727","name":"Kamya Fadel PhD","party":"","address":"856 N 750 E, American Fork, UT 84003","precinct":"25AF04","hd":"55","v_score":"3.93832808","decile":"6","lat":40.394325477117,"lng":-111.778626793932},{"id":"171905","name":"Sumner Beier","party":"","address":"723 N 730 E, American Fork, UT 84003","precinct":"25AF04","hd":"55","v_score":"7.947838735","decile":"8","lat":40.392229609312,"lng":-111.779300024141},{"id":"171984","name":"Hadley Boyer PhD","party":"","address":"522 E 750 N, American Fork, UT 84003","precinct":"25AF04","hd":"55","v_score":"6.657533174","decile":"7","lat":40.392512700332,"lng":-111.78550640275},{"id":"172872","name":"Arletta Zulauf","party":"Dem","address":"828 N 350 E, American Fork, UT 84003","precinct":"25AF04","hd":"55","v_score":"17.55242504","decile":"9","lat":40.3932989612,"lng":-111.789639505512},{"id":"172909","name":"Skye Watsica","party":"Rep","address":"862 N 290 E, American Fork, UT 84003","precinct":"25AF04","hd":"55","v_score":"16.02813801","decile":"9","lat":40.394156309682,"lng":-111.790959040947},{"id":"173245","name":"Camila Pagac","party":"Dem","address":"745 E 750 N, American Fork, UT 84003","precinct":"25AF04","hd":"55","v_score":"3.93832808","decile":"6","lat":40.393077291165,"lng":-111.779005351297},{"id":"173770","name":"Reggie Borer","party":"Dem","address":"862 N 290 E, American Fork, UT 84003","precinct":"25AF04","hd":"55","v_score":"23.70365327","decile":"10","lat":40.394156309682,"lng":-111.790959040947},{"id":"174335","name":"Niko Koch","party":"Rep","address":"522 E 900 N, American Fork, UT 84003","precinct":"25AF04","hd":"55","v_score":"21.84619848","decile":"10","lat":40.387583329513,"lng":-111.773170279024},{"id":"174914","name":"Faith Dare","party":"Dem","address":"718 N 350 E, American Fork, UT 84003","precinct":"25AF04","hd":"55","v_score":"8.363183621","decile":"8","lat":40.391336361478,"lng":-111.78953472573},{"id":"175083","name":"Clydie Schinner","party":"Dem","address":"868 N 400 E, American Fork, UT 84003","precinct":"25AF04","hd":"55","v_score":"5.40460374","decile":"7","lat":40.393831356138,"lng":-111.787632553676},{"id":"175685","name":"Gregg Powlowski","party":"Rep","address":"284 E 900 N, American Fork, UT 84003","precinct":"25AF04","hd":"55","v_score":"1.46627566","decile":"4","lat":40.394850243078,"lng":-111.791281163894},{"id":"175933","name":"Clair Ernser","party":"Rep","address":"886 N 200 E, American Fork, UT 84003","precinct":"25AF04","hd":"55","v_score":"2.315214949","decile":"5","lat":40.394611982309,"lng":-111.792986732425},{"id":"176174","name":"Shanelle Bernhard","party":"Dem","address":"742 E 750 N, American Fork, UT 84003","precinct":"25AF04","hd":"55","v_score":"1.193887297","decile":"4","lat":40.392962699781,"lng":-111.778998509128},{"id":"176658","name":"Miss Evangelina Quigley","party":"Dem","address":"862 N 100 E, American Fork, UT 84003","precinct":"25AF04","hd":"55","v_score":"2.744440783","decile":"6","lat":40.39433496748,"lng":-111.795710296127},{"id":"176665","name":"Claire Treutel","party":"","address":"877 N 340 E, American Fork, UT 84003","precinct":"25AF04","hd":"55","v_score":"0","decile":"3","lat":40.394675518543,"lng":-111.790051594723},{"id":"176865","name":"Jaden Dickens","party":"Rep","address":"920 N 100 E, American Fork, UT 84003","precinct":"25AF04","hd":"55","v_score":"21.36541415","decile":"10","lat":40.395830984783,"lng":-111.795757818267},{"id":"177023","name":"Mr. Josef Ferry Sr.","party":"Rep","address":"267 E 800 N, American Fork, UT 84003","precinct":"25AF04","hd":"55","v_score":"8.280646305","decile":"8","lat":40.393178535779,"lng":-111.791544344275},{"id":"177173","name":"Leander Koch","party":"Dem","address":"1115 N 200 E, American Fork, UT 84003","precinct":"25AF04","hd":"55","v_score":"8.421194992","decile":"8","lat":40.398038497366,"lng":-111.792996442811},{"id":"177174","name":"Hermine Bergstrom","party":"","address":"1115 N 200 E, American Fork, UT 84003","precinct":"25AF04","hd":"55","v_score":"5.40460374","decile":"7","lat":40.398038497366,"lng":-111.792996442811},{"id":"177189","name":"Zilpha Senger","party":"","address":"816 N 520 E, American Fork, UT 84003","precinct":"25AF04","hd":"55","v_score":"2.587603312","decile":"5","lat":40.393585795277,"lng":-111.784945944917},{"id":"177260","name":"Ms. Carleigh O'Reilly MD","party":"Dem","address":"957 N 400 E, American Fork, UT 84003","precinct":"25AF04","hd":"55","v_score":"15.18463064","decile":"9","lat":40.394202202436,"lng":-111.787767992702},{"id":"177319","name":"Dr. Semaj Anderson","party":"","address":"868 N 520 E, American Fork, UT 84003","precinct":"25AF04","hd":"55","v_score":"6.798081861","decile":"8","lat":40.394289283091,"lng":-111.784869000851},{"id":"177493","name":"Mr. Jett Stamm DVM","party":"","address":"1152 N 160 E, American Fork, UT 84003","precinct":"25AF04","hd":"55","v_score":"2.315214949","decile":"5","lat":40.399737574117,"lng":-111.793048115594},{"id":"177857","name":"Antoine Kuphal III","party":"","address":"783 N Riverwalk Dr, American Fork, UT 84003","precinct":"25AF04","hd":"55","v_score":"2.817000428","decile":"6","lat":40.392564868443,"lng":-111.786753162269},{"id":"177925","name":"Erwin Beahan","party":"Dem","address":"840 N 100 E, American Fork, UT 84003","precinct":"25AF04","hd":"55","v_score":"8.347511332","decile":"8","lat":40.393717239132,"lng":-111.795693594155},{"id":"178179","name":"Sally Emmerich","party":"","address":"840 N 610 E, American Fork, UT 84003","precinct":"25AF04","hd":"55","v_score":"22.51168949","decile":"10","lat":40.393739302186,"lng":-111.78186653581},{"id":"178334","name":"Jered Boyer-Mohr","party":"Rep","address":"760 N 100 E, American Fork, UT 84003","precinct":"25AF04","hd":"55","v_score":"39.70667252","decile":"10","lat":40.39244023128,"lng":-111.795686616139},{"id":"178588","name":"Ms. Kaylin Considine MD","party":"","address":"925 N 370 E, American Fork, UT 84003","precinct":"25AF04","hd":"55","v_score":"10.22509301","decile":"9","lat":40.395535446029,"lng":-111.788593087543},{"id":"179155","name":"Gusta Swaniawski","party":"","address":"1346 N 100 E, American Fork, UT 84003","precinct":"25AF04","hd":"55","v_score":"24.50082261","decile":"10","lat":40.403298293384,"lng":-111.792215734972},{"id":"179703","name":"Latifah Mayer","party":"Dem","address":"1124 N 160 E, American Fork, UT 84003","precinct":"25AF04","hd":"55","v_score":"22.89070912","decile":"10","lat":40.399429014946,"lng":-111.793066059333},{"id":"179710","name":"Lorenzo Franecki","party":"Dem","address":"804 N 150 E, American Fork, UT 84003","precinct":"25AF04","hd":"55","v_score":"0","decile":"3","lat":40.393034240866,"lng":-111.802555269246},{"id":"179896","name":"Elsworth Gleichner","party":"Dem","address":"936 N 100 E, American Fork, UT 84003","precinct":"25AF04","hd":"55","v_score":"2.315214949","decile":"5","lat":40.396039023394,"lng":-111.795760907921},{"id":"180017","name":"Asbury Marks","party":"","address":"759 N 610 E, American Fork, UT 84003","precinct":"25AF04","hd":"55","v_score":"22.48959706","decile":"10","lat":40.392818792238,"lng":-111.782012420271},{"id":"180818","name":"Teri Shields","party":"Rep","address":"965 N 370 E, American Fork, UT 84003","precinct":"25AF04","hd":"55","v_score":"3.93832808","decile":"6","lat":40.396153737215,"lng":-111.788598994702}]