[{"vid":"817671","name":"Adria Watsica","party":"","address":"628 E 50 N, American Fork, UT 84003","precinct":"25AF15","hd":"55","v_score":"0","decile":"1","lat":40.37756603972116,"lng":-111.78152411939129},{"vid":"1230016","name":"Rowland Borer","party":"Rep","address":"32 N 825 E, American Fork, UT 84003","precinct":"25AF15","hd":"55","v_score":"26.89878031","decile":"10","lat":40.37740566540199,"lng":-111.77528232037007},{"vid":"1238374","name":"Yaritza Feil PhD","party":"Dem","address":"180 N 600 E, American Fork, UT 84003","precinct":"25AF15","hd":"55","v_score":"9.549140629","decile":"8","lat":40.38029969914864,"lng":-111.78224794546546},{"vid":"6ee46d3e09daed5d1e2cca35ddf4e13baf29f42e751ce32309e11577e65cf132","name":"Melbourne Koch","party":"Rep","address":"165 N 800 E, American Fork, UT 84003","precinct":"25AF15","hd":"55","v_score":"12.05946382","decile":"9","lat":40.38010825881975,"lng":-111.77667809845252},{"vid":"1253730","name":"Elbert Feeney","party":"Rep","address":"73 N 775 E, American Fork, UT 84003","precinct":"25AF15","hd":"55","v_score":"1.121327652","decile":"3","lat":40.37859923955543,"lng":-111.77758756934472},{"vid":"1274362","name":"Unique Kshlerin","party":"Dem","address":"264 N 600 E, American Fork, UT 84003","precinct":"25AF15","hd":"55","v_score":"2.315214949","decile":"5","lat":40.3820139211664,"lng":-111.78221988703673},{"vid":"1285587","name":"Georgina Gerhold","party":"Rep","address":"885 E 30 N, American Fork, UT 84003","precinct":"25AF15","hd":"55","v_score":"5.258122542","decile":"7","lat":40.377402025681214,"lng":-111.77409894486915},{"vid":"1302268","name":"Ian Jones","party":"","address":"92 N 775 E, American Fork, UT 84003","precinct":"25AF15","hd":"55","v_score":"6.74007049","decile":"8","lat":40.379044281906346,"lng":-111.77706301322625},{"vid":"1314592","name":"Louis Dach","party":"Dem","address":"680 E 170 N, American Fork, UT 84003","precinct":"25AF15","hd":"55","v_score":"23.7942762","decile":"10","lat":40.38009533591105,"lng":-111.7804928520144},{"vid":"1375980","name":"Lavera Kovacek","party":"","address":"628 E 50 N, American Fork, UT 84003","precinct":"25AF15","hd":"55","v_score":"0","decile":"1","lat":40.37756603972116,"lng":-111.78152411939129},{"vid":"1cf0e9b538ae00dfc24719a7cc4f13aaed4995082c905e6e2688a3028c034a62","name":"Antwan Jaskolski-Shields","party":"Dem","address":"58 N 800 E, American Fork, UT 84003","precinct":"25AF15","hd":"55","v_score":"16.04222202","decile":"9","lat":40.378260221772315,"lng":-111.77618144703061},{"vid":"1397830","name":"Javier Marks","party":"Rep","address":"684 E 100 N, American Fork, UT 84003","precinct":"25AF15","hd":"55","v_score":"5.40460374","decile":"7","lat":40.37880110909137,"lng":-111.78006973987956},{"vid":"1404815","name":"Kyle Stiedemann","party":"Dem","address":"39 N 825 E, American Fork, UT 84003","precinct":"25AF15","hd":"55","v_score":"0","decile":"1","lat":40.377590028565116,"lng":-111.77581363614944},{"vid":"1423791","name":"Cooper Collins","party":"","address":"150 N 825 E, American Fork, UT 84003","precinct":"25AF15","hd":"55","v_score":"38.98393022","decile":"10","lat":40.379860054024384,"lng":-111.77509881523682},{"vid":"1426409","name":"Broderick Bins","party":"","address":"894 E 300 N, American Fork, UT 84003","precinct":"25AF15","hd":"55","v_score":"19.62473182","decile":"10","lat":40.3829770497571,"lng":-111.77341529139173},{"vid":"700fb32d680ba6746cb0f9c7985300bf6adf782400731831bf34f5c8264448ec","name":"Hernan Christiansen-Altenwerth","party":"","address":"190 N 600 E, American Fork, UT 84003","precinct":"25AF15","hd":"55","v_score":"14.46680193","decile":"9","lat":40.380452117207675,"lng":-111.78226059838596},{"vid":"1456032","name":"Jayda Greenholt-West","party":"Dem","address":"607 E 230 N, American Fork, UT 84003","precinct":"25AF15","hd":"55","v_score":"4.283276088","decile":"7","lat":40.38166556092738,"lng":-111.78227030687357},{"vid":"1469515","name":"Freddie Flatley-Deckow","party":"Rep","address":"56 N 775 E, American Fork, UT 84003","precinct":"25AF15","hd":"55","v_score":"1.121327652","decile":"3","lat":40.378239548002796,"lng":-111.77706419256451},{"vid":"1469517","name":"Atticus Rutherford-Okuneva","party":"Dem","address":"56 N 775 E, American Fork, UT 84003","precinct":"25AF15","hd":"55","v_score":"3.781490609","decile":"6","lat":40.378239548002796,"lng":-111.77706419256451},{"vid":"1471191","name":"Rowland Jacobson-Schroeder","party":"","address":"607 E 230 N, American Fork, UT 84003","precinct":"25AF15","hd":"55","v_score":"11.09694254","decile":"9","lat":40.38166556092738,"lng":-111.78227030687357},{"vid":"d664a1a46d250bfed921b0f07cea1d2b1968cd1e208524b22981f8982c61620b","name":"Kelsea McLaughlin","party":"Dem","address":"607 E 230 N, American Fork, UT 84003","precinct":"25AF15","hd":"55","v_score":"19.74179771","decile":"10","lat":40.38166556092738,"lng":-111.78227030687357},{"vid":"1495468","name":"Ms. Star Littel","party":"Rep","address":"241 N 860 E, American Fork, UT 84003","precinct":"25AF15","hd":"55","v_score":"2.315214949","decile":"5","lat":40.38200272642415,"lng":-111.77488307096922},{"vid":"1520046","name":"Dr. Hobson Huel","party":"Rep","address":"63 N 825 E, American Fork, UT 84003","precinct":"25AF15","hd":"55","v_score":"4.137918904","decile":"7","lat":40.37833095753735,"lng":-111.77581249618734},{"vid":"1539437","name":"Evangelina Koelpin-Schmidt","party":"","address":"32 S 750 E, American Fork, UT 84003","precinct":"25AF15","hd":"55","v_score":"11.30609121","decile":"9","lat":40.376342172970546,"lng":-111.7780520757215},{"vid":"1556500","name":"Ocie Runte","party":"","address":"16 N 700 E, Apt 14, American Fork, UT 84003","precinct":"25AF15","hd":"55","v_score":"2.315214949","decile":"5","lat":40.37709898770964,"lng":-111.77906807142001},{"vid":"1569493","name":"Denny McLaughlin-Leffler","party":"","address":"619 E 30 N, American Fork, UT 84003","precinct":"25AF15","hd":"55","v_score":"1.46627566","decile":"4","lat":40.37725301622733,"lng":-111.78200077326645},{"vid":"1578768","name":"Jewel Jenkins","party":"","address":"761 E 10 S, American Fork, UT 84003","precinct":"25AF15","hd":"55","v_score":"2.315214949","decile":"5","lat":40.37686948508583,"lng":-111.77751107582198},{"vid":"1578907","name":"Rashida Legros","party":"","address":"32 S 750 E, American Fork, UT 84003","precinct":"25AF15","hd":"55","v_score":"11.30609121","decile":"9","lat":40.376342172970546,"lng":-111.7780520757215},{"vid":"1582197","name":"Mr. Cephus Mante","party":"","address":"217 N 800 E, American Fork, UT 84003","precinct":"25AF15","hd":"55","v_score":"0","decile":"1","lat":40.381387166661774,"lng":-111.77695706954147},{"vid":"1585538","name":"Dr. Dionicio Windler MD","party":"Rep","address":"807 E 10 S, American Fork, UT 84003","precinct":"25AF15","hd":"55","v_score":"2.315214949","decile":"5","lat":40.376793534368474,"lng":-111.77625773376117},{"vid":"1592845","name":"Grant Mayer DVM","party":"Rep","address":"190 N 600 E, American Fork, UT 84003","precinct":"25AF15","hd":"55","v_score":"2.315214949","decile":"5","lat":40.380452117207675,"lng":-111.78226059838596},{"vid":"1592888","name":"Dr. Buna Bode","party":"","address":"270 N 700 E, American Fork, UT 84003","precinct":"25AF15","hd":"55","v_score":"0","decile":"1","lat":40.38225773602048,"lng":-111.77924242877013},{"vid":"1625463","name":"Glynis Eichmann","party":"","address":"49 N 775 E, American Fork, UT 84003","precinct":"25AF15","hd":"55","v_score":"3.781490609","decile":"6","lat":40.378050383436715,"lng":-111.77758839238118},{"vid":"1625624","name":"Kaya Boyer","party":"","address":"680 E 170 N, American Fork, UT 84003","precinct":"25AF15","hd":"55","v_score":"1.623113131","decile":"4","lat":40.38009533591105,"lng":-111.7804928520144},{"vid":"1627037","name":"Suzann Kris MD","party":"Rep","address":"676 E 100 N, American Fork, UT 84003","precinct":"25AF15","hd":"55","v_score":"3.93832808","decile":"6","lat":40.378800863284745,"lng":-111.78035092783483},{"vid":"1627112","name":"Mrs. Miriah Stokes","party":"Dem","address":"292 N 860 E, American Fork, UT 84003","precinct":"25AF15","hd":"55","v_score":"5.40460374","decile":"7","lat":40.38293083073769,"lng":-111.77398030257906},{"vid":"1630491","name":"Giovanny Kemmer","party":"Rep","address":"19 S 800 E, American Fork, UT 84003","precinct":"25AF15","hd":"55","v_score":"1.121327652","decile":"3","lat":40.37648455702978,"lng":-111.7763224241397},{"vid":"6735901e799cd47fce2493ed0117021c4e683547ac0adcf3a5164100e54303f7","name":"Anabella Lehner","party":"Rep","address":"610 E 50 N, American Fork, UT 84003","precinct":"25AF15","hd":"55","v_score":"2.315214949","decile":"5","lat":40.37750725199705,"lng":-111.78230030472002},{"vid":"1643017","name":"Brycen Feest-Haag","party":"","address":"16 N 700 E, Apt 14, American Fork, UT 84003","precinct":"25AF15","hd":"55","v_score":"5.258122542","decile":"7","lat":40.37709898770964,"lng":-111.77906807142001},{"vid":"1648685","name":"Dejah Altenwerth","party":"Rep","address":"65 N 630 E, American Fork, UT 84003","precinct":"25AF15","hd":"55","v_score":"10.11789853","decile":"9","lat":40.37795650569949,"lng":-111.78179072998519},{"vid":"1651675","name":"Micky Kub","party":"Rep","address":"636 E 30 N, American Fork, UT 84003","precinct":"25AF15","hd":"55","v_score":"2.315214949","decile":"5","lat":40.376877905419974,"lng":-111.78142810835203},{"vid":"b69dfd5405c9cb784bb38376b4d35aab63f4b4a511afb8b4ecf96814666b997b","name":"Adolph Kris DDS","party":"Rep","address":"629 E 30 N, American Fork, UT 84003","precinct":"25AF15","hd":"55","v_score":"5.693042993","decile":"7","lat":40.37731718439117,"lng":-111.78153082102293},{"vid":"1663309","name":"Ether Watsica","party":"","address":"163 N 700 E, American Fork, UT 84003","precinct":"25AF15","hd":"55","v_score":"9.923865181","decile":"9","lat":40.38004202199661,"lng":-111.779838085568},{"vid":"1678531","name":"Ms. Denice Aufderhar","party":"Dem","address":"28 N 800 E, American Fork, UT 84003","precinct":"25AF15","hd":"55","v_score":"0","decile":"1","lat":40.37739713124601,"lng":-111.77622806252346},{"vid":"1684777","name":"Alesha Shanahan DDS","party":"Rep","address":"77 N 630 E, American Fork, UT 84003","precinct":"25AF15","hd":"55","v_score":"9.830961897","decile":"8","lat":40.378107439362644,"lng":-111.7817913882507},{"vid":"1684778","name":"Dr. Babe Becker","party":"Dem","address":"77 N 630 E, American Fork, UT 84003","precinct":"25AF15","hd":"55","v_score":"9.830961897","decile":"8","lat":40.378107439362644,"lng":-111.7817913882507},{"vid":"0633ba237c64ba206fa7ef313cfdb7a516f5740be2127e1e48dc0708f8e66113","name":"Dr. Linden Weber Sr.","party":"Rep","address":"124 N 825 E, American Fork, UT 84003","precinct":"25AF15","hd":"55","v_score":"1.46627566","decile":"4","lat":40.37947941134547,"lng":-111.77526333923277},{"vid":"f3719267f38b9daebc17d13205667f59779850f53bada0152e0e1c86dc329785","name":"Mr. Delvin Donnelly","party":"","address":"208 N 775 E, American Fork, UT 84003","precinct":"25AF15","hd":"55","v_score":"8.347511332","decile":"8","lat":40.38111675651912,"lng":-111.77736607171518},{"vid":"1735040","name":"Dr. Alvira Rippin","party":"Dem","address":"39 N 825 E, American Fork, UT 84003","precinct":"25AF15","hd":"55","v_score":"0","decile":"1","lat":40.377590028565116,"lng":-111.77581363614944},{"vid":"1735515","name":"Corbin Toy-Wehner","party":"Rep","address":"36 S 750 E, American Fork, UT 84003","precinct":"25AF15","hd":"55","v_score":"2.744440783","decile":"5","lat":40.37624387818808,"lng":-111.77784164093451},{"vid":"1759737","name":"Mr. Geno Kshlerin","party":"Rep","address":"16 S 600 E, Apt 1, American Fork, UT 84003","precinct":"25AF15","hd":"55","v_score":"5.40460374","decile":"7","lat":40.37637975209339,"lng":-111.78299899592541},{"vid":"1760186","name":"Dr. Hollis Jacobson","party":"Rep","address":"717 E 50 N, American Fork, UT 84003","precinct":"25AF15","hd":"55","v_score":"5.687348376","decile":"7","lat":40.37795817420659,"lng":-111.778971485305},{"vid":"1e0b01b168bad29dc60d24d6ae0ba857990ad848b6ca9977865b4a482067c809","name":"Shandra Ruecker","party":"","address":"647 E 220 N, American Fork, UT 84003","precinct":"25AF15","hd":"55","v_score":"0","decile":"1","lat":40.38135209102886,"lng":-111.78109272144421},{"vid":"08bcecc842d1edafeb53a30c364503d62554ea9d174dbf75d6eeea7e4198675a","name":"Roxie Yost","party":"","address":"15 S 800 E, American Fork, UT 84003","precinct":"25AF15","hd":"55","v_score":"2.315214949","decile":"5","lat":40.37663314220464,"lng":-111.77615619370363},{"vid":"9ea5e29664d71d8830ff6d17abb5bb5241804a18d7673446fc6f5d98d5c00373","name":"Rebeca Crona","party":"Dem","address":"264 N 600 E, American Fork, UT 84003","precinct":"25AF15","hd":"55","v_score":"6.884189957","decile":"8","lat":40.3820139211664,"lng":-111.78221988703673},{"vid":"1785702","name":"Dr. Khloe Stoltenberg DVM","party":"Dem","address":"16 S 750 E, American Fork, UT 84003","precinct":"25AF15","hd":"55","v_score":"3.93832808","decile":"6","lat":40.37652318283319,"lng":-111.7778228961488},{"vid":"1786973","name":"Shania Bode-Goodwin","party":"Rep","address":"163 N 700 E, American Fork, UT 84003","precinct":"25AF15","hd":"55","v_score":"9.923865181","decile":"9","lat":40.38004202199661,"lng":-111.779838085568},{"vid":"1817528","name":"Mr. Bluford Schoen","party":"","address":"213 N 900 E, American Fork, UT 84003","precinct":"25AF15","hd":"55","v_score":"7.821996458","decile":"8","lat":40.38136325440756,"lng":-111.7735498570196},{"vid":"1829829","name":"Brett Turner","party":"Rep","address":"32 N 825 E, American Fork, UT 84003","precinct":"25AF15","hd":"55","v_score":"42.53235191","decile":"10","lat":40.37740566540199,"lng":-111.77528232037007},{"vid":"1837850","name":"Jazmyne Stehr","party":"","address":"647 E 100 N, American Fork, UT 84003","precinct":"25AF15","hd":"55","v_score":"6.814370645","decile":"8","lat":40.379287159543914,"lng":-111.78139661407695},{"vid":"1840746","name":"Layton Treutel","party":"","address":"22 S 700 E, Apt 5, American Fork, UT 84003","precinct":"25AF15","hd":"55","v_score":"2.744440783","decile":"5","lat":40.37629111575743,"lng":-111.78001309678898},{"vid":"1844095","name":"Hassan Schimmel","party":"Dem","address":"846 E 300 N, American Fork, UT 84003","precinct":"25AF15","hd":"55","v_score":"2.315214949","decile":"5","lat":40.3828627002957,"lng":-111.77498644803222},{"vid":"1865560","name":"Cecil Kling","party":"","address":"44 N 640 E, American Fork, UT 84003","precinct":"25AF15","hd":"55","v_score":"11.26189763","decile":"9","lat":40.37755937978133,"lng":-111.78120408337233},{"vid":"1875324","name":"Alois Jacobi","party":"Dem","address":"177 N 800 E, American Fork, UT 84003","precinct":"25AF15","hd":"55","v_score":"1.121327652","decile":"3","lat":40.38051415004756,"lng":-111.77683377798793},{"vid":"28f894020a2b751ecf0a9256fde46e181c109744812f5757c73a94819a7b2a3d","name":"Miss Rosemary Mayer DDS","party":"","address":"610 E 50 N, American Fork, UT 84003","precinct":"25AF15","hd":"55","v_score":"2.315214949","decile":"5","lat":40.37750725199705,"lng":-111.78230030472002},{"vid":"1887914","name":"Mr. Jaheem Kerluke","party":"Dem","address":"58 N 750 E, American Fork, UT 84003","precinct":"25AF15","hd":"55","v_score":"7.650280567","decile":"8","lat":40.37783442572698,"lng":-111.77805373807729},{"vid":"1889857","name":"Brycen Rolfson","party":"Dem","address":"194 N 600 E, American Fork, UT 84003","precinct":"25AF15","hd":"55","v_score":"5.546183193","decile":"7","lat":40.38083557314832,"lng":-111.78190926543893},{"vid":"fb8e7c392a1ed9335089e174875e8f4196c8b5e12cfa1787024eadfa8f2ffa8c","name":"Hernan Stoltenberg V","party":"","address":"52 N 750 E, American Fork, UT 84003","precinct":"25AF15","hd":"55","v_score":"25.1107121","decile":"10","lat":40.37761949834535,"lng":-111.77805325480095},{"vid":"1895123","name":"Alyssa Schmidt","party":"","address":"124 N 825 E, American Fork, UT 84003","precinct":"25AF15","hd":"55","v_score":"1.193887297","decile":"3","lat":40.37947941134547,"lng":-111.77526333923277},{"vid":"1896681","name":"Jeane Heathcote DVM","party":"","address":"36 N 800 E, American Fork, UT 84003","precinct":"25AF15","hd":"55","v_score":"2.315214949","decile":"5","lat":40.37771356040567,"lng":-111.77618224185997},{"vid":"1901501","name":"Dr. Le Witting","party":"Dem","address":"19 N 700 E, Apt 17, American Fork, UT 84003","precinct":"25AF15","hd":"55","v_score":"15.09172736","decile":"9","lat":40.376940373138545,"lng":-111.78085786942789},{"vid":"1902901","name":"Roseanne Satterfield","party":"Dem","address":"16 N 700 E, Apt 2, American Fork, UT 84003","precinct":"25AF15","hd":"55","v_score":"6.814370645","decile":"8","lat":40.37709898770964,"lng":-111.77906807142001},{"vid":"1907448","name":"Trish Hudson PhD","party":"","address":"61 N 775 E, American Fork, UT 84003","precinct":"25AF15","hd":"55","v_score":"0","decile":"1","lat":40.37832481137067,"lng":-111.77758796244747},{"vid":"1914704","name":"Mrs. Belle Gaylord DDS","party":"","address":"42 N 870 E, American Fork, UT 84003","precinct":"25AF15","hd":"55","v_score":"19.29176194","decile":"10","lat":40.3776918439401,"lng":-111.77394306003993},{"vid":"64217873e5522c549f0f547e7d0a8236f1f07e525eedfcdca8453c396fd51d75","name":"Dr. Wirt Satterfield","party":"","address":"878 E Fleming Dr, American Fork, UT 84003","precinct":"25AF15","hd":"55","v_score":"13.54010118","decile":"9","lat":40.37923019220193,"lng":-111.77416564078818},{"vid":"1916453","name":"Haywood Stokes-Fay","party":"Rep","address":"14 S 750 E, American Fork, UT 84003","precinct":"25AF15","hd":"55","v_score":"0","decile":"1","lat":40.37663295334424,"lng":-111.7778233415335},{"vid":"a74d71ed1104f46a27f0890ed81ff3b2173cd3667e90ef85c0f2e662a66ab1e0","name":"Zaiden Hoeger","party":"Dem","address":"675 E 170 N, American Fork, UT 84003","precinct":"25AF15","hd":"55","v_score":"11.687527","decile":"9","lat":40.38049142213173,"lng":-111.78049551796802},{"vid":"1918990","name":"Dorinda Hauck","party":"","address":"130 N 600 E, American Fork, UT 84003","precinct":"25AF15","hd":"55","v_score":"14.24014515","decile":"9","lat":40.379595061161844,"lng":-111.78210260634695},{"vid":"1933952","name":"Korey Mayert","party":"","address":"218 N 860 E, American Fork, UT 84003","precinct":"25AF15","hd":"55","v_score":"2.315214949","decile":"5","lat":40.38135054384078,"lng":-111.77397154202434},{"vid":"1960052","name":"Lafayette Herman","party":"","address":"38 N 640 E, American Fork, UT 84003","precinct":"25AF15","hd":"55","v_score":"11.46976548","decile":"9","lat":40.37734865141116,"lng":-111.78120440137593},{"vid":"1964429","name":"Phoenix Wisoky","party":"Rep","address":"611 E 30 N, American Fork, UT 84003","precinct":"25AF15","hd":"55","v_score":"4.192796624","decile":"7","lat":40.37725404964554,"lng":-111.78219813662781},{"vid":"1971356","name":"Clare Ondricka","party":"Dem","address":"152 N 860 E, American Fork, UT 84003","precinct":"25AF15","hd":"55","v_score":"6.550708384","decile":"7","lat":40.380343424500076,"lng":-111.77402242713721},{"vid":"1973160","name":"Cody Toy","party":"Rep","address":"781 E 10 S, American Fork, UT 84003","precinct":"25AF15","hd":"55","v_score":"3.61989409","decile":"6","lat":40.37687067145153,"lng":-111.77701043465301},{"vid":"1978638","name":"Regena West","party":"Dem","address":"619 E 30 N, American Fork, UT 84003","precinct":"25AF15","hd":"55","v_score":"2.315214949","decile":"5","lat":40.37725301622733,"lng":-111.78200077326645},{"vid":"1992428","name":"Janeen Gerlach","party":"Dem","address":"99 N 800 E, American Fork, UT 84003","precinct":"25AF15","hd":"55","v_score":"7.781882349","decile":"8","lat":40.37917333298552,"lng":-111.77676376733713},{"vid":"1994118","name":"Jeanmarie Hintz-Moore","party":"","address":"182 N 775 E, American Fork, UT 84003","precinct":"25AF15","hd":"55","v_score":"5.258122542","decile":"7","lat":40.38058996320088,"lng":-111.77721291719378},{"vid":"c103bf24bbde3e084411c8baabdaa68840728b1b008150bea41370e9572f7efc","name":"Colvin Beer","party":"","address":"208 N 775 E, Bsmt, American Fork, UT 84003","precinct":"25AF15","hd":"55","v_score":"13.61621523","decile":"9","lat":40.38111675651912,"lng":-111.77736607171518},{"vid":"2026841","name":"Dellar Swaniawski","party":"","address":"195 N 775 E, American Fork, UT 84003","precinct":"25AF15","hd":"55","v_score":"25.60455543","decile":"10","lat":40.380738561441895,"lng":-111.7777963379964},{"vid":"2031581","name":"Mr. Selmer Rath DDS","party":"Dem","address":"16 N 700 E, Apt 20, American Fork, UT 84003","precinct":"25AF15","hd":"55","v_score":"0","decile":"1","lat":40.37709898770964,"lng":-111.77906807142001},{"vid":"2045118","name":"Robert Daugherty","party":"Rep","address":"33 N 870 E, American Fork, UT 84003","precinct":"25AF15","hd":"55","v_score":"1.121327652","decile":"3","lat":40.37739873772581,"lng":-111.77452120060298},{"vid":"2052187","name":"Celestia Bogisich","party":"Rep","address":"155 N 825 E, American Fork, UT 84003","precinct":"25AF15","hd":"55","v_score":"6.030048853","decile":"7","lat":40.38019532436237,"lng":-111.77584268574931},{"vid":"2057358","name":"Jodi Collins","party":"Dem","address":"254 N 860 E, American Fork, UT 84003","precinct":"25AF15","hd":"55","v_score":"0","decile":"1","lat":40.38196529764464,"lng":-111.77396912609518},{"vid":"fe0ac78ee1fb5b7b9725f13744bd15bc62d1a82ae8a1c8e08cd96d066895abb6","name":"Ennis Zboncak","party":"","address":"160 N 800 E, American Fork, UT 84003","precinct":"25AF15","hd":"55","v_score":"13.46861423","decile":"9","lat":40.38007304043728,"lng":-111.77630220604374},{"vid":"7b99a7ad6ec37be7f4ed51deb8e0cc17252409886aaf0976f740dbdc8bc15058","name":"Dione Flatley DVM","party":"","address":"675 E 170 N, American Fork, UT 84003","precinct":"25AF15","hd":"55","v_score":"5.331806201","decile":"7","lat":40.38049142213173,"lng":-111.78049551796802},{"vid":"2073089","name":"Cassidy Jenkins","party":"","address":"196 N 860 E, American Fork, UT 84003","precinct":"25AF15","hd":"55","v_score":"1.193887297","decile":"3","lat":40.38104318974343,"lng":-111.77396733233924},{"vid":"2073178","name":"Vesta Corwin MD","party":"","address":"165 N 860 E, American Fork, UT 84003","precinct":"25AF15","hd":"55","v_score":"2.315214949","decile":"5","lat":40.38070155282143,"lng":-111.77476672596559},{"vid":"dc017ebd8ecebea46f2cd9097665f8e1c33af573119d0ce51ca493ca7270d6e5","name":"Kayson Dickinson","party":"","address":"45 N 900 E, American Fork, UT 84003","precinct":"25AF15","hd":"55","v_score":"23.36528826","decile":"10","lat":40.37778062916136,"lng":-111.77356521318039},{"vid":"2108859","name":"Dr. Dimitri Schultz","party":"Rep","address":"894 E 300 N, American Fork, UT 84003","precinct":"25AF15","hd":"55","v_score":"4.283276088","decile":"7","lat":40.3829770497571,"lng":-111.77341529139173},{"vid":"2112125","name":"Dr. Consuela Wuckert","party":"Rep","address":"270 N 700 E, American Fork, UT 84003","precinct":"25AF15","hd":"55","v_score":"6.724398202","decile":"8","lat":40.38225773602048,"lng":-111.77924242877013},{"vid":"2114576","name":"Mr. Bud Kertzmann IV","party":"Dem","address":"33 N 870 E, American Fork, UT 84003","precinct":"25AF15","hd":"55","v_score":"0","decile":"1","lat":40.37739873772581,"lng":-111.77452120060298},{"vid":"2117065","name":"Donta Hand","party":"Dem","address":"84 N 600 E, American Fork, UT 84003","precinct":"25AF15","hd":"55","v_score":"2.587603312","decile":"5","lat":40.378355022747265,"lng":-111.7820568569237},{"vid":"2120726","name":"Ms. Lina Runte MD","party":"","address":"700 E 300 N, American Fork, UT 84003","precinct":"25AF15","hd":"55","v_score":"2.660162957","decile":"5","lat":40.38294006591181,"lng":-111.77919360597606},{"vid":"3c167b5644bd862b06c96cd2fe4bfc874116d9db20e503462795976b13ea90bd","name":"Izetta Wisozk","party":"Dem","address":"161 N 670 E, American Fork, UT 84003","precinct":"25AF15","hd":"55","v_score":"0","decile":"1","lat":40.379966906286235,"lng":-111.78107234058501},{"vid":"bc563c5ad386000a353b37319ace54772f68c126bc61e094e12d4bdf9c78e0bf","name":"Ples Torphy","party":"Dem","address":"79 N 670 E, American Fork, UT 84003","precinct":"25AF15","hd":"55","v_score":"13.90948566","decile":"9","lat":40.37816017086918,"lng":-111.78099645315876},{"vid":"2153578","name":"Carmel Gislason MD","party":"","address":"196 N 860 E, American Fork, UT 84003","precinct":"25AF15","hd":"55","v_score":"2.315214949","decile":"5","lat":40.38104318974343,"lng":-111.77396733233924},{"vid":"05717d7017dd0fce898af3cb723a273e40833fc610eeb5fa31fa2f3eb10b9cde","name":"Mr. Jair Hermann Sr.","party":"","address":"623 E 30 N, American Fork, UT 84003","precinct":"25AF15","hd":"55","v_score":"2.587603312","decile":"5","lat":40.377318218492746,"lng":-111.78172818438432},{"vid":"ee4197ddbc2c76f24189eabdec59dd6fa3c2140cb286ee2a984f106498098215","name":"Kennth Lynch","party":"Rep","address":"98 N 600 E, American Fork, UT 84003","precinct":"25AF15","hd":"55","v_score":"4.424855541","decile":"7","lat":40.37887483646767,"lng":-111.78233298332337},{"vid":"2177836","name":"Miss Shirl Ebert PhD","party":"","address":"894 E 300 N, American Fork, UT 84003","precinct":"25AF15","hd":"55","v_score":"2.744440783","decile":"5","lat":40.3829770497571,"lng":-111.77341529139173},{"vid":"2180904","name":"Gerry Bechtelar MD","party":"Dem","address":"798 E 30 N, American Fork, UT 84003","precinct":"25AF15","hd":"55","v_score":"2.315214949","decile":"5","lat":40.37735831316649,"lng":-111.77640034184131},{"vid":"2196077","name":"Georgette Murazik-Schamberger","party":"Rep","address":"639 E Main St, American Fork, UT 84003","precinct":"25AF15","hd":"55","v_score":"0","decile":"1","lat":40.37664177533878,"lng":-111.78142557405491},{"vid":"66084397ab0dc22959f491e03bd6ec327589d233c1ae71db15e07615530c7f57","name":"Velia Satterfield-Champlin","party":"Rep","address":"792 E 30 N, American Fork, UT 84003","precinct":"25AF15","hd":"55","v_score":"0","decile":"1","lat":40.37730642731568,"lng":-111.77672726106161},{"vid":"2213318","name":"Meda Gorczany-Abernathy","party":"Rep","address":"16 N 700 E, Apt 24, American Fork, UT 84003","precinct":"25AF15","hd":"55","v_score":"1.193887297","decile":"3","lat":40.37709898770964,"lng":-111.77906807142001},{"vid":"243421fc0fa1b98fd84e124e523702a1ac736803d1ee41e77051fd9d5a31fabd","name":"Mr. Ole Lemke III","party":"Rep","address":"72 N 825 E, American Fork, UT 84003","precinct":"25AF15","hd":"55","v_score":"6.636485342","decile":"7","lat":40.37858596499888,"lng":-111.77520852504517},{"vid":"dd61980ccc49a4d5e2bd893ca2485f167fd6b1fd1f1fc3c6a8f445af5fc0af4e","name":"Carissa Kihn","party":"Dem","address":"610 E 50 N, American Fork, UT 84003","precinct":"25AF15","hd":"55","v_score":"1.193887297","decile":"3","lat":40.37750725199705,"lng":-111.78230030472002},{"vid":"d9d74e05e13b8decda6f10af30e4d11454c638323589f8728d2a06f39c29ce5c","name":"Hadley McLaughlin","party":"","address":"152 N 860 E, American Fork, UT 84003","precinct":"25AF15","hd":"55","v_score":"1.193887297","decile":"3","lat":40.380343424500076,"lng":-111.77402242713721},{"vid":"fce20d3395b17a2dd686c553ca4802a217ff303cc02776c1d9bb239a64ac5975","name":"Arturo Koss","party":"","address":"21 S 750 E, American Fork, UT 84003","precinct":"25AF15","hd":"55","v_score":"1.193887297","decile":"3","lat":40.37635366503092,"lng":-111.77732701892543},{"vid":"fc006dc1c4e58d74cc659862c1ab46c097bd251352a5841fef094d78eaaccc48","name":"Dona Schiller","party":"Rep","address":"131 N 775 E, American Fork, UT 84003","precinct":"25AF15","hd":"55","v_score":"20.18299619","decile":"10","lat":40.37969695274968,"lng":-111.7775859241701},{"vid":"62039532385102d35598a90d94459a92e392732d4a5fb689989bbb0f48c0f782","name":"Barnie Fadel","party":"Rep","address":"16 N 700 E, Apt 5, American Fork, UT 84003","precinct":"25AF15","hd":"55","v_score":"1.121327652","decile":"3","lat":40.37709898770964,"lng":-111.77906807142001},{"vid":"7edf87f6f7de0a12ca358e406257060b070d665d2eb8c763aaafcd01c28dd15c","name":"Mrs. Tamekia Kub","party":"Dem","address":"177 N 800 E, American Fork, UT 84003","precinct":"25AF15","hd":"55","v_score":"6.814370645","decile":"8","lat":40.38051415004756,"lng":-111.77683377798793},{"vid":"892bae1bff5afd3e489bc4c5154e93a0f6cec2bb8ead403eaa7a23b2e1c6863f","name":"Angella Howe","party":"","address":"180 N 825 E, American Fork, UT 84003","precinct":"25AF15","hd":"55","v_score":"2.817000428","decile":"6","lat":40.380677905722294,"lng":-111.7752148170251},{"vid":"e2b5da8835f39505418ddef47671662f1a3bdd16a2cc89774dd68cbc47c22bd4","name":"Dr. Charline Schmeler","party":"Dem","address":"844 E Fleming Dr, Apt C, American Fork, UT 84003","precinct":"25AF15","hd":"55","v_score":"13.59500114","decile":"9","lat":40.379256085205654,"lng":-111.77488580445804},{"vid":"2264143","name":"Dr. Delora Kozey","party":"Rep","address":"717 E 50 N, American Fork, UT 84003","precinct":"25AF15","hd":"55","v_score":"1.121327652","decile":"3","lat":40.37795817420659,"lng":-111.778971485305},{"vid":"9cb9f94c07e19ca0c40a1ada571f3fca8f6c8365bab005d843be2e4259691601","name":"Ms. Pat Carroll DVM","party":"Dem","address":"894 E 300 N, American Fork, UT 84003","precinct":"25AF15","hd":"55","v_score":"2.817000428","decile":"6","lat":40.3829770497571,"lng":-111.77341529139173},{"vid":"848076ce33bb9109cdcbe16692fdffe4d639961ef1ac20809063ee62396e7d9c","name":"Mr. Amarion Ankunding","party":"Dem","address":"285 N 860 E, American Fork, UT 84003","precinct":"25AF15","hd":"55","v_score":"1.193887297","decile":"3","lat":40.382586318847174,"lng":-111.77459409083562},{"vid":"a877017e85c7e24ad46e7890b5dc6c6983d7e0f650a348e42755ee6d7f090270","name":"Edie Aufderhar","party":"Rep","address":"47 N 870 E, American Fork, UT 84003","precinct":"25AF15","hd":"55","v_score":"2.817000428","decile":"6","lat":40.377726158333914,"lng":-111.7746213719821},{"vid":"eadaff01e64d2cafb6d96b2b466b6e9216b39af850643d879e1a9ce71c45e052","name":"Roslyn Skiles","party":"","address":"886 E 30 N, American Fork, UT 84003","precinct":"25AF15","hd":"55","v_score":"3.93832808","decile":"6","lat":40.3770557017517,"lng":-111.77374637899894},{"vid":"46f9c57d229b87ebbc1542ea536c4246763d1bbfdcae82533459d4eb4b0184ad","name":"Luda Kozey","party":"","address":"16 S 600 E, Apt 3, American Fork, UT 84003","precinct":"25AF15","hd":"55","v_score":"0","decile":"1","lat":40.37637975209339,"lng":-111.78299899592541},{"vid":"6a812b18cbb0717c828421d6fb58eb846b414994c231a94c446b1457264487c8","name":"Kali Jakubowski-Jacobi","party":"","address":"626 E 50 N, American Fork, UT 84003","precinct":"25AF15","hd":"55","v_score":"0","decile":"1","lat":40.37756662368222,"lng":-111.78163469371829},{"vid":"9b25b7dbd5b45b49395394a0c570c5a6fc7669194edb66a6c4d6c7b9ea06063d","name":"Cassidy Muller","party":"Dem","address":"37 S 800 E, American Fork, UT 84003","precinct":"25AF15","hd":"55","v_score":"2.817000428","decile":"6","lat":40.376201860619446,"lng":-111.77633710656406},{"vid":"2324010","name":"Kamari Ziemann","party":"","address":"675 E 170 N, American Fork, UT 84003","precinct":"25AF15","hd":"55","v_score":"7.47704845","decile":"8","lat":40.38049142213173,"lng":-111.78049551796802},{"vid":"2337103","name":"Shelly Altenwerth-Schroeder","party":"Rep","address":"116 N 670 E, American Fork, UT 84003","precinct":"25AF15","hd":"55","v_score":"2.315214949","decile":"5","lat":40.3792395672746,"lng":-111.78039280495776},{"vid":"2338493","name":"Mrs. Roxana Mertz","party":"","address":"54 N 870 E, American Fork, UT 84003","precinct":"25AF15","hd":"55","v_score":"1.121327652","decile":"3","lat":40.37798822156086,"lng":-111.7739453148113},{"vid":"2340059","name":"Dr. Saul Emard V","party":"Dem","address":"129 N 670 E, American Fork, UT 84003","precinct":"25AF15","hd":"55","v_score":"11.02844566","decile":"9","lat":40.37942377448139,"lng":-111.78097069854623},{"vid":"2352874","name":"Myrl Marquardt","party":"","address":"209 N 775 E, American Fork, UT 84003","precinct":"25AF15","hd":"55","v_score":"6.954919332","decile":"8","lat":40.3810151715896,"lng":-111.7779717917275},{"vid":"2357051","name":"Kwame Nitzsche","party":"Dem","address":"58 N 750 E, American Fork, UT 84003","precinct":"25AF15","hd":"55","v_score":"8.15240309","decile":"8","lat":40.37783442572698,"lng":-111.77805373807729},{"vid":"2359515","name":"Gerhardt Schmitt-Stark","party":"","address":"129 N 670 E, American Fork, UT 84003","precinct":"25AF15","hd":"55","v_score":"11.02844566","decile":"9","lat":40.37942377448139,"lng":-111.78097069854623},{"vid":"2366290","name":"Kali Davis","party":"Dem","address":"6 S 900 E, American Fork, UT 84003","precinct":"25AF15","hd":"55","v_score":"1.121327652","decile":"3","lat":40.37672536953757,"lng":-111.77353085223956},{"vid":"2372069","name":"Joanie Jacobson","party":"Rep","address":"795 E 10 S, American Fork, UT 84003","precinct":"25AF15","hd":"55","v_score":"3.93832808","decile":"6","lat":40.377024821602156,"lng":-111.77679270716287},{"vid":"2387194","name":"Ms. Carma Brakus DVM","party":"Dem","address":"208 N 775 E, American Fork, UT 84003","precinct":"25AF15","hd":"55","v_score":"3.93832808","decile":"6","lat":40.38111675651912,"lng":-111.77736607171518},{"vid":"2393310","name":"Sabina Abshire","party":"Dem","address":"36 S 750 E, American Fork, UT 84003","precinct":"25AF15","hd":"55","v_score":"2.744440783","decile":"5","lat":40.37624387818808,"lng":-111.77784164093451},{"vid":"2395695","name":"Donita Renner PhD","party":"Dem","address":"132 N 670 E, American Fork, UT 84003","precinct":"25AF15","hd":"55","v_score":"1.121327652","decile":"3","lat":40.37950659325094,"lng":-111.78039389784814},{"vid":"2397913","name":"Delois Hagenes MD","party":"","address":"16 N 700 E, Apt 2, American Fork, UT 84003","precinct":"25AF15","hd":"55","v_score":"5.191257514","decile":"7","lat":40.37709898770964,"lng":-111.77906807142001},{"vid":"2402231","name":"Belva Auer","party":"Rep","address":"148 N 670 E, American Fork, UT 84003","precinct":"25AF15","hd":"55","v_score":"1.121327652","decile":"3","lat":40.379773639656214,"lng":-111.78039499379277},{"vid":"2408476","name":"Mr. Denton Hand Jr.","party":"","address":"230 N 800 E, American Fork, UT 84003","precinct":"25AF15","hd":"55","v_score":"0","decile":"1","lat":40.38163872505652,"lng":-111.77645547706477},{"vid":"2433334","name":"Erastus Schaden","party":"Rep","address":"131 N 775 E, American Fork, UT 84003","precinct":"25AF15","hd":"55","v_score":"20.18299619","decile":"10","lat":40.37969695274968,"lng":-111.7775859241701},{"vid":"2435546","name":"Jamya Rutherford","party":"Dem","address":"615 E 30 N, American Fork, UT 84003","precinct":"25AF15","hd":"55","v_score":"1.121327652","decile":"3","lat":40.377253544608095,"lng":-111.78210044543954},{"vid":"2441823","name":"Dr. Raul Hirthe","party":"Dem","address":"623 E 30 N, American Fork, UT 84003","precinct":"25AF15","hd":"55","v_score":"6.814370645","decile":"8","lat":40.377318218492746,"lng":-111.78172818438432},{"vid":"2445995","name":"Mr. Odis Satterfield III","party":"Dem","address":"16 S 600 E, Apt 2, American Fork, UT 84003","precinct":"25AF15","hd":"55","v_score":"3.781490609","decile":"6","lat":40.37637975209339,"lng":-111.78299899592541},{"vid":"2447940","name":"Honora Homenick","party":"Dem","address":"129 N 670 E, American Fork, UT 84003","precinct":"25AF15","hd":"55","v_score":"8.15240309","decile":"8","lat":40.37942377448139,"lng":-111.78097069854623},{"vid":"2448482","name":"Dr. Tamia Kling","party":"Dem","address":"632 E 30 N, American Fork, UT 84003","precinct":"25AF15","hd":"55","v_score":"1.121327652","decile":"3","lat":40.37699607092997,"lng":-111.78152632271913},{"vid":"2458004","name":"Dr. Delle Crona","party":"Dem","address":"623 E 30 N, American Fork, UT 84003","precinct":"25AF15","hd":"55","v_score":"6.814370645","decile":"8","lat":40.377318218492746,"lng":-111.78172818438432},{"vid":"2459631","name":"Liddie Bode","party":"","address":"672 E 100 N, American Fork, UT 84003","precinct":"25AF15","hd":"55","v_score":"0","decile":"1","lat":40.37884408027065,"lng":-111.78062552534952},{"vid":"2464574","name":"Granville Kozey","party":"Rep","address":"16 N 700 E, Apt 17, American Fork, UT 84003","precinct":"25AF15","hd":"55","v_score":"1.193887297","decile":"3","lat":40.37709898770964,"lng":-111.77906807142001},{"vid":"2476654","name":"Krystin Collier","party":"Rep","address":"21 S 750 E, American Fork, UT 84003","precinct":"25AF15","hd":"55","v_score":"2.817000428","decile":"6","lat":40.37635366503092,"lng":-111.77732701892543},{"vid":"2476659","name":"Ricki Johns","party":"","address":"96 N 825 E, American Fork, UT 84003","precinct":"25AF15","hd":"55","v_score":"1.193887297","decile":"3","lat":40.379118294414134,"lng":-111.77514287867949},{"vid":"2479069","name":"Marge Kovacek","party":"Dem","address":"180 N 825 E, American Fork, UT 84003","precinct":"25AF15","hd":"55","v_score":"1.193887297","decile":"3","lat":40.380677905722294,"lng":-111.7752148170251},{"vid":"2479250","name":"Ms. Jaeda Abshire","party":"","address":"147 N 700 E, American Fork, UT 84003","precinct":"25AF15","hd":"55","v_score":"0","decile":"1","lat":40.37977475493972,"lng":-111.77992934685503},{"vid":"2484598","name":"Jasmin Kilback","party":"Dem","address":"231 N 825 E, American Fork, UT 84003","precinct":"25AF15","hd":"55","v_score":"10.14056997","decile":"9","lat":40.38193336309985,"lng":-111.77600735545762},{"vid":"2497789","name":"Merle Fritsch DDS","party":"Dem","address":"47 N 870 E, American Fork, UT 84003","precinct":"25AF15","hd":"55","v_score":"0","decile":"1","lat":40.377726158333914,"lng":-111.7746213719821},{"vid":"2501376","name":"Soloman Dach","party":"","address":"645 E 100 N, American Fork, UT 84003","precinct":"25AF15","hd":"55","v_score":"0","decile":"1","lat":40.37928768030529,"lng":-111.78154948434144},{"vid":"2501377","name":"Blanchie Littel DVM","party":"Rep","address":"645 E 100 N, American Fork, UT 84003","precinct":"25AF15","hd":"55","v_score":"0","decile":"1","lat":40.37928768030529,"lng":-111.78154948434144},{"vid":"2502218","name":"John Cassin","party":"Rep","address":"610 E 50 N, American Fork, UT 84003","precinct":"25AF15","hd":"55","v_score":"1.193887297","decile":"3","lat":40.37750725199705,"lng":-111.78230030472002},{"vid":"2503230","name":"Dr. Devan Parker IV","party":"","address":"885 E 50 S, American Fork, UT 84003","precinct":"25AF15","hd":"55","v_score":"4.905839784","decile":"7","lat":40.37592881834228,"lng":-111.77363103232608},{"vid":"2505939","name":"Dr. Latricia Zboncak","party":"Dem","address":"56 N 775 E, American Fork, UT 84003","precinct":"25AF15","hd":"55","v_score":"8.875197818","decile":"8","lat":40.378239548002796,"lng":-111.77706419256451},{"vid":"2513019","name":"Mr. Larue Little","party":"","address":"130 N 600 E, American Fork, UT 84003","precinct":"25AF15","hd":"55","v_score":"2.817000428","decile":"6","lat":40.379595061161844,"lng":-111.78210260634695},{"vid":"2518382","name":"Gerald Wintheiser","party":"","address":"16 N 700 E, Apt 20, American Fork, UT 84003","precinct":"25AF15","hd":"55","v_score":"3.016591252","decile":"6","lat":40.37709898770964,"lng":-111.77906807142001},{"vid":"2518482","name":"Gaylen King","party":"","address":"624 E 300 N, American Fork, UT 84003","precinct":"25AF15","hd":"55","v_score":"1.193887297","decile":"4","lat":40.38279578111835,"lng":-111.78170117080604},{"vid":"2526201","name":"Reggie Hermann II","party":"Rep","address":"97 N 750 E, American Fork, UT 84003","precinct":"25AF15","hd":"55","v_score":"0","decile":"1","lat":40.37914244810397,"lng":-111.7786146949258},{"vid":"2532976","name":"Irine Keebler","party":"","address":"145 N 900 E, American Fork, UT 84003","precinct":"25AF15","hd":"55","v_score":"0","decile":"1","lat":40.38032527537402,"lng":-111.77354819417812},{"vid":"2533851","name":"Kayla Shanahan","party":"Dem","address":"743 E 10 S, American Fork, UT 84003","precinct":"25AF15","hd":"55","v_score":"14.13760315","decile":"9","lat":40.37683098320903,"lng":-111.77791250705098},{"vid":"2537438","name":"Enrique Rodriguez","party":"Dem","address":"629 E Main St, American Fork, UT 84003","precinct":"25AF15","hd":"55","v_score":"0","decile":"1","lat":40.376669256403204,"lng":-111.78188913942498},{"vid":"2545602","name":"Alda Crist","party":"Rep","address":"37 N 800 E, American Fork, UT 84003","precinct":"25AF15","hd":"55","v_score":"0","decile":"1","lat":40.3776641765527,"lng":-111.77664686801137},{"vid":"2547314","name":"Lone Rau DDS","party":"Dem","address":"16 N 700 E, Apt 6, American Fork, UT 84003","precinct":"25AF15","hd":"55","v_score":"0","decile":"1","lat":40.37709898770964,"lng":-111.77906807142001},{"vid":"2550881","name":"Floy Ruecker DVM","party":"Dem","address":"47 N 870 E, American Fork, UT 84003","precinct":"25AF15","hd":"55","v_score":"2.426006793","decile":"5","lat":40.377726158333914,"lng":-111.7746213719821},{"vid":"2559480","name":"Lincoln Armstrong","party":"Dem","address":"684 E 100 N, American Fork, UT 84003","precinct":"25AF15","hd":"55","v_score":"2.817000428","decile":"6","lat":40.37880110909137,"lng":-111.78006973987956},{"vid":"2559495","name":"Mr. Adrien Krajcik PhD","party":"Rep","address":"165 N 800 E, American Fork, UT 84003","precinct":"25AF15","hd":"55","v_score":"1.193887297","decile":"4","lat":40.38010825881975,"lng":-111.77667809845252},{"vid":"2593447","name":"Krysten Christiansen DVM","party":"","address":"622 E 30 N, American Fork, UT 84003","precinct":"25AF15","hd":"55","v_score":"0","decile":"1","lat":40.37688019178784,"lng":-111.78173604723818},{"vid":"2593840","name":"Mr. Randle Armstrong III","party":"Dem","address":"16 N 700 E, Apt 4, American Fork, UT 84003","precinct":"25AF15","hd":"55","v_score":"1.193887297","decile":"4","lat":40.37709898770964,"lng":-111.77906807142001},{"vid":"2606339","name":"Merilyn Predovic","party":"","address":"675 E 170 N, American Fork, UT 84003","precinct":"25AF15","hd":"55","v_score":"0","decile":"1","lat":40.38049142213173,"lng":-111.78049551796802},{"vid":"2615824","name":"Mr. Kelton Hartmann DDS","party":"Dem","address":"34 N 640 E, American Fork, UT 84003","precinct":"25AF15","hd":"55","v_score":"5.693042993","decile":"7","lat":40.37726360098117,"lng":-111.78120451851625},{"vid":"2632337","name":"Ms. Mina Schmidt","party":"","address":"124 N 825 E, American Fork, UT 84003","precinct":"25AF15","hd":"55","v_score":"11.26156058","decile":"9","lat":40.37947941134547,"lng":-111.77526333923277},{"vid":"2633968","name":"Merry King","party":"Rep","address":"169 N 670 E, American Fork, UT 84003","precinct":"25AF15","hd":"55","v_score":"11.30609121","decile":"9","lat":40.38032048289189,"lng":-111.78107463685853},{"vid":"2640608","name":"Deidre Ratke","party":"","address":"885 E 50 S, American Fork, UT 84003","precinct":"25AF15","hd":"55","v_score":"3.61989409","decile":"6","lat":40.37592881834228,"lng":-111.77363103232608},{"vid":"2644152","name":"Octavio Prosacco","party":"Dem","address":"213 N 900 E, American Fork, UT 84003","precinct":"25AF15","hd":"55","v_score":"2.817000428","decile":"6","lat":40.38136325440756,"lng":-111.7735498570196},{"vid":"2649293","name":"Ernie Muller DVM","party":"Rep","address":"16 N 700 E, Apt 11, American Fork, UT 84003","precinct":"25AF15","hd":"55","v_score":"13.85252246","decile":"9","lat":40.37709898770964,"lng":-111.77906807142001},{"vid":"2652855","name":"Danita Medhurst-Sawayn","party":"","address":"216 N 800 E, American Fork, UT 84003","precinct":"25AF15","hd":"55","v_score":"0","decile":"1","lat":40.38140565664512,"lng":-111.77645220367832},{"vid":"2654024","name":"Mr. Daxton Klein PhD","party":"Dem","address":"230 N 800 E, American Fork, UT 84003","precinct":"25AF15","hd":"55","v_score":"1.193887297","decile":"4","lat":40.38163872505652,"lng":-111.77645547706477},{"vid":"2655971","name":"Dema Morissette","party":"","address":"129 N 670 E, American Fork, UT 84003","precinct":"25AF15","hd":"55","v_score":"12.65863516","decile":"9","lat":40.37942377448139,"lng":-111.78097069854623},{"vid":"2657504","name":"Kellee Greenholt MD","party":"","address":"801 E Evergreen Dr, American Fork, UT 84003","precinct":"25AF15","hd":"55","v_score":"1.193887297","decile":"4","lat":40.38241043078007,"lng":-111.77666910017754},{"vid":"2659260","name":"Hazen Krajcik-Hettinger","party":"","address":"894 E 300 N, American Fork, UT 84003","precinct":"25AF15","hd":"55","v_score":"4.069929862","decile":"6","lat":40.3829770497571,"lng":-111.77341529139173},{"vid":"2660969","name":"Lottie Christiansen PhD","party":"Dem","address":"130 N 600 E, American Fork, UT 84003","precinct":"25AF15","hd":"55","v_score":"0","decile":"1","lat":40.379595061161844,"lng":-111.78210260634695},{"vid":"2662348","name":"Ms. Lisette Kerluke DVM","party":"","address":"16 N 700 E, Apt 20, American Fork, UT 84003","precinct":"25AF15","hd":"55","v_score":"0","decile":"1","lat":40.37709898770964,"lng":-111.77906807142001},{"vid":"2669953","name":"Josue Shields-Kerluke","party":"Dem","address":"792 E 30 N, American Fork, UT 84003","precinct":"25AF15","hd":"55","v_score":"0","decile":"2","lat":40.37730642731568,"lng":-111.77672726106161},{"vid":"2681976","name":"Johannah Breitenberg","party":"Rep","address":"49 N 775 E, American Fork, UT 84003","precinct":"25AF15","hd":"55","v_score":"1.193887297","decile":"4","lat":40.378050383436715,"lng":-111.77758839238118},{"vid":"2683584","name":"Winifred Gulgowski","party":"","address":"138 N 750 E, American Fork, UT 84003","precinct":"25AF15","hd":"55","v_score":"7.331846577","decile":"8","lat":40.37971503256911,"lng":-111.77801578060996},{"vid":"2695259","name":"Philomene Russel","party":"","address":"16 S 600 E, Apt 2, American Fork, UT 84003","precinct":"25AF15","hd":"55","v_score":"3.61989409","decile":"6","lat":40.37637975209339,"lng":-111.78299899592541},{"vid":"2697519","name":"Caddie Lesch","party":"Dem","address":"807 E 10 S, American Fork, UT 84003","precinct":"25AF15","hd":"55","v_score":"0","decile":"2","lat":40.376793534368474,"lng":-111.77625773376117},{"vid":"2700135","name":"Calleigh Pfannerstill","party":"Rep","address":"888 E 120 N, American Fork, UT 84003","precinct":"25AF15","hd":"55","v_score":"0","decile":"2","lat":40.3798089224859,"lng":-111.77386540899508},{"vid":"2710862","name":"Lori Grimes","party":"","address":"648 E 220 N, American Fork, UT 84003","precinct":"25AF15","hd":"55","v_score":"0","decile":"2","lat":40.381058719268005,"lng":-111.78112979891205},{"vid":"2711627","name":"Mr. Schuyler Maggio III","party":"Rep","address":"292 N 860 E, American Fork, UT 84003","precinct":"25AF15","hd":"55","v_score":"0","decile":"2","lat":40.38293083073769,"lng":-111.77398030257906},{"vid":"2722105","name":"Dr. Vollie Gorczany DDS","party":"Dem","address":"270 N 700 E, American Fork, UT 84003","precinct":"25AF15","hd":"55","v_score":"0","decile":"2","lat":40.38225773602048,"lng":-111.77924242877013},{"vid":"2723151","name":"Mariana Wisozk","party":"Dem","address":"131 N 775 E, American Fork, UT 84003","precinct":"25AF15","hd":"55","v_score":"7.090117576","decile":"8","lat":40.37969695274968,"lng":-111.7775859241701},{"vid":"2724788","name":"Sawyer Considine","party":"","address":"17 N 700 E, Apt 31, American Fork, UT 84003","precinct":"25AF15","hd":"55","v_score":"3.61989409","decile":"6","lat":40.37696485182454,"lng":-111.77990415486053},{"vid":"2727177","name":"Chadd Lehner","party":"Dem","address":"131 N 775 E, American Fork, UT 84003","precinct":"25AF15","hd":"55","v_score":"0","decile":"2","lat":40.37969695274968,"lng":-111.7775859241701},{"vid":"2729641","name":"Jarred Rath","party":"","address":"37 N 800 E, American Fork, UT 84003","precinct":"25AF15","hd":"55","v_score":"1.193887297","decile":"4","lat":40.3776641765527,"lng":-111.77664686801137},{"vid":"2737414","name":"Vernell Baumbach DDS","party":"Dem","address":"798 E 30 N, American Fork, UT 84003","precinct":"25AF15","hd":"55","v_score":"0","decile":"2","lat":40.37735831316649,"lng":-111.77640034184131},{"vid":"2744228","name":"Marcie Deckow","party":"","address":"645 E 100 N, American Fork, UT 84003","precinct":"25AF15","hd":"55","v_score":"1.193887297","decile":"4","lat":40.37928768030529,"lng":-111.78154948434144},{"vid":"2745970","name":"Freida Pfannerstill DVM","party":"Rep","address":"625 E 230 N, American Fork, UT 84003","precinct":"25AF15","hd":"55","v_score":"1.193887297","decile":"4","lat":40.381754558859505,"lng":-111.7819134286187},{"vid":"2746598","name":"Ms. Rhoda Balistreri","party":"","address":"888 E 120 N, American Fork, UT 84003","precinct":"25AF15","hd":"55","v_score":"1.193887297","decile":"4","lat":40.3798089224859,"lng":-111.77386540899508},{"vid":"2751590","name":"Nova McLaughlin","party":"","address":"187 N 860 E, American Fork, UT 84003","precinct":"25AF15","hd":"55","v_score":"2.876042565","decile":"6","lat":40.38102829945665,"lng":-111.77479128361686},{"vid":"2755088","name":"Arnett Hegmann","party":"","address":"817 E Evergreen Dr, American Fork, UT 84003","precinct":"25AF15","hd":"55","v_score":"0","decile":"2","lat":40.38227162672367,"lng":-111.77595784755287},{"vid":"2770530","name":"Magnolia Streich-Bradtke","party":"","address":"798 E 30 N, American Fork, UT 84003","precinct":"25AF15","hd":"55","v_score":"1.193887297","decile":"4","lat":40.37735831316649,"lng":-111.77640034184131},{"vid":"2780327","name":"Nicolas Fritsch PhD","party":"Rep","address":"124 N 825 E, American Fork, UT 84003","precinct":"25AF15","hd":"55","v_score":"0","decile":"2","lat":40.37947941134547,"lng":-111.77526333923277},{"vid":"2782578","name":"Mr. Bartholomew Volkman","party":"Rep","address":"622 E 30 N, American Fork, UT 84003","precinct":"25AF15","hd":"55","v_score":"0","decile":"2","lat":40.37688019178784,"lng":-111.78173604723818},{"vid":"2783447","name":"Ewing Goodwin MD","party":"Rep","address":"809 E Evergreen Dr, American Fork, UT 84003","precinct":"25AF15","hd":"55","v_score":"0","decile":"2","lat":40.3824183598765,"lng":-111.77633223613813},{"vid":"2789648","name":"Meta Wunsch DVM","party":"","address":"19 S 750 E, American Fork, UT 84003","precinct":"25AF15","hd":"55","v_score":"4.069929862","decile":"7","lat":40.37649917946634,"lng":-111.7772989023757},{"vid":"2796296","name":"Kenan Bauch","party":"Dem","address":"180 N 825 E, American Fork, UT 84003","precinct":"25AF15","hd":"55","v_score":"0","decile":"2","lat":40.380677905722294,"lng":-111.7752148170251},{"vid":"2796586","name":"Heber Legros","party":"Dem","address":"886 E 30 N, American Fork, UT 84003","precinct":"25AF15","hd":"55","v_score":"1.193887297","decile":"4","lat":40.3770557017517,"lng":-111.77374637899894},{"vid":"2797495","name":"Enid Miller","party":"Rep","address":"675 E 170 N, American Fork, UT 84003","precinct":"25AF15","hd":"55","v_score":"1.193887297","decile":"4","lat":40.38049142213173,"lng":-111.78049551796802},{"vid":"2802922","name":"Friend Rau","party":"Dem","address":"295 N 700 E, American Fork, UT 84003","precinct":"25AF15","hd":"55","v_score":"0","decile":"2","lat":40.38300206092988,"lng":-111.77984927631411},{"vid":"2820960","name":"Reason Wehner","party":"Rep","address":"16 N 700 E, Apt 19, American Fork, UT 84003","precinct":"25AF15","hd":"55","v_score":"8.284004873","decile":"8","lat":40.37709898770964,"lng":-111.77906807142001},{"vid":"2821995","name":"Elinore Hegmann","party":"Dem","address":"195 N 775 E, American Fork, UT 84003","precinct":"25AF15","hd":"55","v_score":"1.193887297","decile":"4","lat":40.380738561441895,"lng":-111.7777963379964},{"vid":"2823883","name":"Chiquita Kiehn DVM","party":"","address":"761 E 10 S, American Fork, UT 84003","precinct":"25AF15","hd":"55","v_score":"1.193887297","decile":"4","lat":40.37686948508583,"lng":-111.77751107582198},{"vid":"2825778","name":"Waldemar Gislason II","party":"Rep","address":"894 E 300 N, American Fork, UT 84003","precinct":"25AF15","hd":"55","v_score":"0","decile":"2","lat":40.3829770497571,"lng":-111.77341529139173},{"vid":"2827404","name":"Damarcus Jakubowski","party":"Dem","address":"625 E 230 N, American Fork, UT 84003","precinct":"25AF15","hd":"55","v_score":"0","decile":"2","lat":40.381754558859505,"lng":-111.7819134286187},{"vid":"2834692","name":"Lizette Feeney","party":"","address":"610 E 50 N, American Fork, UT 84003","precinct":"25AF15","hd":"55","v_score":"1.193887297","decile":"4","lat":40.37750725199705,"lng":-111.78230030472002},{"vid":"2840477","name":"Ashely Grady","party":"Rep","address":"892 E 120 N, American Fork, UT 84003","precinct":"25AF15","hd":"55","v_score":"4.069929862","decile":"7","lat":40.37982504802605,"lng":-111.77344721092331},{"vid":"2846249","name":"Erna Kuphal","party":"Dem","address":"58 N 750 E, American Fork, UT 84003","precinct":"25AF15","hd":"55","v_score":"8.284004873","decile":"8","lat":40.37783442572698,"lng":-111.77805373807729},{"vid":"2854591","name":"Reid Kuphal","party":"Rep","address":"254 N 860 E, American Fork, UT 84003","precinct":"25AF15","hd":"55","v_score":"0","decile":"2","lat":40.38196529764464,"lng":-111.77396912609518},{"vid":"2857021","name":"Cleo Stark","party":"","address":"37 S 800 E, American Fork, UT 84003","precinct":"25AF15","hd":"55","v_score":"0","decile":"2","lat":40.376201860619446,"lng":-111.77633710656406},{"vid":"2857173","name":"Mr. Orlo Frami II","party":"","address":"97 N 775 E, American Fork, UT 84003","precinct":"25AF15","hd":"55","v_score":"0","decile":"2","lat":40.37914809640375,"lng":-111.77758674666757},{"vid":"2857625","name":"Florida Bogisich MD","party":"","address":"795 E 10 S, American Fork, UT 84003","precinct":"25AF15","hd":"55","v_score":"0","decile":"2","lat":40.377024821602156,"lng":-111.77679270716287},{"vid":"2870591","name":"Arno Klein-Bergstrom","party":"Dem","address":"131 N 700 E, American Fork, UT 84003","precinct":"25AF15","hd":"55","v_score":"1.193887297","decile":"4","lat":40.37945452451612,"lng":-111.77983451530375},{"vid":"2875680","name":"Davy Bergstrom","party":"Rep","address":"185 N 700 E, American Fork, UT 84003","precinct":"25AF15","hd":"55","v_score":"0","decile":"2","lat":40.38049046630192,"lng":-111.77984961544469},{"vid":"2880015","name":"Denine Johnston","party":"Rep","address":"16 N 700 E, Apt 12, American Fork, UT 84003","precinct":"25AF15","hd":"55","v_score":"1.193887297","decile":"4","lat":40.37709898770964,"lng":-111.77906807142001},{"vid":"2880057","name":"Elijah Kertzmann","party":"","address":"161 N 670 E, American Fork, UT 84003","precinct":"25AF15","hd":"55","v_score":"1.193887297","decile":"4","lat":40.379966906286235,"lng":-111.78107234058501},{"vid":"2880702","name":"Desmond Halvorson","party":"Rep","address":"195 N 775 E, American Fork, UT 84003","precinct":"25AF15","hd":"55","v_score":"1.193887297","decile":"4","lat":40.380738561441895,"lng":-111.7777963379964},{"vid":"2887381","name":"Dequan Walter","party":"Rep","address":"663 E 220 N, American Fork, UT 84003","precinct":"25AF15","hd":"55","v_score":"1.193887297","decile":"4","lat":40.381396755992945,"lng":-111.78081429904185},{"vid":"2887404","name":"Mrs. Giselle Kuphal","party":"","address":"663 E 220 N, American Fork, UT 84003","precinct":"25AF15","hd":"55","v_score":"0","decile":"2","lat":40.381396755992945,"lng":-111.78081429904185},{"vid":"2888337","name":"Oscar McClure","party":"Rep","address":"295 N 700 E, American Fork, UT 84003","precinct":"25AF15","hd":"55","v_score":"1.193887297","decile":"4","lat":40.38300206092988,"lng":-111.77984927631411},{"vid":"2888870","name":"Alecia Bayer","party":"","address":"266 N 860 E, American Fork, UT 84003","precinct":"25AF15","hd":"55","v_score":"0","decile":"2","lat":40.38227266765286,"lng":-111.77397087457607},{"vid":"2889218","name":"Richelle Kertzmann","party":"","address":"888 E 120 N, American Fork, UT 84003","precinct":"25AF15","hd":"55","v_score":"1.193887297","decile":"4","lat":40.3798089224859,"lng":-111.77386540899508},{"vid":"2895212","name":"Alan Hyatt-Langworth","party":"Rep","address":"231 N 825 E, American Fork, UT 84003","precinct":"25AF15","hd":"55","v_score":"4.214075011","decile":"7","lat":40.38193336309985,"lng":-111.77600735545762},{"vid":"2902010","name":"Adrian Hirthe","party":"Dem","address":"254 N 860 E, American Fork, UT 84003","precinct":"25AF15","hd":"55","v_score":"0","decile":"2","lat":40.38196529764464,"lng":-111.77396912609518},{"vid":"2903848","name":"Mr. Emery Schmitt","party":"Rep","address":"19 S 800 E, American Fork, UT 84003","precinct":"25AF15","hd":"55","v_score":"0","decile":"2","lat":40.37648455702978,"lng":-111.7763224241397},{"vid":"2905936","name":"Ica Douglas PhD","party":"Rep","address":"165 N 800 E, American Fork, UT 84003","precinct":"25AF15","hd":"55","v_score":"0","decile":"2","lat":40.38010825881975,"lng":-111.77667809845252},{"vid":"2911223","name":"Kristian Streich","party":"","address":"43 S 750 E, American Fork, UT 84003","precinct":"25AF15","hd":"55","v_score":"0","decile":"2","lat":40.37612863680795,"lng":-111.77737128466869},{"vid":"2916250","name":"Citlalli Ledner-Walter","party":"","address":"43 S 750 E, American Fork, UT 84003","precinct":"25AF15","hd":"55","v_score":"0","decile":"2","lat":40.37612863680795,"lng":-111.77737128466869},{"vid":"2923310","name":"Nakia Prohaska","party":"Rep","address":"208 N 775 E, American Fork, UT 84003","precinct":"25AF15","hd":"55","v_score":"0","decile":"2","lat":40.38111675651912,"lng":-111.77736607171518},{"vid":"2925199","name":"Mrs. Saige Price PhD","party":"","address":"185 N 700 E, American Fork, UT 84003","precinct":"25AF15","hd":"55","v_score":"0","decile":"2","lat":40.38049046630192,"lng":-111.77984961544469},{"vid":"2929514","name":"Corey Crooks","party":"Rep","address":"143 N 860 E, American Fork, UT 84003","precinct":"25AF15","hd":"55","v_score":"0","decile":"2","lat":40.38033232171628,"lng":-111.77468546623861},{"vid":"2930247","name":"Ms. Lashonda Kris","party":"Dem","address":"161 N 670 E, American Fork, UT 84003","precinct":"25AF15","hd":"55","v_score":"0","decile":"2","lat":40.379966906286235,"lng":-111.78107234058501},{"vid":"2937895","name":"Dr. Carolyn Hoeger DVM","party":"","address":"72 N 825 E, American Fork, UT 84003","precinct":"25AF15","hd":"55","v_score":"2.876042565","decile":"6","lat":40.37858596499888,"lng":-111.77520852504517},{"vid":"2942531","name":"Dakota Fritsch","party":"","address":"798 E 30 N, American Fork, UT 84003","precinct":"25AF15","hd":"55","v_score":"0","decile":"2","lat":40.37735831316649,"lng":-111.77640034184131},{"vid":"2951227","name":"Dr. Abbigail Volkman DDS","party":"Rep","address":"16 N 700 E, Apt 6, American Fork, UT 84003","precinct":"25AF15","hd":"55","v_score":"0","decile":"2","lat":40.37709898770964,"lng":-111.77906807142001},{"vid":"2970964","name":"Tamara Vandervort","party":"","address":"167 N 900 E, American Fork, UT 84003","precinct":"25AF15","hd":"55","v_score":"0","decile":"2","lat":40.380567333667194,"lng":-111.77355170135071},{"vid":"2980786","name":"Joseluis Terry DVM","party":"Rep","address":"16 N 700 E, Apt 18, American Fork, UT 84003","precinct":"25AF15","hd":"55","v_score":"0","decile":"2","lat":40.37709898770964,"lng":-111.77906807142001},{"vid":"2984120","name":"Neely Considine III","party":"","address":"16 S 600 E, Apt 2, American Fork, UT 84003","precinct":"25AF15","hd":"55","v_score":"0","decile":"2","lat":40.37637975209339,"lng":-111.78299899592541},{"vid":"3039552","name":"Mrs. Frederica Windler DDS","party":"Rep","address":"221 N 825 E, American Fork, UT 84003","precinct":"25AF15","hd":"55","v_score":"3.781490609","decile":"6","lat":40.381567076344325,"lng":-111.77589343803902},{"vid":"3123453","name":"Jarrod Roob IV","party":"Rep","address":"19 N 700 E, Apt 24, American Fork, UT 84003","precinct":"25AF15","hd":"55","v_score":"0","decile":"2","lat":40.376940373138545,"lng":-111.78085786942789},{"vid":"3254560","name":"Fleet Jones","party":"","address":"213 N 900 E, American Fork, UT 84003","precinct":"25AF15","hd":"55","v_score":"2.315214949","decile":"5","lat":40.38136325440756,"lng":-111.7735498570196},{"vid":"3274297","name":"Ferrell Turner","party":"","address":"174 N 800 E, American Fork, UT 84003","precinct":"25AF15","hd":"55","v_score":"7.947838735","decile":"8","lat":40.38045738341376,"lng":-111.77620952207818},{"vid":"3289956","name":"Acie Gottlieb-Hartmann","party":"Dem","address":"16 S 600 E, Apt 1, American Fork, UT 84003","precinct":"25AF15","hd":"55","v_score":"0","decile":"2","lat":40.37637975209339,"lng":-111.78299899592541},{"vid":"3367092","name":"Mrs. Mandi Gleichner DDS","party":"","address":"180 N 825 E, American Fork, UT 84003","precinct":"25AF15","hd":"55","v_score":"1.193887297","decile":"4","lat":40.380677905722294,"lng":-111.7752148170251},{"vid":"e5a521e75eb93d03fda2de9c191ba473f0e513e7eb1851c375254e1472621144","name":"Jaiden Williamson-Schuppe","party":"Rep","address":"273 N 900 E, American Fork, UT 84003","precinct":"25AF15","hd":"55","v_score":"9.242463391","decile":"8","lat":40.38267026755407,"lng":-111.77358811081776},{"vid":"3539954","name":"Isabella Ondricka","party":"","address":"808 E 300 N, American Fork, UT 84003","precinct":"25AF15","hd":"55","v_score":"13.26092733","decile":"9","lat":40.382736823892806,"lng":-111.77651105537747},{"vid":"4423205","name":"Vince Maggio-Satterfield","party":"","address":"16 N 700 E, Apt 3, American Fork, UT 84003","precinct":"25AF15","hd":"55","v_score":"19.65333578","decile":"10","lat":40.37709898770964,"lng":-111.77906807142001},{"vid":"5225682","name":"Mr. Rylan Jaskolski","party":"","address":"295 N 700 E, American Fork, UT 84003","precinct":"25AF15","hd":"55","v_score":"2.315214949","decile":"5","lat":40.38300206092988,"lng":-111.77984927631411},{"vid":"7e03bbad63c5874521b0b4334d612623426f3acf7db223990451225ee9e3db9d","name":"Christoper Gottlieb DDS","party":"Rep","address":"165 N 800 E, American Fork, UT 84003","precinct":"25AF15","hd":"55","v_score":"12.13314748","decile":"9","lat":40.38010825881975,"lng":-111.77667809845252},{"vid":"5866715","name":"Margurite Ebert-Lesch","party":"Dem","address":"35 S 800 E, American Fork, UT 84003","precinct":"25AF15","hd":"55","v_score":"18.35167816","decile":"10","lat":40.37630051341985,"lng":-111.77639719047164},{"vid":"6084611","name":"Lota Torphy","party":"Dem","address":"685 E 170 N, American Fork, UT 84003","precinct":"25AF15","hd":"55","v_score":"1.193887297","decile":"4","lat":40.38049094449056,"lng":-111.78017254972818},{"vid":"3b2614910cd74a74f39d27d4469ea965dc388fd02976e5db4072e74f58a80459","name":"Mr. Westley Schmeler","party":"","address":"16 N 700 E, Apt 7, American Fork, UT 84003","precinct":"25AF15","hd":"55","v_score":"0","decile":"3","lat":40.37709898770964,"lng":-111.77906807142001},{"vid":"6097031","name":"Mason Greenfelder-Keeling","party":"","address":"632 E 30 N, American Fork, UT 84003","precinct":"25AF15","hd":"55","v_score":"6.657533174","decile":"7","lat":40.37699607092997,"lng":-111.78152632271913},{"vid":"6161695","name":"Coley Hammes","party":"","address":"632 E 30 N, American Fork, UT 84003","precinct":"25AF15","hd":"55","v_score":"6.657533174","decile":"7","lat":40.37699607092997,"lng":-111.78152632271913},{"vid":"c1caaf9fd426f30a7595b8341864c2d1a3e0a57ff593fb27a0f8cb5444440c77","name":"Sherilyn Rohan","party":"","address":"795 E 10 S, American Fork, UT 84003","precinct":"25AF15","hd":"55","v_score":"8.363183621","decile":"8","lat":40.377024821602156,"lng":-111.77679270716287},{"vid":"6177579","name":"Gwendolyn Hand","party":"Dem","address":"705 E 50 N, American Fork, UT 84003","precinct":"25AF15","hd":"55","v_score":"3.93832808","decile":"6","lat":40.37785787432726,"lng":-111.77939328790941},{"vid":"6185183","name":"Bert Bartell","party":"","address":"765 E 10 S, American Fork, UT 84003","precinct":"25AF15","hd":"55","v_score":"26.38204183","decile":"10","lat":40.37702906174112,"lng":-111.77737775774898},{"vid":"1872d4d2d8a2c23ed21ae3858ab8abe757b7a0b0905bfe425022f75c3569f54a","name":"Miss Gerda Mosciski DDS","party":"Dem","address":"232 N 860 E, American Fork, UT 84003","precinct":"25AF15","hd":"55","v_score":"25.1107121","decile":"10","lat":40.38165789763074,"lng":-111.77397141913481},{"vid":"5e72d7b7ad1b9b64e282772d8e1cc7eec3bb4093491af2ded73396466b6c5dba","name":"Amado Boehm","party":"Rep","address":"700 E 300 N, American Fork, UT 84003","precinct":"25AF15","hd":"55","v_score":"29.68136853","decile":"10","lat":40.38294006591181,"lng":-111.77919360597606},{"vid":"6204695","name":"Deloris Hintz","party":"Dem","address":"230 N 800 E, American Fork, UT 84003","precinct":"25AF15","hd":"55","v_score":"11.37977487","decile":"9","lat":40.38163872505652,"lng":-111.77645547706477},{"vid":"6205611","name":"Ms. Princess Adams","party":"","address":"160 N 825 E, American Fork, UT 84003","precinct":"25AF15","hd":"55","v_score":"11.46588297","decile":"9","lat":40.38010378330223,"lng":-111.7752582693738},{"vid":"6206343","name":"Miss Elenore Fay","party":"Dem","address":"230 N 800 E, American Fork, UT 84003","precinct":"25AF15","hd":"55","v_score":"8.421194992","decile":"8","lat":40.38163872505652,"lng":-111.77645547706477},{"vid":"6208068","name":"Dani Hayes","party":"","address":"733 E 50 S, American Fork, UT 84003","precinct":"25AF15","hd":"55","v_score":"20.91067752","decile":"10","lat":40.37606074781421,"lng":-111.77834611737075},{"vid":"6209516","name":"Dr. Billye Thompson","party":"Dem","address":"126 N 600 E, American Fork, UT 84003","precinct":"25AF15","hd":"55","v_score":"17.35851679","decile":"9","lat":40.37931080881264,"lng":-111.78225353373512},{"vid":"6209556","name":"Dr. Delmus Rogahn","party":"Dem","address":"31 N 775 E, American Fork, UT 84003","precinct":"25AF15","hd":"55","v_score":"20.39377672","decile":"10","lat":40.37748523857719,"lng":-111.7775183639594},{"vid":"6210520","name":"Vinie Koelpin","party":"Dem","address":"21 S 800 E, American Fork, UT 84003","precinct":"25AF15","hd":"55","v_score":"15.67698213","decile":"9","lat":40.37649236291244,"lng":-111.77611600745709},{"vid":"7a6d1f512ae38172dea76bdfc349ff737e713eb2cd0787e1a4a15435c11700ed","name":"Zavier Crona III","party":"Rep","address":"17 N 700 E, Apt 28, American Fork, UT 84003","precinct":"25AF15","hd":"55","v_score":"25.80307694","decile":"10","lat":40.37696485182454,"lng":-111.77990415486053},{"vid":"6215170","name":"Dr. Hillard Crona","party":"Dem","address":"716 E 50 N, American Fork, UT 84003","precinct":"25AF15","hd":"55","v_score":"10.38488476","decile":"9","lat":40.377491664797695,"lng":-111.77900230829904},{"vid":"6215548","name":"Donte Bednar","party":"Rep","address":"790 E Fleming Dr, American Fork, UT 84003","precinct":"25AF15","hd":"55","v_score":"8.347511332","decile":"8","lat":40.379735490306224,"lng":-111.77670309287703},{"vid":"6216367","name":"Litzy White","party":"Dem","address":"177 N 800 E, American Fork, UT 84003","precinct":"25AF15","hd":"55","v_score":"2.587603312","decile":"5","lat":40.38051415004756,"lng":-111.77683377798793},{"vid":"ff97038b89eea980f95df71e5f67d6e8900580b77ea547eb9d834a2517ac8852","name":"Ruffin Klein","party":"Dem","address":"160 N 800 E, American Fork, UT 84003","precinct":"25AF15","hd":"55","v_score":"13.46861423","decile":"9","lat":40.38007304043728,"lng":-111.77630220604374},{"vid":"6222506","name":"Davian Kub I","party":"","address":"878 E Fleming Dr, American Fork, UT 84003","precinct":"25AF15","hd":"55","v_score":"35.592808","decile":"10","lat":40.37923019220193,"lng":-111.77416564078818},{"vid":"6222507","name":"Brien Botsford-Rath","party":"","address":"878 E Fleming Dr, American Fork, UT 84003","precinct":"25AF15","hd":"55","v_score":"31.97291391","decile":"10","lat":40.37923019220193,"lng":-111.77416564078818},{"vid":"6225917","name":"Donie Lebsack-Donnelly","party":"Rep","address":"646 E 300 N, American Fork, UT 84003","precinct":"25AF15","hd":"55","v_score":"18.28437571","decile":"10","lat":40.382819940172816,"lng":-111.78104041877171},{"vid":"6226054","name":"Miss Astrid Haag","party":"Rep","address":"48 N 825 E, American Fork, UT 84003","precinct":"25AF15","hd":"55","v_score":"6.814370645","decile":"8","lat":40.37776970127573,"lng":-111.77518107181143},{"vid":"6227240","name":"Cecilia Barrows","party":"","address":"48 N 825 E, American Fork, UT 84003","precinct":"25AF15","hd":"55","v_score":"8.280646305","decile":"8","lat":40.37776970127573,"lng":-111.77518107181143},{"vid":"6227294","name":"Peyton Bechtelar","party":"","address":"150 N 600 E, American Fork, UT 84003","precinct":"25AF15","hd":"55","v_score":"8.280646305","decile":"8","lat":40.379933870380846,"lng":-111.78225229331143},{"vid":"6228073","name":"Mrs. Shawnna Littel","party":"Dem","address":"220 N 600 E, American Fork, UT 84003","precinct":"25AF15","hd":"55","v_score":"35.592808","decile":"10","lat":40.38134239387513,"lng":-111.78227401698234},{"vid":"6229754","name":"Kegan Medhurst","party":"Dem","address":"194 N 600 E, American Fork, UT 84003","precinct":"25AF15","hd":"55","v_score":"18.19442671","decile":"10","lat":40.38083557314832,"lng":-111.78190926543893},{"vid":"2878e5c16e9f7e38cb0ef51f3d938c93599490aa342d24fc3a236796d339e45b","name":"Karie Casper","party":"Rep","address":"675 E Seymore Dr, American Fork, UT 84003","precinct":"25AF15","hd":"55","v_score":"3.93832808","decile":"6","lat":40.3785364775359,"lng":-111.78037505691275},{"vid":"6252180","name":"Lular Jacobs","party":"Rep","address":"182 N 775 E, American Fork, UT 84003","precinct":"25AF15","hd":"55","v_score":"5.40460374","decile":"7","lat":40.38058996320088,"lng":-111.77721291719378},{"vid":"6252850","name":"Dr. Neva Pouros DDS","party":"","address":"647 E 220 N, American Fork, UT 84003","precinct":"25AF15","hd":"55","v_score":"9.116556227","decile":"8","lat":40.38135209102886,"lng":-111.78109272144421},{"vid":"6253118","name":"Aurelia Koss-Effertz","party":"Rep","address":"647 E 220 N, American Fork, UT 84003","precinct":"25AF15","hd":"55","v_score":"9.116556227","decile":"8","lat":40.38135209102886,"lng":-111.78109272144421},{"vid":"6253421","name":"Shirlene Rogahn","party":"Dem","address":"92 N 775 E, American Fork, UT 84003","precinct":"25AF15","hd":"55","v_score":"6.74007049","decile":"8","lat":40.379044281906346,"lng":-111.77706301322625},{"vid":"6253740","name":"Sherrill Schaden","party":"Rep","address":"92 N 775 E, American Fork, UT 84003","precinct":"25AF15","hd":"55","v_score":"5.273794831","decile":"7","lat":40.379044281906346,"lng":-111.77706301322625},{"vid":"6261095","name":"Murdock White","party":"","address":"232 N 860 E, American Fork, UT 84003","precinct":"25AF15","hd":"55","v_score":"30.379416","decile":"10","lat":40.38165789763074,"lng":-111.77397141913481},{"vid":"6264464","name":"Theta Kassulke","party":"Rep","address":"108 N 775 E, American Fork, UT 84003","precinct":"25AF15","hd":"55","v_score":"3.93832808","decile":"6","lat":40.37931253535385,"lng":-111.77706260808606},{"vid":"6265516","name":"Clinton Feil III","party":"Dem","address":"169 N 670 E, American Fork, UT 84003","precinct":"25AF15","hd":"55","v_score":"11.30609121","decile":"9","lat":40.38032048289189,"lng":-111.78107463685853},{"vid":"6265527","name":"Jameson Auer","party":"Dem","address":"276 N 600 E, American Fork, UT 84003","precinct":"25AF15","hd":"55","v_score":"33.79250644","decile":"10","lat":40.3822719249108,"lng":-111.78215683488581},{"vid":"6265789","name":"Dr. Marcus Champlin IV","party":"","address":"202 N 800 E, American Fork, UT 84003","precinct":"25AF15","hd":"55","v_score":"36.86397541","decile":"10","lat":40.381069058245,"lng":-111.77628914694834},{"vid":"6265821","name":"Mrs. Stefanie Hilpert","party":"Dem","address":"685 E 170 N, American Fork, UT 84003","precinct":"25AF15","hd":"55","v_score":"13.09579129","decile":"9","lat":40.38049094449056,"lng":-111.78017254972818},{"vid":"6266025","name":"Alvaro Kohler","party":"Dem","address":"685 E 170 N, American Fork, UT 84003","precinct":"25AF15","hd":"55","v_score":"11.90190399","decile":"9","lat":40.38049094449056,"lng":-111.78017254972818},{"vid":"6274231","name":"Vinton Heathcote","party":"","address":"670 E 300 N, American Fork, UT 84003","precinct":"25AF15","hd":"55","v_score":"12.07513611","decile":"9","lat":40.38292963106206,"lng":-111.7804267443273},{"vid":"6279244","name":"Hoy Bartell MD","party":"Dem","address":"126 N 600 E, American Fork, UT 84003","precinct":"25AF15","hd":"55","v_score":"25.80307694","decile":"10","lat":40.37931080881264,"lng":-111.78225353373512},{"vid":"6294321","name":"Sunny Anderson-Jacobs","party":"Rep","address":"54 N 870 E, American Fork, UT 84003","precinct":"25AF15","hd":"55","v_score":"3.93832808","decile":"6","lat":40.37798822156086,"lng":-111.7739453148113},{"vid":"6299685","name":"Isabela Kunze","party":"","address":"16 N 700 E, Apt 13, American Fork, UT 84003","precinct":"25AF15","hd":"55","v_score":"3.781490609","decile":"6","lat":40.37709898770964,"lng":-111.77906807142001},{"vid":"6299702","name":"Maeve Ortiz","party":"","address":"864 E 120 N, American Fork, UT 84003","precinct":"25AF15","hd":"55","v_score":"6.724398202","decile":"8","lat":40.38000600748644,"lng":-111.77438863378514},{"vid":"6300579","name":"Acy Nicolas","party":"Dem","address":"625 E 230 N, American Fork, UT 84003","precinct":"25AF15","hd":"55","v_score":"1.193887297","decile":"4","lat":40.381754558859505,"lng":-111.7819134286187},{"vid":"7d378317daada1a182f3042cc4a57f1b64d22ae5feb9acf49a6baf95d7c39090","name":"Yasmine Strosin","party":"","address":"798 E 30 N, American Fork, UT 84003","precinct":"25AF15","hd":"55","v_score":"12.14993957","decile":"9","lat":40.37735831316649,"lng":-111.77640034184131},{"vid":"6308444","name":"Mr. Deshaun Schiller II","party":"","address":"155 N 825 E, American Fork, UT 84003","precinct":"25AF15","hd":"55","v_score":"8.617652165","decile":"8","lat":40.38019532436237,"lng":-111.77584268574931},{"vid":"6308932","name":"Ms. Earline Nienow","party":"Rep","address":"675 E 170 N, American Fork, UT 84003","precinct":"25AF15","hd":"55","v_score":"16.11238254","decile":"9","lat":40.38049142213173,"lng":-111.78049551796802},{"vid":"6313737","name":"Emory Rath MD","party":"Rep","address":"16 N 700 E, Apt 22, American Fork, UT 84003","precinct":"25AF15","hd":"55","v_score":"11.99259879","decile":"9","lat":40.37709898770964,"lng":-111.77906807142001},{"vid":"6318648","name":"Gaven Keeling","party":"","address":"37 N 800 E, American Fork, UT 84003","precinct":"25AF15","hd":"55","v_score":"11.37977487","decile":"9","lat":40.3776641765527,"lng":-111.77664686801137},{"vid":"6319125","name":"Mr. Benjamine Romaguera I","party":"","address":"16 N 700 E, Apt 10, American Fork, UT 84003","precinct":"25AF15","hd":"55","v_score":"1.193887297","decile":"4","lat":40.37709898770964,"lng":-111.77906807142001},{"vid":"6324791","name":"Jamison Quitzon","party":"Dem","address":"79 N 900 E, American Fork, UT 84003","precinct":"25AF15","hd":"55","v_score":"30.01715195","decile":"10","lat":40.37860419183443,"lng":-111.7735268087647},{"vid":"6325070","name":"Alexys Wunsch","party":"Dem","address":"190 N 600 E, American Fork, UT 84003","precinct":"25AF15","hd":"55","v_score":"30.65345867","decile":"10","lat":40.380452117207675,"lng":-111.78226059838596},{"vid":"6328193","name":"Alcie Quitzon","party":"","address":"647 E 100 N, American Fork, UT 84003","precinct":"25AF15","hd":"55","v_score":"11.54697831","decile":"9","lat":40.379287159543914,"lng":-111.78139661407695},{"vid":"6337957","name":"Maya Barton-Sipes","party":"Dem","address":"123 N 825 E, American Fork, UT 84003","precinct":"25AF15","hd":"55","v_score":"25.35304117","decile":"10","lat":40.37931889997676,"lng":-111.77581098935327},{"vid":"6342222","name":"Loren Hammes-Auer","party":"Dem","address":"684 E 100 N, American Fork, UT 84003","precinct":"25AF15","hd":"55","v_score":"5.40460374","decile":"7","lat":40.37880110909137,"lng":-111.78006973987956},{"vid":"8d9e06e2aaccb1de19001f206466b7a66cba45c2d22557c68ebfe9a1b6125ae2","name":"Armond Vandervort","party":"","address":"123 N 825 E, American Fork, UT 84003","precinct":"25AF15","hd":"55","v_score":"25.35304117","decile":"10","lat":40.37931889997676,"lng":-111.77581098935327},{"vid":"6346204","name":"Mr. Wilfredo Rice","party":"","address":"37 S 800 E, American Fork, UT 84003","precinct":"25AF15","hd":"55","v_score":"2.315214949","decile":"5","lat":40.376201860619446,"lng":-111.77633710656406},{"vid":"6346405","name":"Laquita Homenick DDS","party":"Dem","address":"19 N 700 E, Apt 17, American Fork, UT 84003","precinct":"25AF15","hd":"55","v_score":"20.07200838","decile":"10","lat":40.376940373138545,"lng":-111.78085786942789},{"vid":"6358035","name":"Tanika Champlin-Reynolds","party":"","address":"189 N 900 E, American Fork, UT 84003","precinct":"25AF15","hd":"55","v_score":"1.46627566","decile":"4","lat":40.380847339835576,"lng":-111.7735428054243},{"vid":"6360171","name":"Dr. Norene Lebsack","party":"Rep","address":"182 N 775 E, American Fork, UT 84003","precinct":"25AF15","hd":"55","v_score":"2.587603312","decile":"5","lat":40.38058996320088,"lng":-111.77721291719378},{"vid":"6360601","name":"Marvel Beier","party":"Rep","address":"624 E 30 N, American Fork, UT 84003","precinct":"25AF15","hd":"55","v_score":"10.13721141","decile":"9","lat":40.37687937849207,"lng":-111.78162547181323},{"vid":"1acd78943bbe1a672b79157c83394e8546a6e8436366dd8768aa8b78851e6cdc","name":"Burr Lynch","party":"","address":"196 N 860 E, American Fork, UT 84003","precinct":"25AF15","hd":"55","v_score":"29.70536095","decile":"10","lat":40.38104318974343,"lng":-111.77396733233924},{"vid":"6368563","name":"Marisela Roob","party":"","address":"632 E 230 N, American Fork, UT 84003","precinct":"25AF15","hd":"55","v_score":"28.22745188","decile":"10","lat":40.30099110796992,"lng":-111.73873349580302},{"vid":"6377808","name":"Mr. Oddie Feest V","party":"","address":"117 N 775 E, American Fork, UT 84003","precinct":"25AF15","hd":"55","v_score":"22.70037759","decile":"10","lat":40.37942252520404,"lng":-111.77758631763218},{"vid":"6380281","name":"Adriane Leffler","party":"Dem","address":"886 E 30 N, American Fork, UT 84003","precinct":"25AF15","hd":"55","v_score":"6.954919332","decile":"8","lat":40.3770557017517,"lng":-111.77374637899894},{"vid":"6384666","name":"Wilbert Torphy-Anderson","party":"Dem","address":"143 N 860 E, American Fork, UT 84003","precinct":"25AF15","hd":"55","v_score":"10.22509301","decile":"9","lat":40.38033232171628,"lng":-111.77468546623861},{"vid":"1b97731ed5c1b8f6ee198e57802c0f4209cbea3ca2de5aa7ff33f5ccfe8931c3","name":"Merlene Predovic","party":"","address":"16 S 750 E, American Fork, UT 84003","precinct":"25AF15","hd":"55","v_score":"2.817000428","decile":"6","lat":40.37652318283319,"lng":-111.7778228961488},{"vid":"6396091","name":"Steven Hoppe","party":"Dem","address":"864 E 120 N, American Fork, UT 84003","precinct":"25AF15","hd":"55","v_score":"6.724398202","decile":"8","lat":40.38000600748644,"lng":-111.77438863378514},{"vid":"6403726","name":"Zachery Lindgren","party":"Rep","address":"77 N 870 E, American Fork, UT 84003","precinct":"25AF15","hd":"55","v_score":"5.77558031","decile":"7","lat":40.378458339269635,"lng":-111.77461774837919},{"vid":"6407918","name":"Jayden Reilly","party":"Dem","address":"165 N 860 E, American Fork, UT 84003","precinct":"25AF15","hd":"55","v_score":"3.93832808","decile":"6","lat":40.38070155282143,"lng":-111.77476672596559},{"vid":"6408975","name":"Linton Turner","party":"","address":"886 E 30 N, American Fork, UT 84003","precinct":"25AF15","hd":"55","v_score":"6.954919332","decile":"8","lat":40.3770557017517,"lng":-111.77374637899894},{"vid":"6411345","name":"Melissia Hickle","party":"Rep","address":"77 N 870 E, American Fork, UT 84003","precinct":"25AF15","hd":"55","v_score":"5.77558031","decile":"7","lat":40.378458339269635,"lng":-111.77461774837919},{"vid":"6415605","name":"Charlize Crona","party":"Dem","address":"37 N 800 E, American Fork, UT 84003","precinct":"25AF15","hd":"55","v_score":"14.48247422","decile":"9","lat":40.3776641765527,"lng":-111.77664686801137},{"vid":"6421375","name":"Dr. Raymundo Kris II","party":"","address":"684 E 100 N, American Fork, UT 84003","precinct":"25AF15","hd":"55","v_score":"1.193887297","decile":"4","lat":40.37880110909137,"lng":-111.78006973987956},{"vid":"6422892","name":"Tamela Ernser DDS","party":"Dem","address":"35 S 800 E, American Fork, UT 84003","precinct":"25AF15","hd":"55","v_score":"29.15089296","decile":"10","lat":40.37630051341985,"lng":-111.77639719047164},{"vid":"6424475","name":"Haven Heidenreich DDS","party":"","address":"865 E 50 S, American Fork, UT 84003","precinct":"25AF15","hd":"55","v_score":"14.64963002","decile":"9","lat":40.376027610994804,"lng":-111.77422809871352},{"vid":"6429925","name":"Dr. Maddux Hegmann","party":"Dem","address":"170 N 825 E, American Fork, UT 84003","precinct":"25AF15","hd":"55","v_score":"9.82709755","decile":"8","lat":40.38040441514793,"lng":-111.77527176446488},{"vid":"6430182","name":"Courtland Pfeffer","party":"","address":"89 N 825 E, American Fork, UT 84003","precinct":"25AF15","hd":"55","v_score":"1.193887297","decile":"4","lat":40.37882492824126,"lng":-111.77581176064677},{"vid":"e39b8e6413be08871b24276ca2ab7cdb086c4002961b4429d8e893e43269ee71","name":"Sharita Pagac","party":"Rep","address":"733 E 50 S, American Fork, UT 84003","precinct":"25AF15","hd":"55","v_score":"1.121327652","decile":"3","lat":40.37606074781421,"lng":-111.77834611737075},{"vid":"6431541","name":"Donald Schmitt I","party":"Dem","address":"625 E 230 N, American Fork, UT 84003","precinct":"25AF15","hd":"55","v_score":"2.315214949","decile":"5","lat":40.381754558859505,"lng":-111.7819134286187},{"vid":"6432136","name":"Lamonte Windler","party":"Rep","address":"81 N 670 E, American Fork, UT 84003","precinct":"25AF15","hd":"55","v_score":"24.16429152","decile":"10","lat":40.378302023270656,"lng":-111.78096398246028},{"vid":"6437997","name":"Patrick Tromp","party":"","address":"685 E 170 N, American Fork, UT 84003","precinct":"25AF15","hd":"55","v_score":"11.47267816","decile":"9","lat":40.38049094449056,"lng":-111.78017254972818},{"vid":"6439067","name":"Torie Moen","party":"Rep","address":"646 E 300 N, American Fork, UT 84003","precinct":"25AF15","hd":"55","v_score":"14.13760315","decile":"9","lat":40.382819940172816,"lng":-111.78104041877171},{"vid":"bdf4406251930a9830dff1b59fcb0ebab4f1ed878bbf2e3b32c0e952e9ed4ee5","name":"Jesus Aufderhar","party":"","address":"297 N 860 E, American Fork, UT 84003","precinct":"25AF15","hd":"55","v_score":"3.781490609","decile":"6","lat":40.38296259950605,"lng":-111.77445172137867},{"vid":"6442449","name":"Webster Botsford","party":"","address":"216 N 800 E, American Fork, UT 84003","precinct":"25AF15","hd":"55","v_score":"3.93832808","decile":"6","lat":40.38140565664512,"lng":-111.77645220367832},{"vid":"6445723","name":"Miss Channing Harber MD","party":"Rep","address":"894 E 300 N, American Fork, UT 84003","precinct":"25AF15","hd":"55","v_score":"24.89343572","decile":"10","lat":40.3829770497571,"lng":-111.77341529139173},{"vid":"af2af0ec4bfaa117f455c89dffad9ffe8540d9036a017fe9f5041eb2137fa03c","name":"Miss Danette Schulist","party":"","address":"708 E 50 N, American Fork, UT 84003","precinct":"25AF15","hd":"55","v_score":"2.315214949","decile":"5","lat":40.37755540166511,"lng":-111.77939353870535},{"vid":"770dc90c45505bc626ab47c6d035dacd3a906e5f4cd23a9d30125aa36cf5b4fe","name":"Iesha Schmeler MD","party":"Rep","address":"52 N 750 E, American Fork, UT 84003","precinct":"25AF15","hd":"55","v_score":"26.60945214","decile":"10","lat":40.37761949834535,"lng":-111.77805325480095},{"vid":"6456698","name":"Lyndsey Braun","party":"Rep","address":"622 E 100 N, American Fork, UT 84003","precinct":"25AF15","hd":"55","v_score":"5.191257514","decile":"7","lat":40.16756857072985,"lng":-111.59953627171998},{"vid":"6460396","name":"Joslyn McClure","party":"","address":"620 E 100 N, American Fork, UT 84003","precinct":"25AF15","hd":"55","v_score":"1.121327652","decile":"3","lat":40.378783595778046,"lng":-111.78183097215435},{"vid":"6469651","name":"Garnett Dickinson","party":"Dem","address":"16 N 700 E, Apt 7, American Fork, UT 84003","precinct":"25AF15","hd":"55","v_score":"0","decile":"3","lat":40.37709898770964,"lng":-111.77906807142001},{"vid":"6471036","name":"Abagail Nitzsche","party":"","address":"221 N 825 E, American Fork, UT 84003","precinct":"25AF15","hd":"55","v_score":"0","decile":"3","lat":40.381567076344325,"lng":-111.77589343803902},{"vid":"6476456","name":"Dione Weimann","party":"Dem","address":"130 N 600 E, American Fork, UT 84003","precinct":"25AF15","hd":"55","v_score":"34.59349101","decile":"10","lat":40.379595061161844,"lng":-111.78210260634695},{"vid":"6476766","name":"Adilene Wehner","party":"Rep","address":"64 N 750 E, American Fork, UT 84003","precinct":"25AF15","hd":"55","v_score":"18.11188939","decile":"10","lat":40.378126681605515,"lng":-111.77801812072128},{"vid":"6479302","name":"Khari Ryan","party":"","address":"817 E Evergreen Dr, American Fork, UT 84003","precinct":"25AF15","hd":"55","v_score":"2.315214949","decile":"5","lat":40.38227162672367,"lng":-111.77595784755287},{"vid":"6481291","name":"Norita Graham","party":"Dem","address":"150 N 600 E, American Fork, UT 84003","precinct":"25AF15","hd":"55","v_score":"11.29723756","decile":"9","lat":40.379933870380846,"lng":-111.78225229331143},{"vid":"6482652","name":"Mr. Yael Gutkowski","party":"","address":"745 E 50 S, American Fork, UT 84003","precinct":"25AF15","hd":"55","v_score":"2.744440783","decile":"6","lat":40.37593331543658,"lng":-111.77802714304067},{"vid":"6489707","name":"Mr. Cullen Bernier","party":"Dem","address":"678 E 220 N, American Fork, UT 84003","precinct":"25AF15","hd":"55","v_score":"0","decile":"3","lat":40.38091532112734,"lng":-111.7803226453438},{"vid":"6493075","name":"Gregorio Hahn V","party":"Rep","address":"609 E 30 N, American Fork, UT 84003","precinct":"25AF15","hd":"55","v_score":"3.781490609","decile":"6","lat":40.37725455050095,"lng":-111.78229777226942},{"vid":"6500212","name":"Mrs. Blair O'Hara DDS","party":"Rep","address":"254 N 860 E, American Fork, UT 84003","precinct":"25AF15","hd":"55","v_score":"15.1943348","decile":"9","lat":40.38196529764464,"lng":-111.77396912609518},{"vid":"6500640","name":"Miss Rosalie Block DDS","party":"","address":"807 E 10 S, American Fork, UT 84003","precinct":"25AF15","hd":"55","v_score":"2.315214949","decile":"5","lat":40.376793534368474,"lng":-111.77625773376117},{"vid":"6503248","name":"Tressie Tromp-Gleason","party":"Dem","address":"624 E 30 N, American Fork, UT 84003","precinct":"25AF15","hd":"55","v_score":"13.09579129","decile":"9","lat":40.37687937849207,"lng":-111.78162547181323},{"vid":"6503766","name":"Elisa Anderson","party":"","address":"834 E 300 N, American Fork, UT 84003","precinct":"25AF15","hd":"55","v_score":"17.96776993","decile":"10","lat":40.38284748022522,"lng":-111.77546058674434},{"vid":"6506983","name":"Bess Marks-Schaden","party":"Dem","address":"232 N 860 E, American Fork, UT 84003","precinct":"25AF15","hd":"55","v_score":"18.22103382","decile":"10","lat":40.38165789763074,"lng":-111.77397141913481},{"vid":"6507325","name":"Odessa Dach-Little","party":"Rep","address":"130 N 600 E, American Fork, UT 84003","precinct":"25AF15","hd":"55","v_score":"9.207031979","decile":"8","lat":40.379595061161844,"lng":-111.78210260634695},{"vid":"6509000","name":"Shannen Fay","party":"Dem","address":"85 N 670 E, American Fork, UT 84003","precinct":"25AF15","hd":"55","v_score":"37.38087621","decile":"10","lat":40.37846684795654,"lng":-111.7811063924161},{"vid":"6509143","name":"Dr. Zada Kertzmann","party":"Rep","address":"19 N 700 E, American Fork, UT 84003","precinct":"25AF15","hd":"55","v_score":"1.193887297","decile":"4","lat":40.376940373138545,"lng":-111.78085786942789},{"vid":"6509295","name":"Alan Bogisich-Lesch","party":"","address":"16 N 700 E, Apt 18, American Fork, UT 84003","precinct":"25AF15","hd":"55","v_score":"12.6510998","decile":"9","lat":40.37709898770964,"lng":-111.77906807142001},{"vid":"6511454","name":"Dr. Hubbard Kautzer Jr.","party":"Rep","address":"237 N 900 E, American Fork, UT 84003","precinct":"25AF15","hd":"55","v_score":"18.74333682","decile":"10","lat":40.38187914162599,"lng":-111.77355694490687},{"vid":"6511642","name":"Kenji Thompson","party":"Rep","address":"79 N 900 E, American Fork, UT 84003","precinct":"25AF15","hd":"55","v_score":"30.01715195","decile":"10","lat":40.37860419183443,"lng":-111.7735268087647},{"vid":"931cfff67f618e655bf4846d630cddc7ca4e0ce75cf278dc0258d3bcc1419e6f","name":"Rubi Abbott","party":"","address":"809 E Evergreen Dr, American Fork, UT 84003","precinct":"25AF15","hd":"55","v_score":"8.999628265","decile":"8","lat":40.3824183598765,"lng":-111.77633223613813},{"vid":"6514948","name":"Cleva Labadie","party":"Rep","address":"622 E 100 N, American Fork, UT 84003","precinct":"25AF15","hd":"55","v_score":"2.315214949","decile":"5","lat":40.16756857072985,"lng":-111.59953627171998},{"vid":"6515612","name":"Dr. Linus Waters Sr.","party":"Rep","address":"16 N 700 E, Apt 22, American Fork, UT 84003","precinct":"25AF15","hd":"55","v_score":"11.99259879","decile":"9","lat":40.37709898770964,"lng":-111.77906807142001},{"vid":"5a182ac01c36874fd9fda2ce975136aa2009695590e79fd835baa1d0a1179bb7","name":"Karolyn Kovacek","party":"Dem","address":"152 N 860 E, American Fork, UT 84003","precinct":"25AF15","hd":"55","v_score":"8.363183621","decile":"8","lat":40.380343424500076,"lng":-111.77402242713721},{"vid":"6519030","name":"Nealie Osinski-Reichert","party":"","address":"733 E 50 S, American Fork, UT 84003","precinct":"25AF15","hd":"55","v_score":"20.91067752","decile":"10","lat":40.37606074781421,"lng":-111.77834611737075},{"vid":"6519731","name":"Shyheim Kilback","party":"Dem","address":"16 N 700 E, Apt 27, American Fork, UT 84003","precinct":"25AF15","hd":"55","v_score":"2.315214949","decile":"5","lat":40.37709898770964,"lng":-111.77906807142001},{"vid":"6531003","name":"Dr. Vara Kuhic DVM","party":"","address":"263 N 860 E, American Fork, UT 84003","precinct":"25AF15","hd":"55","v_score":"1.121327652","decile":"3","lat":40.38228390998817,"lng":-111.77457154351126}]