[{"id":"308","name":"Ted Becker","party":"Rep","address":"445 N 570 W, American Fork, UT 84003","precinct":"25AF12","hd":"53","v_score":"5.258122542","decile":"7","lat":40.386245355597,"lng":-111.81350305183},{"id":"545","name":"Joaquin Denesik","party":"Rep","address":"576 W 500 N, American Fork, UT 84003","precinct":"25AF12","hd":"53","v_score":"2.958579882","decile":"6","lat":40.387146294503,"lng":-111.813685721797},{"id":"1174","name":"Pollie Kling","party":"Dem","address":"499 N 700 W, American Fork, UT 84003","precinct":"25AF12","hd":"53","v_score":"18.30428832","decile":"10","lat":40.387476232195,"lng":-111.817516915534},{"id":"1250","name":"Jalynn Von DDS","party":"","address":"517 W 650 N, American Fork, UT 84003","precinct":"25AF12","hd":"53","v_score":"22.78715523","decile":"10","lat":40.389554395472,"lng":-111.812298228828},{"id":"1568","name":"Ruel Bins","party":"Rep","address":"427 N 450 W, American Fork, UT 84003","precinct":"25AF12","hd":"53","v_score":"6.814370645","decile":"8","lat":40.385495814793,"lng":-111.810083740283},{"id":"2341","name":"Dr. Harvey Okuneva","party":"Rep","address":"542 W 500 N, American Fork, UT 84003","precinct":"25AF12","hd":"53","v_score":"8.363183621","decile":"8","lat":40.387146294436,"lng":-111.812817107576},{"id":"2695","name":"Holmes Lynch-Willms","party":"Rep","address":"562 W 680 N, American Fork, UT 84003","precinct":"25AF12","hd":"53","v_score":"18.57308022","decile":"10","lat":40.390022779291,"lng":-111.813865865611},{"id":"3109","name":"Lu Bogan","party":"Rep","address":"555 N 490 West Cir, American Fork, UT 84003","precinct":"25AF12","hd":"53","v_score":"3.781490609","decile":"6","lat":40.387552652751,"lng":-111.81117939142},{"id":"3282","name":"Mrs. Autumn Johnston PhD","party":"Dem","address":"651 N 650 W, American Fork, UT 84003","precinct":"25AF12","hd":"53","v_score":"27.99141194","decile":"10","lat":40.389488580071,"lng":-111.815461603626},{"id":"3380","name":"Mr. Horace Durgan","party":"","address":"873 W 700 N, American Fork, UT 84003","precinct":"25AF12","hd":"53","v_score":"1.121327652","decile":"3","lat":40.390469703239,"lng":-111.820300931826},{"id":"3393","name":"Seneca Swaniawski","party":"Rep","address":"356 N 480 W, American Fork, UT 84003","precinct":"25AF12","hd":"53","v_score":"12.37419689","decile":"9","lat":40.384565220163,"lng":-111.810941399287},{"id":"3509","name":"Bryce Leuschke","party":"Dem","address":"493 N 400 W, American Fork, UT 84003","precinct":"25AF12","hd":"53","v_score":"20.81875705","decile":"10","lat":40.386943135235,"lng":-111.809026714651},{"id":"3620","name":"Mrs. Carol Kub MD","party":"Rep","address":"342 N 560 W, American Fork, UT 84003","precinct":"25AF12","hd":"53","v_score":"1.623113131","decile":"4","lat":40.384287681278,"lng":-111.812856348727},{"id":"3983","name":"Mrs. Estie Greenholt MD","party":"","address":"478 N 650 W, American Fork, UT 84003","precinct":"25AF12","hd":"53","v_score":"1.121327652","decile":"3","lat":40.38724235608,"lng":-111.815512687679},{"id":"4234","name":"Vollie Jakubowski","party":"Rep","address":"489 N 450 W, American Fork, UT 84003","precinct":"25AF12","hd":"53","v_score":"1.46627566","decile":"4","lat":40.38618842158,"lng":-111.810090069987},{"id":"4293","name":"Jamey Langosh","party":"Dem","address":"531 W 400 N, American Fork, UT 84003","precinct":"25AF12","hd":"53","v_score":"22.16796682","decile":"10","lat":40.385107364931,"lng":-111.812114225959},{"id":"4433","name":"Bryn Leannon-Robel","party":"","address":"344 N 450 W, American Fork, UT 84003","precinct":"25AF12","hd":"53","v_score":"0","decile":"1","lat":40.38431679262,"lng":-111.809954357212},{"id":"4541","name":"Kandace Dickinson MD","party":"","address":"451 N 600 W, American Fork, UT 84003","precinct":"25AF12","hd":"53","v_score":"21.14412949","decile":"10","lat":40.385981831169,"lng":-111.81446008164},{"id":"4670","name":"Shiloh Graham","party":"Rep","address":"416 N 680 W, American Fork, UT 84003","precinct":"25AF12","hd":"53","v_score":"8.15240309","decile":"8","lat":40.385943178206,"lng":-111.816556307493},{"id":"4977","name":"Luvenia Mitchell","party":"Rep","address":"481 N 400 W, American Fork, UT 84003","precinct":"25AF12","hd":"53","v_score":"16.2066738","decile":"9","lat":40.386711411575,"lng":-111.809028273361},{"id":"5361","name":"Dr. Wilma Monahan","party":"Dem","address":"689 W 410 N, American Fork, UT 84003","precinct":"25AF12","hd":"53","v_score":"16.39239889","decile":"9","lat":40.385824189157,"lng":-111.817459553644},{"id":"5521","name":"Jaiden Erdman","party":"","address":"667 N 350 W, American Fork, UT 84003","precinct":"25AF12","hd":"53","v_score":"0","decile":"1","lat":40.390106532868,"lng":-111.808046170443},{"id":"5964","name":"Reanna Becker-Wolf","party":"","address":"438 N 520 W, American Fork, UT 84003","precinct":"25AF12","hd":"53","v_score":"0","decile":"1","lat":40.385922881283,"lng":-111.811857660458},{"id":"6376","name":"Colby Carter","party":"Dem","address":"538 N 680 W, American Fork, UT 84003","precinct":"25AF12","hd":"53","v_score":"2.315214949","decile":"5","lat":40.388022928548,"lng":-111.816388975631},{"id":"8310","name":"Howell Jerde","party":"","address":"574 N 680 W, American Fork, UT 84003","precinct":"25AF12","hd":"53","v_score":"24.11582679","decile":"10","lat":40.388456141015,"lng":-111.816353800205},{"id":"8351","name":"Kandace Marks","party":"","address":"593 W 480 N, American Fork, UT 84003","precinct":"25AF12","hd":"53","v_score":"10.06441387","decile":"9","lat":40.386600844859,"lng":-111.814311455588},{"id":"8388","name":"Obie Johns","party":"Dem","address":"669 N 540 W, American Fork, UT 84003","precinct":"25AF12","hd":"53","v_score":"21.08356325","decile":"10","lat":40.38987690748,"lng":-111.812450334981},{"id":"8446","name":"Nannette Lowe","party":"Dem","address":"571 N 650 W, American Fork, UT 84003","precinct":"25AF12","hd":"53","v_score":"2.315214949","decile":"5","lat":40.388243169949,"lng":-111.81558582722},{"id":"8519","name":"Dr. Memphis Jast Sr.","party":"Dem","address":"489 N 520 W, American Fork, UT 84003","precinct":"25AF12","hd":"53","v_score":"11.37977487","decile":"9","lat":40.386846661752,"lng":-111.812012418435},{"id":"8552","name":"Mrs. Tiny Schaefer MD","party":"","address":"456 N 600 W, American Fork, UT 84003","precinct":"25AF12","hd":"53","v_score":"4.137918904","decile":"7","lat":40.386068257161,"lng":-111.814348971482},{"id":"8569","name":"Jacqulyn Deckow","party":"Rep","address":"776 W 450 N, American Fork, UT 84003","precinct":"25AF12","hd":"53","v_score":"8.421194992","decile":"8","lat":40.387283696921,"lng":-111.819416497585},{"id":"8654","name":"Ardis Cummerata","party":"Rep","address":"432 N 560 W, American Fork, UT 84003","precinct":"25AF12","hd":"53","v_score":"3.781490609","decile":"6","lat":40.385738298153,"lng":-111.812842484114},{"id":"8997","name":"Audrianna Beier","party":"Dem","address":"776 W 450 N, American Fork, UT 84003","precinct":"25AF12","hd":"53","v_score":"5.40460374","decile":"7","lat":40.387283696921,"lng":-111.819416497585},{"id":"9263","name":"Mr. Von Mosciski","party":"","address":"597 W 680 N, American Fork, UT 84003","precinct":"25AF12","hd":"53","v_score":"10.67330764","decile":"9","lat":40.389910788087,"lng":-111.814121688373},{"id":"9761","name":"Lazaro Tillman","party":"","address":"488 N 520 W, American Fork, UT 84003","precinct":"25AF12","hd":"53","v_score":"5.273794831","decile":"7","lat":40.386847069612,"lng":-111.811861978973},{"id":"10654","name":"Dr. Dora Rau Jr.","party":"","address":"424 N 580 W, American Fork, UT 84003","precinct":"25AF12","hd":"53","v_score":"2.315214949","decile":"5","lat":40.385329464491,"lng":-111.814256011103},{"id":"10878","name":"Doreen Hahn","party":"","address":"752 W 450 N, American Fork, UT 84003","precinct":"25AF12","hd":"53","v_score":"20.4472089","decile":"10","lat":40.387009250235,"lng":-111.818710314601},{"id":"11271","name":"Ouida Grady","party":"Dem","address":"453 N 450 W, American Fork, UT 84003","precinct":"25AF12","hd":"53","v_score":"6.954919332","decile":"8","lat":40.385788862744,"lng":-111.810080554941},{"id":"11634","name":"Teagan Flatley","party":"","address":"369 N 580 W, American Fork, UT 84003","precinct":"25AF12","hd":"53","v_score":"5.40460374","decile":"7","lat":40.385121195901,"lng":-111.814582593957},{"id":"11657","name":"Wally Corkery-Stehr","party":"Dem","address":"361 N 480 W, American Fork, UT 84003","precinct":"25AF12","hd":"53","v_score":"5.61909958","decile":"7","lat":40.384616385018,"lng":-111.811090984862},{"id":"11712","name":"Mr. Simeon Parker Jr.","party":"Rep","address":"583 N 780 W, American Fork, UT 84003","precinct":"25AF12","hd":"53","v_score":"1.121327652","decile":"3","lat":40.389110626045,"lng":-111.818945568061},{"id":"12369","name":"Herminia Osinski","party":"Rep","address":"412 N 520 W, American Fork, UT 84003","precinct":"25AF12","hd":"53","v_score":"6.814370645","decile":"8","lat":40.385442303352,"lng":-111.81185541483},{"id":"12523","name":"Britt Hahn DDS","party":"","address":"493 N 400 W, American Fork, UT 84003","precinct":"25AF12","hd":"53","v_score":"2.744440783","decile":"5","lat":40.386943135235,"lng":-111.809026714651},{"id":"12787","name":"Gerard Nienow","party":"Dem","address":"583 N 780 W, American Fork, UT 84003","precinct":"25AF12","hd":"53","v_score":"0","decile":"1","lat":40.389110626045,"lng":-111.818945568061},{"id":"13120","name":"Rhiannon Walsh","party":"Rep","address":"564 N 650 W, American Fork, UT 84003","precinct":"25AF12","hd":"53","v_score":"1.121327652","decile":"3","lat":40.3881786295,"lng":-111.815440334579},{"id":"13276","name":"Deasia Cartwright","party":"Dem","address":"564 N 650 W, American Fork, UT 84003","precinct":"25AF12","hd":"53","v_score":"2.587603312","decile":"5","lat":40.3881786295,"lng":-111.815440334579},{"id":"14116","name":"Mr. Hurley Champlin DVM","party":"Dem","address":"561 N 560 W, American Fork, UT 84003","precinct":"25AF12","hd":"53","v_score":"15.00919004","decile":"9","lat":40.387921059245,"lng":-111.812953035255},{"id":"14354","name":"Maudie Lynch","party":"Rep","address":"574 N 680 W, American Fork, UT 84003","precinct":"25AF12","hd":"53","v_score":"21.5725918","decile":"10","lat":40.388456141015,"lng":-111.816353800205},{"id":"14493","name":"Jep Bogan II","party":"Dem","address":"515 N 560 W, American Fork, UT 84003","precinct":"25AF12","hd":"53","v_score":"1.121327652","decile":"3","lat":40.387306220526,"lng":-111.812963770158},{"id":"14510","name":"Mr. Devante Kuhn","party":"Dem","address":"557 W Pacific Court Cir, American Fork, UT 84003","precinct":"25AF12","hd":"53","v_score":"6.74007049","decile":"8","lat":40.382992811338,"lng":-111.812050139299},{"id":"14516","name":"Shianne Gutkowski","party":"","address":"387 N 580 W, American Fork, UT 84003","precinct":"25AF12","hd":"53","v_score":"31.97157599","decile":"10","lat":40.385206209182,"lng":-111.814519758043},{"id":"14517","name":"Kael Casper","party":"Dem","address":"387 N 580 W, American Fork, UT 84003","precinct":"25AF12","hd":"53","v_score":"31.97157599","decile":"10","lat":40.385206209182,"lng":-111.814519758043},{"id":"14567","name":"Jill Gorczany DVM","party":"","address":"424 N 480 W, American Fork, UT 84003","precinct":"25AF12","hd":"53","v_score":"8.347511332","decile":"8","lat":40.38543965599,"lng":-111.810923068957},{"id":"15327","name":"Wyatt Lynch","party":"Rep","address":"363 N 580 W, American Fork, UT 84003","precinct":"25AF12","hd":"53","v_score":"9.498154327","decile":"8","lat":40.38509285814,"lng":-111.814603539261},{"id":"15724","name":"Dr. Mackenzie Heidenreich PhD","party":"Rep","address":"432 N 560 W, American Fork, UT 84003","precinct":"25AF12","hd":"53","v_score":"3.781490609","decile":"6","lat":40.385738298153,"lng":-111.812842484114},{"id":"15945","name":"Attie Wuckert","party":"Dem","address":"544 N 780 W, American Fork, UT 84003","precinct":"25AF12","hd":"53","v_score":"14.76181657","decile":"9","lat":40.388564187405,"lng":-111.818886599033},{"id":"15954","name":"Cielo Huels","party":"Dem","address":"506 Hindley Dr, American Fork, UT 84003","precinct":"25AF12","hd":"53","v_score":"7.159318653","decile":"8","lat":40.383941199692,"lng":-111.811382150518},{"id":"17057","name":"Barnie Harvey V","party":"Rep","address":"579 W 440 N, American Fork, UT 84003","precinct":"25AF12","hd":"53","v_score":"11.99259879","decile":"9","lat":40.385834703241,"lng":-111.81350305102},{"id":"17213","name":"Ethyl Breitenberg","party":"","address":"476 N 520 W, American Fork, UT 84003","precinct":"25AF12","hd":"53","v_score":"5.40460374","decile":"7","lat":40.386625264413,"lng":-111.81186094253},{"id":"17279","name":"Hosteen Frami-Watsica","party":"Rep","address":"403 N 450 W, American Fork, UT 84003","precinct":"25AF12","hd":"53","v_score":"5.258122542","decile":"7","lat":40.385225308992,"lng":-111.810086680598},{"id":"17584","name":"Duncan Lakin","party":"Dem","address":"453 N 450 W, American Fork, UT 84003","precinct":"25AF12","hd":"53","v_score":"18.07037736","decile":"10","lat":40.385788862744,"lng":-111.810080554941},{"id":"17777","name":"Christi Howell DVM","party":"","address":"495 W 400 N, American Fork, UT 84003","precinct":"25AF12","hd":"53","v_score":"3.93832808","decile":"6","lat":40.385094739634,"lng":-111.811368413476},{"id":"18320","name":"Zachery Weissnat-McKenzie","party":"","address":"538 N 680 W, American Fork, UT 84003","precinct":"25AF12","hd":"53","v_score":"2.315214949","decile":"5","lat":40.388022928548,"lng":-111.816388975631},{"id":"18413","name":"Peyton Mraz","party":"Rep","address":"571 N 650 W, American Fork, UT 84003","precinct":"25AF12","hd":"53","v_score":"5.40460374","decile":"7","lat":40.388243169949,"lng":-111.81558582722},{"id":"19860","name":"Orin Nitzsche","party":"Rep","address":"395 Clifton Ave, American Fork, UT 84003","precinct":"25AF12","hd":"53","v_score":"0","decile":"1","lat":40.387967702622,"lng":-111.808601129858},{"id":"20131","name":"Archer Kassulke-Pollich","party":"Rep","address":"561 N 560 W, American Fork, UT 84003","precinct":"25AF12","hd":"53","v_score":"10.36948566","decile":"9","lat":40.387921059245,"lng":-111.812953035255},{"id":"20161","name":"Tristan Sipes DDS","party":"","address":"496 N 680 W, American Fork, UT 84003","precinct":"25AF12","hd":"53","v_score":"3.93832808","decile":"6","lat":40.387414531985,"lng":-111.816438284278},{"id":"20327","name":"Mrs. Maiya Kulas DDS","party":"Dem","address":"345 N 450 W, American Fork, UT 84003","precinct":"25AF12","hd":"53","v_score":"0","decile":"1","lat":40.384318610881,"lng":-111.810104775272},{"id":"20508","name":"Mr. Brandy Lind Jr.","party":"Rep","address":"667 N 350 W, # B, American Fork, UT 84003","precinct":"25AF12","hd":"53","v_score":"2.315214949","decile":"5","lat":40.390106532868,"lng":-111.808046170443},{"id":"20851","name":"Iva Cormier","party":"Rep","address":"594 W 580 N, American Fork, UT 84003","precinct":"25AF12","hd":"53","v_score":"8.280646305","decile":"8","lat":40.388312321648,"lng":-111.814499909189},{"id":"21639","name":"Miss Staci Strosin","party":"Rep","address":"530 N 420 W, American Fork, UT 84003","precinct":"25AF12","hd":"53","v_score":"0","decile":"1","lat":40.387681080965,"lng":-111.809740542178},{"id":"21705","name":"Abigayle Jerde","party":"","address":"672 N 650 W, American Fork, UT 84003","precinct":"25AF12","hd":"53","v_score":"5.40460374","decile":"7","lat":40.389722318716,"lng":-111.81524830001},{"id":"21794","name":"Darlyne Anderson","party":"Dem","address":"432 N 580 W, American Fork, UT 84003","precinct":"25AF12","hd":"53","v_score":"5.815909755","decile":"7","lat":40.385367248172,"lng":-111.814228084031},{"id":"22855","name":"Greggory Rosenbaum MD","party":"Rep","address":"579 W 440 N, American Fork, UT 84003","precinct":"25AF12","hd":"53","v_score":"11.99259879","decile":"9","lat":40.385834703241,"lng":-111.81350305102},{"id":"24079","name":"Mattye Kilback","party":"","address":"561 N 420 W, American Fork, UT 84003","precinct":"25AF12","hd":"53","v_score":"1.121327652","decile":"3","lat":40.388188535559,"lng":-111.809892275125},{"id":"24189","name":"Gennaro McGlynn","party":"","address":"536 W 650 N, American Fork, UT 84003","precinct":"25AF12","hd":"53","v_score":"0","decile":"1","lat":40.38967030746,"lng":-111.812250086478},{"id":"24279","name":"Bradley Crona","party":"Rep","address":"604 W 460 N, American Fork, UT 84003","precinct":"25AF12","hd":"53","v_score":"2.315214949","decile":"5","lat":40.386426294652,"lng":-111.814553767868},{"id":"24355","name":"Santiago Heaney II","party":"","address":"819 W 700 N, American Fork, UT 84003","precinct":"25AF12","hd":"53","v_score":"12.13674394","decile":"9","lat":40.390469703177,"lng":-111.819497840052},{"id":"24602","name":"Hale Steuber","party":"Rep","address":"335 N 400 W, American Fork, UT 84003","precinct":"25AF12","hd":"53","v_score":"45.76919357","decile":"10","lat":40.383905758499,"lng":-111.809056959805},{"id":"24759","name":"Florentino Gislason","party":"Dem","address":"506 Hindley Dr, American Fork, UT 84003","precinct":"25AF12","hd":"53","v_score":"10.15822798","decile":"9","lat":40.383941199692,"lng":-111.811382150518},{"id":"24857","name":"Sheldon McGlynn","party":"Dem","address":"433 N 700 W, American Fork, UT 84003","precinct":"25AF12","hd":"53","v_score":"4.465184987","decile":"7","lat":40.386904073154,"lng":-111.817561916879},{"id":"25799","name":"Mrs. Dorotha Lindgren","party":"Dem","address":"561 W 680 N, American Fork, UT 84003","precinct":"25AF12","hd":"53","v_score":"2.315214949","decile":"5","lat":40.389908045851,"lng":-111.813852951245},{"id":"26091","name":"Gee Oberbrunner-Casper","party":"","address":"420 N 560 W, American Fork, UT 84003","precinct":"25AF12","hd":"53","v_score":"10.33000704","decile":"9","lat":40.385547112821,"lng":-111.812846068864},{"id":"26548","name":"Noelia Hessel","party":"Rep","address":"349 N 480 W, American Fork, UT 84003","precinct":"25AF12","hd":"53","v_score":"1.193887297","decile":"3","lat":40.384467313433,"lng":-111.811093502982},{"id":"26782","name":"Boss Klocko","party":"","address":"446 N 600 W, American Fork, UT 84003","precinct":"25AF12","hd":"53","v_score":"3.781490609","decile":"6","lat":40.386014822934,"lng":-111.814312802608},{"id":"26950","name":"Glenn Veum","party":"","address":"587 N 590 W, American Fork, UT 84003","precinct":"25AF12","hd":"53","v_score":"4.732607667","decile":"7","lat":40.38831340812,"lng":-111.814053571412},{"id":"26984","name":"Mr. Jethro Kshlerin","party":"","address":"577 W 480 N, American Fork, UT 84003","precinct":"25AF12","hd":"53","v_score":"1.46627566","decile":"4","lat":40.386602095919,"lng":-111.814170710073},{"id":"27345","name":"Ole Zulauf","party":"Rep","address":"453 N 450 W, American Fork, UT 84003","precinct":"25AF12","hd":"53","v_score":"5.331806201","decile":"7","lat":40.385788862744,"lng":-111.810080554941},{"id":"27374","name":"Mrs. Lillis Goldner","party":"Rep","address":"383 N 580 W, American Fork, UT 84003","precinct":"25AF12","hd":"53","v_score":"13.81451578","decile":"9","lat":40.385187317342,"lng":-111.81453372158},{"id":"27607","name":"Mr. Jaiden Hagenes MD","party":"Rep","address":"335 N 400 W, American Fork, UT 84003","precinct":"25AF12","hd":"53","v_score":"8.363183621","decile":"8","lat":40.383905758499,"lng":-111.809056959805},{"id":"29078","name":"Yaritza Daniel","party":"","address":"488 N 680 W, American Fork, UT 84003","precinct":"25AF12","hd":"53","v_score":"26.42542406","decile":"10","lat":40.387267396608,"lng":-111.8164500866},{"id":"29195","name":"Treena Kuhlman","party":"Dem","address":"449 N 480 W, American Fork, UT 84003","precinct":"25AF12","hd":"53","v_score":"20.20421028","decile":"10","lat":40.38568081762,"lng":-111.811066570063},{"id":"29512","name":"Macarthur Hoppe III","party":"","address":"396 N 480 W, American Fork, UT 84003","precinct":"25AF12","hd":"53","v_score":"7.169296324","decile":"8","lat":40.385062125448,"lng":-111.810933005552},{"id":"29881","name":"Ernestine Jacobson","party":"Dem","address":"489 N 520 W, American Fork, UT 84003","precinct":"25AF12","hd":"53","v_score":"18.03463495","decile":"10","lat":40.386846661752,"lng":-111.812012418435},{"id":"30499","name":"Cornelius Gerlach","party":"","address":"553 W 600 N, American Fork, UT 84003","precinct":"25AF12","hd":"53","v_score":"0","decile":"1","lat":40.388570702832,"lng":-111.812219388497},{"id":"30734","name":"Tamela Beer","party":"Rep","address":"772 W 600 N, American Fork, UT 84003","precinct":"25AF12","hd":"53","v_score":"12.07513611","decile":"9","lat":40.38939515087,"lng":-111.818623851208},{"id":"31058","name":"Dorinda Russel","party":"Rep","address":"506 Hindley Dr, American Fork, UT 84003","precinct":"25AF12","hd":"53","v_score":"2.587603312","decile":"5","lat":40.383941199692,"lng":-111.811382150518},{"id":"32272","name":"Miss Dennie Nitzsche MD","party":"Rep","address":"487 N 650 W, American Fork, UT 84003","precinct":"25AF12","hd":"53","v_score":"3.781490609","decile":"6","lat":40.387132448186,"lng":-111.815669616871},{"id":"32437","name":"Worley Upton","party":"Rep","address":"372 N 480 W, American Fork, UT 84003","precinct":"25AF12","hd":"53","v_score":"4.905839784","decile":"7","lat":40.384763982277,"lng":-111.810938041793},{"id":"32455","name":"Violette King","party":"Rep","address":"473 N 650 W, American Fork, UT 84003","precinct":"25AF12","hd":"53","v_score":"6.753951438","decile":"8","lat":40.386753371748,"lng":-111.815691486714},{"id":"32759","name":"Walton Goodwin","party":"Dem","address":"473 W Hindley Dr, American Fork, UT 84003","precinct":"25AF12","hd":"53","v_score":"3.781490609","decile":"6","lat":40.383666594131,"lng":-111.810720963323},{"id":"32871","name":"Ashely Rohan-Leuschke","party":"","address":"437 N 680 W, American Fork, UT 84003","precinct":"25AF12","hd":"53","v_score":"3.781490609","decile":"6","lat":40.386318004853,"lng":-111.816676967329},{"id":"32916","name":"Jalen Volkman","party":"","address":"383 W 600 N, American Fork, UT 84003","precinct":"25AF12","hd":"53","v_score":"8.347511332","decile":"8","lat":40.388825926944,"lng":-111.809233091276},{"id":"32944","name":"Harding Wolff","party":"Dem","address":"542 W 600 N, American Fork, UT 84003","precinct":"25AF12","hd":"53","v_score":"11.18900094","decile":"9","lat":40.388685294205,"lng":-111.812077504501},{"id":"33083","name":"Clifton Effertz","party":"","address":"577 W 630 N, American Fork, UT 84003","precinct":"25AF12","hd":"53","v_score":"20.3985915","decile":"10","lat":40.389128474766,"lng":-111.814084741062},{"id":"33243","name":"Lurline Treutel","party":"Rep","address":"487 N 650 W, American Fork, UT 84003","precinct":"25AF12","hd":"53","v_score":"17.36787767","decile":"9","lat":40.387132448186,"lng":-111.815669616871},{"id":"33276","name":"Lillian Leannon","party":"Rep","address":"598 N 680 W, American Fork, UT 84003","precinct":"25AF12","hd":"53","v_score":"10.52632313","decile":"9","lat":40.38864948039,"lng":-111.816338477302},{"id":"33403","name":"Ulysses Tromp-Brown","party":"Dem","address":"449 N 480 W, American Fork, UT 84003","precinct":"25AF12","hd":"53","v_score":"11.25286924","decile":"9","lat":40.38568081762,"lng":-111.811066570063},{"id":"33775","name":"Stephen Langosh","party":"Rep","address":"733 W 500 N, American Fork, UT 84003","precinct":"25AF12","hd":"53","v_score":"22.85402026","decile":"10","lat":40.38760370729,"lng":-111.818477300989},{"id":"33789","name":"Tyquan Kunde-Quigley","party":"Rep","address":"641 N 420 W, American Fork, UT 84003","precinct":"25AF12","hd":"53","v_score":"0","decile":"1","lat":40.389615400567,"lng":-111.809901507175},{"id":"34094","name":"Ryan Feil","party":"Rep","address":"432 N 680 W, American Fork, UT 84003","precinct":"25AF12","hd":"53","v_score":"5.546183193","decile":"7","lat":40.386237448962,"lng":-111.81653270285},{"id":"34512","name":"Prince Kessler","party":"","address":"772 W 500 N, American Fork, UT 84003","precinct":"25AF12","hd":"53","v_score":"3.016591252","decile":"6","lat":40.387826222926,"lng":-111.818726615588},{"id":"34574","name":"Cornel Davis Sr.","party":"Dem","address":"497 N 680 W, American Fork, UT 84003","precinct":"25AF12","hd":"53","v_score":"22.70037759","decile":"10","lat":40.387421520188,"lng":-111.816588449918},{"id":"35311","name":"Glover Okuneva-Wisoky","party":"Dem","address":"636 N 650 W, American Fork, UT 84003","precinct":"25AF12","hd":"53","v_score":"2.543234995","decile":"5","lat":40.389352300474,"lng":-111.81533120366},{"id":"36169","name":"Sincere Bernier","party":"","address":"335 N 400 W, American Fork, UT 84003","precinct":"25AF12","hd":"53","v_score":"40.78891255","decile":"10","lat":40.383905758499,"lng":-111.809056959805},{"id":"36844","name":"Tyra Cole","party":"","address":"437 N 480 W, American Fork, UT 84003","precinct":"25AF12","hd":"53","v_score":"11.29723756","decile":"9","lat":40.385561498891,"lng":-111.811070021446},{"id":"37083","name":"Jordan Abshire-Stokes","party":"Dem","address":"675 N 690 W, American Fork, UT 84003","precinct":"25AF12","hd":"53","v_score":"2.744440783","decile":"5","lat":40.39016735925,"lng":-111.816864583713},{"id":"37353","name":"Arthor Ullrich","party":"","address":"535 Hindley Dr, American Fork, UT 84003","precinct":"25AF12","hd":"53","v_score":"26.49910772","decile":"10","lat":40.384060890907,"lng":-111.812284701928},{"id":"37454","name":"Miss Stacey Berge MD","party":"Dem","address":"477 N 450 W, American Fork, UT 84003","precinct":"25AF12","hd":"53","v_score":"8.280646305","decile":"8","lat":40.386057665905,"lng":-111.810080920478},{"id":"37487","name":"Terrence Hermann","party":"","address":"417 W 600 N, American Fork, UT 84003","precinct":"25AF12","hd":"53","v_score":"1.46627566","decile":"4","lat":40.388830686366,"lng":-111.809716168893},{"id":"37609","name":"Skip Kunze","party":"Dem","address":"473 W Hindley Dr, American Fork, UT 84003","precinct":"25AF12","hd":"53","v_score":"3.089388791","decile":"6","lat":40.383666594131,"lng":-111.810720963323},{"id":"37879","name":"Loree Walker","party":"","address":"462 N 650 W, American Fork, UT 84003","precinct":"25AF12","hd":"53","v_score":"1.121327652","decile":"3","lat":40.387074368853,"lng":-111.815522379271},{"id":"38989","name":"Tristen Witting","party":"Rep","address":"537 W Pacific Court Cir, Apt 537, American Fork, UT 84003","precinct":"25AF12","hd":"53","v_score":"1.121327652","decile":"3","lat":40.382864055775,"lng":-111.811729500553},{"id":"39030","name":"Ottilie Price","party":"Dem","address":"366 Clifton Ave, American Fork, UT 84003","precinct":"25AF12","hd":"53","v_score":"0","decile":"1","lat":40.388082293995,"lng":-111.808447405185},{"id":"39079","name":"Jamal Klein","party":"Dem","address":"587 N 590 W, American Fork, UT 84003","precinct":"25AF12","hd":"53","v_score":"3.781490609","decile":"6","lat":40.38831340812,"lng":-111.814053571412},{"id":"39239","name":"Kyrie Jenkins","party":"Rep","address":"356 N 480 W, American Fork, UT 84003","precinct":"25AF12","hd":"53","v_score":"9.629756109","decile":"8","lat":40.384565220163,"lng":-111.810941399287},{"id":"39754","name":"Dr. Karren Simonis","party":"Dem","address":"597 W 680 N, American Fork, UT 84003","precinct":"25AF12","hd":"53","v_score":"5.40460374","decile":"7","lat":40.389910788087,"lng":-111.814121688373},{"id":"40090","name":"Mr. Bertram Senger IV","party":"Rep","address":"488 N 680 W, American Fork, UT 84003","precinct":"25AF12","hd":"53","v_score":"3.664562647","decile":"6","lat":40.387267396608,"lng":-111.8164500866},{"id":"40138","name":"Dennie Wiza MD","party":"","address":"731 W 700 N, American Fork, UT 84003","precinct":"25AF12","hd":"53","v_score":"2.587603312","decile":"5","lat":40.39047870306,"lng":-111.817998554685},{"id":"42171","name":"Johnie Pouros","party":"Rep","address":"551 W 550 N, American Fork, UT 84003","precinct":"25AF12","hd":"53","v_score":"6.481563075","decile":"7","lat":40.387805702946,"lng":-111.81257533556},{"id":"42990","name":"Marion Littel","party":"Dem","address":"597 W 680 N, American Fork, UT 84003","precinct":"25AF12","hd":"53","v_score":"5.40460374","decile":"7","lat":40.389910788087,"lng":-111.814121688373},{"id":"43586","name":"Rhoda Hauck-Corkery","party":"Rep","address":"546 Hindley Dr, American Fork, UT 84003","precinct":"25AF12","hd":"53","v_score":"6.798081861","decile":"8","lat":40.38420010391,"lng":-111.812325067023},{"id":"43603","name":"Mrs. Kayla Runte DVM","party":"","address":"455 N 400 W, American Fork, UT 84003","precinct":"25AF12","hd":"53","v_score":"2.315214949","decile":"5","lat":40.386209343645,"lng":-111.809031650565},{"id":"43886","name":"Denny Cartwright","party":"Dem","address":"524 W 650 N, American Fork, UT 84003","precinct":"25AF12","hd":"53","v_score":"8.216702423","decile":"8","lat":40.389655622093,"lng":-111.812224561921},{"id":"44422","name":"Newt Crona","party":"","address":"420 N 560 W, American Fork, UT 84003","precinct":"25AF12","hd":"53","v_score":"10.33000704","decile":"9","lat":40.385547112821,"lng":-111.812846068864},{"id":"45324","name":"Elmire Baumbach","party":"","address":"751 W 600 N, American Fork, UT 84003","precinct":"25AF12","hd":"53","v_score":"1.193887297","decile":"3","lat":40.389098986835,"lng":-111.81819097821},{"id":"45439","name":"Sloane Kassulke","party":"Rep","address":"313 N 400 W, American Fork, UT 84003","precinct":"25AF12","hd":"53","v_score":"5.40460374","decile":"7","lat":40.383414094455,"lng":-111.809066553653},{"id":"45523","name":"Donato Cruickshank Jr.","party":"Dem","address":"485 N 680 W, American Fork, UT 84003","precinct":"25AF12","hd":"53","v_score":"6.954919332","decile":"8","lat":40.387200817121,"lng":-111.8166061534},{"id":"45574","name":"Dustan Williamson","party":"Dem","address":"371 W 600 N, American Fork, UT 84003","precinct":"25AF12","hd":"53","v_score":"1.46627566","decile":"4","lat":40.388824247147,"lng":-111.809062593294},{"id":"46654","name":"Iona Berge MD","party":"Rep","address":"444 N 560 W, American Fork, UT 84003","precinct":"25AF12","hd":"53","v_score":"13.63188752","decile":"9","lat":40.386023118118,"lng":-111.812837136699},{"id":"46863","name":"Mr. Dusty Armstrong IV","party":"Dem","address":"654 N 420 W, American Fork, UT 84003","precinct":"25AF12","hd":"53","v_score":"3.93832808","decile":"6","lat":40.389850640268,"lng":-111.809753466531},{"id":"46916","name":"Reece Ebert","party":"Rep","address":"541 W 600 N, American Fork, UT 84003","precinct":"25AF12","hd":"53","v_score":"0","decile":"1","lat":40.388570702821,"lng":-111.812070505755},{"id":"47256","name":"Mr. Woodroe Gerlach Jr.","party":"","address":"553 W 600 N, American Fork, UT 84003","precinct":"25AF12","hd":"53","v_score":"0","decile":"1","lat":40.388570702832,"lng":-111.812219388497},{"id":"47509","name":"Jabari Glover","party":"","address":"772 W 500 N, American Fork, UT 84003","precinct":"25AF12","hd":"53","v_score":"13.99344568","decile":"9","lat":40.387826222926,"lng":-111.818726615588},{"id":"47661","name":"Marilyn Olson","party":"","address":"554 W 600 N, American Fork, UT 84003","precinct":"25AF12","hd":"53","v_score":"11.21417074","decile":"9","lat":40.388685294217,"lng":-111.81223020475},{"id":"47666","name":"Buddy Waelchi","party":"Dem","address":"535 Hindley Dr, American Fork, UT 84003","precinct":"25AF12","hd":"53","v_score":"14.89083565","decile":"9","lat":40.384060890907,"lng":-111.812284701928},{"id":"48953","name":"Ms. Alisha Kub DDS","party":"Rep","address":"494 N 560 W, American Fork, UT 84003","precinct":"25AF12","hd":"53","v_score":"1.46627566","decile":"4","lat":40.386956238999,"lng":-111.812819596712},{"id":"49660","name":"Dylan Medhurst-Breitenberg","party":"Dem","address":"425 W 600 N, American Fork, UT 84003","precinct":"25AF12","hd":"53","v_score":"1.121327652","decile":"3","lat":40.388830019462,"lng":-111.809946101513},{"id":"49666","name":"Ms. Alesia Marks MD","party":"","address":"494 N 560 W, American Fork, UT 84003","precinct":"25AF12","hd":"53","v_score":"1.46627566","decile":"4","lat":40.386956238999,"lng":-111.812819596712},{"id":"49732","name":"Chrystal Crist","party":"","address":"375 N 580 W, American Fork, UT 84003","precinct":"25AF12","hd":"53","v_score":"10.9941379","decile":"9","lat":40.385149533661,"lng":-111.814561648652},{"id":"50261","name":"Leanne Heller","party":"Dem","address":"578 N 490 West Cir, American Fork, UT 84003","precinct":"25AF12","hd":"53","v_score":"1.121327652","decile":"3","lat":40.387730978905,"lng":-111.811031811535},{"id":"50696","name":"Francisquita Rolfson","party":"Rep","address":"375 N 580 W, American Fork, UT 84003","precinct":"25AF12","hd":"53","v_score":"14.38526013","decile":"9","lat":40.385149533661,"lng":-111.814561648652},{"id":"51167","name":"Le Beier","party":"Dem","address":"669 N 540 W, American Fork, UT 84003","precinct":"25AF12","hd":"53","v_score":"15.03795631","decile":"9","lat":40.38987690748,"lng":-111.812450334981},{"id":"51422","name":"Ursula Wuckert DVM","party":"Dem","address":"533 N 490 West Cir, American Fork, UT 84003","precinct":"25AF12","hd":"53","v_score":"3.781490609","decile":"6","lat":40.387390477469,"lng":-111.811176775711},{"id":"51447","name":"Antoine Olson","party":"Dem","address":"502 N 650 W, American Fork, UT 84003","precinct":"25AF12","hd":"53","v_score":"2.315214949","decile":"5","lat":40.387584804248,"lng":-111.815488551234},{"id":"51615","name":"Harlen Erdman PhD","party":"","address":"769 W 500 N, American Fork, UT 84003","precinct":"25AF12","hd":"53","v_score":"9.82542041","decile":"8","lat":40.387766679388,"lng":-111.818903167263},{"id":"51935","name":"Bobby Ruecker-Konopelski","party":"Dem","address":"511 N 490 West Cir, American Fork, UT 84003","precinct":"25AF12","hd":"53","v_score":"3.93832808","decile":"6","lat":40.387228302186,"lng":-111.811174160002},{"id":"52074","name":"Reece Gusikowski","party":"Dem","address":"535 Hindley Dr, American Fork, UT 84003","precinct":"25AF12","hd":"53","v_score":"16.02984522","decile":"9","lat":40.384060890907,"lng":-111.812284701928},{"id":"52105","name":"Ms. Libby Daugherty PhD","party":"","address":"597 W 680 N, American Fork, UT 84003","precinct":"25AF12","hd":"53","v_score":"10.67330764","decile":"9","lat":40.389910788087,"lng":-111.814121688373},{"id":"52326","name":"Chalmers Steuber-Hane","party":"Dem","address":"561 W 680 N, American Fork, UT 84003","precinct":"25AF12","hd":"53","v_score":"10.67330764","decile":"9","lat":40.389908045851,"lng":-111.813852951245},{"id":"52511","name":"Jovani White","party":"Rep","address":"356 Clifton Ave, American Fork, UT 84003","precinct":"25AF12","hd":"53","v_score":"0","decile":"1","lat":40.38808229399,"lng":-111.808392503521},{"id":"52903","name":"Miss Shannon Bayer DDS","party":"Dem","address":"478 N 650 W, American Fork, UT 84003","precinct":"25AF12","hd":"53","v_score":"2.587603312","decile":"5","lat":40.38724235608,"lng":-111.815512687679},{"id":"53082","name":"Dr. Misael Dooley","party":"","address":"538 W 600 N, American Fork, UT 84003","precinct":"25AF12","hd":"53","v_score":"2.315214949","decile":"5","lat":40.388685294201,"lng":-111.812026604418},{"id":"53257","name":"Ms. Corey Haley","party":"","address":"457 N 570 W, American Fork, UT 84003","precinct":"25AF12","hd":"53","v_score":"4.210716443","decile":"7","lat":40.386326099498,"lng":-111.81350305182},{"id":"53485","name":"Ulysses Nienow","party":"","address":"819 W 700 N, American Fork, UT 84003","precinct":"25AF12","hd":"53","v_score":"12.13674394","decile":"9","lat":40.390469703177,"lng":-111.819497840052},{"id":"53947","name":"Cletus Stracke","party":"Rep","address":"453 N 520 W, American Fork, UT 84003","precinct":"25AF12","hd":"53","v_score":"3.089388791","decile":"6","lat":40.386181246156,"lng":-111.812009309104},{"id":"54414","name":"Juston Walter","party":"Dem","address":"481 N 400 W, American Fork, UT 84003","precinct":"25AF12","hd":"53","v_score":"1.193887297","decile":"3","lat":40.386711411575,"lng":-111.809028273361},{"id":"54447","name":"Darron Little","party":"Dem","address":"447 Hindley Dr, American Fork, UT 84003","precinct":"25AF12","hd":"53","v_score":"0","decile":"1","lat":40.383571915437,"lng":-111.809934245245},{"id":"55121","name":"Dr. Marion Maggio V","party":"","address":"629 N 690 W, American Fork, UT 84003","precinct":"25AF12","hd":"53","v_score":"6.814370645","decile":"8","lat":40.389559428167,"lng":-111.817280330086},{"id":"55482","name":"Autry Prohaska-Nicolas","party":"Rep","address":"527 N 560 W, American Fork, UT 84003","precinct":"25AF12","hd":"53","v_score":"0","decile":"1","lat":40.387442651968,"lng":-111.812961390522},{"id":"56365","name":"Mr. Mervyn Sauer I","party":"","address":"381 N 400 W, American Fork, UT 84003","precinct":"25AF12","hd":"53","v_score":"0","decile":"1","lat":40.384729875511,"lng":-111.809044696052},{"id":"56683","name":"Miss Ollie Bashirian","party":"Dem","address":"595 N 560 W, American Fork, UT 84003","precinct":"25AF12","hd":"53","v_score":"3.664562647","decile":"6","lat":40.388503012978,"lng":-111.812942765407},{"id":"56846","name":"Deshaun Paucek","party":"","address":"446 Hindley Dr, American Fork, UT 84003","precinct":"25AF12","hd":"53","v_score":"7.709322704","decile":"8","lat":40.383687679414,"lng":-111.80996532922},{"id":"57779","name":"Carmen Ebert-Hauck","party":"Rep","address":"553 W 600 N, American Fork, UT 84003","precinct":"25AF12","hd":"53","v_score":"0","decile":"1","lat":40.388570702832,"lng":-111.812219388497},{"id":"58003","name":"Carolyn Nienow DDS","party":"Dem","address":"495 W 400 N, American Fork, UT 84003","precinct":"25AF12","hd":"53","v_score":"2.315214949","decile":"5","lat":40.385094739634,"lng":-111.811368413476},{"id":"58058","name":"Mr. Earl Hackett","party":"Dem","address":"587 N 590 W, American Fork, UT 84003","precinct":"25AF12","hd":"53","v_score":"8.274713794","decile":"8","lat":40.38831340812,"lng":-111.814053571412},{"id":"59255","name":"Gray Grimes","party":"Dem","address":"481 N 400 W, American Fork, UT 84003","precinct":"25AF12","hd":"53","v_score":"5.407962308","decile":"7","lat":40.386711411575,"lng":-111.809028273361},{"id":"59376","name":"Joaquin Graham","party":"","address":"669 N 540 W, American Fork, UT 84003","precinct":"25AF12","hd":"53","v_score":"13.97135325","decile":"9","lat":40.38987690748,"lng":-111.812450334981},{"id":"59632","name":"Mr. Ozzie Reichert I","party":"Rep","address":"561 W 680 N, American Fork, UT 84003","precinct":"25AF12","hd":"53","v_score":"3.93832808","decile":"6","lat":40.389908045851,"lng":-111.813852951245},{"id":"60009","name":"Mr. Misael Brown","party":"","address":"796 W 600 N, American Fork, UT 84003","precinct":"25AF12","hd":"53","v_score":"6.814370645","decile":"8","lat":40.389491805341,"lng":-111.819174393781},{"id":"60207","name":"Shaquille Casper-Haley","party":"Dem","address":"544 N 780 W, American Fork, UT 84003","precinct":"25AF12","hd":"53","v_score":"0","decile":"1","lat":40.388564187405,"lng":-111.818886599033},{"id":"60612","name":"Mamie Zemlak V","party":"Rep","address":"622 W 460 N, American Fork, UT 84003","precinct":"25AF12","hd":"53","v_score":"2.315214949","decile":"5","lat":40.386426294666,"lng":-111.814745992559},{"id":"60641","name":"Alexandre Jast DDS","party":"Dem","address":"523 Hindley Dr, American Fork, UT 84003","precinct":"25AF12","hd":"53","v_score":"0","decile":"1","lat":40.384021996997,"lng":-111.812170308115},{"id":"60655","name":"Lexi Olson-Luettgen","party":"Rep","address":"693 N 540 W, American Fork, UT 84003","precinct":"25AF12","hd":"53","v_score":"17.65631692","decile":"10","lat":40.390316131099,"lng":-111.812237412262},{"id":"60989","name":"Hope Greenholt","party":"","address":"473 W Hindley Dr, American Fork, UT 84003","precinct":"25AF12","hd":"53","v_score":"3.93832808","decile":"6","lat":40.383666594131,"lng":-111.810720963323},{"id":"61152","name":"Dr. Wilton Nader Sr.","party":"Dem","address":"453 N 520 W, American Fork, UT 84003","precinct":"25AF12","hd":"53","v_score":"3.93832808","decile":"6","lat":40.386181246156,"lng":-111.812009309104},{"id":"61402","name":"Simpson Ratke","party":"Rep","address":"478 N 650 W, American Fork, UT 84003","precinct":"25AF12","hd":"53","v_score":"1.121327652","decile":"3","lat":40.38724235608,"lng":-111.815512687679},{"id":"62129","name":"Bode Bode","party":"Dem","address":"523 Hindley Dr, American Fork, UT 84003","precinct":"25AF12","hd":"53","v_score":"0","decile":"1","lat":40.384021996997,"lng":-111.812170308115},{"id":"62864","name":"Britt Witting-Jast","party":"Rep","address":"769 W 500 N, American Fork, UT 84003","precinct":"25AF12","hd":"53","v_score":"8.236277988","decile":"8","lat":40.387766679388,"lng":-111.818903167263},{"id":"63705","name":"Cherilyn Gleason","party":"Dem","address":"825 W 700 N, American Fork, UT 84003","precinct":"25AF12","hd":"53","v_score":"27.0798583","decile":"10","lat":40.390469703186,"lng":-111.819625601919},{"id":"63810","name":"Shelia Kunze PhD","party":"Dem","address":"522 N 780 W, American Fork, UT 84003","precinct":"25AF12","hd":"53","v_score":"9.907118004","decile":"8","lat":40.388256332471,"lng":-111.818938841119},{"id":"64248","name":"Adelynn Auer","party":"","address":"692 W 410 N, American Fork, UT 84003","precinct":"25AF12","hd":"53","v_score":"0","decile":"1","lat":40.385937351053,"lng":-111.817420163827},{"id":"64390","name":"Junious Homenick-Lynch","party":"","address":"589 W 480 N, American Fork, UT 84003","precinct":"25AF12","hd":"53","v_score":"0","decile":"1","lat":40.386601157624,"lng":-111.814276269209},{"id":"64742","name":"Shalon Hessel","party":"","address":"403 N 450 W, American Fork, UT 84003","precinct":"25AF12","hd":"53","v_score":"5.258122542","decile":"7","lat":40.385225308992,"lng":-111.810086680598},{"id":"65508","name":"Tyrell Pollich","party":"","address":"424 N 480 W, American Fork, UT 84003","precinct":"25AF12","hd":"53","v_score":"2.942907593","decile":"6","lat":40.38543965599,"lng":-111.810923068957},{"id":"65584","name":"Bama Schaefer","party":"Dem","address":"577 N 490 West Cir, American Fork, UT 84003","precinct":"25AF12","hd":"53","v_score":"6.52928996","decile":"7","lat":40.387714828034,"lng":-111.811182007129},{"id":"66537","name":"Leaner Friesen DDS","party":"Rep","address":"390 N 580 W, American Fork, UT 84003","precinct":"25AF12","hd":"53","v_score":"0","decile":"1","lat":40.385168883847,"lng":-111.814374701161},{"id":"66640","name":"Dorene Pollich","party":"Dem","address":"501 N 730 W, American Fork, UT 84003","precinct":"25AF12","hd":"53","v_score":"10.39310639","decile":"9","lat":40.387628309994,"lng":-111.818040832755},{"id":"66830","name":"Dr. Elzada Feest PhD","party":"","address":"654 N 420 W, American Fork, UT 84003","precinct":"25AF12","hd":"53","v_score":"5.815909755","decile":"7","lat":40.389850640268,"lng":-111.809753466531},{"id":"67931","name":"Dr. Juluis Sporer","party":"","address":"538 W 500 N, American Fork, UT 84003","precinct":"25AF12","hd":"53","v_score":"13.42455999","decile":"9","lat":40.387146294425,"lng":-111.81267100665},{"id":"68005","name":"Sigmund Wuckert-Wintheiser","party":"Dem","address":"561 W 440 N, American Fork, UT 84003","precinct":"25AF12","hd":"53","v_score":"6.814370645","decile":"8","lat":40.385834703223,"lng":-111.813276281007},{"id":"69127","name":"Malaya Lemke MD","party":"Dem","address":"472 N 680 W, American Fork, UT 84003","precinct":"25AF12","hd":"53","v_score":"2.315214949","decile":"5","lat":40.386973125852,"lng":-111.816473691243},{"id":"69561","name":"Ashlyn Runolfsdottir-Mayert","party":"","address":"406 N 580 W, American Fork, UT 84003","precinct":"25AF12","hd":"53","v_score":"2.744440783","decile":"5","lat":40.385244451209,"lng":-111.814318847016},{"id":"69618","name":"Dr. Ham Gusikowski PhD","party":"","address":"373 N 480 W, American Fork, UT 84003","precinct":"25AF12","hd":"53","v_score":"1.121327652","decile":"3","lat":40.384765456604,"lng":-111.811088466741},{"id":"70053","name":"Larissa Rempel-Glover","party":"Rep","address":"542 W 600 N, American Fork, UT 84003","precinct":"25AF12","hd":"53","v_score":"1.121327652","decile":"3","lat":40.388685294205,"lng":-111.812077504501},{"id":"70162","name":"Dr. Shanae Gutmann","party":"","address":"486 N 650 W, American Fork, UT 84003","precinct":"25AF12","hd":"53","v_score":"3.93832808","decile":"6","lat":40.387325749428,"lng":-111.815507799034},{"id":"70267","name":"Jolene Lubowitz DVM","party":"Rep","address":"516 W 600 N, American Fork, UT 84003","precinct":"25AF12","hd":"53","v_score":"0","decile":"1","lat":40.388707949286,"lng":-111.811622718046},{"id":"70286","name":"Mr. Simon Nader","party":"Dem","address":"622 W 460 N, American Fork, UT 84003","precinct":"25AF12","hd":"53","v_score":"2.315214949","decile":"5","lat":40.386426294666,"lng":-111.814745992559},{"id":"70548","name":"Mac Dach","party":"Rep","address":"464 N 680 W, American Fork, UT 84003","precinct":"25AF12","hd":"53","v_score":"0","decile":"1","lat":40.386825990474,"lng":-111.816485493564},{"id":"70776","name":"Angelica Cartwright","party":"","address":"493 W Pacific Court Cir, American Fork, UT 84003","precinct":"25AF12","hd":"53","v_score":"1.121327652","decile":"3","lat":40.382580793537,"lng":-111.811024095312},{"id":"71235","name":"Darrien Cassin","party":"","address":"384 N 480 W, American Fork, UT 84003","precinct":"25AF12","hd":"53","v_score":"1.121327652","decile":"3","lat":40.384913053862,"lng":-111.810935523672},{"id":"71346","name":"Dotty Johnson","party":"Dem","address":"537 N 730 W, American Fork, UT 84003","precinct":"25AF12","hd":"53","v_score":"0","decile":"1","lat":40.387847335541,"lng":-111.818014337703},{"id":"72024","name":"Carrol Barton","party":"Rep","address":"568 N 580 W, American Fork, UT 84003","precinct":"25AF12","hd":"53","v_score":"2.315214949","decile":"5","lat":40.387578217134,"lng":-111.813726459849},{"id":"73187","name":"Federico Marquardt","party":"Rep","address":"373 N 480 W, American Fork, UT 84003","precinct":"25AF12","hd":"53","v_score":"1.121327652","decile":"3","lat":40.384765456604,"lng":-111.811088466741},{"id":"73252","name":"Mr. Gerard Pagac II","party":"","address":"446 N 700 W, American Fork, UT 84003","precinct":"25AF12","hd":"53","v_score":"0","decile":"1","lat":40.38668003366,"lng":-111.817428822569},{"id":"73276","name":"Jep Doyle","party":"Dem","address":"553 W 600 N, American Fork, UT 84003","precinct":"25AF12","hd":"53","v_score":"0","decile":"1","lat":40.388570702832,"lng":-111.812219388497},{"id":"73330","name":"Javon Blanda","party":"","address":"553 W 600 N, American Fork, UT 84003","precinct":"25AF12","hd":"53","v_score":"0","decile":"1","lat":40.388570702832,"lng":-111.812219388497},{"id":"73369","name":"Nereida Donnelly","party":"Dem","address":"396 W 500 N, American Fork, UT 84003","precinct":"25AF12","hd":"53","v_score":"11.687527","decile":"9","lat":40.387173294159,"lng":-111.80924853907},{"id":"73701","name":"Franklyn Trantow","party":"","address":"372 N 480 W, American Fork, UT 84003","precinct":"25AF12","hd":"53","v_score":"8.903210001","decile":"8","lat":40.384763982277,"lng":-111.810938041793},{"id":"73736","name":"Yulissa Reichert","party":"","address":"424 W 500 N, American Fork, UT 84003","precinct":"25AF12","hd":"53","v_score":"1.121327652","decile":"3","lat":40.38717329421,"lng":-111.809913171992},{"id":"74559","name":"Shelly Dare MD","party":"Dem","address":"695 N 600 W, American Fork, UT 84003","precinct":"25AF12","hd":"53","v_score":"2.315214949","decile":"5","lat":40.390335801357,"lng":-111.814286054823},{"id":"74683","name":"Jessee McGlynn","party":"Rep","address":"526 W 500 N, American Fork, UT 84003","precinct":"25AF12","hd":"53","v_score":"1.121327652","decile":"3","lat":40.387146294392,"lng":-111.812232703874},{"id":"74745","name":"Neppie Kuvalis","party":"Dem","address":"488 N 520 W, American Fork, UT 84003","precinct":"25AF12","hd":"53","v_score":"2.315214949","decile":"5","lat":40.386847069612,"lng":-111.811861978973},{"id":"75188","name":"Paisley Terry-Friesen","party":"","address":"412 N 520 W, American Fork, UT 84003","precinct":"25AF12","hd":"53","v_score":"1.121327652","decile":"3","lat":40.385442303352,"lng":-111.81185541483},{"id":"75437","name":"Vanessa McClure","party":"","address":"772 W 500 N, American Fork, UT 84003","precinct":"25AF12","hd":"53","v_score":"3.93832808","decile":"6","lat":40.387826222926,"lng":-111.818726615588},{"id":"75471","name":"Ryan Mitchell-Murazik","party":"Dem","address":"525 N 730 W, American Fork, UT 84003","precinct":"25AF12","hd":"53","v_score":"7.284456737","decile":"8","lat":40.387774327025,"lng":-111.818023169387},{"id":"75976","name":"Ragna Bernhard","party":"Rep","address":"497 W 500 N, American Fork, UT 84003","precinct":"25AF12","hd":"53","v_score":"3.93832808","decile":"6","lat":40.387052626643,"lng":-111.810339416772},{"id":"76516","name":"Dr. Amasa Rohan","party":"Dem","address":"659 N 600 W, American Fork, UT 84003","precinct":"25AF12","hd":"53","v_score":"3.93832808","decile":"6","lat":40.389749667988,"lng":-111.814354251469},{"id":"77197","name":"Gunnar Nienow PhD","party":"","address":"369 N 580 W, American Fork, UT 84003","precinct":"25AF12","hd":"53","v_score":"3.93832808","decile":"6","lat":40.385121195901,"lng":-111.814582593957},{"id":"77324","name":"Mr. Tyriq Feest II","party":"Rep","address":"433 W 700 N, American Fork, UT 84003","precinct":"25AF12","hd":"53","v_score":"5.191257514","decile":"7","lat":40.39056785656,"lng":-111.81008412443},{"id":"77534","name":"Darcy Altenwerth","party":"","address":"481 W Pacific Court Cir, American Fork, UT 84003","precinct":"25AF12","hd":"53","v_score":"5.191257514","decile":"7","lat":40.3825035402,"lng":-111.810831712064},{"id":"77590","name":"Mr. Tristin Larson PhD","party":"","address":"695 N 600 W, American Fork, UT 84003","precinct":"25AF12","hd":"53","v_score":"1.121327652","decile":"3","lat":40.390335801357,"lng":-111.814286054823},{"id":"77688","name":"Walker Kunde","party":"Dem","address":"559 N 650 W, American Fork, UT 84003","precinct":"25AF12","hd":"53","v_score":"1.193887297","decile":"3","lat":40.38812823603,"lng":-111.815595159475},{"id":"77991","name":"Dr. Turner Ryan","party":"Rep","address":"403 N 450 W, American Fork, UT 84003","precinct":"25AF12","hd":"53","v_score":"1.193887297","decile":"3","lat":40.385225308992,"lng":-111.810086680598},{"id":"78178","name":"Raphael Aufderhar","party":"Dem","address":"456 N 600 W, American Fork, UT 84003","precinct":"25AF12","hd":"53","v_score":"3.997370217","decile":"6","lat":40.386068257161,"lng":-111.814348971482},{"id":"79172","name":"Sylvester Sauer","party":"Rep","address":"636 N 650 W, American Fork, UT 84003","precinct":"25AF12","hd":"53","v_score":"6.481563075","decile":"7","lat":40.389352300474,"lng":-111.81533120366},{"id":"79175","name":"Fleeta Homenick","party":"","address":"433 N 700 W, American Fork, UT 84003","precinct":"25AF12","hd":"53","v_score":"4.858449944","decile":"7","lat":40.386904073154,"lng":-111.817561916879},{"id":"79669","name":"Dr. Johannah Bauch","party":"","address":"561 W 440 N, American Fork, UT 84003","precinct":"25AF12","hd":"53","v_score":"2.315214949","decile":"5","lat":40.385834703223,"lng":-111.813276281007},{"id":"80374","name":"Dr. Hays Simonis PhD","party":"","address":"473 N 650 W, American Fork, UT 84003","precinct":"25AF12","hd":"53","v_score":"2.744440783","decile":"5","lat":40.386753371748,"lng":-111.815691486714},{"id":"81497","name":"Pershing Anderson","party":"Rep","address":"368 N 450 W, American Fork, UT 84003","precinct":"25AF12","hd":"53","v_score":"0","decile":"1","lat":40.384659018629,"lng":-111.80994722746},{"id":"81948","name":"Florencio Wisozk","party":"","address":"455 W 400 N, American Fork, UT 84003","precinct":"25AF12","hd":"53","v_score":"5.83359168","decile":"7","lat":40.385078917278,"lng":-111.810203375931},{"id":"82000","name":"Alline Brekke","party":"","address":"752 W 450 N, American Fork, UT 84003","precinct":"25AF12","hd":"53","v_score":"10.04766669","decile":"9","lat":40.387009250235,"lng":-111.818710314601},{"id":"82241","name":"Quinn Frami","party":"","address":"453 N 520 W, American Fork, UT 84003","precinct":"25AF12","hd":"53","v_score":"10.56619935","decile":"9","lat":40.386181246156,"lng":-111.812009309104},{"id":"82314","name":"Aidyn Watsica Sr.","party":"Dem","address":"429 N 520 W, American Fork, UT 84003","precinct":"25AF12","hd":"53","v_score":"1.193887297","decile":"3","lat":40.385737635758,"lng":-111.812007236217},{"id":"82557","name":"Carole Gislason","party":"Dem","address":"447 N 600 W, American Fork, UT 84003","precinct":"25AF12","hd":"53","v_score":"4.069929862","decile":"6","lat":40.385955194231,"lng":-111.814441272313},{"id":"83330","name":"Boston Wolf-Terry","party":"Dem","address":"627 W 460 N, American Fork, UT 84003","precinct":"25AF12","hd":"53","v_score":"7.8339691","decile":"8","lat":40.386311703285,"lng":-111.814788709172},{"id":"83729","name":"Jaylene Gottlieb DVM","party":"Dem","address":"544 N 780 W, American Fork, UT 84003","precinct":"25AF12","hd":"53","v_score":"0","decile":"1","lat":40.388564187405,"lng":-111.818886599033},{"id":"83797","name":"Karma Towne","party":"Dem","address":"681 N 540 W, American Fork, UT 84003","precinct":"25AF12","hd":"53","v_score":"0","decile":"1","lat":40.390085043745,"lng":-111.8123170509},{"id":"84493","name":"Portia Bode","party":"Dem","address":"481 N 650 W, American Fork, UT 84003","precinct":"25AF12","hd":"53","v_score":"0","decile":"1","lat":40.386969986855,"lng":-111.815678989661},{"id":"84626","name":"Carie Stark","party":"","address":"555 N 490 West Cir, American Fork, UT 84003","precinct":"25AF12","hd":"53","v_score":"1.193887297","decile":"3","lat":40.387552652751,"lng":-111.81117939142},{"id":"84656","name":"Mrs. Shaneka Romaguera","party":"","address":"688 N 650 W, American Fork, UT 84003","precinct":"25AF12","hd":"53","v_score":"1.193887297","decile":"3","lat":40.389888031096,"lng":-111.81520489913},{"id":"84872","name":"Anita Pfannerstill","party":"Rep","address":"577 N 490 West Cir, American Fork, UT 84003","precinct":"25AF12","hd":"53","v_score":"1.193887297","decile":"3","lat":40.387714828034,"lng":-111.811182007129},{"id":"84966","name":"Mr. Hartwell Carroll","party":"","address":"461 N 680 W, American Fork, UT 84003","precinct":"25AF12","hd":"53","v_score":"0","decile":"1","lat":40.386759410988,"lng":-111.816641560365},{"id":"85331","name":"Pierre Bernier V","party":"Rep","address":"420 N 560 W, American Fork, UT 84003","precinct":"25AF12","hd":"53","v_score":"0","decile":"1","lat":40.385547112821,"lng":-111.812846068864},{"id":"86115","name":"Hazen Spinka","party":"Rep","address":"513 N 730 W, American Fork, UT 84003","precinct":"25AF12","hd":"53","v_score":"0","decile":"1","lat":40.38770131851,"lng":-111.818032001071},{"id":"86203","name":"Colonel Stracke PhD","party":"Dem","address":"727 W 600 N, American Fork, UT 84003","precinct":"25AF12","hd":"53","v_score":"6.757310005","decile":"8","lat":40.389053130985,"lng":-111.81783332362},{"id":"86315","name":"Dr. Deshaun Wehner","party":"","address":"483 W Pacific Court Cir, American Fork, UT 84003","precinct":"25AF12","hd":"53","v_score":"0","decile":"1","lat":40.382516415756,"lng":-111.810863775939},{"id":"86714","name":"Lavona Schowalter","party":"","address":"455 N 560 W, American Fork, UT 84003","precinct":"25AF12","hd":"53","v_score":"16.16230549","decile":"9","lat":40.3865465446,"lng":-111.81297775525},{"id":"86919","name":"Waino Hessel","party":"Dem","address":"528 N 650 W, American Fork, UT 84003","precinct":"25AF12","hd":"53","v_score":"3.711952487","decile":"6","lat":40.387833827741,"lng":-111.815468331346},{"id":"87357","name":"Selina Rath DVM","party":"Dem","address":"673 N 650 W, American Fork, UT 84003","precinct":"25AF12","hd":"53","v_score":"2.817000428","decile":"6","lat":40.389731912952,"lng":-111.815399201568},{"id":"87374","name":"Dr. Gale Corkery DDS","party":"","address":"580 N 420 W, American Fork, UT 84003","precinct":"25AF12","hd":"53","v_score":"0","decile":"1","lat":40.388527207817,"lng":-111.809742689596},{"id":"87408","name":"Chandra Rogahn-Luettgen","party":"","address":"582 W 580 N, American Fork, UT 84003","precinct":"25AF12","hd":"53","v_score":"7.182939378","decile":"8","lat":40.388069558475,"lng":-111.814055542874},{"id":"87743","name":"Ms. Caron Deckow PhD","party":"Rep","address":"607 W 500 N, American Fork, UT 84003","precinct":"25AF12","hd":"53","v_score":"1.193887297","decile":"4","lat":40.387130937388,"lng":-111.814503861213},{"id":"88432","name":"Ely VonRueden","party":"Dem","address":"495 N 650 W, American Fork, UT 84003","precinct":"25AF12","hd":"53","v_score":"1.193887297","decile":"4","lat":40.387349648466,"lng":-111.815656759692},{"id":"88558","name":"Brande Donnelly-Doyle","party":"","address":"611 W 460 N, American Fork, UT 84003","precinct":"25AF12","hd":"53","v_score":"2.817000428","decile":"6","lat":40.386311703272,"lng":-111.81461784278},{"id":"89092","name":"Ms. Shira Cummings","party":"","address":"446 Hindley Dr, American Fork, UT 84003","precinct":"25AF12","hd":"53","v_score":"4.069929862","decile":"6","lat":40.383687679414,"lng":-111.80996532922},{"id":"89174","name":"Joesph O'Connell III","party":"Rep","address":"793 W 500 N, American Fork, UT 84003","precinct":"25AF12","hd":"53","v_score":"0","decile":"1","lat":40.387870214159,"lng":-111.819299103371},{"id":"89663","name":"Dr. Tangela Gleason","party":"Dem","address":"485 N 680 W, American Fork, UT 84003","precinct":"25AF12","hd":"53","v_score":"0","decile":"1","lat":40.387200817121,"lng":-111.8166061534},{"id":"90023","name":"Dorthy Hegmann","party":"","address":"586 N 590 W, American Fork, UT 84003","precinct":"25AF12","hd":"53","v_score":"1.623113131","decile":"5","lat":40.388255283698,"lng":-111.813923914752},{"id":"90103","name":"Susan Hagenes","party":"Dem","address":"438 N 580 W, American Fork, UT 84003","precinct":"25AF12","hd":"53","v_score":"3.737122292","decile":"6","lat":40.385395585932,"lng":-111.814207138726},{"id":"90118","name":"Cleve Shanahan","party":"Dem","address":"586 N 590 W, American Fork, UT 84003","precinct":"25AF12","hd":"53","v_score":"1.623113131","decile":"5","lat":40.388255283698,"lng":-111.813923914752},{"id":"90154","name":"Britney Parisian","party":"","address":"693 N 540 W, American Fork, UT 84003","precinct":"25AF12","hd":"53","v_score":"0","decile":"1","lat":40.390316131099,"lng":-111.812237412262},{"id":"91069","name":"Dr. Wallace Mann II","party":"","address":"673 N 650 W, American Fork, UT 84003","precinct":"25AF12","hd":"53","v_score":"1.193887297","decile":"4","lat":40.389731912952,"lng":-111.815399201568},{"id":"91200","name":"Mr. Ewing Graham III","party":"","address":"522 N 780 W, American Fork, UT 84003","precinct":"25AF12","hd":"53","v_score":"0","decile":"1","lat":40.388256332471,"lng":-111.818938841119},{"id":"91285","name":"Justyn Koch","party":"Dem","address":"438 N 580 W, American Fork, UT 84003","precinct":"25AF12","hd":"53","v_score":"2.543234995","decile":"5","lat":40.385395585932,"lng":-111.814207138726},{"id":"92854","name":"Tilden Schmitt","party":"","address":"727 W 600 N, American Fork, UT 84003","precinct":"25AF12","hd":"53","v_score":"9.119914795","decile":"8","lat":40.389053130985,"lng":-111.81783332362},{"id":"92957","name":"Mr. Valentino Bosco IV","party":"","address":"437 N 680 W, American Fork, UT 84003","precinct":"25AF12","hd":"53","v_score":"1.193887297","decile":"4","lat":40.386318004853,"lng":-111.816676967329},{"id":"93935","name":"Tenisha Zemlak-Heaney","party":"Dem","address":"688 N 650 W, American Fork, UT 84003","precinct":"25AF12","hd":"53","v_score":"1.193887297","decile":"4","lat":40.389888031096,"lng":-111.81520489913},{"id":"94062","name":"Natasha Zemlak-McClure","party":"Dem","address":"473 N 680 W, American Fork, UT 84003","precinct":"25AF12","hd":"53","v_score":"0","decile":"1","lat":40.386980114054,"lng":-111.816623856883},{"id":"94143","name":"Litzy Hand","party":"","address":"688 N 650 W, American Fork, UT 84003","precinct":"25AF12","hd":"53","v_score":"1.193887297","decile":"4","lat":40.389888031096,"lng":-111.81520489913},{"id":"94667","name":"Prentiss Kuphal","party":"","address":"372 N 480 W, American Fork, UT 84003","precinct":"25AF12","hd":"53","v_score":"1.193887297","decile":"4","lat":40.384763982277,"lng":-111.810938041793},{"id":"95534","name":"Mr. Dana Jones DVM","party":"Rep","address":"611 W 460 N, American Fork, UT 84003","precinct":"25AF12","hd":"53","v_score":"1.193887297","decile":"4","lat":40.386311703272,"lng":-111.81461784278},{"id":"95898","name":"Nelle Maggio-Effertz","party":"Rep","address":"522 N 780 W, American Fork, UT 84003","precinct":"25AF12","hd":"53","v_score":"5.407962308","decile":"7","lat":40.388256332471,"lng":-111.818938841119},{"id":"96099","name":"Mr. Paul Hegmann PhD","party":"","address":"819 W 700 N, American Fork, UT 84003","precinct":"25AF12","hd":"53","v_score":"7.926027498","decile":"8","lat":40.390469703177,"lng":-111.819497840052},{"id":"97268","name":"Eber Strosin","party":"Rep","address":"539 W 600 N, American Fork, UT 84003","precinct":"25AF12","hd":"53","v_score":"2.817000428","decile":"6","lat":40.388570702819,"lng":-111.812045691965},{"id":"97412","name":"Dema Dach-Thompson","party":"Dem","address":"642 N 560 W, American Fork, UT 84003","precinct":"25AF12","hd":"53","v_score":"1.623113131","decile":"5","lat":40.38947254315,"lng":-111.812618616093},{"id":"97501","name":"Caesar DuBuque","party":"","address":"485 W 600 N, American Fork, UT 84003","precinct":"25AF12","hd":"53","v_score":"5.926494964","decile":"7","lat":40.388719256914,"lng":-111.810993411277},{"id":"98005","name":"Ardith Johnson PhD","party":"Rep","address":"692 W 410 N, American Fork, UT 84003","precinct":"25AF12","hd":"53","v_score":"5.693042993","decile":"7","lat":40.385937351053,"lng":-111.817420163827},{"id":"98428","name":"Mona Grady","party":"Rep","address":"495 W 400 N, American Fork, UT 84003","precinct":"25AF12","hd":"53","v_score":"1.193887297","decile":"4","lat":40.385094739634,"lng":-111.811368413476},{"id":"98655","name":"Kloe Bruen DVM","party":"Rep","address":"758 W 600 N, American Fork, UT 84003","precinct":"25AF12","hd":"53","v_score":"0","decile":"1","lat":40.38931721247,"lng":-111.81840459674},{"id":"98949","name":"Jayvion Romaguera","party":"","address":"758 W 600 N, American Fork, UT 84003","precinct":"25AF12","hd":"53","v_score":"1.193887297","decile":"4","lat":40.38931721247,"lng":-111.81840459674},{"id":"99099","name":"Hailie Dicki","party":"Rep","address":"494 W 600 N, American Fork, UT 84003","precinct":"25AF12","hd":"53","v_score":"1.193887297","decile":"4","lat":40.388814121068,"lng":-111.811108922296},{"id":"100686","name":"Tavaris McDermott-Thiel","party":"","address":"825 W 700 N, American Fork, UT 84003","precinct":"25AF12","hd":"53","v_score":"0","decile":"1","lat":40.390469703186,"lng":-111.819625601919},{"id":"100865","name":"Rosaline Waters","party":"Rep","address":"374 N 580 W, American Fork, UT 84003","precinct":"25AF12","hd":"53","v_score":"0","decile":"2","lat":40.385093316486,"lng":-111.814430555306},{"id":"101020","name":"Dr. Hayden Green DDS","party":"","address":"618 W 460 N, American Fork, UT 84003","precinct":"25AF12","hd":"53","v_score":"5.926494964","decile":"7","lat":40.386426294663,"lng":-111.814703275961},{"id":"101617","name":"Murray Jenkins-O'Connell","party":"Dem","address":"583 W 500 N, American Fork, UT 84003","precinct":"25AF12","hd":"53","v_score":"4.069929862","decile":"6","lat":40.387031703134,"lng":-111.813881052122},{"id":"103735","name":"Mariyah Walsh","party":"Dem","address":"528 N 650 W, American Fork, UT 84003","precinct":"25AF12","hd":"53","v_score":"0","decile":"2","lat":40.387833827741,"lng":-111.815468331346},{"id":"104003","name":"Carmen Bayer","party":"Dem","address":"428 N 580 W, American Fork, UT 84003","precinct":"25AF12","hd":"53","v_score":"1.193887297","decile":"4","lat":40.385348356331,"lng":-111.814242047567},{"id":"104412","name":"Estevan Kassulke","party":"","address":"523 Hindley Dr, American Fork, UT 84003","precinct":"25AF12","hd":"53","v_score":"0","decile":"2","lat":40.384021996997,"lng":-111.812170308115},{"id":"105199","name":"Kaiden Boehm","party":"","address":"535 Hindley Dr, American Fork, UT 84003","precinct":"25AF12","hd":"53","v_score":"21.99726893","decile":"10","lat":40.384060890907,"lng":-111.812284701928},{"id":"105516","name":"Jeanie West DDS","party":"","address":"596 W 680 N, American Fork, UT 84003","precinct":"25AF12","hd":"53","v_score":"0","decile":"2","lat":40.390025369181,"lng":-111.814119672898},{"id":"105759","name":"North Bayer-Barton","party":"","address":"538 N 680 W, American Fork, UT 84003","precinct":"25AF12","hd":"53","v_score":"1.193887297","decile":"4","lat":40.388022928548,"lng":-111.816388975631},{"id":"105890","name":"Miley Champlin","party":"Rep","address":"536 W 650 N, American Fork, UT 84003","precinct":"25AF12","hd":"53","v_score":"9.638447451","decile":"8","lat":40.38967030746,"lng":-111.812250086478},{"id":"106024","name":"Sabastian Boyle","party":"Rep","address":"618 W 460 N, American Fork, UT 84003","precinct":"25AF12","hd":"53","v_score":"1.193887297","decile":"4","lat":40.386426294663,"lng":-111.814703275961},{"id":"106589","name":"Mr. Charls Nienow","party":"Rep","address":"517 W 650 N, American Fork, UT 84003","precinct":"25AF12","hd":"53","v_score":"7.090117576","decile":"8","lat":40.389554395472,"lng":-111.812298228828},{"id":"107016","name":"Dema Kessler","party":"Rep","address":"453 N 570 W, American Fork, UT 84003","precinct":"25AF12","hd":"53","v_score":"1.193887297","decile":"4","lat":40.386299184864,"lng":-111.813503051823},{"id":"108184","name":"Dr. King Harvey II","party":"Rep","address":"626 W 580 N, American Fork, UT 84003","precinct":"25AF12","hd":"53","v_score":"0","decile":"2","lat":40.388598754591,"lng":-111.815091512655},{"id":"108258","name":"Dr. Shea Bartell","party":"Rep","address":"478 N 650 W, American Fork, UT 84003","precinct":"25AF12","hd":"53","v_score":"0","decile":"2","lat":40.38724235608,"lng":-111.815512687679},{"id":"108340","name":"Guadalupe Kozey","party":"Rep","address":"555 N 490 West Cir, American Fork, UT 84003","precinct":"25AF12","hd":"53","v_score":"1.193887297","decile":"4","lat":40.387552652751,"lng":-111.81117939142},{"id":"108399","name":"Bird Yundt","party":"","address":"547 N 780 W, American Fork, UT 84003","precinct":"25AF12","hd":"53","v_score":"1.193887297","decile":"4","lat":40.388606863426,"lng":-111.81903105511},{"id":"108489","name":"Essex Cartwright","party":"","address":"449 N 680 W, American Fork, UT 84003","precinct":"25AF12","hd":"53","v_score":"0","decile":"2","lat":40.38653870792,"lng":-111.816659263847},{"id":"108527","name":"Leonardo Hills Sr.","party":"","address":"667 N 350 W, American Fork, UT 84003","precinct":"25AF12","hd":"53","v_score":"0","decile":"2","lat":40.390106532868,"lng":-111.808046170443},{"id":"108652","name":"Rosamond Eichmann","party":"Rep","address":"627 N 420 W, American Fork, UT 84003","precinct":"25AF12","hd":"53","v_score":"1.193887297","decile":"4","lat":40.389381056007,"lng":-111.809899103672},{"id":"109041","name":"Aubrey Pouros II","party":"","address":"588 N 780 W, American Fork, UT 84003","precinct":"25AF12","hd":"53","v_score":"1.193887297","decile":"4","lat":40.389179897272,"lng":-111.818782114861},{"id":"109187","name":"Mr. Christion Bashirian","party":"","address":"607 N 560 W, American Fork, UT 84003","precinct":"25AF12","hd":"53","v_score":"0","decile":"2","lat":40.388728045565,"lng":-111.812938919558},{"id":"109567","name":"Dr. Alphonso Pacocha I","party":"Rep","address":"799 W 450 N, American Fork, UT 84003","precinct":"25AF12","hd":"53","v_score":"1.193887297","decile":"4","lat":40.387882910015,"lng":-111.819539316046},{"id":"109976","name":"Dominik Frami","party":"","address":"695 N 600 W, American Fork, UT 84003","precinct":"25AF12","hd":"53","v_score":"1.193887297","decile":"4","lat":40.390335801357,"lng":-111.814286054823},{"id":"110220","name":"Mrs. Tamara Weissnat MD","party":"Dem","address":"546 Hindley Dr, American Fork, UT 84003","precinct":"25AF12","hd":"53","v_score":"0","decile":"2","lat":40.38420010391,"lng":-111.812325067023},{"id":"110392","name":"Sheridan O'Hara-Koch","party":"Rep","address":"554 W 600 N, American Fork, UT 84003","precinct":"25AF12","hd":"53","v_score":"8.284004873","decile":"8","lat":40.388685294217,"lng":-111.81223020475},{"id":"111565","name":"Izayah Johns","party":"Dem","address":"659 N 600 W, American Fork, UT 84003","precinct":"25AF12","hd":"53","v_score":"1.193887297","decile":"4","lat":40.389749667988,"lng":-111.814354251469},{"id":"111891","name":"Miss Vessie Wyman DVM","party":"Dem","address":"682 N 690 W, American Fork, UT 84003","precinct":"25AF12","hd":"53","v_score":"5.407962308","decile":"7","lat":40.390234047426,"lng":-111.816664468644},{"id":"112834","name":"Ryan McClure","party":"","address":"485 N 680 W, American Fork, UT 84003","precinct":"25AF12","hd":"53","v_score":"0","decile":"2","lat":40.387200817121,"lng":-111.8166061534},{"id":"113008","name":"Dortha Ziemann","party":"Dem","address":"454 N 600 W, American Fork, UT 84003","precinct":"25AF12","hd":"53","v_score":"5.407962308","decile":"7","lat":40.386056742899,"lng":-111.81434129531},{"id":"113450","name":"Dr. Napoleon Gerlach","party":"Dem","address":"449 N 570 W, American Fork, UT 84003","precinct":"25AF12","hd":"53","v_score":"8.284004873","decile":"8","lat":40.38627227023,"lng":-111.813503051827},{"id":"114728","name":"Bernie Cassin","party":"Dem","address":"446 Hindley Dr, American Fork, UT 84003","precinct":"25AF12","hd":"53","v_score":"0","decile":"2","lat":40.383687679414,"lng":-111.80996532922},{"id":"115008","name":"Karsyn Kuhic","party":"Rep","address":"748 W 450 N, American Fork, UT 84003","precinct":"25AF12","hd":"53","v_score":"4.069929862","decile":"7","lat":40.386946781522,"lng":-111.818557442685},{"id":"115408","name":"Laraine Kuhn PhD","party":"Dem","address":"456 N 600 W, American Fork, UT 84003","precinct":"25AF12","hd":"53","v_score":"4.069929862","decile":"7","lat":40.386068257161,"lng":-111.814348971482},{"id":"115804","name":"Charlsie Bogisich","party":"Dem","address":"387 N 520 W, American Fork, UT 84003","precinct":"25AF12","hd":"53","v_score":"1.193887297","decile":"4","lat":40.384979272871,"lng":-111.812005424947},{"id":"116663","name":"Dr. Tyrik Botsford","party":"Dem","address":"511 N 490 West Cir, American Fork, UT 84003","precinct":"25AF12","hd":"53","v_score":"5.407962308","decile":"7","lat":40.387228302186,"lng":-111.811174160002},{"id":"117441","name":"Bess Rempel","party":"Rep","address":"456 N 680 W, American Fork, UT 84003","precinct":"25AF12","hd":"53","v_score":"0","decile":"2","lat":40.386678855096,"lng":-111.816497295886},{"id":"118730","name":"Tad Douglas","party":"Dem","address":"562 W 680 N, American Fork, UT 84003","precinct":"25AF12","hd":"53","v_score":"8.284004873","decile":"8","lat":40.390022779291,"lng":-111.813865865611},{"id":"119143","name":"Tia Bednar","party":"","address":"529 N 780 W, American Fork, UT 84003","precinct":"25AF12","hd":"53","v_score":"5.407962308","decile":"7","lat":40.388354982117,"lng":-111.819073798635},{"id":"119383","name":"Mrs. Zada Torphy","party":"","address":"414 Hindley Dr, American Fork, UT 84003","precinct":"25AF12","hd":"53","v_score":"1.193887297","decile":"4","lat":40.383666194953,"lng":-111.809334224639},{"id":"119466","name":"Alani Nader","party":"","address":"549 W 550 N, American Fork, UT 84003","precinct":"25AF12","hd":"53","v_score":"1.193887297","decile":"4","lat":40.387805702945,"lng":-111.812565824265},{"id":"119918","name":"Shira Breitenberg","party":"Dem","address":"426 N 450 W, American Fork, UT 84003","precinct":"25AF12","hd":"53","v_score":"1.193887297","decile":"4","lat":40.385494866064,"lng":-111.809933305064},{"id":"120151","name":"Erling Ortiz","party":"Dem","address":"464 N 680 W, American Fork, UT 84003","precinct":"25AF12","hd":"53","v_score":"1.193887297","decile":"4","lat":40.386825990474,"lng":-111.816485493564},{"id":"120597","name":"Adrianna Lynch","party":"","address":"511 N 490 West Cir, American Fork, UT 84003","precinct":"25AF12","hd":"53","v_score":"5.407962308","decile":"7","lat":40.387228302186,"lng":-111.811174160002},{"id":"121038","name":"Abe Grant","party":"Dem","address":"534 N 490 West Cir, American Fork, UT 84003","precinct":"25AF12","hd":"53","v_score":"4.069929862","decile":"7","lat":40.38740662834,"lng":-111.811026580117},{"id":"122757","name":"Virge Dach","party":"","address":"516 W 600 N, American Fork, UT 84003","precinct":"25AF12","hd":"53","v_score":"1.193887297","decile":"4","lat":40.388707949286,"lng":-111.811622718046},{"id":"123708","name":"Simeon Bogisich-Becker","party":"","address":"465 N 520 W, Bsmt, American Fork, UT 84003","precinct":"25AF12","hd":"53","v_score":"1.193887297","decile":"4","lat":40.386403051354,"lng":-111.812010345548},{"id":"124086","name":"Ms. Suzy Grady","party":"","address":"667 N 350 W, American Fork, UT 84003","precinct":"25AF12","hd":"53","v_score":"1.193887297","decile":"4","lat":40.390106532868,"lng":-111.808046170443},{"id":"124480","name":"Markus Bergnaum","party":"","address":"369 N 450 W, American Fork, UT 84003","precinct":"25AF12","hd":"53","v_score":"0","decile":"2","lat":40.384660836889,"lng":-111.810097645519},{"id":"125465","name":"Mr. Elgie Hilll PhD","party":"Dem","address":"541 W 600 N, American Fork, UT 84003","precinct":"25AF12","hd":"53","v_score":"0","decile":"2","lat":40.388570702821,"lng":-111.812070505755},{"id":"125850","name":"Dr. Mahlon Walsh IV","party":"Dem","address":"825 W 700 N, American Fork, UT 84003","precinct":"25AF12","hd":"53","v_score":"0","decile":"2","lat":40.390469703186,"lng":-111.819625601919},{"id":"126190","name":"Shane Huel","party":"Dem","address":"554 W 600 N, American Fork, UT 84003","precinct":"25AF12","hd":"53","v_score":"7.090117576","decile":"8","lat":40.388685294217,"lng":-111.81223020475},{"id":"126379","name":"Mrs. Lexi Abshire PhD","party":"Rep","address":"595 W 480 N, American Fork, UT 84003","precinct":"25AF12","hd":"53","v_score":"7.090117576","decile":"8","lat":40.386600688476,"lng":-111.814329048777},{"id":"129726","name":"Miss Alexandra Casper","party":"Rep","address":"635 N 350 W, American Fork, UT 84003","precinct":"25AF12","hd":"53","v_score":"0","decile":"2","lat":40.3895356209,"lng":-111.808055823618},{"id":"129884","name":"Miss Lonna Leannon","party":"","address":"819 W 700 N, American Fork, UT 84003","precinct":"25AF12","hd":"53","v_score":"4.214075011","decile":"7","lat":40.390469703177,"lng":-111.819497840052},{"id":"133165","name":"Huey Herman DVM","party":"","address":"561 W 680 N, American Fork, UT 84003","precinct":"25AF12","hd":"53","v_score":"0","decile":"2","lat":40.389908045851,"lng":-111.813852951245},{"id":"133380","name":"Elvie Barrows","party":"Rep","address":"748 W 450 N, American Fork, UT 84003","precinct":"25AF12","hd":"53","v_score":"0","decile":"2","lat":40.386946781522,"lng":-111.818557442685},{"id":"134004","name":"Jax Kiehn Jr.","party":"Rep","address":"513 N 730 W, American Fork, UT 84003","precinct":"25AF12","hd":"53","v_score":"0","decile":"2","lat":40.38770131851,"lng":-111.818032001071},{"id":"134946","name":"Wayne Kassulke-Effertz","party":"Rep","address":"535 Hindley Dr, American Fork, UT 84003","precinct":"25AF12","hd":"53","v_score":"28.87814237","decile":"10","lat":40.384060890907,"lng":-111.812284701928},{"id":"135198","name":"Roderick Lueilwitz","party":"","address":"507 W Pacific Court Cir, American Fork, UT 84003","precinct":"25AF12","hd":"53","v_score":"12.78400029","decile":"9","lat":40.382670922431,"lng":-111.811248542434},{"id":"135373","name":"Peyton Leannon PhD","party":"Dem","address":"535 W Pacific Court Cir, American Fork, UT 84003","precinct":"25AF12","hd":"53","v_score":"32.14895899","decile":"10","lat":40.382851180219,"lng":-111.811697436678},{"id":"135502","name":"Mr. Lemuel Kulas MD","party":"Rep","address":"437 N 480 W, American Fork, UT 84003","precinct":"25AF12","hd":"53","v_score":"8.280646305","decile":"8","lat":40.385561498891,"lng":-111.811070021446},{"id":"135521","name":"Jacquline Pollich","party":"","address":"495 N 650 W, American Fork, UT 84003","precinct":"25AF12","hd":"53","v_score":"2.744440783","decile":"5","lat":40.387349648466,"lng":-111.815656759692},{"id":"136327","name":"Norah Hessel PhD","party":"Dem","address":"536 W 550 N, American Fork, UT 84003","precinct":"25AF12","hd":"53","v_score":"11.86178988","decile":"9","lat":40.387920294325,"lng":-111.812508756483},{"id":"137251","name":"Miss Danica Hudson","party":"","address":"542 W 600 N, American Fork, UT 84003","precinct":"25AF12","hd":"53","v_score":"1.193887297","decile":"4","lat":40.388685294205,"lng":-111.812077504501},{"id":"138023","name":"Dr. Alex Christiansen","party":"Dem","address":"494 W 600 N, American Fork, UT 84003","precinct":"25AF12","hd":"53","v_score":"0","decile":"2","lat":40.388814121068,"lng":-111.811108922296},{"id":"138222","name":"Davin Stroman","party":"Rep","address":"485 N 680 W, American Fork, UT 84003","precinct":"25AF12","hd":"53","v_score":"11.37977487","decile":"9","lat":40.387200817121,"lng":-111.8166061534},{"id":"138446","name":"Dr. Jame Lebsack III","party":"","address":"464 N 520 W, American Fork, UT 84003","precinct":"25AF12","hd":"53","v_score":"2.315214949","decile":"5","lat":40.386403459214,"lng":-111.811859906086},{"id":"138879","name":"Annika Gleason","party":"","address":"372 N 480 W, American Fork, UT 84003","precinct":"25AF12","hd":"53","v_score":"20.44004036","decile":"10","lat":40.384763982277,"lng":-111.810938041793},{"id":"140466","name":"Savanna Deckow","party":"Rep","address":"373 N 480 W, American Fork, UT 84003","precinct":"25AF12","hd":"53","v_score":"0","decile":"2","lat":40.384765456604,"lng":-111.811088466741},{"id":"140786","name":"Mrs. Caryl Rau","party":"Dem","address":"369 N 450 W, American Fork, UT 84003","precinct":"25AF12","hd":"53","v_score":"15.00919004","decile":"9","lat":40.384660836889,"lng":-111.810097645519},{"id":"142137","name":"Sada Larkin","party":"Rep","address":"583 N 560 W, American Fork, UT 84003","precinct":"25AF12","hd":"53","v_score":"3.93832808","decile":"6","lat":40.388297617543,"lng":-111.812946390059},{"id":"142716","name":"Cristobal Cartwright","party":"","address":"624 W 460 N, American Fork, UT 84003","precinct":"25AF12","hd":"53","v_score":"3.781490609","decile":"6","lat":40.386426294668,"lng":-111.814767350858},{"id":"143632","name":"Lorin Hagenes","party":"Dem","address":"758 W 600 N, American Fork, UT 84003","precinct":"25AF12","hd":"53","v_score":"1.193887297","decile":"4","lat":40.38931721247,"lng":-111.81840459674},{"id":"143872","name":"Zaiden Kozey-Hermiston","party":"","address":"621 N 350 W, American Fork, UT 84003","precinct":"25AF12","hd":"53","v_score":"8.421194992","decile":"8","lat":40.389285846914,"lng":-111.808060046882},{"id":"144181","name":"Mrs. Aleen Kris DDS","party":"Dem","address":"692 W 410 N, American Fork, UT 84003","precinct":"25AF12","hd":"53","v_score":"2.315214949","decile":"5","lat":40.385937351053,"lng":-111.817420163827},{"id":"144261","name":"Avie Crist PhD","party":"Rep","address":"497 W 500 N, American Fork, UT 84003","precinct":"25AF12","hd":"53","v_score":"7.947838735","decile":"8","lat":40.387052626643,"lng":-111.810339416772},{"id":"144330","name":"Mr. Yandel Balistreri III","party":"Rep","address":"479 N 400 W, American Fork, UT 84003","precinct":"25AF12","hd":"53","v_score":"1.121327652","decile":"3","lat":40.386672790965,"lng":-111.809028533146},{"id":"144525","name":"Jenna Altenwerth","party":"Dem","address":"432 N 680 W, American Fork, UT 84003","precinct":"25AF12","hd":"53","v_score":"0","decile":"3","lat":40.386237448962,"lng":-111.81653270285},{"id":"144784","name":"Clearence Auer","party":"Rep","address":"727 W 600 N, American Fork, UT 84003","precinct":"25AF12","hd":"53","v_score":"34.43796862","decile":"10","lat":40.389053130985,"lng":-111.81783332362},{"id":"145278","name":"Mr. Ab Rath I","party":"","address":"476 N 520 W, American Fork, UT 84003","precinct":"25AF12","hd":"53","v_score":"5.40460374","decile":"7","lat":40.386625264413,"lng":-111.81186094253},{"id":"146319","name":"Mr. Fredrick Ziemann","party":"","address":"368 N 450 W, American Fork, UT 84003","precinct":"25AF12","hd":"53","v_score":"2.817000428","decile":"6","lat":40.384659018629,"lng":-111.80994722746},{"id":"146939","name":"Link Brakus PhD","party":"Dem","address":"356 N 480 W, American Fork, UT 84003","precinct":"25AF12","hd":"53","v_score":"0","decile":"3","lat":40.384565220163,"lng":-111.810941399287},{"id":"147535","name":"Gael Mertz","party":"","address":"380 N 450 W, American Fork, UT 84003","precinct":"25AF12","hd":"53","v_score":"32.96005954","decile":"10","lat":40.384830131633,"lng":-111.809943662583},{"id":"147736","name":"Ms. Devan Koch MD","party":"Dem","address":"416 W 600 N, American Fork, UT 84003","precinct":"25AF12","hd":"53","v_score":"22.70037759","decile":"10","lat":40.388945268181,"lng":-111.809714222969},{"id":"147737","name":"Elizbeth Bednar-Donnelly","party":"Rep","address":"416 W 600 N, American Fork, UT 84003","precinct":"25AF12","hd":"53","v_score":"19.74179771","decile":"10","lat":40.388945268181,"lng":-111.809714222969},{"id":"147960","name":"Mr. Derrell Stark","party":"Rep","address":"455 W 400 N, American Fork, UT 84003","precinct":"25AF12","hd":"53","v_score":"18.8876186","decile":"10","lat":40.385078917278,"lng":-111.810203375931},{"id":"148692","name":"Miss Dwan Spinka","party":"Rep","address":"581 N 420 W, American Fork, UT 84003","precinct":"25AF12","hd":"53","v_score":"0","decile":"3","lat":40.3885269863,"lng":-111.809893134092},{"id":"148928","name":"Erlene Smitham","party":"","address":"508 W 400 N, American Fork, UT 84003","precinct":"25AF12","hd":"53","v_score":"17.63496236","decile":"9","lat":40.385217302009,"lng":-111.811774997737},{"id":"149183","name":"Lizbeth Fisher","party":"","address":"380 N 450 W, American Fork, UT 84003","precinct":"25AF12","hd":"53","v_score":"32.96005954","decile":"10","lat":40.384830131633,"lng":-111.809943662583},{"id":"149553","name":"Dianna Lehner","party":"Dem","address":"506 Hindley Dr, American Fork, UT 84003","precinct":"25AF12","hd":"53","v_score":"3.93832808","decile":"6","lat":40.383941199692,"lng":-111.811382150518},{"id":"149582","name":"Dustyn Price","party":"Rep","address":"365 Clifton Ave, American Fork, UT 84003","precinct":"25AF12","hd":"53","v_score":"8.089418188","decile":"8","lat":40.38796770261,"lng":-111.808436424867},{"id":"149677","name":"Jamir Swift","party":"","address":"506 Hindley Dr, American Fork, UT 84003","precinct":"25AF12","hd":"53","v_score":"3.781490609","decile":"6","lat":40.383941199692,"lng":-111.811382150518},{"id":"150426","name":"Masao Yost-Stehr","party":"","address":"751 W 600 N, American Fork, UT 84003","precinct":"25AF12","hd":"53","v_score":"18.21751068","decile":"10","lat":40.389098986835,"lng":-111.81819097821},{"id":"150623","name":"Dr. Tyrese Jacobson Jr.","party":"","address":"441 N 520 W, American Fork, UT 84003","precinct":"25AF12","hd":"53","v_score":"2.587603312","decile":"5","lat":40.385959440957,"lng":-111.812008272661},{"id":"150631","name":"Carry Haag DDS","party":"","address":"571 N 650 W, American Fork, UT 84003","precinct":"25AF12","hd":"53","v_score":"5.40460374","decile":"7","lat":40.388243169949,"lng":-111.81558582722},{"id":"150730","name":"Shavonne Orn","party":"","address":"682 N 690 W, American Fork, UT 84003","precinct":"25AF12","hd":"53","v_score":"29.24810706","decile":"10","lat":40.390234047426,"lng":-111.816664468644},{"id":"151057","name":"Edwin O'Connell","party":"Dem","address":"578 W 680 N, American Fork, UT 84003","precinct":"25AF12","hd":"53","v_score":"0","decile":"3","lat":40.390023998063,"lng":-111.813985304335},{"id":"151430","name":"Lucian Hirthe-DuBuque","party":"","address":"553 W Pacific Court Cir, American Fork, UT 84003","precinct":"25AF12","hd":"53","v_score":"2.315214949","decile":"5","lat":40.382967060225,"lng":-111.811986011549},{"id":"151875","name":"Olene McLaughlin DDS","party":"Rep","address":"471 W Pacific Court Cir, American Fork, UT 84003","precinct":"25AF12","hd":"53","v_score":"7.650280567","decile":"8","lat":40.382439162418,"lng":-111.810671392692},{"id":"151906","name":"Velda Nienow","party":"Dem","address":"511 N 780 W, American Fork, UT 84003","precinct":"25AF12","hd":"53","v_score":"15.09172736","decile":"9","lat":40.388103100808,"lng":-111.81911654216},{"id":"152166","name":"Aliana Harvey","party":"Dem","address":"385 N 400 W, American Fork, UT 84003","precinct":"25AF12","hd":"53","v_score":"32.56038695","decile":"10","lat":40.38480153786,"lng":-111.809043629639},{"id":"152450","name":"King Cruickshank Sr.","party":"","address":"682 N 420 W, American Fork, UT 84003","precinct":"25AF12","hd":"53","v_score":"22.70037759","decile":"10","lat":40.390319329386,"lng":-111.809758273536},{"id":"152451","name":"Lurena Eichmann","party":"Dem","address":"682 N 420 W, American Fork, UT 84003","precinct":"25AF12","hd":"53","v_score":"22.70037759","decile":"10","lat":40.390319329386,"lng":-111.809758273536},{"id":"152472","name":"Queenie Senger","party":"Dem","address":"407 N 580 W, American Fork, UT 84003","precinct":"25AF12","hd":"53","v_score":"28.31867802","decile":"10","lat":40.385300668385,"lng":-111.814449940362},{"id":"152474","name":"Ms. Nanci Breitenberg DVM","party":"Rep","address":"654 N 420 W, American Fork, UT 84003","precinct":"25AF12","hd":"53","v_score":"5.40460374","decile":"7","lat":40.389850640268,"lng":-111.809753466531},{"id":"152852","name":"Velma Smitham","party":"","address":"681 W 410 N, American Fork, UT 84003","precinct":"25AF12","hd":"53","v_score":"5.40460374","decile":"7","lat":40.385802672888,"lng":-111.817403303989},{"id":"152864","name":"Sage Beier DVM","party":"","address":"531 N 420 W, American Fork, UT 84003","precinct":"25AF12","hd":"53","v_score":"4.210716443","decile":"7","lat":40.387680859448,"lng":-111.809890986674},{"id":"153162","name":"Adrien Kertzmann-Mohr","party":"Dem","address":"653 N 350 W, American Fork, UT 84003","precinct":"25AF12","hd":"53","v_score":"3.93832808","decile":"6","lat":40.389856758882,"lng":-111.808050393707},{"id":"153164","name":"Wellington VonRueden","party":"","address":"678 N 690 W, American Fork, UT 84003","precinct":"25AF12","hd":"53","v_score":"16.5882719","decile":"9","lat":40.390172360516,"lng":-111.816695576784},{"id":"153267","name":"Daphne Homenick","party":"","address":"455 N 400 W, American Fork, UT 84003","precinct":"25AF12","hd":"53","v_score":"1.193887297","decile":"4","lat":40.386209343645,"lng":-111.809031650565},{"id":"153425","name":"Mrs. Waneta Miller","party":"","address":"556 N 490 West Cir, American Fork, UT 84003","precinct":"25AF12","hd":"53","v_score":"2.315214949","decile":"5","lat":40.387568803622,"lng":-111.811029195826},{"id":"153426","name":"Deandre O'Connell","party":"Rep","address":"556 N 490 West Cir, American Fork, UT 84003","precinct":"25AF12","hd":"53","v_score":"3.93832808","decile":"6","lat":40.387568803622,"lng":-111.811029195826},{"id":"153724","name":"Kathern Franecki","party":"Rep","address":"383 N 400 W, American Fork, UT 84003","precinct":"25AF12","hd":"53","v_score":"21.60209591","decile":"10","lat":40.384765706686,"lng":-111.809044162845},{"id":"154289","name":"Leamon Spencer PhD","party":"Rep","address":"681 N 350 W, American Fork, UT 84003","precinct":"25AF12","hd":"53","v_score":"16.5882719","decile":"9","lat":40.390356306855,"lng":-111.808041947179},{"id":"154973","name":"Bertram Beahan","party":"Rep","address":"372 N 480 W, American Fork, UT 84003","precinct":"25AF12","hd":"53","v_score":"21.56136802","decile":"10","lat":40.384763982277,"lng":-111.810938041793},{"id":"156432","name":"Claudius Luettgen","party":"Dem","address":"659 N 600 W, American Fork, UT 84003","precinct":"25AF12","hd":"53","v_score":"5.40460374","decile":"7","lat":40.389749667988,"lng":-111.814354251469},{"id":"156506","name":"Texie Kuhn","party":"","address":"511 N 780 W, American Fork, UT 84003","precinct":"25AF12","hd":"53","v_score":"15.09172736","decile":"9","lat":40.388103100808,"lng":-111.81911654216},{"id":"156576","name":"Shelby Kemmer DDS","party":"Dem","address":"507 W Pacific Court Cir, American Fork, UT 84003","precinct":"25AF12","hd":"53","v_score":"4.210716443","decile":"7","lat":40.382670922431,"lng":-111.811248542434},{"id":"157202","name":"Deneen Lubowitz","party":"","address":"428 N 680 W, American Fork, UT 84003","precinct":"25AF12","hd":"53","v_score":"14.25581744","decile":"9","lat":40.386163881273,"lng":-111.81653860401},{"id":"157296","name":"Erin Fritsch","party":"Dem","address":"573 W 480 N, American Fork, UT 84003","precinct":"25AF12","hd":"53","v_score":"3.781490609","decile":"6","lat":40.386602408684,"lng":-111.814135523694},{"id":"157370","name":"Dr. Ellwood Prohaska PhD","party":"","address":"627 N 650 W, American Fork, UT 84003","precinct":"25AF12","hd":"53","v_score":"6.74007049","decile":"8","lat":40.38922487011,"lng":-111.815502415914},{"id":"157713","name":"Harland Hackett","party":"Rep","address":"448 N 600 W, American Fork, UT 84003","precinct":"25AF12","hd":"53","v_score":"2.744440783","decile":"6","lat":40.386022200114,"lng":-111.814318266794},{"id":"157724","name":"Penelope Kohler","party":"Rep","address":"455 N 400 W, American Fork, UT 84003","precinct":"25AF12","hd":"53","v_score":"0","decile":"3","lat":40.386209343645,"lng":-111.809031650565},{"id":"158213","name":"Isa Ruecker","party":"","address":"395 W Clifton Ave, American Fork, UT 84003","precinct":"25AF12","hd":"53","v_score":"5.287675778","decile":"7","lat":40.387967702622,"lng":-111.808601129858},{"id":"159968","name":"Frazier Stiedemann","party":"","address":"613 N 600 W, American Fork, UT 84003","precinct":"25AF12","hd":"53","v_score":"5.40460374","decile":"7","lat":40.389077598544,"lng":-111.814583257194},{"id":"160042","name":"Luke Cole","party":"","address":"509 W Pacific Court Cir, American Fork, UT 84003","precinct":"25AF12","hd":"53","v_score":"8.284004873","decile":"8","lat":40.382683797987,"lng":-111.811280606309},{"id":"160340","name":"Attie Kautzer-Rosenbaum","party":"","address":"597 W 680 N, American Fork, UT 84003","precinct":"25AF12","hd":"53","v_score":"10.67330764","decile":"9","lat":40.389910788087,"lng":-111.814121688373},{"id":"161141","name":"Harden Bartell","party":"Dem","address":"387 N 520 W, American Fork, UT 84003","precinct":"25AF12","hd":"53","v_score":"11.23922619","decile":"9","lat":40.384979272871,"lng":-111.812005424947},{"id":"161318","name":"Sarai Corwin-Goyette","party":"","address":"485 N 680 W, American Fork, UT 84003","precinct":"25AF12","hd":"53","v_score":"11.37977487","decile":"9","lat":40.387200817121,"lng":-111.8166061534},{"id":"161325","name":"Dr. Sydnee Howell","party":"Dem","address":"371 W 600 N, American Fork, UT 84003","precinct":"25AF12","hd":"53","v_score":"3.93832808","decile":"6","lat":40.388824247147,"lng":-111.809062593294},{"id":"161478","name":"Ezzard Collins","party":"Dem","address":"541 W 600 N, American Fork, UT 84003","precinct":"25AF12","hd":"53","v_score":"9.682978083","decile":"8","lat":40.388570702821,"lng":-111.812070505755},{"id":"161948","name":"Dr. Albina Runolfsson DVM","party":"Rep","address":"436 N 480 W, American Fork, UT 84003","precinct":"25AF12","hd":"53","v_score":"22.70037759","decile":"10","lat":40.38555897472,"lng":-111.810919617573},{"id":"162165","name":"Dr. Jerry Murray","party":"Rep","address":"485 W Pacific Court Cir, American Fork, UT 84003","precinct":"25AF12","hd":"53","v_score":"5.40460374","decile":"7","lat":40.382529291312,"lng":-111.810895839814},{"id":"162352","name":"Dr. Tex Ziemann V","party":"","address":"436 N 480 W, American Fork, UT 84003","precinct":"25AF12","hd":"53","v_score":"25.80307694","decile":"10","lat":40.38555897472,"lng":-111.810919617573},{"id":"162651","name":"Thurston Dickinson","party":"Dem","address":"385 N 400 W, American Fork, UT 84003","precinct":"25AF12","hd":"53","v_score":"2.315214949","decile":"5","lat":40.38480153786,"lng":-111.809043629639},{"id":"162828","name":"Nealie Brakus","party":"Rep","address":"655 N 420 W, American Fork, UT 84003","precinct":"25AF12","hd":"53","v_score":"1.121327652","decile":"3","lat":40.389849745126,"lng":-111.809903910678},{"id":"163314","name":"Seymour Runolfsson","party":"Dem","address":"428 N 680 W, American Fork, UT 84003","precinct":"25AF12","hd":"53","v_score":"17.19872503","decile":"9","lat":40.386163881273,"lng":-111.81653860401},{"id":"163465","name":"Cornell Watsica-Sanford","party":"Rep","address":"583 N 560 W, American Fork, UT 84003","precinct":"25AF12","hd":"53","v_score":"5.40460374","decile":"7","lat":40.388297617543,"lng":-111.812946390059},{"id":"163485","name":"Adaline Hayes","party":"Rep","address":"587 W 580 N, American Fork, UT 84003","precinct":"25AF12","hd":"53","v_score":"19.05886091","decile":"10","lat":40.388059284462,"lng":-111.814288930616},{"id":"164155","name":"Dannie Klein","party":"Rep","address":"597 W 680 N, Apt 1, American Fork, UT 84003","precinct":"25AF12","hd":"53","v_score":"0","decile":"3","lat":40.389910788087,"lng":-111.814121688373},{"id":"164610","name":"Latosha Durgan DDS","party":"Dem","address":"539 W 600 N, American Fork, UT 84003","precinct":"25AF12","hd":"53","v_score":"5.40460374","decile":"7","lat":40.388570702819,"lng":-111.812045691965},{"id":"164794","name":"Arizona Gislason","party":"","address":"596 W 680 N, American Fork, UT 84003","precinct":"25AF12","hd":"53","v_score":"9.830961897","decile":"8","lat":40.390025369181,"lng":-111.814119672898},{"id":"165019","name":"Jaleel Lowe","party":"Rep","address":"502 N 650 W, American Fork, UT 84003","precinct":"25AF12","hd":"53","v_score":"1.193887297","decile":"4","lat":40.387584804248,"lng":-111.815488551234},{"id":"165804","name":"Ms. Santa Ziemann","party":"","address":"533 N 490 West Cir, American Fork, UT 84003","precinct":"25AF12","hd":"53","v_score":"3.781490609","decile":"6","lat":40.387390477469,"lng":-111.811176775711},{"id":"165855","name":"Kasie Mosciski","party":"","address":"589 W 630 N, American Fork, UT 84003","precinct":"25AF12","hd":"53","v_score":"5.191257514","decile":"7","lat":40.389159158134,"lng":-111.814280104517},{"id":"165986","name":"Geoff VonRueden","party":"","address":"443 N 600 W, American Fork, UT 84003","precinct":"25AF12","hd":"53","v_score":"28.39752036","decile":"10","lat":40.385933138924,"lng":-111.814423628074},{"id":"166261","name":"Dr. Farah Pouros","party":"Rep","address":"546 Hindley Dr, American Fork, UT 84003","precinct":"25AF12","hd":"53","v_score":"8.421194992","decile":"8","lat":40.38420010391,"lng":-111.812325067023},{"id":"166279","name":"Eula Bernier","party":"Dem","address":"481 N 400 W, American Fork, UT 84003","precinct":"25AF12","hd":"53","v_score":"16.2066738","decile":"9","lat":40.386711411575,"lng":-111.809028273361},{"id":"167519","name":"Edith Ruecker","party":"Rep","address":"369 N 450 W, American Fork, UT 84003","precinct":"25AF12","hd":"53","v_score":"15.00919004","decile":"9","lat":40.384660836889,"lng":-111.810097645519},{"id":"168173","name":"Tyra Abernathy","party":"","address":"528 Hindley Dr, American Fork, UT 84003","precinct":"25AF12","hd":"53","v_score":"14.58356067","decile":"9","lat":40.384140267125,"lng":-111.812149076542},{"id":"168222","name":"Joey Thiel-Brekke","party":"","address":"443 N 600 W, American Fork, UT 84003","precinct":"25AF12","hd":"53","v_score":"18.39620879","decile":"10","lat":40.385933138924,"lng":-111.814423628074},{"id":"168405","name":"Dr. Mathews Jacobson DDS","party":"Rep","address":"566 N 780 W, American Fork, UT 84003","precinct":"25AF12","hd":"53","v_score":"21.23410193","decile":"10","lat":40.388872042339,"lng":-111.818834356947},{"id":"169163","name":"Kim Kuvalis-Wilkinson","party":"","address":"682 N 690 W, American Fork, UT 84003","precinct":"25AF12","hd":"53","v_score":"31.79134205","decile":"10","lat":40.390234047426,"lng":-111.816664468644},{"id":"169202","name":"Colon White","party":"","address":"529 N 780 W, American Fork, UT 84003","precinct":"25AF12","hd":"53","v_score":"37.38087621","decile":"10","lat":40.388354982117,"lng":-111.819073798635},{"id":"169943","name":"Joseluis Mohr","party":"Rep","address":"455 W 400 N, American Fork, UT 84003","precinct":"25AF12","hd":"53","v_score":"0","decile":"3","lat":40.385078917278,"lng":-111.810203375931},{"id":"169985","name":"Rosa Hills","party":"Dem","address":"394 N 580 W, American Fork, UT 84003","precinct":"25AF12","hd":"53","v_score":"8.280646305","decile":"8","lat":40.385187775688,"lng":-111.814360737625},{"id":"170589","name":"Gussie Beatty","party":"","address":"345 N 450 W, American Fork, UT 84003","precinct":"25AF12","hd":"53","v_score":"1.121327652","decile":"3","lat":40.384318610881,"lng":-111.810104775272},{"id":"170870","name":"Iyanna Gislason","party":"Dem","address":"477 N 520 W, American Fork, UT 84003","precinct":"25AF12","hd":"53","v_score":"3.781490609","decile":"6","lat":40.386624856553,"lng":-111.812011381992},{"id":"171476","name":"Whit Tremblay","party":"Dem","address":"593 W 630 N, American Fork, UT 84003","precinct":"25AF12","hd":"53","v_score":"11.30205234","decile":"9","lat":40.389170756618,"lng":-111.814338821813},{"id":"171920","name":"Georgianna Stracke-Gorczany","party":"Rep","address":"554 W 600 N, American Fork, UT 84003","precinct":"25AF12","hd":"53","v_score":"19.77056398","decile":"10","lat":40.388685294217,"lng":-111.81223020475},{"id":"172014","name":"Ms. Alisha Kovacek","party":"Rep","address":"472 N 680 W, American Fork, UT 84003","precinct":"25AF12","hd":"53","v_score":"2.315214949","decile":"5","lat":40.386973125852,"lng":-111.816473691243},{"id":"172018","name":"Mrs. Shonda Leffler MD","party":"Rep","address":"751 W 600 N, American Fork, UT 84003","precinct":"25AF12","hd":"53","v_score":"18.21751068","decile":"10","lat":40.389098986835,"lng":-111.81819097821},{"id":"172058","name":"Birdella Legros-West","party":"Rep","address":"681 N 350 W, American Fork, UT 84003","precinct":"25AF12","hd":"53","v_score":"8.284004873","decile":"8","lat":40.390356306855,"lng":-111.808041947179},{"id":"172254","name":"Mr. Austen Heidenreich IV","party":"Dem","address":"388 N 520 W, American Fork, UT 84003","precinct":"25AF12","hd":"53","v_score":"1.623113131","decile":"5","lat":40.384999963637,"lng":-111.811854887123},{"id":"172305","name":"Rustin Hickle","party":"Dem","address":"624 W 460 N, American Fork, UT 84003","precinct":"25AF12","hd":"53","v_score":"3.93832808","decile":"6","lat":40.386426294668,"lng":-111.814767350858},{"id":"173170","name":"Zaniyah Harvey","party":"Rep","address":"354 N 520 W, American Fork, UT 84003","precinct":"25AF12","hd":"53","v_score":"3.781490609","decile":"6","lat":40.384641154451,"lng":-111.811856595785},{"id":"173334","name":"Florene Steuber","party":"","address":"595 W 500 N, American Fork, UT 84003","precinct":"25AF12","hd":"53","v_score":"1.121327652","decile":"3","lat":40.387046994499,"lng":-111.814173664136},{"id":"173728","name":"Maximiliano Nikolaus","party":"","address":"579 W 580 N, American Fork, UT 84003","precinct":"25AF12","hd":"53","v_score":"17.55242504","decile":"9","lat":40.387980423755,"lng":-111.8141500915},{"id":"174156","name":"Cherish Reinger PhD","party":"Rep","address":"344 N 450 W, American Fork, UT 84003","precinct":"25AF12","hd":"53","v_score":"1.121327652","decile":"3","lat":40.38431679262,"lng":-111.809954357212},{"id":"174266","name":"Rossie Schaden","party":"Dem","address":"449 N 680 W, American Fork, UT 84003","precinct":"25AF12","hd":"53","v_score":"8.216702423","decile":"8","lat":40.38653870792,"lng":-111.816659263847},