[{"id":"5110","name":"Andreas Farrell","party":"Rep","address":"656 S Mayor Place Dr, American Fork, UT 84003","precinct":"25AF25","hd":"56","v_score":"6.814370645","decile":"8","lat":40.36345948642,"lng":-111.78106703585},{"id":"6313","name":"Jacoby Wehner-Towne","party":"Dem","address":"778 S 860 E, Unit C217, American Fork, UT 84003","precinct":"25AF25","hd":"56","v_score":"0","decile":"1","lat":40.361991041943,"lng":-111.77434841011},{"id":"6466","name":"Serina Shields","party":"Rep","address":"656 S Academy Dr, American Fork, UT 84003","precinct":"25AF25","hd":"56","v_score":"1.121327652","decile":"3","lat":40.363361031082,"lng":-111.781785404129},{"id":"9872","name":"Arvil Terry","party":"","address":"645 S Academy Dr, American Fork, UT 84003","precinct":"25AF25","hd":"56","v_score":"2.315214949","decile":"5","lat":40.363519812619,"lng":-111.781633966409},{"id":"10597","name":"Mylee Friesen","party":"Dem","address":"778 S 860 E, Unit B401, American Fork, UT 84003","precinct":"25AF25","hd":"56","v_score":"17.63496236","decile":"9","lat":40.361991041943,"lng":-111.77434841011},{"id":"11999","name":"Wilber Wintheiser","party":"Rep","address":"675 S Mayor Place Dr, American Fork, UT 84003","precinct":"25AF25","hd":"56","v_score":"0","decile":"1","lat":40.363354832818,"lng":-111.780916643183},{"id":"12447","name":"Erlinda Moore","party":"","address":"635 E Mayor Place Dr, American Fork, UT 84003","precinct":"25AF25","hd":"56","v_score":"17.82548628","decile":"10","lat":40.363935294655,"lng":-111.781430103334},{"id":"14020","name":"Isabella Yundt","party":"","address":"625 E Mayor Place Dr, American Fork, UT 84003","precinct":"25AF25","hd":"56","v_score":"2.315214949","decile":"5","lat":40.36393529466,"lng":-111.781487632317},{"id":"14884","name":"Lou Rogahn V","party":"Dem","address":"778 S 860 E, Unit F7, American Fork, UT 84003","precinct":"25AF25","hd":"56","v_score":"9.207031979","decile":"8","lat":40.361991041943,"lng":-111.77434841011},{"id":"16368","name":"Mrs. Yareli Ernser","party":"Rep","address":"778 S 860 E, Unit C423, American Fork, UT 84003","precinct":"25AF25","hd":"56","v_score":"2.315214949","decile":"5","lat":40.361991041943,"lng":-111.77434841011},{"id":"18698","name":"Ms. Winona Koepp","party":"Rep","address":"778 S 860 E, Unit C303, American Fork, UT 84003","precinct":"25AF25","hd":"56","v_score":"32.25002153","decile":"10","lat":40.361991041943,"lng":-111.77434841011},{"id":"19420","name":"Mr. German Klocko","party":"Dem","address":"632 E Bishop Ln, American Fork, UT 84003","precinct":"25AF25","hd":"56","v_score":"2.817000428","decile":"6","lat":40.363103637786,"lng":-111.781214043735},{"id":"24961","name":"Dani Lockman","party":"Rep","address":"800 E 620 S, Unit A514, American Fork, UT 84003","precinct":"25AF25","hd":"56","v_score":"9.559092618","decile":"8","lat":40.392972282544,"lng":-111.812620384612},{"id":"25130","name":"Delora Ferry","party":"Rep","address":"655 S Mayor Place Dr, American Fork, UT 84003","precinct":"25AF25","hd":"56","v_score":"9.772950527","decile":"8","lat":40.363471114585,"lng":-111.780916643168},{"id":"25423","name":"Mario Auer","party":"","address":"778 S 860 E, Unit B418, American Fork, UT 84003","precinct":"25AF25","hd":"56","v_score":"5.40460374","decile":"7","lat":40.361991041943,"lng":-111.77434841011},{"id":"25591","name":"Jaxen Brakus Jr.","party":"","address":"834 S 500 E, Apt 303, American Fork, UT 84003","precinct":"25AF25","hd":"56","v_score":"4.210478549","decile":"7","lat":40.366954756341,"lng":-111.776824639214},{"id":"26716","name":"Almus Brakus","party":"Dem","address":"778 S 860 E, Unit B420, American Fork, UT 84003","precinct":"25AF25","hd":"56","v_score":"2.315214949","decile":"5","lat":40.361991041943,"lng":-111.77434841011},{"id":"28165","name":"Mrs. Lynne Orn PhD","party":"Rep","address":"644 E Bishop Ln, American Fork, UT 84003","precinct":"25AF25","hd":"56","v_score":"4.465184987","decile":"7","lat":40.363100703313,"lng":-111.780916643909},{"id":"31207","name":"Dr. Belle Littel","party":"Dem","address":"778 S 860 E, Unit B324, American Fork, UT 84003","precinct":"25AF25","hd":"56","v_score":"2.315214949","decile":"5","lat":40.361991041943,"lng":-111.77434841011},{"id":"31355","name":"Dr. Richie Moore PhD","party":"Dem","address":"621 E Mayor Place Dr, American Fork, UT 84003","precinct":"25AF25","hd":"56","v_score":"0","decile":"1","lat":40.363935294661,"lng":-111.78151064391},{"id":"33148","name":"Jeb Witting","party":"","address":"758 S Auto Mall Dr, Unit 2, American Fork, UT 84003","precinct":"25AF25","hd":"56","v_score":"5.273794831","decile":"7","lat":40.361822193988,"lng":-111.791631136186},{"id":"33309","name":"Mrs. Sydni Hermiston DVM","party":"Dem","address":"778 S 860 E, Unit C409, American Fork, UT 84003","precinct":"25AF25","hd":"56","v_score":"4.210716443","decile":"7","lat":40.361991041943,"lng":-111.77434841011},{"id":"33330","name":"Petra Douglas DDS","party":"","address":"635 E Mayor Place Dr, American Fork, UT 84003","precinct":"25AF25","hd":"56","v_score":"17.82548628","decile":"10","lat":40.363935294655,"lng":-111.781430103334},{"id":"33560","name":"Khloe Schuppe PhD","party":"","address":"778 S 860 E, Unit A211, American Fork, UT 84003","precinct":"25AF25","hd":"56","v_score":"0","decile":"1","lat":40.361991041943,"lng":-111.77434841011},{"id":"35142","name":"Lue Lehner","party":"","address":"778 S 860 E, Unit B405, American Fork, UT 84003","precinct":"25AF25","hd":"56","v_score":"8.347511332","decile":"8","lat":40.361991041943,"lng":-111.77434841011},{"id":"36773","name":"Tayler O'Hara","party":"Dem","address":"800 E 620 S, Unit A217, American Fork, UT 84003","precinct":"25AF25","hd":"56","v_score":"1.193887297","decile":"3","lat":40.392972282544,"lng":-111.812620384612},{"id":"37264","name":"Ms. Keshia Weissnat","party":"Dem","address":"675 S Mayor Place Dr, American Fork, UT 84003","precinct":"25AF25","hd":"56","v_score":"3.781490609","decile":"6","lat":40.363354832818,"lng":-111.780916643183},{"id":"37510","name":"Shandra Luettgen MD","party":"","address":"778 S 860 E, Unit A113, American Fork, UT 84003","precinct":"25AF25","hd":"56","v_score":"5.61909958","decile":"7","lat":40.361991041943,"lng":-111.77434841011},{"id":"37951","name":"Dr. Verna Brekke II","party":"Rep","address":"778 S 860 E, Unit B420, American Fork, UT 84003","precinct":"25AF25","hd":"56","v_score":"18.1333335","decile":"10","lat":40.361991041943,"lng":-111.77434841011},{"id":"38077","name":"Mrs. Evita Bergstrom","party":"","address":"675 S Mayor Place Dr, American Fork, UT 84003","precinct":"25AF25","hd":"56","v_score":"1.121327652","decile":"3","lat":40.363354832818,"lng":-111.780916643183},{"id":"38084","name":"Myra Lemke-Watsica","party":"Rep","address":"625 E Mayor Place Dr, American Fork, UT 84003","precinct":"25AF25","hd":"56","v_score":"11.56055976","decile":"9","lat":40.36393529466,"lng":-111.781487632317},{"id":"38426","name":"Glendora Kautzer MD","party":"Rep","address":"778 S 860 E, Unit A401, American Fork, UT 84003","precinct":"25AF25","hd":"56","v_score":"6.881235673","decile":"8","lat":40.361991041943,"lng":-111.77434841011},{"id":"38723","name":"Bluford Smith","party":"","address":"778 S 860 E, Unit B306, American Fork, UT 84003","precinct":"25AF25","hd":"56","v_score":"2.587603312","decile":"5","lat":40.361991041943,"lng":-111.77434841011},{"id":"40485","name":"Vella Ritchie DDS","party":"Rep","address":"778 S 860 E, Unit E207, American Fork, UT 84003","precinct":"25AF25","hd":"56","v_score":"2.315214949","decile":"5","lat":40.361991041943,"lng":-111.77434841011},{"id":"42105","name":"Phillis Beahan PhD","party":"","address":"778 S 860 E, Unit C307, American Fork, UT 84003","precinct":"25AF25","hd":"56","v_score":"2.315214949","decile":"5","lat":40.361991041943,"lng":-111.77434841011},{"id":"42457","name":"Carlyn Stokes","party":"","address":"778 S 860 E, Unit D310, American Fork, UT 84003","precinct":"25AF25","hd":"56","v_score":"10.78919041","decile":"9","lat":40.361991041943,"lng":-111.77434841011},{"id":"43183","name":"Carma Gutmann","party":"Dem","address":"778 S 860 E, Unit A107, American Fork, UT 84003","precinct":"25AF25","hd":"56","v_score":"13.97430753","decile":"9","lat":40.361991041943,"lng":-111.77434841011},{"id":"43400","name":"Dr. Gilberto Bosco","party":"Rep","address":"778 S 860 E, Unit E313, American Fork, UT 84003","precinct":"25AF25","hd":"56","v_score":"8.3060973","decile":"8","lat":40.361991041943,"lng":-111.77434841011},{"id":"44959","name":"Evette Reinger","party":"","address":"778 S 860 E, Unit B412, American Fork, UT 84003","precinct":"25AF25","hd":"56","v_score":"3.781490609","decile":"6","lat":40.361991041943,"lng":-111.77434841011},{"id":"45143","name":"Tobie Koch","party":"Dem","address":"778 S 860 E, Unit C215, American Fork, UT 84003","precinct":"25AF25","hd":"56","v_score":"1.193887297","decile":"3","lat":40.361991041943,"lng":-111.77434841011},{"id":"45359","name":"Izaiah Kozey","party":"","address":"778 S 860 E, Unit C310, American Fork, UT 84003","precinct":"25AF25","hd":"56","v_score":"2.315214949","decile":"5","lat":40.361991041943,"lng":-111.77434841011},{"id":"46080","name":"Onnie Weissnat","party":"Rep","address":"778 S 860 E, Unit A401, American Fork, UT 84003","precinct":"25AF25","hd":"56","v_score":"7.282185415","decile":"8","lat":40.361991041943,"lng":-111.77434841011},{"id":"46784","name":"Gayle Collins","party":"","address":"778 S 860 E, Unit B115, American Fork, UT 84003","precinct":"25AF25","hd":"56","v_score":"1.121327652","decile":"3","lat":40.361991041943,"lng":-111.77434841011},{"id":"47191","name":"Manuela Bogisich","party":"Rep","address":"621 E Mayor Place Dr, American Fork, UT 84003","precinct":"25AF25","hd":"56","v_score":"0","decile":"1","lat":40.363935294661,"lng":-111.78151064391},{"id":"47608","name":"Benard Reichert","party":"Rep","address":"778 S 860 E, Unit C421, American Fork, UT 84003","precinct":"25AF25","hd":"56","v_score":"1.193887297","decile":"3","lat":40.361991041943,"lng":-111.77434841011},{"id":"48987","name":"Kamora Klocko","party":"Rep","address":"778 S 860 E, Unit A406, American Fork, UT 84003","precinct":"25AF25","hd":"56","v_score":"3.781490609","decile":"6","lat":40.361991041943,"lng":-111.77434841011},{"id":"49863","name":"Makhi Herman-Schaefer","party":"Dem","address":"778 S 860 E, Unit A211, American Fork, UT 84003","precinct":"25AF25","hd":"56","v_score":"2.315214949","decile":"5","lat":40.361991041943,"lng":-111.77434841011},{"id":"50240","name":"Laila Padberg","party":"Dem","address":"778 S 860 E, Unit C117, American Fork, UT 84003","precinct":"25AF25","hd":"56","v_score":"17.34384001","decile":"9","lat":40.361991041943,"lng":-111.77434841011},{"id":"50794","name":"Edie Tillman","party":"","address":"800 E 620 S, Unit B110, American Fork, UT 84003","precinct":"25AF25","hd":"56","v_score":"7.493443096","decile":"8","lat":40.392972282544,"lng":-111.812620384612},{"id":"54141","name":"Harvey Douglas","party":"","address":"800 E 620 S, Apt B-510p, American Fork, UT 84003","precinct":"25AF25","hd":"56","v_score":"10.32379155","decile":"9","lat":40.392972282544,"lng":-111.812620384612},{"id":"55362","name":"Domenica King PhD","party":"Dem","address":"5550 W 6400 N, American Fork, UT 84003","precinct":"25AF25","hd":"56","v_score":"11.02844566","decile":"9","lat":40.347688416133,"lng":-111.790174919537},{"id":"55579","name":"Ava Berge","party":"Rep","address":"778 S 860 E, Unit A107, American Fork, UT 84003","precinct":"25AF25","hd":"56","v_score":"11.02844566","decile":"9","lat":40.361991041943,"lng":-111.77434841011},{"id":"57880","name":"Dr. Efrain Gorczany DVM","party":"Dem","address":"778 S 860 E, Unit C123, American Fork, UT 84003","precinct":"25AF25","hd":"56","v_score":"0","decile":"1","lat":40.361991041943,"lng":-111.77434841011},{"id":"58801","name":"Arno Schumm","party":"","address":"778 S 860 E, Unit A219, American Fork, UT 84003","precinct":"25AF25","hd":"56","v_score":"2.315214949","decile":"5","lat":40.361991041943,"lng":-111.77434841011},{"id":"58916","name":"Jemal Romaguera","party":"Rep","address":"778 S 860 E, Unit A311, American Fork, UT 84003","precinct":"25AF25","hd":"56","v_score":"2.744440783","decile":"5","lat":40.361991041943,"lng":-111.77434841011},{"id":"60915","name":"Keshawn Skiles","party":"Dem","address":"778 S 860 E, Unit E207, American Fork, UT 84003","precinct":"25AF25","hd":"56","v_score":"2.315214949","decile":"5","lat":40.361991041943,"lng":-111.77434841011},{"id":"60926","name":"Mr. Danial Brekke","party":"Rep","address":"633 E Mayor Place Dr, American Fork, UT 84003","precinct":"25AF25","hd":"56","v_score":"3.93832808","decile":"6","lat":40.363935294656,"lng":-111.781441609131},{"id":"62927","name":"Johnny Dach","party":"","address":"778 S 860 E, Unit C115, American Fork, UT 84003","precinct":"25AF25","hd":"56","v_score":"2.315214949","decile":"5","lat":40.361991041943,"lng":-111.77434841011},{"id":"63181","name":"Mr. Ephraim Swaniawski MD","party":"","address":"800 E 620 S, Unit B130, American Fork, UT 84003","precinct":"25AF25","hd":"56","v_score":"4.639704383","decile":"7","lat":40.392972282544,"lng":-111.812620384612},{"id":"64144","name":"Brian Weissnat","party":"Dem","address":"638 E Bishop Ln, American Fork, UT 84003","precinct":"25AF25","hd":"56","v_score":"2.315214949","decile":"5","lat":40.363102479795,"lng":-111.78112661596},{"id":"64830","name":"Ms. Teri McClure","party":"Rep","address":"778 S 860 E, Unit D220, American Fork, UT 84003","precinct":"25AF25","hd":"56","v_score":"0","decile":"1","lat":40.361991041943,"lng":-111.77434841011},{"id":"66092","name":"Evans Stroman","party":"Dem","address":"778 S 860 E, Unit A220, American Fork, UT 84003","precinct":"25AF25","hd":"56","v_score":"4.064235245","decile":"6","lat":40.361991041943,"lng":-111.77434841011},{"id":"66298","name":"Oddie Hintz","party":"Rep","address":"778 S 860 E, Unit C320, American Fork, UT 84003","precinct":"25AF25","hd":"56","v_score":"1.121327652","decile":"3","lat":40.361991041943,"lng":-111.77434841011},{"id":"67442","name":"Jonathon Boehm IV","party":"","address":"778 S 860 E, Unit A321, American Fork, UT 84003","precinct":"25AF25","hd":"56","v_score":"0","decile":"1","lat":40.361991041943,"lng":-111.77434841011},{"id":"68481","name":"Harley Lockman","party":"Rep","address":"778 S 860 E, Unit C117, American Fork, UT 84003","precinct":"25AF25","hd":"56","v_score":"9.527862242","decile":"8","lat":40.361991041943,"lng":-111.77434841011},{"id":"69220","name":"Flor Bogan","party":"Rep","address":"778 S 860 E, Unit A213, American Fork, UT 84003","precinct":"25AF25","hd":"56","v_score":"2.817000428","decile":"6","lat":40.361991041943,"lng":-111.77434841011},{"id":"69817","name":"Clay Mitchell-Trantow","party":"Dem","address":"800 E 620 S, Unit A114, American Fork, UT 84003","precinct":"25AF25","hd":"56","v_score":"0","decile":"1","lat":40.392972282544,"lng":-111.812620384612},{"id":"70042","name":"Gillian Rempel-Gutmann","party":"Dem","address":"800 E 620 S, Unit C114, American Fork, UT 84003","precinct":"25AF25","hd":"56","v_score":"0","decile":"1","lat":40.392972282544,"lng":-111.812620384612},{"id":"70054","name":"Christop Conn","party":"","address":"621 E Mayor Place Dr, American Fork, UT 84003","precinct":"25AF25","hd":"56","v_score":"1.121327652","decile":"3","lat":40.363935294661,"lng":-111.78151064391},{"id":"70803","name":"Lincoln Jast I","party":"Rep","address":"778 S 860 E, Unit D115, American Fork, UT 84003","precinct":"25AF25","hd":"56","v_score":"6.481563075","decile":"7","lat":40.361991041943,"lng":-111.77434841011},{"id":"71073","name":"Bernetta Rowe","party":"Dem","address":"778 S 860 E, Unit E206, American Fork, UT 84003","precinct":"25AF25","hd":"56","v_score":"3.93832808","decile":"6","lat":40.361991041943,"lng":-111.77434841011},{"id":"71304","name":"Dr. Vinson Mante DVM","party":"Rep","address":"664 S Academy Dr, American Fork, UT 84003","precinct":"25AF25","hd":"56","v_score":"3.93832808","decile":"6","lat":40.363297547808,"lng":-111.78178582179},{"id":"72790","name":"Corry Mohr","party":"","address":"778 S 860 E, Unit A205, American Fork, UT 84003","precinct":"25AF25","hd":"56","v_score":"3.93832808","decile":"6","lat":40.361991041943,"lng":-111.77434841011},{"id":"73156","name":"Finnegan Orn","party":"Dem","address":"642 S Academy Dr, American Fork, UT 84003","precinct":"25AF25","hd":"56","v_score":"2.315214949","decile":"5","lat":40.36347212681,"lng":-111.781784673222},{"id":"76168","name":"Adelynn Nolan","party":"Dem","address":"778 S 860 E, Unit D320, American Fork, UT 84003","precinct":"25AF25","hd":"56","v_score":"1.121327652","decile":"3","lat":40.361991041943,"lng":-111.77434841011},{"id":"76336","name":"Liana Hand","party":"","address":"778 S 860 E, Unit A105, American Fork, UT 84003","precinct":"25AF25","hd":"56","v_score":"1.193887297","decile":"3","lat":40.361991041943,"lng":-111.77434841011},{"id":"77145","name":"Urban Sporer-Rempel","party":"Dem","address":"800 E 620 S, Unit A504, American Fork, UT 84003","precinct":"25AF25","hd":"56","v_score":"2.315214949","decile":"5","lat":40.392972282544,"lng":-111.812620384612},{"id":"78862","name":"Jaydin Runolfsson","party":"","address":"643 S Mayor Place Dr, American Fork, UT 84003","precinct":"25AF25","hd":"56","v_score":"1.121327652","decile":"3","lat":40.363540883645,"lng":-111.780916643159},{"id":"80030","name":"Maverick Heaney","party":"Rep","address":"778 S 860 E, American Fork, UT 84003","precinct":"25AF25","hd":"56","v_score":"2.315214949","decile":"5","lat":40.361991041943,"lng":-111.77434841011},{"id":"80035","name":"Susie O'Connell DDS","party":"Rep","address":"778 S 860 E, Unit A306, American Fork, UT 84003","precinct":"25AF25","hd":"56","v_score":"2.315214949","decile":"5","lat":40.361991041943,"lng":-111.77434841011},{"id":"80129","name":"Branson Auer MD","party":"Dem","address":"778 S 860 E, Unit C406, American Fork, UT 84003","precinct":"25AF25","hd":"56","v_score":"12.08307454","decile":"9","lat":40.361991041943,"lng":-111.77434841011},{"id":"81086","name":"Vertie Dooley","party":"Rep","address":"778 S 860 E, Unit A421, American Fork, UT 84003","precinct":"25AF25","hd":"56","v_score":"2.817000428","decile":"6","lat":40.361991041943,"lng":-111.77434841011},{"id":"81237","name":"Verne Rodriguez-Dietrich","party":"Dem","address":"778 S 860 E, American Fork, UT 84003","precinct":"25AF25","hd":"56","v_score":"1.193887297","decile":"3","lat":40.361991041943,"lng":-111.77434841011},{"id":"82763","name":"Celine Von","party":"Dem","address":"800 E 620 S, Unit B217, American Fork, UT 84003","precinct":"25AF25","hd":"56","v_score":"2.817000428","decile":"6","lat":40.392972282544,"lng":-111.812620384612},{"id":"84114","name":"Jonnie Kemmer","party":"Dem","address":"800 E 620 S, Unit A414, American Fork, UT 84003","precinct":"25AF25","hd":"56","v_score":"1.623113131","decile":"5","lat":40.392972282544,"lng":-111.812620384612},{"id":"84824","name":"Hardie Robel","party":"","address":"778 S 860 E, Unit A406, American Fork, UT 84003","precinct":"25AF25","hd":"56","v_score":"1.193887297","decile":"3","lat":40.361991041943,"lng":-111.77434841011},{"id":"85239","name":"Sean Deckow","party":"","address":"778 S 860 E, Unit D422, American Fork, UT 84003","precinct":"25AF25","hd":"56","v_score":"2.817000428","decile":"6","lat":40.361991041943,"lng":-111.77434841011},{"id":"85448","name":"Floy Rolfson","party":"Rep","address":"800 E 620 S, Unit B318, American Fork, UT 84003","precinct":"25AF25","hd":"56","v_score":"12.59090169","decile":"9","lat":40.392972282544,"lng":-111.812620384612},{"id":"85534","name":"Queen Raynor DDS","party":"","address":"642 S Academy Dr, American Fork, UT 84003","precinct":"25AF25","hd":"56","v_score":"0","decile":"1","lat":40.36347212681,"lng":-111.781784673222},{"id":"86439","name":"Ouida Mertz","party":"Rep","address":"678 S Mayor Place Dr, American Fork, UT 84003","precinct":"25AF25","hd":"56","v_score":"0","decile":"1","lat":40.363331576476,"lng":-111.781067035866},{"id":"89878","name":"Ena Carter","party":"","address":"778 S 860 E, Unit A315, American Fork, UT 84003","precinct":"25AF25","hd":"56","v_score":"1.193887297","decile":"4","lat":40.361991041943,"lng":-111.77434841011},{"id":"90313","name":"Perri Kohler","party":"Rep","address":"778 S 860 E, Unit A421, American Fork, UT 84003","precinct":"25AF25","hd":"56","v_score":"0","decile":"1","lat":40.361991041943,"lng":-111.77434841011},{"id":"92568","name":"Zenas Sauer III","party":"Rep","address":"800 E 620 S, Unit B233, American Fork, UT 84003","precinct":"25AF25","hd":"56","v_score":"1.193887297","decile":"4","lat":40.392972282544,"lng":-111.812620384612},{"id":"93796","name":"Liddie Ullrich","party":"Dem","address":"648 S Academy Dr, American Fork, UT 84003","precinct":"25AF25","hd":"56","v_score":"0","decile":"1","lat":40.363424514355,"lng":-111.781784986468},{"id":"93949","name":"Signa Block","party":"","address":"778 S 860 E, Unit F5, American Fork, UT 84003","precinct":"25AF25","hd":"56","v_score":"2.817000428","decile":"6","lat":40.361991041943,"lng":-111.77434841011},{"id":"97747","name":"Audry Howe","party":"Rep","address":"778 S 860 E, Unit A101, American Fork, UT 84003","precinct":"25AF25","hd":"56","v_score":"2.817000428","decile":"6","lat":40.361991041943,"lng":-111.77434841011},{"id":"98105","name":"Christen Johnson DDS","party":"","address":"800 E 620 S, Unit 118, American Fork, UT 84003","precinct":"25AF25","hd":"56","v_score":"2.817000428","decile":"6","lat":40.392972282544,"lng":-111.812620384612},{"id":"100185","name":"Michael Tromp","party":"Dem","address":"800 E 620 S, Unit B512, American Fork, UT 84003","precinct":"25AF25","hd":"56","v_score":"0","decile":"1","lat":40.392972282544,"lng":-111.812620384612},{"id":"100725","name":"Virge Hagenes Jr.","party":"Dem","address":"632 E Bishop Ln, American Fork, UT 84003","precinct":"25AF25","hd":"56","v_score":"1.193887297","decile":"4","lat":40.363103637786,"lng":-111.781214043735},{"id":"101783","name":"Miss Leia Mayert DDS","party":"","address":"656 S Academy Dr, American Fork, UT 84003","precinct":"25AF25","hd":"56","v_score":"1.193887297","decile":"4","lat":40.363361031082,"lng":-111.781785404129},{"id":"104685","name":"Dr. Christene Hartmann DDS","party":"","address":"778 S 860 E, American Fork, UT 84003","precinct":"25AF25","hd":"56","v_score":"0","decile":"2","lat":40.361991041943,"lng":-111.77434841011},{"id":"104886","name":"Benny Zulauf","party":"","address":"778 S 860 E, Unit A321, American Fork, UT 84003","precinct":"25AF25","hd":"56","v_score":"0","decile":"2","lat":40.361991041943,"lng":-111.77434841011},{"id":"104942","name":"Makena Hammes-Langosh","party":"","address":"800 E 620 S, A-113, American Fork, UT 84003","precinct":"25AF25","hd":"56","v_score":"2.426006793","decile":"5","lat":40.392972282544,"lng":-111.812620384612},{"id":"105251","name":"Brooke Upton","party":"","address":"778 S 860 E, Unit C320, American Fork, UT 84003","precinct":"25AF25","hd":"56","v_score":"1.193887297","decile":"4","lat":40.361991041943,"lng":-111.77434841011},{"id":"106199","name":"Lula Altenwerth","party":"","address":"621 E Mayor Place Dr, American Fork, UT 84003","precinct":"25AF25","hd":"56","v_score":"1.193887297","decile":"4","lat":40.363935294661,"lng":-111.78151064391},{"id":"107063","name":"Otho Labadie","party":"","address":"778 S 860 E, Unit B424, American Fork, UT 84003","precinct":"25AF25","hd":"56","v_score":"1.193887297","decile":"4","lat":40.361991041943,"lng":-111.77434841011},{"id":"108984","name":"Bobbye Kassulke","party":"","address":"778 S 860 E, Unit B115, American Fork, UT 84003","precinct":"25AF25","hd":"56","v_score":"0","decile":"2","lat":40.361991041943,"lng":-111.77434841011},{"id":"109260","name":"Amos Batz","party":"Rep","address":"778 S 860 E, Unit A220, American Fork, UT 84003","precinct":"25AF25","hd":"56","v_score":"0","decile":"2","lat":40.361991041943,"lng":-111.77434841011},{"id":"110214","name":"Mardell Dietrich","party":"Dem","address":"800 E 620 S, Unit B508, American Fork, UT 84003","precinct":"25AF25","hd":"56","v_score":"1.193887297","decile":"4","lat":40.392972282544,"lng":-111.812620384612},{"id":"111165","name":"Lowell Bednar","party":"Dem","address":"778 S 860 E, Unit D121, American Fork, UT 84003","precinct":"25AF25","hd":"56","v_score":"1.193887297","decile":"4","lat":40.361991041943,"lng":-111.77434841011},{"id":"111552","name":"Sharon Kub-Brekke","party":"Rep","address":"800 E 620 S, Unit B114, American Fork, UT 84003","precinct":"25AF25","hd":"56","v_score":"0","decile":"2","lat":40.392972282544,"lng":-111.812620384612},{"id":"112055","name":"Graves Bechtelar Jr.","party":"","address":"778 S 860 E, Unit D417, American Fork, UT 84003","precinct":"25AF25","hd":"56","v_score":"0","decile":"2","lat":40.361991041943,"lng":-111.77434841011},{"id":"112473","name":"Lee Mills","party":"Rep","address":"677 S Academy Dr, American Fork, UT 84003","precinct":"25AF25","hd":"56","v_score":"0","decile":"2","lat":40.363312520297,"lng":-111.781635330201},{"id":"112655","name":"Mr. Zain Kirlin IV","party":"Dem","address":"778 S 860 E, Unit B211, American Fork, UT 84003","precinct":"25AF25","hd":"56","v_score":"1.193887297","decile":"4","lat":40.361991041943,"lng":-111.77434841011},{"id":"113311","name":"Jaeda Donnelly-Gerlach","party":"Dem","address":"778 S 860 E, Unit A221, American Fork, UT 84003","precinct":"25AF25","hd":"56","v_score":"0","decile":"2","lat":40.361991041943,"lng":-111.77434841011},{"id":"115229","name":"Ignatz Schmidt","party":"Dem","address":"778 S 860 E, Unit A403, American Fork, UT 84003","precinct":"25AF25","hd":"56","v_score":"1.193887297","decile":"4","lat":40.361991041943,"lng":-111.77434841011},{"id":"115314","name":"Wyman Yost-Lubowitz","party":"Rep","address":"778 S 860 E, Unit A307, American Fork, UT 84003","precinct":"25AF25","hd":"56","v_score":"4.069929862","decile":"7","lat":40.361991041943,"lng":-111.77434841011},{"id":"115532","name":"Dr. Omar Sauer Sr.","party":"Rep","address":"778 S 860 E, Unit C322, American Fork, UT 84003","precinct":"25AF25","hd":"56","v_score":"1.193887297","decile":"4","lat":40.361991041943,"lng":-111.77434841011},{"id":"115843","name":"Leandra Price","party":"","address":"778 S 860 E, Unit C423, American Fork, UT 84003","precinct":"25AF25","hd":"56","v_score":"0","decile":"2","lat":40.361991041943,"lng":-111.77434841011},{"id":"117295","name":"Merri Jerde","party":"","address":"778 S 860 E, Unit A201, American Fork, UT 84003","precinct":"25AF25","hd":"56","v_score":"1.193887297","decile":"4","lat":40.361991041943,"lng":-111.77434841011},{"id":"117296","name":"Hertha VonRueden DDS","party":"","address":"778 S 860 E, Unit A201, American Fork, UT 84003","precinct":"25AF25","hd":"56","v_score":"1.193887297","decile":"4","lat":40.361991041943,"lng":-111.77434841011},{"id":"117493","name":"Indiana Bailey","party":"","address":"778 S 860 E, Unit D223, American Fork, UT 84003","precinct":"25AF25","hd":"56","v_score":"0","decile":"2","lat":40.361991041943,"lng":-111.77434841011},{"id":"117494","name":"Gena Walker","party":"Rep","address":"778 S 860 E, Unit D223, American Fork, UT 84003","precinct":"25AF25","hd":"56","v_score":"0","decile":"2","lat":40.361991041943,"lng":-111.77434841011},{"id":"117977","name":"Aleta Greenholt","party":"Rep","address":"778 S 860 E, Unit B225, American Fork, UT 84003","precinct":"25AF25","hd":"56","v_score":"1.193887297","decile":"4","lat":40.361991041943,"lng":-111.77434841011},{"id":"118405","name":"Loraine Wintheiser","party":"Rep","address":"778 S 860 E, Unit A302, American Fork, UT 84003","precinct":"25AF25","hd":"56","v_score":"1.193887297","decile":"4","lat":40.361991041943,"lng":-111.77434841011},{"id":"118455","name":"Rocky Nikolaus","party":"","address":"778 S 860 E, Unit B222, American Fork, UT 84003","precinct":"25AF25","hd":"56","v_score":"1.193887297","decile":"4","lat":40.361991041943,"lng":-111.77434841011},{"id":"118684","name":"Blake Doyle","party":"","address":"778 S 860 E, Unit A202, American Fork, UT 84003","precinct":"25AF25","hd":"56","v_score":"1.193887297","decile":"4","lat":40.361991041943,"lng":-111.77434841011},{"id":"119871","name":"Ms. Deja Adams PhD","party":"","address":"678 S Mayor Place Dr, American Fork, UT 84003","precinct":"25AF25","hd":"56","v_score":"0","decile":"2","lat":40.363331576476,"lng":-111.781067035866},{"id":"120469","name":"Mathews Pfannerstill-Lubowitz","party":"Dem","address":"778 S 860 E, Unit B209, American Fork, UT 84003","precinct":"25AF25","hd":"56","v_score":"1.193887297","decile":"4","lat":40.361991041943,"lng":-111.77434841011},{"id":"120670","name":"Houston Cronin","party":"Dem","address":"778 S 860 E, Unit B405, American Fork, UT 84003","precinct":"25AF25","hd":"56","v_score":"1.193887297","decile":"4","lat":40.361991041943,"lng":-111.77434841011},{"id":"121585","name":"Mr. Alex Jenkins","party":"Dem","address":"778 S 860 E, Unit C311, American Fork, UT 84003","precinct":"25AF25","hd":"56","v_score":"0","decile":"2","lat":40.361991041943,"lng":-111.77434841011},{"id":"122518","name":"Alvia Hodkiewicz","party":"","address":"800 E 620 S, Unit C509, American Fork, UT 84003","precinct":"25AF25","hd":"56","v_score":"0","decile":"2","lat":40.392972282544,"lng":-111.812620384612},{"id":"123216","name":"Manuel Howe","party":"","address":"778 S 860 E, Unit A301, American Fork, UT 84003","precinct":"25AF25","hd":"56","v_score":"1.193887297","decile":"4","lat":40.361991041943,"lng":-111.77434841011},{"id":"123511","name":"Christian Lubowitz","party":"","address":"778 S 860 E, Unit B313, American Fork, UT 84003","precinct":"25AF25","hd":"56","v_score":"1.193887297","decile":"4","lat":40.361991041943,"lng":-111.77434841011},{"id":"123706","name":"Miss Kasie Hegmann PhD","party":"Rep","address":"778 S 860 E, Unit D206, American Fork, UT 84003","precinct":"25AF25","hd":"56","v_score":"1.193887297","decile":"4","lat":40.361991041943,"lng":-111.77434841011},{"id":"123805","name":"Mrs. Bethel Kuphal","party":"","address":"800 E 620 S, Unit A209, American Fork, UT 84003","precinct":"25AF25","hd":"56","v_score":"1.193887297","decile":"4","lat":40.392972282544,"lng":-111.812620384612},{"id":"123818","name":"Rowena Kunde","party":"Rep","address":"778 S 860 E, Unit C107, American Fork, UT 84003","precinct":"25AF25","hd":"56","v_score":"1.193887297","decile":"4","lat":40.361991041943,"lng":-111.77434841011},{"id":"124318","name":"Etter Murphy","party":"","address":"800 E 620 S, Unit A413, American Fork, UT 84003","precinct":"25AF25","hd":"56","v_score":"0","decile":"2","lat":40.392972282544,"lng":-111.812620384612},{"id":"124901","name":"Mr. Vernon Purdy","party":"Rep","address":"232 E 1500 S, American Fork, UT 84003","precinct":"25AF25","hd":"56","v_score":"0","decile":"2","lat":40.347710706012,"lng":-111.793342184381},{"id":"125433","name":"Kenia Farrell","party":"","address":"778 S 860 E, Unit C418, American Fork, UT 84003","precinct":"25AF25","hd":"56","v_score":"0","decile":"2","lat":40.361991041943,"lng":-111.77434841011},{"id":"126042","name":"Yvette Swaniawski","party":"Rep","address":"778 S 860 E, Unit C205, American Fork, UT 84003","precinct":"25AF25","hd":"56","v_score":"0","decile":"2","lat":40.361991041943,"lng":-111.77434841011},{"id":"126480","name":"Dr. Huldah Eichmann MD","party":"","address":"778 S 860 E, Unit A417, American Fork, UT 84003","precinct":"25AF25","hd":"56","v_score":"4.214075011","decile":"7","lat":40.361991041943,"lng":-111.77434841011},{"id":"126621","name":"Dr. Janelle Lind","party":"Rep","address":"800 E 620 S, A319, American Fork, UT 84003","precinct":"25AF25","hd":"56","v_score":"0","decile":"2","lat":40.392972282544,"lng":-111.812620384612},{"id":"127303","name":"Dr. Theophile Jaskolski IV","party":"","address":"800 E 620 S, Unit A410, American Fork, UT 84003","precinct":"25AF25","hd":"56","v_score":"0","decile":"2","lat":40.392972282544,"lng":-111.812620384612},{"id":"127901","name":"Arden Hermann","party":"","address":"800 E 620 S, Apt 505p, American Fork, UT 84003","precinct":"25AF25","hd":"56","v_score":"0","decile":"2","lat":40.392972282544,"lng":-111.812620384612},{"id":"128334","name":"Felicity Schimmel","party":"Rep","address":"649 S Mayor Place Dr, American Fork, UT 84003","precinct":"25AF25","hd":"56","v_score":"0","decile":"2","lat":40.363505999115,"lng":-111.780916643163},{"id":"128445","name":"Silas Stracke III","party":"","address":"664 S Mayor Place Dr, American Fork, UT 84003","precinct":"25AF25","hd":"56","v_score":"0","decile":"2","lat":40.363412973713,"lng":-111.781067035856},{"id":"128637","name":"Corliss O'Connell","party":"Rep","address":"778 S 860 E, Unit B307, American Fork, UT 84003","precinct":"25AF25","hd":"56","v_score":"0","decile":"2","lat":40.361991041943,"lng":-111.77434841011},{"id":"128664","name":"Wayde Crona","party":"","address":"778 S 860 E, Unit C422, American Fork, UT 84003","precinct":"25AF25","hd":"56","v_score":"0","decile":"2","lat":40.361991041943,"lng":-111.77434841011},{"id":"129860","name":"Devyn Breitenberg","party":"Dem","address":"778 S 860 E, Unit C316, American Fork, UT 84003","precinct":"25AF25","hd":"56","v_score":"0","decile":"2","lat":40.361991041943,"lng":-111.77434841011},{"id":"130147","name":"Jayvion Terry","party":"Dem","address":"778 S 860 E, American Fork, UT 84003","precinct":"25AF25","hd":"56","v_score":"0","decile":"2","lat":40.361991041943,"lng":-111.77434841011},{"id":"130427","name":"Dr. Declan Murazik","party":"Dem","address":"800 E 620 S, Unit B105, American Fork, UT 84003","precinct":"25AF25","hd":"56","v_score":"0","decile":"2","lat":40.392972282544,"lng":-111.812620384612},{"id":"130435","name":"Dr. Classie Breitenberg","party":"","address":"800 E 620 S, Unit B330, American Fork, UT 84003","precinct":"25AF25","hd":"56","v_score":"0","decile":"2","lat":40.392972282544,"lng":-111.812620384612},{"id":"130564","name":"Miss Alana Gutkowski DDS","party":"","address":"778 S 860 E, Unit D205, American Fork, UT 84003","precinct":"25AF25","hd":"56","v_score":"2.876042565","decile":"6","lat":40.361991041943,"lng":-111.77434841011},{"id":"130782","name":"Demi Lubowitz","party":"","address":"800 E 620 S, Unit B318, American Fork, UT 84003","precinct":"25AF25","hd":"56","v_score":"0","decile":"2","lat":40.392972282544,"lng":-111.812620384612},{"id":"130785","name":"Lexus Simonis","party":"Rep","address":"663 S Mayor Place Dr, American Fork, UT 84003","precinct":"25AF25","hd":"56","v_score":"0","decile":"2","lat":40.363424601878,"lng":-111.780916643174},{"id":"131031","name":"Levy Sipes","party":"","address":"800 E 620 S, Unit B230, American Fork, UT 84003","precinct":"25AF25","hd":"56","v_score":"0","decile":"2","lat":40.392972282544,"lng":-111.812620384612},{"id":"131174","name":"Caryl Hand","party":"Dem","address":"800 E 620 S, Unit B401, American Fork, UT 84003","precinct":"25AF25","hd":"56","v_score":"0","decile":"2","lat":40.392972282544,"lng":-111.812620384612},{"id":"131346","name":"Julissa Crooks","party":"Rep","address":"800 E 620 S, Unit B230, American Fork, UT 84003","precinct":"25AF25","hd":"56","v_score":"0","decile":"2","lat":40.392972282544,"lng":-111.812620384612},{"id":"131516","name":"Daria Braun","party":"Dem","address":"778 S 860 E, Unit B407, American Fork, UT 84003","precinct":"25AF25","hd":"56","v_score":"0","decile":"2","lat":40.361991041943,"lng":-111.77434841011},{"id":"131634","name":"Odessa Cummings","party":"","address":"778 S 860 E, Unit B107, American Fork, UT 84003","precinct":"25AF25","hd":"56","v_score":"0","decile":"2","lat":40.361991041943,"lng":-111.77434841011},{"id":"131658","name":"Mrs. Alba Cremin","party":"Dem","address":"778 S 860 E, Unit A325, American Fork, UT 84003","precinct":"25AF25","hd":"56","v_score":"0","decile":"2","lat":40.361991041943,"lng":-111.77434841011},{"id":"132472","name":"Leonard Windler","party":"","address":"778 S 860 E, Unit D205, American Fork, UT 84003","precinct":"25AF25","hd":"56","v_score":"0","decile":"2","lat":40.361991041943,"lng":-111.77434841011},{"id":"132631","name":"Miss Britany Lindgren DVM","party":"","address":"800 E 620 S, Unit B309, American Fork, UT 84003","precinct":"25AF25","hd":"56","v_score":"0","decile":"2","lat":40.392972282544,"lng":-111.812620384612},{"id":"133982","name":"Mary Bruen","party":"Rep","address":"800 E 620 S, # C508p, American Fork, UT 84003","precinct":"25AF25","hd":"56","v_score":"0","decile":"2","lat":40.392972282544,"lng":-111.812620384612},{"id":"133990","name":"Miss Ernestina Howell","party":"","address":"800 E 620 S, Unit C508p, American Fork, UT 84003","precinct":"25AF25","hd":"56","v_score":"0","decile":"2","lat":40.392972282544,"lng":-111.812620384612},{"id":"134541","name":"Kristina Mueller","party":"Dem","address":"800 E 620 S, Unit C410, American Fork, UT 84003","precinct":"25AF25","hd":"56","v_score":"0","decile":"2","lat":40.392972282544,"lng":-111.812620384612},{"id":"134714","name":"Tana Goyette","party":"Dem","address":"639 E Mayor Place Dr, American Fork, UT 84003","precinct":"25AF25","hd":"56","v_score":"13.09579129","decile":"9","lat":40.363935294653,"lng":-111.781407091741},{"id":"135517","name":"Creola Waelchi","party":"","address":"778 S 860 E, Unit D317, American Fork, UT 84003","precinct":"25AF25","hd":"56","v_score":"2.315214949","decile":"5","lat":40.361991041943,"lng":-111.77434841011},{"id":"137778","name":"Giovanna Jaskolski","party":"","address":"800 E 620 S, Unit B101, American Fork, UT 84003","precinct":"25AF25","hd":"56","v_score":"3.781490609","decile":"6","lat":40.392972282544,"lng":-111.812620384612},{"id":"138043","name":"Juliann Reichert PhD","party":"Dem","address":"778 S 860 E, Unit C405, American Fork, UT 84003","precinct":"25AF25","hd":"56","v_score":"11.99259879","decile":"9","lat":40.361991041943,"lng":-111.77434841011},{"id":"142878","name":"Icie Johns-Wuckert","party":"Dem","address":"778 S 860 E, E304, American Fork, UT 84003","precinct":"25AF25","hd":"56","v_score":"1.193887297","decile":"4","lat":40.361991041943,"lng":-111.77434841011},{"id":"143214","name":"Mr. Hugh Toy PhD","party":"Dem","address":"678 S Mayor Place Dr, American Fork, UT 84003","precinct":"25AF25","hd":"56","v_score":"20.833849","decile":"10","lat":40.363331576476,"lng":-111.781067035866},{"id":"151260","name":"Alexina Cummings-Hermann","party":"","address":"5550 W 6400 N, American Fork, UT 84003","precinct":"25AF25","hd":"56","v_score":"15.43762891","decile":"9","lat":40.347688416133,"lng":-111.790174919537},{"id":"155014","name":"Kylie Metz-Balistreri","party":"","address":"5550 W 6400 N, American Fork, UT 84003","precinct":"25AF25","hd":"56","v_score":"19.74121738","decile":"10","lat":40.347688416133,"lng":-111.790174919537},{"id":"166688","name":"Dr. Kacey Purdy","party":"","address":"656 S Mayor Place Dr, American Fork, UT 84003","precinct":"25AF25","hd":"56","v_score":"6.814370645","decile":"8","lat":40.36345948642,"lng":-111.78106703585},{"id":"180442","name":"Mr. Quint Will Jr.","party":"Rep","address":"778 S 860 E, Unit C422, American Fork, UT 84003","precinct":"25AF25","hd":"56","v_score":"1.121327652","decile":"3","lat":40.361991041943,"lng":-111.77434841011},{"id":"181107","name":"Jordin Weimann","party":"","address":"778 S 860 E, Unit A425, American Fork, UT 84003","precinct":"25AF25","hd":"56","v_score":"5.258122542","decile":"7","lat":40.361991041943,"lng":-111.77434841011}]