[{"id":"382","name":"Adria Watsica","party":"","address":"628 E 50 N, American Fork, UT 84003","precinct":"25AF15","hd":"55","v_score":"0","decile":"1","lat":40.377646209071,"lng":-111.782196340755},{"id":"767","name":"Rowland Borer","party":"Rep","address":"32 N 825 E, American Fork, UT 84003","precinct":"25AF15","hd":"55","v_score":"26.89878031","decile":"10","lat":40.377943944828,"lng":-111.77536160853},{"id":"1018","name":"Yaritza Feil PhD","party":"Dem","address":"180 N 600 E, American Fork, UT 84003","precinct":"25AF15","hd":"55","v_score":"9.549140629","decile":"8","lat":40.380592791143,"lng":-111.782446432035},{"id":"1145","name":"Melbourne Koch","party":"Rep","address":"165 N 800 E, American Fork, UT 84003","precinct":"25AF15","hd":"55","v_score":"12.05946382","decile":"9","lat":40.380111949314,"lng":-111.776559557366},{"id":"1443","name":"Elbert Feeney","party":"Rep","address":"73 N 775 E, American Fork, UT 84003","precinct":"25AF15","hd":"55","v_score":"1.121327652","decile":"3","lat":40.378508169316,"lng":-111.777393974427},{"id":"2044","name":"Unique Kshlerin","party":"Dem","address":"264 N 600 E, American Fork, UT 84003","precinct":"25AF15","hd":"55","v_score":"2.315214949","decile":"5","lat":40.382420018444,"lng":-111.782442120603},{"id":"2465","name":"Georgina Gerhold","party":"Rep","address":"885 E 30 N, American Fork, UT 84003","precinct":"25AF15","hd":"55","v_score":"5.258122542","decile":"7","lat":40.377333869134,"lng":-111.773310699665},{"id":"3108","name":"Ian Jones","party":"","address":"92 N 775 E, American Fork, UT 84003","precinct":"25AF15","hd":"55","v_score":"6.74007049","decile":"8","lat":40.378938997707,"lng":-111.777245046424},{"id":"3325","name":"Louis Dach","party":"Dem","address":"680 E 170 N, American Fork, UT 84003","precinct":"25AF15","hd":"55","v_score":"23.7942762","decile":"10","lat":40.380180672221,"lng":-111.779828592241},{"id":"4270","name":"Emaline Emard-King","party":"","address":"790 Fleming Dr, American Fork, UT 84003","precinct":"25AF15","hd":"55","v_score":"0","decile":"1","lat":40.379932632163,"lng":-111.776794014831},{"id":"5898","name":"Lavera Kovacek","party":"","address":"628 E 50 N, American Fork, UT 84003","precinct":"25AF15","hd":"55","v_score":"0","decile":"1","lat":40.377646209071,"lng":-111.782196340755},{"id":"6113","name":"Antwan Jaskolski-Shields","party":"Dem","address":"58 N 800 E, American Fork, UT 84003","precinct":"25AF15","hd":"55","v_score":"16.04222202","decile":"9","lat":40.378449098486,"lng":-111.776349402857},{"id":"7422","name":"Javier Marks","party":"Rep","address":"684 E 100 N, American Fork, UT 84003","precinct":"25AF15","hd":"55","v_score":"5.40460374","decile":"7","lat":40.37892737218,"lng":-111.780135402396},{"id":"7574","name":"Kyle Stiedemann","party":"Dem","address":"39 N 825 E, American Fork, UT 84003","precinct":"25AF15","hd":"55","v_score":"0","decile":"1","lat":40.378111544003,"lng":-111.775514831748},{"id":"8465","name":"Cooper Collins","party":"","address":"150 N 825 E, American Fork, UT 84003","precinct":"25AF15","hd":"55","v_score":"38.98393022","decile":"10","lat":40.380390185889,"lng":-111.775469328724},{"id":"8629","name":"Broderick Bins","party":"","address":"894 E 300 N, American Fork, UT 84003","precinct":"25AF15","hd":"55","v_score":"19.62473182","decile":"10","lat":40.383089700467,"lng":-111.773371779885},{"id":"9208","name":"Jarvis Lang","party":"Rep","address":"666 Shelly Ave, American Fork, UT 84003","precinct":"25AF15","hd":"55","v_score":"0","decile":"1","lat":40.38210870111,"lng":-111.780289851221},{"id":"9326","name":"Hernan Christiansen-Altenwerth","party":"","address":"190 N 600 E, American Fork, UT 84003","precinct":"25AF15","hd":"55","v_score":"14.46680193","decile":"9","lat":40.380774693251,"lng":-111.782444395793},{"id":"9817","name":"Jayda Greenholt-West","party":"Dem","address":"607 E 230 N, American Fork, UT 84003","precinct":"25AF15","hd":"55","v_score":"4.283276088","decile":"7","lat":40.381611292363,"lng":-111.777678589253},{"id":"10439","name":"Freddie Flatley-Deckow","party":"Rep","address":"56 N 775 E, American Fork, UT 84003","precinct":"25AF15","hd":"55","v_score":"1.121327652","decile":"3","lat":40.37839517628,"lng":-111.777243158226},{"id":"10440","name":"Atticus Rutherford-Okuneva","party":"Dem","address":"56 N 775 E, American Fork, UT 84003","precinct":"25AF15","hd":"55","v_score":"3.781490609","decile":"6","lat":40.37839517628,"lng":-111.777243158226},{"id":"10508","name":"Rowland Jacobson-Schroeder","party":"","address":"607 E 230 N, American Fork, UT 84003","precinct":"25AF15","hd":"55","v_score":"11.09694254","decile":"9","lat":40.381611292363,"lng":-111.777678589253},{"id":"11252","name":"Kelsea McLaughlin","party":"Dem","address":"607 E 230 N, American Fork, UT 84003","precinct":"25AF15","hd":"55","v_score":"19.74179771","decile":"10","lat":40.381611292363,"lng":-111.777678589253},{"id":"11659","name":"Ms. Star Littel","party":"Rep","address":"241 N 860 E, American Fork, UT 84003","precinct":"25AF15","hd":"55","v_score":"2.315214949","decile":"5","lat":40.370182519786,"lng":-111.774342315235},{"id":"12842","name":"Dr. Hobson Huel","party":"Rep","address":"63 N 825 E, American Fork, UT 84003","precinct":"25AF15","hd":"55","v_score":"4.137918904","decile":"7","lat":40.378618689641,"lng":-111.775523252918},{"id":"12993","name":"Vonnie O'Hara MD","party":"","address":"150 N 775 E, American Fork, UT 84003","precinct":"25AF15","hd":"55","v_score":"6.74007049","decile":"8","lat":40.37981515445,"lng":-111.777248088519},{"id":"13199","name":"Mychal Mante DVM","party":"Rep","address":"295 Parker Ave, American Fork, UT 84003","precinct":"25AF15","hd":"55","v_score":"7.227307695","decile":"8","lat":40.383059661103,"lng":-111.777391358752},{"id":"13718","name":"Evangelina Koelpin-Schmidt","party":"","address":"32 S 750 E, American Fork, UT 84003","precinct":"25AF15","hd":"55","v_score":"11.30609121","decile":"9","lat":40.376309427981,"lng":-111.777571831785},{"id":"14645","name":"Ocie Runte","party":"","address":"16 N 700 E, Apt 14, American Fork, UT 84003","precinct":"25AF15","hd":"55","v_score":"2.315214949","decile":"5","lat":40.376862862445,"lng":-111.779492803311},{"id":"15359","name":"Denny McLaughlin-Leffler","party":"","address":"619 E 30 N, American Fork, UT 84003","precinct":"25AF15","hd":"55","v_score":"1.46627566","decile":"4","lat":40.377088510066,"lng":-111.782286345875},{"id":"15931","name":"Jewel Jenkins","party":"","address":"761 E 10 S, American Fork, UT 84003","precinct":"25AF15","hd":"55","v_score":"2.315214949","decile":"5","lat":40.376688759146,"lng":-111.777473026733},{"id":"15946","name":"Rashida Legros","party":"","address":"32 S 750 E, American Fork, UT 84003","precinct":"25AF15","hd":"55","v_score":"11.30609121","decile":"9","lat":40.376309427981,"lng":-111.777571831785},{"id":"16092","name":"Mr. Cephus Mante","party":"","address":"217 N 800 E, American Fork, UT 84003","precinct":"25AF15","hd":"55","v_score":"0","decile":"1","lat":40.380647370538,"lng":-111.776624278536},{"id":"16197","name":"Dr. Dionicio Windler MD","party":"Rep","address":"807 E 10 S, American Fork, UT 84003","precinct":"25AF15","hd":"55","v_score":"2.315214949","decile":"5","lat":40.376715292875,"lng":-111.77712585611},{"id":"16603","name":"Grant Mayer DVM","party":"Rep","address":"190 N 600 E, American Fork, UT 84003","precinct":"25AF15","hd":"55","v_score":"2.315214949","decile":"5","lat":40.380774693251,"lng":-111.782444395793},{"id":"16609","name":"Dr. Buna Bode","party":"","address":"270 N 700 E, American Fork, UT 84003","precinct":"25AF15","hd":"55","v_score":"0","decile":"1","lat":40.382848782753,"lng":-111.779515723509},{"id":"18005","name":"Glynis Eichmann","party":"","address":"49 N 775 E, American Fork, UT 84003","precinct":"25AF15","hd":"55","v_score":"3.781490609","decile":"6","lat":40.378198493225,"lng":-111.777392899204},{"id":"18018","name":"Kaya Boyer","party":"","address":"680 E 170 N, American Fork, UT 84003","precinct":"25AF15","hd":"55","v_score":"1.623113131","decile":"4","lat":40.380180672221,"lng":-111.779828592241},{"id":"18113","name":"Suzann Kris MD","party":"Rep","address":"676 E 100 N, American Fork, UT 84003","precinct":"25AF15","hd":"55","v_score":"3.93832808","decile":"6","lat":40.378929684078,"lng":-111.78041513943},{"id":"18119","name":"Mrs. Miriah Stokes","party":"Dem","address":"292 N 860 E, American Fork, UT 84003","precinct":"25AF15","hd":"55","v_score":"5.40460374","decile":"7","lat":40.369947705627,"lng":-111.774492543109},{"id":"18483","name":"Giovanny Kemmer","party":"Rep","address":"19 S 800 E, American Fork, UT 84003","precinct":"25AF15","hd":"55","v_score":"1.121327652","decile":"3","lat":40.374534600703,"lng":-111.776466131129},{"id":"18835","name":"Anabella Lehner","party":"Rep","address":"610 E 50 N, American Fork, UT 84003","precinct":"25AF15","hd":"55","v_score":"2.315214949","decile":"5","lat":40.377653413548,"lng":-111.782379888285},{"id":"19154","name":"Brycen Feest-Haag","party":"","address":"16 N 700 E, Apt 14, American Fork, UT 84003","precinct":"25AF15","hd":"55","v_score":"5.258122542","decile":"7","lat":40.376862862445,"lng":-111.779492803311},{"id":"19463","name":"Dejah Altenwerth","party":"Rep","address":"65 N 630 E, American Fork, UT 84003","precinct":"25AF15","hd":"55","v_score":"10.11789853","decile":"9","lat":40.377970231417,"lng":-111.78155125368},{"id":"19766","name":"Micky Kub","party":"Rep","address":"636 E 30 N, American Fork, UT 84003","precinct":"25AF15","hd":"55","v_score":"2.315214949","decile":"5","lat":40.376976988033,"lng":-111.782089886086},{"id":"19940","name":"Adolph Kris DDS","party":"Rep","address":"629 E 30 N, American Fork, UT 84003","precinct":"25AF15","hd":"55","v_score":"5.693042993","decile":"7","lat":40.377090201667,"lng":-111.782178928702},{"id":"20582","name":"Ether Watsica","party":"","address":"163 N 700 E, American Fork, UT 84003","precinct":"25AF15","hd":"55","v_score":"9.923865181","decile":"9","lat":40.379953026196,"lng":-111.779647842159},{"id":"21254","name":"Ms. Denice Aufderhar","party":"Dem","address":"28 N 800 E, American Fork, UT 84003","precinct":"25AF15","hd":"55","v_score":"0","decile":"1","lat":40.377978873545,"lng":-111.776337955497},{"id":"21600","name":"Alesha Shanahan DDS","party":"Rep","address":"77 N 630 E, American Fork, UT 84003","precinct":"25AF15","hd":"55","v_score":"9.830961897","decile":"8","lat":40.377998078071,"lng":-111.781551620079},{"id":"21601","name":"Dr. Babe Becker","party":"Dem","address":"77 N 630 E, American Fork, UT 84003","precinct":"25AF15","hd":"55","v_score":"9.830961897","decile":"8","lat":40.377998078071,"lng":-111.781551620079},{"id":"21897","name":"Dr. Linden Weber Sr.","party":"Rep","address":"124 N 825 E, American Fork, UT 84003","precinct":"25AF15","hd":"55","v_score":"1.46627566","decile":"4","lat":40.379988498466,"lng":-111.775423854733},{"id":"24020","name":"Mr. Delvin Donnelly","party":"","address":"208 N 775 E, American Fork, UT 84003","precinct":"25AF15","hd":"55","v_score":"8.347511332","decile":"8","lat":40.380597062559,"lng":-111.777364246892},{"id":"24138","name":"Dr. Alvira Rippin","party":"Dem","address":"39 N 825 E, American Fork, UT 84003","precinct":"25AF15","hd":"55","v_score":"0","decile":"1","lat":40.378111544003,"lng":-111.775514831748},{"id":"24164","name":"Corbin Toy-Wehner","party":"Rep","address":"36 S 750 E, American Fork, UT 84003","precinct":"25AF15","hd":"55","v_score":"2.744440783","decile":"5","lat":40.376274430469,"lng":-111.777573581665},{"id":"25251","name":"Nim O'Keefe","party":"Rep","address":"671 Seymore Dr, American Fork, UT 84003","precinct":"25AF15","hd":"55","v_score":"3.781490609","decile":"6","lat":40.378327791851,"lng":-111.780256763492},{"id":"25387","name":"Mr. Geno Kshlerin","party":"Rep","address":"16 S 600 E, Apt 1, American Fork, UT 84003","precinct":"25AF15","hd":"55","v_score":"5.40460374","decile":"7","lat":40.376488808785,"lng":-111.782629397217},{"id":"25437","name":"Dr. Hollis Jacobson","party":"Rep","address":"717 E 50 N, American Fork, UT 84003","precinct":"25AF15","hd":"55","v_score":"5.687348376","decile":"7","lat":40.377739471879,"lng":-111.779300945067},{"id":"25943","name":"Shandra Ruecker","party":"","address":"647 E 220 N, American Fork, UT 84003","precinct":"25AF15","hd":"55","v_score":"0","decile":"1","lat":40.381206292613,"lng":-111.78033353839},{"id":"26183","name":"Roxie Yost","party":"","address":"15 S 800 E, American Fork, UT 84003","precinct":"25AF15","hd":"55","v_score":"2.315214949","decile":"5","lat":40.374557025109,"lng":-111.776466131126},{"id":"26501","name":"Rebeca Crona","party":"Dem","address":"264 N 600 E, American Fork, UT 84003","precinct":"25AF15","hd":"55","v_score":"6.884189957","decile":"8","lat":40.382420018444,"lng":-111.782442120603},{"id":"26997","name":"Dr. Khloe Stoltenberg DVM","party":"Dem","address":"16 S 750 E, American Fork, UT 84003","precinct":"25AF15","hd":"55","v_score":"3.93832808","decile":"6","lat":40.376448611082,"lng":-111.777565301092},{"id":"27082","name":"Shania Bode-Goodwin","party":"Rep","address":"163 N 700 E, American Fork, UT 84003","precinct":"25AF15","hd":"55","v_score":"9.923865181","decile":"9","lat":40.379953026196,"lng":-111.779647842159},{"id":"28746","name":"Mr. Bluford Schoen","party":"","address":"213 N 900 E, American Fork, UT 84003","precinct":"25AF15","hd":"55","v_score":"7.821996458","decile":"8","lat":40.381322447032,"lng":-111.773244504},{"id":"29139","name":"Ms. Allie Heidenreich DDS","party":"","address":"683 Seymore Dr, American Fork, UT 84003","precinct":"25AF15","hd":"55","v_score":"5.618742839","decile":"7","lat":40.378326292911,"lng":-111.779961922982},{"id":"29364","name":"Brett Turner","party":"Rep","address":"32 N 825 E, American Fork, UT 84003","precinct":"25AF15","hd":"55","v_score":"42.53235191","decile":"10","lat":40.377943944828,"lng":-111.77536160853},{"id":"30106","name":"Jazmyne Stehr","party":"","address":"647 E 100 N, American Fork, UT 84003","precinct":"25AF15","hd":"55","v_score":"6.814370645","decile":"8","lat":40.379040196263,"lng":-111.781361907572},{"id":"30294","name":"Layton Treutel","party":"","address":"22 S 700 E, Apt 5, American Fork, UT 84003","precinct":"25AF15","hd":"55","v_score":"2.744440783","decile":"5","lat":40.3753594402,"lng":-111.779651323931},{"id":"30612","name":"Hassan Schimmel","party":"Dem","address":"846 E 300 N, American Fork, UT 84003","precinct":"25AF15","hd":"55","v_score":"2.315214949","decile":"5","lat":40.383089700607,"lng":-111.775189088108},{"id":"31846","name":"Cecil Kling","party":"","address":"44 N 640 E, American Fork, UT 84003","precinct":"25AF15","hd":"55","v_score":"11.26189763","decile":"9","lat":40.377438793299,"lng":-111.78131262634},{"id":"32652","name":"Alois Jacobi","party":"Dem","address":"177 N 800 E, American Fork, UT 84003","precinct":"25AF15","hd":"55","v_score":"1.121327652","decile":"3","lat":40.380235508058,"lng":-111.77657449302},{"id":"33392","name":"Miss Rosemary Mayer DDS","party":"","address":"610 E 50 N, American Fork, UT 84003","precinct":"25AF15","hd":"55","v_score":"2.315214949","decile":"5","lat":40.377653413548,"lng":-111.782379888285},{"id":"33516","name":"Mr. Jaheem Kerluke","party":"Dem","address":"58 N 750 E, American Fork, UT 84003","precinct":"25AF15","hd":"55","v_score":"7.650280567","decile":"8","lat":40.378445266647,"lng":-111.778185123335},{"id":"33704","name":"Brycen Rolfson","party":"Dem","address":"194 N 600 E, American Fork, UT 84003","precinct":"25AF15","hd":"55","v_score":"5.546183193","decile":"7","lat":40.380847454094,"lng":-111.782443581297},{"id":"34082","name":"Hernan Stoltenberg V","party":"","address":"52 N 750 E, American Fork, UT 84003","precinct":"25AF15","hd":"55","v_score":"25.1107121","decile":"10","lat":40.378368876597,"lng":-111.778185123345},{"id":"34163","name":"Alyssa Schmidt","party":"","address":"124 N 825 E, American Fork, UT 84003","precinct":"25AF15","hd":"55","v_score":"1.193887297","decile":"3","lat":40.379988498466,"lng":-111.775423854733},{"id":"34269","name":"Jeane Heathcote DVM","party":"","address":"36 N 800 E, American Fork, UT 84003","precinct":"25AF15","hd":"55","v_score":"2.315214949","decile":"5","lat":40.378104266863,"lng":-111.776341008126},{"id":"34564","name":"Dr. Le Witting","party":"Dem","address":"19 N 700 E, Apt 17, American Fork, UT 84003","precinct":"25AF15","hd":"55","v_score":"15.09172736","decile":"9","lat":40.37573429318,"lng":-111.779645047803},{"id":"34665","name":"Roseanne Satterfield","party":"Dem","address":"16 N 700 E, Apt 2, American Fork, UT 84003","precinct":"25AF15","hd":"55","v_score":"6.814370645","decile":"8","lat":40.376862862445,"lng":-111.779492803311},{"id":"34988","name":"Trish Hudson PhD","party":"","address":"61 N 775 E, American Fork, UT 84003","precinct":"25AF15","hd":"55","v_score":"0","decile":"1","lat":40.378353331271,"lng":-111.777393436815},{"id":"35612","name":"Mrs. Belle Gaylord DDS","party":"","address":"42 N 870 E, American Fork, UT 84003","precinct":"25AF15","hd":"55","v_score":"19.29176194","decile":"10","lat":40.377804092904,"lng":-111.774224443588},{"id":"35732","name":"Dr. Wirt Satterfield","party":"","address":"878 E Fleming Dr, American Fork, UT 84003","precinct":"25AF15","hd":"55","v_score":"13.54010118","decile":"9","lat":40.379286364964,"lng":-111.773683270243},{"id":"35781","name":"Haywood Stokes-Fay","party":"Rep","address":"14 S 750 E, American Fork, UT 84003","precinct":"25AF15","hd":"55","v_score":"0","decile":"1","lat":40.376466117568,"lng":-111.777564754012},{"id":"35809","name":"Zaiden Hoeger","party":"Dem","address":"675 E 170 N, American Fork, UT 84003","precinct":"25AF15","hd":"55","v_score":"11.687527","decile":"9","lat":40.380294779711,"lng":-111.779890109238},{"id":"35943","name":"Dorinda Hauck","party":"","address":"130 N 600 E, American Fork, UT 84003","precinct":"25AF15","hd":"55","v_score":"14.24014515","decile":"9","lat":40.379593044481,"lng":-111.782457126073},{"id":"36839","name":"Areli Dach","party":"","address":"295 Parker Ave, American Fork, UT 84003","precinct":"25AF15","hd":"55","v_score":"7.341227552","decile":"8","lat":40.383059661103,"lng":-111.777391358752},{"id":"36935","name":"Korey Mayert","party":"","address":"218 N 860 E, American Fork, UT 84003","precinct":"25AF15","hd":"55","v_score":"2.315214949","decile":"5","lat":40.370418628613,"lng":-111.774495920774},{"id":"38505","name":"Lafayette Herman","party":"","address":"38 N 640 E, American Fork, UT 84003","precinct":"25AF15","hd":"55","v_score":"11.46976548","decile":"9","lat":40.377404864705,"lng":-111.781312626344},{"id":"38718","name":"Phoenix Wisoky","party":"Rep","address":"611 E 30 N, American Fork, UT 84003","precinct":"25AF15","hd":"55","v_score":"4.192796624","decile":"7","lat":40.377087156785,"lng":-111.782372279614},{"id":"39618","name":"Clare Ondricka","party":"Dem","address":"152 N 860 E, American Fork, UT 84003","precinct":"25AF15","hd":"55","v_score":"6.550708384","decile":"7","lat":40.380335873608,"lng":-111.774222816311},{"id":"40041","name":"Cody Toy","party":"Rep","address":"781 E 10 S, American Fork, UT 84003","precinct":"25AF15","hd":"55","v_score":"3.61989409","decile":"6","lat":40.376715292883,"lng":-111.777227948467},{"id":"40396","name":"Regena West","party":"Dem","address":"619 E 30 N, American Fork, UT 84003","precinct":"25AF15","hd":"55","v_score":"2.315214949","decile":"5","lat":40.377088510066,"lng":-111.782286345875},{"id":"41170","name":"Janeen Gerlach","party":"Dem","address":"99 N 800 E, American Fork, UT 84003","precinct":"25AF15","hd":"55","v_score":"7.781882349","decile":"8","lat":40.379084530948,"lng":-111.776515321301},{"id":"41383","name":"Jeanmarie Hintz-Moore","party":"","address":"182 N 775 E, American Fork, UT 84003","precinct":"25AF15","hd":"55","v_score":"5.258122542","decile":"7","lat":40.380330995218,"lng":-111.777278166326},{"id":"41519","name":"Jaycie Waters","party":"","address":"250 Parker Ave, American Fork, UT 84003","precinct":"25AF15","hd":"55","v_score":"2.315214949","decile":"5","lat":40.382625483951,"lng":-111.777244540399},{"id":"42191","name":"Colvin Beer","party":"","address":"208 N 775 E, Bsmt, American Fork, UT 84003","precinct":"25AF15","hd":"55","v_score":"13.61621523","decile":"9","lat":40.380597062559,"lng":-111.777364246892},{"id":"43598","name":"Dellar Swaniawski","party":"","address":"195 N 775 E, American Fork, UT 84003","precinct":"25AF15","hd":"55","v_score":"25.60455543","decile":"10","lat":40.38016754757,"lng":-111.777404166588},{"id":"44082","name":"Mr. Selmer Rath DDS","party":"Dem","address":"16 N 700 E, Apt 20, American Fork, UT 84003","precinct":"25AF15","hd":"55","v_score":"0","decile":"1","lat":40.376862862445,"lng":-111.779492803311},{"id":"44746","name":"Dr. Amelia Kihn","party":"Dem","address":"770 Fleming Dr, American Fork, UT 84003","precinct":"25AF15","hd":"55","v_score":"7.830610533","decile":"8","lat":40.380084759307,"lng":-111.777486812529},{"id":"44947","name":"Robert Daugherty","party":"Rep","address":"33 N 870 E, American Fork, UT 84003","precinct":"25AF15","hd":"55","v_score":"1.121327652","decile":"3","lat":40.377694577769,"lng":-111.774374123351},{"id":"45088","name":"Arland Sawayn","party":"Dem","address":"675 Seymore Dr, American Fork, UT 84003","precinct":"25AF15","hd":"55","v_score":"2.315214949","decile":"5","lat":40.378327429477,"lng":-111.780233028084},{"id":"45224","name":"Celestia Bogisich","party":"Rep","address":"155 N 825 E, American Fork, UT 84003","precinct":"25AF15","hd":"55","v_score":"6.030048853","decile":"7","lat":40.380457947209,"lng":-111.775627986518},{"id":"45720","name":"Jodi Collins","party":"Dem","address":"254 N 860 E, American Fork, UT 84003","precinct":"25AF15","hd":"55","v_score":"0","decile":"1","lat":40.370189249689,"lng":-111.774492821089},{"id":"46478","name":"Cheyenne Bergnaum","party":"Rep","address":"675 Shelly Ave, American Fork, UT 84003","precinct":"25AF15","hd":"55","v_score":"5.40460374","decile":"7","lat":40.382223292482,"lng":-111.780133151952},{"id":"46746","name":"Ennis Zboncak","party":"","address":"160 N 800 E, American Fork, UT 84003","precinct":"25AF15","hd":"55","v_score":"13.46861423","decile":"9","lat":40.380081270354,"lng":-111.776404783816},{"id":"46875","name":"Dione Flatley DVM","party":"","address":"675 E 170 N, American Fork, UT 84003","precinct":"25AF15","hd":"55","v_score":"5.331806201","decile":"7","lat":40.380294779711,"lng":-111.779890109238},{"id":"46979","name":"Cassidy Jenkins","party":"","address":"196 N 860 E, American Fork, UT 84003","precinct":"25AF15","hd":"55","v_score":"1.193887297","decile":"3","lat":40.381112502715,"lng":-111.774274085629},{"id":"46998","name":"Vesta Corwin MD","party":"","address":"165 N 860 E, American Fork, UT 84003","precinct":"25AF15","hd":"55","v_score":"2.315214949","decile":"5","lat":40.380834196235,"lng":-111.774409355552},{"id":"48641","name":"Kayson Dickinson","party":"","address":"45 N 900 E, American Fork, UT 84003","precinct":"25AF15","hd":"55","v_score":"23.36528826","decile":"10","lat":40.377362615615,"lng":-111.77319742888},{"id":"49746","name":"Dr. Dimitri Schultz","party":"Rep","address":"894 E 300 N, American Fork, UT 84003","precinct":"25AF15","hd":"55","v_score":"4.283276088","decile":"7","lat":40.383089700467,"lng":-111.773371779885},{"id":"49973","name":"Dr. Consuela Wuckert","party":"Rep","address":"270 N 700 E, American Fork, UT 84003","precinct":"25AF15","hd":"55","v_score":"6.724398202","decile":"8","lat":40.382848782753,"lng":-111.779515723509},{"id":"50147","name":"Mr. Bud Kertzmann IV","party":"Dem","address":"33 N 870 E, American Fork, UT 84003","precinct":"25AF15","hd":"55","v_score":"0","decile":"1","lat":40.377694577769,"lng":-111.774374123351},{"id":"50304","name":"Donta Hand","party":"Dem","address":"84 N 600 E, American Fork, UT 84003","precinct":"25AF15","hd":"55","v_score":"2.587603312","decile":"5","lat":40.378526576354,"lng":-111.782466626492},{"id":"50663","name":"Ms. Lina Runte MD","party":"","address":"700 E 300 N, American Fork, UT 84003","precinct":"25AF15","hd":"55","v_score":"2.660162957","decile":"5","lat":40.383098700938,"lng":-111.779517119248},{"id":"52388","name":"Izetta Wisozk","party":"Dem","address":"161 N 670 E, American Fork, UT 84003","precinct":"25AF15","hd":"55","v_score":"0","decile":"1","lat":40.379736384889,"lng":-111.780777258958},{"id":"52886","name":"Ples Torphy","party":"Dem","address":"79 N 670 E, American Fork, UT 84003","precinct":"25AF15","hd":"55","v_score":"13.90948566","decile":"9","lat":40.378809434599,"lng":-111.780830781408},{"id":"53179","name":"Carmel Gislason MD","party":"","address":"196 N 860 E, American Fork, UT 84003","precinct":"25AF15","hd":"55","v_score":"2.315214949","decile":"5","lat":40.381112502715,"lng":-111.774274085629},{"id":"53569","name":"Mr. Jair Hermann Sr.","party":"","address":"623 E 30 N, American Fork, UT 84003","precinct":"25AF15","hd":"55","v_score":"2.587603312","decile":"5","lat":40.377089186707,"lng":-111.782243379006},{"id":"54554","name":"Kennth Lynch","party":"Rep","address":"98 N 600 E, American Fork, UT 84003","precinct":"25AF15","hd":"55","v_score":"4.424855541","decile":"7","lat":40.378913505369,"lng":-111.782464883518},{"id":"55062","name":"Miss Shirl Ebert PhD","party":"","address":"894 E 300 N, American Fork, UT 84003","precinct":"25AF15","hd":"55","v_score":"2.744440783","decile":"5","lat":40.383089700467,"lng":-111.773371779885},{"id":"55452","name":"Demond Kling","party":"","address":"671 Seymore Dr, American Fork, UT 84003","precinct":"25AF15","hd":"55","v_score":"20.03052047","decile":"10","lat":40.378327791851,"lng":-111.780256763492},{"id":"55564","name":"Gerry Bechtelar MD","party":"Dem","address":"798 E 30 N, American Fork, UT 84003","precinct":"25AF15","hd":"55","v_score":"2.315214949","decile":"5","lat":40.377456447079,"lng":-111.776478016611},{"id":"56811","name":"Georgette Murazik-Schamberger","party":"Rep","address":"639 E Main St, American Fork, UT 84003","precinct":"25AF15","hd":"55","v_score":"0","decile":"1","lat":40.376518685043,"lng":-111.781812109876},{"id":"56834","name":"Velia Satterfield-Champlin","party":"Rep","address":"792 E 30 N, American Fork, UT 84003","precinct":"25AF15","hd":"55","v_score":"0","decile":"1","lat":40.377456907376,"lng":-111.776524736349},{"id":"58141","name":"Ott Grant-Ondricka","party":"","address":"621 Shelly Ave, American Fork, UT 84003","precinct":"25AF15","hd":"55","v_score":"5.703020665","decile":"7","lat":40.382223292563,"lng":-111.781190871915},{"id":"58235","name":"Meda Gorczany-Abernathy","party":"Rep","address":"16 N 700 E, Apt 24, American Fork, UT 84003","precinct":"25AF15","hd":"55","v_score":"1.193887297","decile":"3","lat":40.376862862445,"lng":-111.779492803311},{"id":"58332","name":"Mr. Ole Lemke III","party":"Rep","address":"72 N 825 E, American Fork, UT 84003","precinct":"25AF15","hd":"55","v_score":"6.636485342","decile":"7","lat":40.378789187558,"lng":-111.775375643813},{"id":"58505","name":"Carissa Kihn","party":"Dem","address":"610 E 50 N, American Fork, UT 84003","precinct":"25AF15","hd":"55","v_score":"1.193887297","decile":"3","lat":40.377653413548,"lng":-111.782379888285},{"id":"58674","name":"Hadley McLaughlin","party":"","address":"152 N 860 E, American Fork, UT 84003","precinct":"25AF15","hd":"55","v_score":"1.193887297","decile":"3","lat":40.380335873608,"lng":-111.774222816311},{"id":"58780","name":"Arturo Koss","party":"","address":"21 S 750 E, American Fork, UT 84003","precinct":"25AF15","hd":"55","v_score":"1.193887297","decile":"3","lat":40.376396131262,"lng":-111.777416967029},{"id":"59332","name":"Dona Schiller","party":"Rep","address":"131 N 775 E, American Fork, UT 84003","precinct":"25AF15","hd":"55","v_score":"20.18299619","decile":"10","lat":40.379256553201,"lng":-111.777396572884},{"id":"59638","name":"Barnie Fadel","party":"Rep","address":"16 N 700 E, Apt 5, American Fork, UT 84003","precinct":"25AF15","hd":"55","v_score":"1.121327652","decile":"3","lat":40.376862862445,"lng":-111.779492803311},{"id":"60187","name":"Mrs. Tamekia Kub","party":"Dem","address":"177 N 800 E, American Fork, UT 84003","precinct":"25AF15","hd":"55","v_score":"6.814370645","decile":"8","lat":40.380235508058,"lng":-111.77657449302},{"id":"62284","name":"Angella Howe","party":"","address":"180 N 825 E, American Fork, UT 84003","precinct":"25AF15","hd":"55","v_score":"2.817000428","decile":"6","lat":40.380846044993,"lng":-111.775499281746},{"id":"62361","name":"Dr. Charline Schmeler","party":"Dem","address":"844 E Fleming Dr, Apt C, American Fork, UT 84003","precinct":"25AF15","hd":"55","v_score":"13.59500114","decile":"9","lat":40.379382418429,"lng":-111.774462960868},{"id":"62890","name":"Dr. Delora Kozey","party":"Rep","address":"717 E 50 N, American Fork, UT 84003","precinct":"25AF15","hd":"55","v_score":"1.121327652","decile":"3","lat":40.377739471879,"lng":-111.779300945067},{"id":"63506","name":"Ms. Pat Carroll DVM","party":"Dem","address":"894 E 300 N, American Fork, UT 84003","precinct":"25AF15","hd":"55","v_score":"2.817000428","decile":"6","lat":40.383089700467,"lng":-111.773371779885},{"id":"64358","name":"Mr. Amarion Ankunding","party":"Dem","address":"285 N 860 E, American Fork, UT 84003","precinct":"25AF15","hd":"55","v_score":"1.193887297","decile":"3","lat":40.369737210734,"lng":-111.774342137232},{"id":"64407","name":"Edie Aufderhar","party":"Rep","address":"47 N 870 E, American Fork, UT 84003","precinct":"25AF15","hd":"55","v_score":"2.817000428","decile":"6","lat":40.377867207769,"lng":-111.774375297682},{"id":"65332","name":"Roslyn Skiles","party":"","address":"886 E 30 N, American Fork, UT 84003","precinct":"25AF15","hd":"55","v_score":"3.93832808","decile":"6","lat":40.377224108799,"lng":-111.773265075688},{"id":"65538","name":"Luda Kozey","party":"","address":"16 S 600 E, Apt 3, American Fork, UT 84003","precinct":"25AF15","hd":"55","v_score":"0","decile":"1","lat":40.376488808785,"lng":-111.782629397217},{"id":"66122","name":"Kali Jakubowski-Jacobi","party":"","address":"626 E 50 N, American Fork, UT 84003","precinct":"25AF15","hd":"55","v_score":"0","decile":"1","lat":40.37764497737,"lng":-111.782228037301},{"id":"66623","name":"Alzina Hudson-Lebsack","party":"Rep","address":"265 N Chipman Ave, American Fork, UT 84003","precinct":"25AF15","hd":"55","v_score":"9.405332525","decile":"8","lat":40.382763037285,"lng":-111.778522510991},{"id":"66682","name":"Cassidy Muller","party":"Dem","address":"37 S 800 E, American Fork, UT 84003","precinct":"25AF15","hd":"55","v_score":"2.817000428","decile":"6","lat":40.374433690876,"lng":-111.776466131142},{"id":"67216","name":"Emiliano Parisian","party":"","address":"115 N 700 E, American Fork, UT 84003","precinct":"25AF15","hd":"55","v_score":"12.18168245","decile":"9","lat":40.379254497083,"lng":-111.779645051028},{"id":"67900","name":"Mr. Darron Miller I","party":"Rep","address":"621 Shelly Ave, American Fork, UT 84003","precinct":"25AF15","hd":"55","v_score":"0","decile":"1","lat":40.382223292563,"lng":-111.781190871915},{"id":"68247","name":"Kamari Ziemann","party":"","address":"675 E 170 N, American Fork, UT 84003","precinct":"25AF15","hd":"55","v_score":"7.47704845","decile":"8","lat":40.380294779711,"lng":-111.779890109238},{"id":"68578","name":"Ardath Rosenbaum DVM","party":"","address":"671 Seymore Dr, American Fork, UT 84003","precinct":"25AF15","hd":"55","v_score":"0","decile":"1","lat":40.378327791851,"lng":-111.780256763492},{"id":"69471","name":"Shelly Altenwerth-Schroeder","party":"Rep","address":"116 N 670 E, American Fork, UT 84003","precinct":"25AF15","hd":"55","v_score":"2.315214949","decile":"5","lat":40.379230517562,"lng":-111.780624998971},{"id":"69555","name":"Mrs. Roxana Mertz","party":"","address":"54 N 870 E, American Fork, UT 84003","precinct":"25AF15","hd":"55","v_score":"1.121327652","decile":"3","lat":40.377955144155,"lng":-111.774225471128},{"id":"69688","name":"Dr. Saul Emard V","party":"Dem","address":"129 N 670 E, American Fork, UT 84003","precinct":"25AF15","hd":"55","v_score":"11.02844566","decile":"9","lat":40.379368251366,"lng":-111.78077592519},{"id":"70852","name":"Myrl Marquardt","party":"","address":"209 N 775 E, American Fork, UT 84003","precinct":"25AF15","hd":"55","v_score":"6.954919332","decile":"8","lat":40.380339391161,"lng":-111.777435813291},{"id":"71149","name":"Kwame Nitzsche","party":"Dem","address":"58 N 750 E, American Fork, UT 84003","precinct":"25AF15","hd":"55","v_score":"8.15240309","decile":"8","lat":40.378445266647,"lng":-111.778185123335},{"id":"71371","name":"Gerhardt Schmitt-Stark","party":"","address":"129 N 670 E, American Fork, UT 84003","precinct":"25AF15","hd":"55","v_score":"11.02844566","decile":"9","lat":40.379368251366,"lng":-111.78077592519},{"id":"71982","name":"Kali Davis","party":"Dem","address":"6 S 900 E, American Fork, UT 84003","precinct":"25AF15","hd":"55","v_score":"1.121327652","decile":"3","lat":40.376403977482,"lng":-111.773380647845},{"id":"72504","name":"Joanie Jacobson","party":"Rep","address":"795 E 10 S, American Fork, UT 84003","precinct":"25AF15","hd":"55","v_score":"3.93832808","decile":"6","lat":40.376715292879,"lng":-111.777172975659},{"id":"73517","name":"Ms. Carma Brakus DVM","party":"Dem","address":"208 N 775 E, American Fork, UT 84003","precinct":"25AF15","hd":"55","v_score":"3.93832808","decile":"6","lat":40.380597062559,"lng":-111.777364246892},{"id":"74135","name":"Sabina Abshire","party":"Dem","address":"36 S 750 E, American Fork, UT 84003","precinct":"25AF15","hd":"55","v_score":"2.744440783","decile":"5","lat":40.376274430469,"lng":-111.777573581665},{"id":"74355","name":"Donita Renner PhD","party":"Dem","address":"132 N 670 E, American Fork, UT 84003","precinct":"25AF15","hd":"55","v_score":"1.121327652","decile":"3","lat":40.379414584323,"lng":-111.780625665856},{"id":"74536","name":"Delois Hagenes MD","party":"","address":"16 N 700 E, Apt 2, American Fork, UT 84003","precinct":"25AF15","hd":"55","v_score":"5.191257514","decile":"7","lat":40.376862862445,"lng":-111.779492803311},{"id":"74922","name":"Belva Auer","party":"Rep","address":"148 N 670 E, American Fork, UT 84003","precinct":"25AF15","hd":"55","v_score":"1.121327652","decile":"3","lat":40.379598651084,"lng":-111.78062633274},{"id":"75530","name":"Mr. Denton Hand Jr.","party":"","address":"230 N 800 E, American Fork, UT 84003","precinct":"25AF15","hd":"55","v_score":"0","decile":"1","lat":40.380802029694,"lng":-111.776491908468},{"id":"77671","name":"Erastus Schaden","party":"Rep","address":"131 N 775 E, American Fork, UT 84003","precinct":"25AF15","hd":"55","v_score":"20.18299619","decile":"10","lat":40.379256553201,"lng":-111.777396572884},{"id":"77862","name":"Jamya Rutherford","party":"Dem","address":"615 E 30 N, American Fork, UT 84003","precinct":"25AF15","hd":"55","v_score":"1.121327652","decile":"3","lat":40.377087833426,"lng":-111.782329312745},{"id":"78642","name":"Dr. Raul Hirthe","party":"Dem","address":"623 E 30 N, American Fork, UT 84003","precinct":"25AF15","hd":"55","v_score":"6.814370645","decile":"8","lat":40.377089186707,"lng":-111.782243379006},{"id":"78868","name":"Dee Nikolaus-Fahey","party":"Rep","address":"632 E 100 N, American Fork, UT 84003","precinct":"25AF15","hd":"55","v_score":"3.93832808","decile":"6","lat":40.378922221882,"lng":-111.78169582795},{"id":"79355","name":"Mr. Odis Satterfield III","party":"Dem","address":"16 S 600 E, Apt 2, American Fork, UT 84003","precinct":"25AF15","hd":"55","v_score":"3.781490609","decile":"6","lat":40.376488808785,"lng":-111.782629397217},{"id":"79610","name":"Doloris Kreiger DDS","party":"Dem","address":"632 E 100 N, American Fork, UT 84003","precinct":"25AF15","hd":"55","v_score":"3.93832808","decile":"6","lat":40.378922221882,"lng":-111.78169582795},{"id":"79663","name":"Honora Homenick","party":"Dem","address":"129 N 670 E, American Fork, UT 84003","precinct":"25AF15","hd":"55","v_score":"8.15240309","decile":"8","lat":40.379368251366,"lng":-111.78077592519},{"id":"79746","name":"Dr. Tamia Kling","party":"Dem","address":"632 E 30 N, American Fork, UT 84003","precinct":"25AF15","hd":"55","v_score":"1.121327652","decile":"3","lat":40.376976311392,"lng":-111.782132852955},{"id":"80637","name":"Dr. Delle Crona","party":"Dem","address":"623 E 30 N, American Fork, UT 84003","precinct":"25AF15","hd":"55","v_score":"6.814370645","decile":"8","lat":40.377089186707,"lng":-111.782243379006},{"id":"80960","name":"Liddie Bode","party":"","address":"672 E 100 N, American Fork, UT 84003","precinct":"25AF15","hd":"55","v_score":"0","decile":"1","lat":40.378930840027,"lng":-111.780555007947},{"id":"81457","name":"Granville Kozey","party":"Rep","address":"16 N 700 E, Apt 17, American Fork, UT 84003","precinct":"25AF15","hd":"55","v_score":"1.193887297","decile":"3","lat":40.376862862445,"lng":-111.779492803311},{"id":"82650","name":"Krystin Collier","party":"Rep","address":"21 S 750 E, American Fork, UT 84003","precinct":"25AF15","hd":"55","v_score":"2.817000428","decile":"6","lat":40.376396131262,"lng":-111.777416967029},{"id":"82654","name":"Ricki Johns","party":"","address":"96 N 825 E, American Fork, UT 84003","precinct":"25AF15","hd":"55","v_score":"1.193887297","decile":"3","lat":40.379296333197,"lng":-111.775384064983},{"id":"82874","name":"Marge Kovacek","party":"Dem","address":"180 N 825 E, American Fork, UT 84003","precinct":"25AF15","hd":"55","v_score":"1.193887297","decile":"3","lat":40.380846044993,"lng":-111.775499281746},{"id":"82905","name":"Ms. Jaeda Abshire","party":"","address":"147 N 700 E, American Fork, UT 84003","precinct":"25AF15","hd":"55","v_score":"0","decile":"1","lat":40.379769515539,"lng":-111.779646634876},{"id":"83455","name":"Jasmin Kilback","party":"Dem","address":"231 N 825 E, American Fork, UT 84003","precinct":"25AF15","hd":"55","v_score":"10.14056997","decile":"9","lat":40.381501251979,"lng":-111.775592919601},{"id":"84257","name":"Delphin Runolfsdottir","party":"","address":"675 Shelly Ave, American Fork, UT 84003","precinct":"25AF15","hd":"55","v_score":"3.61989409","decile":"6","lat":40.382223292482,"lng":-111.780133151952},{"id":"84795","name":"Merle Fritsch DDS","party":"Dem","address":"47 N 870 E, American Fork, UT 84003","precinct":"25AF15","hd":"55","v_score":"0","decile":"1","lat":40.377867207769,"lng":-111.774375297682},{"id":"85135","name":"Soloman Dach","party":"","address":"645 E 100 N, American Fork, UT 84003","precinct":"25AF15","hd":"55","v_score":"0","decile":"1","lat":40.379039711541,"lng":-111.781409895403},{"id":"85136","name":"Blanchie Littel DVM","party":"Rep","address":"645 E 100 N, American Fork, UT 84003","precinct":"25AF15","hd":"55","v_score":"0","decile":"1","lat":40.379039711541,"lng":-111.781409895403},{"id":"85268","name":"John Cassin","party":"Rep","address":"610 E 50 N, American Fork, UT 84003","precinct":"25AF15","hd":"55","v_score":"1.193887297","decile":"3","lat":40.377653413548,"lng":-111.782379888285},{"id":"85364","name":"Dr. Devan Parker IV","party":"","address":"885 E 50 S, American Fork, UT 84003","precinct":"25AF15","hd":"55","v_score":"4.905839784","decile":"7","lat":40.375738999027,"lng":-111.773667344209},{"id":"85658","name":"Dr. Latricia Zboncak","party":"Dem","address":"56 N 775 E, American Fork, UT 84003","precinct":"25AF15","hd":"55","v_score":"8.875197818","decile":"8","lat":40.37839517628,"lng":-111.777243158226},{"id":"86480","name":"Mr. Larue Little","party":"","address":"130 N 600 E, American Fork, UT 84003","precinct":"25AF15","hd":"55","v_score":"2.817000428","decile":"6","lat":40.379593044481,"lng":-111.782457126073},{"id":"86955","name":"Gerald Wintheiser","party":"","address":"16 N 700 E, Apt 20, American Fork, UT 84003","precinct":"25AF15","hd":"55","v_score":"3.016591252","decile":"6","lat":40.376862862445,"lng":-111.779492803311},{"id":"86969","name":"Gaylen King","party":"","address":"624 E 300 N, American Fork, UT 84003","precinct":"25AF15","hd":"55","v_score":"1.193887297","decile":"4","lat":40.38312570111,"lng":-111.781789409436},{"id":"87494","name":"Zena Swaniawski","party":"Rep","address":"707 E 140 N, American Fork, UT 84003","precinct":"25AF15","hd":"55","v_score":"5.243007221","decile":"7","lat":40.379586292731,"lng":-111.77948261935},{"id":"87798","name":"Reggie Hermann II","party":"Rep","address":"97 N 750 E, American Fork, UT 84003","precinct":"25AF15","hd":"55","v_score":"0","decile":"1","lat":40.378942187796,"lng":-111.778335552791},{"id":"88070","name":"Dr. Sherwood Kozey IV","party":"","address":"8 N 600 E, American Fork, UT 84003","precinct":"25AF15","hd":"55","v_score":"1.193887297","decile":"4","lat":40.376797915858,"lng":-111.78247812672},{"id":"88540","name":"Irine Keebler","party":"","address":"145 N 900 E, American Fork, UT 84003","precinct":"25AF15","hd":"55","v_score":"0","decile":"1","lat":40.380568644031,"lng":-111.773237567262},{"id":"88599","name":"Kayla Shanahan","party":"Dem","address":"743 E 10 S, American Fork, UT 84003","precinct":"25AF15","hd":"55","v_score":"14.13760315","decile":"9","lat":40.376688759146,"lng":-111.777473026733},{"id":"88924","name":"Enrique Rodriguez","party":"Dem","address":"629 E Main St, American Fork, UT 84003","precinct":"25AF15","hd":"55","v_score":"0","decile":"1","lat":40.376602971949,"lng":-111.781967050771},{"id":"89749","name":"Alda Crist","party":"Rep","address":"37 N 800 E, American Fork, UT 84003","precinct":"25AF15","hd":"55","v_score":"0","decile":"1","lat":40.378125865144,"lng":-111.776491983123},{"id":"89934","name":"Lone Rau DDS","party":"Dem","address":"16 N 700 E, Apt 6, American Fork, UT 84003","precinct":"25AF15","hd":"55","v_score":"0","decile":"1","lat":40.376862862445,"lng":-111.779492803311},{"id":"90277","name":"Floy Ruecker DVM","party":"Dem","address":"47 N 870 E, American Fork, UT 84003","precinct":"25AF15","hd":"55","v_score":"2.426006793","decile":"5","lat":40.377867207769,"lng":-111.774375297682},{"id":"91188","name":"Lincoln Armstrong","party":"Dem","address":"684 E 100 N, American Fork, UT 84003","precinct":"25AF15","hd":"55","v_score":"2.817000428","decile":"6","lat":40.37892737218,"lng":-111.780135402396},{"id":"91193","name":"Mr. Adrien Krajcik PhD","party":"Rep","address":"165 N 800 E, American Fork, UT 84003","precinct":"25AF15","hd":"55","v_score":"1.193887297","decile":"4","lat":40.380111949314,"lng":-111.776559557366},{"id":"93399","name":"Krysten Christiansen DVM","party":"","address":"622 E 30 N, American Fork, UT 84003","precinct":"25AF15","hd":"55","v_score":"0","decile":"1","lat":40.376974619792,"lng":-111.782240270129},{"id":"93430","name":"Mr. Randle Armstrong III","party":"Dem","address":"16 N 700 E, Apt 4, American Fork, UT 84003","precinct":"25AF15","hd":"55","v_score":"1.193887297","decile":"4","lat":40.376862862445,"lng":-111.779492803311},{"id":"94370","name":"Merilyn Predovic","party":"","address":"675 E 170 N, American Fork, UT 84003","precinct":"25AF15","hd":"55","v_score":"0","decile":"1","lat":40.380294779711,"lng":-111.779890109238},{"id":"95361","name":"Mr. Kelton Hartmann DDS","party":"Dem","address":"34 N 640 E, American Fork, UT 84003","precinct":"25AF15","hd":"55","v_score":"5.693042993","decile":"7","lat":40.377382245642,"lng":-111.781312626347},{"id":"96816","name":"Ms. Mina Schmidt","party":"","address":"124 N 825 E, American Fork, UT 84003","precinct":"25AF15","hd":"55","v_score":"11.26156058","decile":"9","lat":40.379988498466,"lng":-111.775423854733},{"id":"97016","name":"Merry King","party":"Rep","address":"169 N 670 E, American Fork, UT 84003","precinct":"25AF15","hd":"55","v_score":"11.30609121","decile":"9","lat":40.379828418269,"lng":-111.7807775924},{"id":"97799","name":"Deidre Ratke","party":"","address":"885 E 50 S, American Fork, UT 84003","precinct":"25AF15","hd":"55","v_score":"3.61989409","decile":"6","lat":40.375738999027,"lng":-111.773667344209},{"id":"98120","name":"Octavio Prosacco","party":"Dem","address":"213 N 900 E, American Fork, UT 84003","precinct":"25AF15","hd":"55","v_score":"2.817000428","decile":"6","lat":40.381322447032,"lng":-111.773244504},{"id":"98646","name":"Ernie Muller DVM","party":"Rep","address":"16 N 700 E, Apt 11, American Fork, UT 84003","precinct":"25AF15","hd":"55","v_score":"13.85252246","decile":"9","lat":40.376862862445,"lng":-111.779492803311},{"id":"98925","name":"Danita Medhurst-Sawayn","party":"","address":"216 N 800 E, American Fork, UT 84003","precinct":"25AF15","hd":"55","v_score":"0","decile":"1","lat":40.380657877826,"lng":-111.776474483538},{"id":"99038","name":"Mr. Daxton Klein PhD","party":"Dem","address":"230 N 800 E, American Fork, UT 84003","precinct":"25AF15","hd":"55","v_score":"1.193887297","decile":"4","lat":40.380802029694,"lng":-111.776491908468},{"id":"99317","name":"Dema Morissette","party":"","address":"129 N 670 E, American Fork, UT 84003","precinct":"25AF15","hd":"55","v_score":"12.65863516","decile":"9","lat":40.379368251366,"lng":-111.78077592519},{"id":"99409","name":"Kellee Greenholt MD","party":"","address":"801 E Evergreen Dr, American Fork, UT 84003","precinct":"25AF15","hd":"55","v_score":"1.193887297","decile":"4","lat":40.382133292206,"lng":-111.776401045795},{"id":"99656","name":"Hazen Krajcik-Hettinger","party":"","address":"894 E 300 N, American Fork, UT 84003","precinct":"25AF15","hd":"55","v_score":"4.069929862","decile":"6","lat":40.383089700467,"lng":-111.773371779885},{"id":"99855","name":"Lottie Christiansen PhD","party":"Dem","address":"130 N 600 E, American Fork, UT 84003","precinct":"25AF15","hd":"55","v_score":"0","decile":"1","lat":40.379593044481,"lng":-111.782457126073},{"id":"100002","name":"Ms. Lisette Kerluke DVM","party":"","address":"16 N 700 E, Apt 20, American Fork, UT 84003","precinct":"25AF15","hd":"55","v_score":"0","decile":"1","lat":40.376862862445,"lng":-111.779492803311},{"id":"100882","name":"Josue Shields-Kerluke","party":"Dem","address":"792 E 30 N, American Fork, UT 84003","precinct":"25AF15","hd":"55","v_score":"0","decile":"2","lat":40.377456907376,"lng":-111.776524736349},{"id":"103753","name":"Philomene Russel","party":"","address":"16 S 600 E, Apt 2, American Fork, UT 84003","precinct":"25AF15","hd":"55","v_score":"3.61989409","decile":"6","lat":40.376488808785,"lng":-111.782629397217},{"id":"104066","name":"Caddie Lesch","party":"Dem","address":"807 E 10 S, American Fork, UT 84003","precinct":"25AF15","hd":"55","v_score":"0","decile":"2","lat":40.376715292875,"lng":-111.77712585611},{"id":"105608","name":"Lori Grimes","party":"","address":"648 E 220 N, American Fork, UT 84003","precinct":"25AF15","hd":"55","v_score":"0","decile":"2","lat":40.381091701227,"lng":-111.780307404359},{"id":"105720","name":"Mr. Schuyler Maggio III","party":"Rep","address":"292 N 860 E, American Fork, UT 84003","precinct":"25AF15","hd":"55","v_score":"0","decile":"2","lat":40.369947705627,"lng":-111.774492543109},{"id":"106608","name":"Dr. Vollie Gorczany DDS","party":"Dem","address":"270 N 700 E, American Fork, UT 84003","precinct":"25AF15","hd":"55","v_score":"0","decile":"2","lat":40.382848782753,"lng":-111.779515723509},{"id":"106709","name":"Mariana Wisozk","party":"Dem","address":"131 N 775 E, American Fork, UT 84003","precinct":"25AF15","hd":"55","v_score":"7.090117576","decile":"8","lat":40.379256553201,"lng":-111.777396572884},{"id":"106909","name":"Sawyer Considine","party":"","address":"17 N 700 E, Apt 31, American Fork, UT 84003","precinct":"25AF15","hd":"55","v_score":"3.61989409","decile":"6","lat":40.377186009819,"lng":-111.779640951051},{"id":"107184","name":"Chadd Lehner","party":"Dem","address":"131 N 775 E, American Fork, UT 84003","precinct":"25AF15","hd":"55","v_score":"0","decile":"2","lat":40.379256553201,"lng":-111.777396572884},{"id":"107461","name":"Jarred Rath","party":"","address":"37 N 800 E, American Fork, UT 84003","precinct":"25AF15","hd":"55","v_score":"1.193887297","decile":"4","lat":40.378125865144,"lng":-111.776491983123},{"id":"108301","name":"Vernell Baumbach DDS","party":"Dem","address":"798 E 30 N, American Fork, UT 84003","precinct":"25AF15","hd":"55","v_score":"0","decile":"2","lat":40.377456447079,"lng":-111.776478016611},{"id":"109043","name":"Marcie Deckow","party":"","address":"645 E 100 N, American Fork, UT 84003","precinct":"25AF15","hd":"55","v_score":"1.193887297","decile":"4","lat":40.379039711541,"lng":-111.781409895403},{"id":"109216","name":"Freida Pfannerstill DVM","party":"Rep","address":"625 E 230 N, American Fork, UT 84003","precinct":"25AF15","hd":"55","v_score":"1.193887297","decile":"4","lat":40.381611292356,"lng":-111.777589992215},{"id":"109837","name":"Nova McLaughlin","party":"","address":"187 N 860 E, American Fork, UT 84003","precinct":"25AF15","hd":"55","v_score":"2.876042565","decile":"6","lat":40.381034240063,"lng":-111.774420346944},{"id":"110187","name":"Arnett Hegmann","party":"","address":"817 E Evergreen Dr, American Fork, UT 84003","precinct":"25AF15","hd":"55","v_score":"0","decile":"2","lat":40.382133292178,"lng":-111.776043961481},{"id":"111558","name":"Magnolia Streich-Bradtke","party":"","address":"798 E 30 N, American Fork, UT 84003","precinct":"25AF15","hd":"55","v_score":"1.193887297","decile":"4","lat":40.377456447079,"lng":-111.776478016611},{"id":"112586","name":"Nicolas Fritsch PhD","party":"Rep","address":"124 N 825 E, American Fork, UT 84003","precinct":"25AF15","hd":"55","v_score":"0","decile":"2","lat":40.379988498466,"lng":-111.775423854733},{"id":"112823","name":"Mr. Bartholomew Volkman","party":"Rep","address":"622 E 30 N, American Fork, UT 84003","precinct":"25AF15","hd":"55","v_score":"0","decile":"2","lat":40.376974619792,"lng":-111.782240270129},{"id":"112914","name":"Ewing Goodwin MD","party":"Rep","address":"809 E Evergreen Dr, American Fork, UT 84003","precinct":"25AF15","hd":"55","v_score":"0","decile":"2","lat":40.382133292192,"lng":-111.776222503638},{"id":"113469","name":"Meta Wunsch DVM","party":"","address":"19 S 750 E, American Fork, UT 84003","precinct":"25AF15","hd":"55","v_score":"4.069929862","decile":"7","lat":40.376413272901,"lng":-111.777416109945},{"id":"114605","name":"Kenan Bauch","party":"Dem","address":"180 N 825 E, American Fork, UT 84003","precinct":"25AF15","hd":"55","v_score":"0","decile":"2","lat":40.380846044993,"lng":-111.775499281746},{"id":"114643","name":"Heber Legros","party":"Dem","address":"886 E 30 N, American Fork, UT 84003","precinct":"25AF15","hd":"55","v_score":"1.193887297","decile":"4","lat":40.377224108799,"lng":-111.773265075688},{"id":"114748","name":"Enid Miller","party":"Rep","address":"675 E 170 N, American Fork, UT 84003","precinct":"25AF15","hd":"55","v_score":"1.193887297","decile":"4","lat":40.380294779711,"lng":-111.779890109238},{"id":"115357","name":"Friend Rau","party":"Dem","address":"295 N 700 E, American Fork, UT 84003","precinct":"25AF15","hd":"55","v_score":"0","decile":"2","lat":40.383031163742,"lng":-111.779666987113},{"id":"117148","name":"Reason Wehner","party":"Rep","address":"16 N 700 E, Apt 19, American Fork, UT 84003","precinct":"25AF15","hd":"55","v_score":"8.284004873","decile":"8","lat":40.376862862445,"lng":-111.779492803311},{"id":"117332","name":"Elinore Hegmann","party":"Dem","address":"195 N 775 E, American Fork, UT 84003","precinct":"25AF15","hd":"55","v_score":"1.193887297","decile":"4","lat":40.38016754757,"lng":-111.777404166588},{"id":"117505","name":"Chiquita Kiehn DVM","party":"","address":"761 E 10 S, American Fork, UT 84003","precinct":"25AF15","hd":"55","v_score":"1.193887297","decile":"4","lat":40.376688759146,"lng":-111.777473026733},{"id":"117719","name":"Waldemar Gislason II","party":"Rep","address":"894 E 300 N, American Fork, UT 84003","precinct":"25AF15","hd":"55","v_score":"0","decile":"2","lat":40.383089700467,"lng":-111.773371779885},{"id":"117908","name":"Damarcus Jakubowski","party":"Dem","address":"625 E 230 N, American Fork, UT 84003","precinct":"25AF15","hd":"55","v_score":"0","decile":"2","lat":40.381611292356,"lng":-111.777589992215},{"id":"118571","name":"Lizette Feeney","party":"","address":"610 E 50 N, American Fork, UT 84003","precinct":"25AF15","hd":"55","v_score":"1.193887297","decile":"4","lat":40.377653413548,"lng":-111.782379888285},{"id":"119085","name":"Dr. Rowland Rogahn","party":"Rep","address":"265 Chipman Ave, American Fork, UT 84003","precinct":"25AF15","hd":"55","v_score":"8.284004873","decile":"8","lat":40.382763037285,"lng":-111.778522510991},{"id":"119713","name":"Erna Kuphal","party":"Dem","address":"58 N 750 E, American Fork, UT 84003","precinct":"25AF15","hd":"55","v_score":"8.284004873","decile":"8","lat":40.378445266647,"lng":-111.778185123335},{"id":"120194","name":"Ms. Sibbie Fay","party":"","address":"683 Seymore Dr, American Fork, UT 84003","precinct":"25AF15","hd":"55","v_score":"1.193887297","decile":"4","lat":40.378326292911,"lng":-111.779961922982},{"id":"120300","name":"Reid Kuphal","party":"Rep","address":"254 N 860 E, American Fork, UT 84003","precinct":"25AF15","hd":"55","v_score":"0","decile":"2","lat":40.370189249689,"lng":-111.774492821089},{"id":"120519","name":"Cleo Stark","party":"","address":"37 S 800 E, American Fork, UT 84003","precinct":"25AF15","hd":"55","v_score":"0","decile":"2","lat":40.374433690876,"lng":-111.776466131142},{"id":"120531","name":"Maddux Thiel-Runolfsson","party":"","address":"729 E 140 N, American Fork, UT 84003","precinct":"25AF15","hd":"55","v_score":"0","decile":"2","lat":40.379586292728,"lng":-111.779438603165},{"id":"120537","name":"Mr. Orlo Frami II","party":"","address":"97 N 775 E, American Fork, UT 84003","precinct":"25AF15","hd":"55","v_score":"0","decile":"2","lat":40.378817845406,"lng":-111.777395049651},{"id":"120600","name":"Florida Bogisich MD","party":"","address":"795 E 10 S, American Fork, UT 84003","precinct":"25AF15","hd":"55","v_score":"0","decile":"2","lat":40.376715292879,"lng":-111.777172975659},{"id":"120646","name":"Cristina Christiansen DDS","party":"","address":"675 Shelly Ave, American Fork, UT 84003","precinct":"25AF15","hd":"55","v_score":"4.069929862","decile":"7","lat":40.382223292482,"lng":-111.780133151952},{"id":"121562","name":"Arno Klein-Bergstrom","party":"Dem","address":"131 N 700 E, American Fork, UT 84003","precinct":"25AF15","hd":"55","v_score":"1.193887297","decile":"4","lat":40.379586004882,"lng":-111.779645427593},{"id":"121999","name":"Davy Bergstrom","party":"Rep","address":"185 N 700 E, American Fork, UT 84003","precinct":"25AF15","hd":"55","v_score":"0","decile":"2","lat":40.380513292639,"lng":-111.779654053282},{"id":"122328","name":"Denine Johnston","party":"Rep","address":"16 N 700 E, Apt 12, American Fork, UT 84003","precinct":"25AF15","hd":"55","v_score":"1.193887297","decile":"4","lat":40.376862862445,"lng":-111.779492803311},{"id":"122333","name":"Elijah Kertzmann","party":"","address":"161 N 670 E, American Fork, UT 84003","precinct":"25AF15","hd":"55","v_score":"1.193887297","decile":"4","lat":40.379736384889,"lng":-111.780777258958},{"id":"122461","name":"Desmond Halvorson","party":"Rep","address":"195 N 775 E, American Fork, UT 84003","precinct":"25AF15","hd":"55","v_score":"1.193887297","decile":"4","lat":40.38016754757,"lng":-111.777404166588},{"id":"123456","name":"Dequan Walter","party":"Rep","address":"663 E 220 N, American Fork, UT 84003","precinct":"25AF15","hd":"55","v_score":"1.193887297","decile":"4","lat":40.381206292597,"lng":-111.780124466021},{"id":"123459","name":"Mrs. Giselle Kuphal","party":"","address":"663 E 220 N, American Fork, UT 84003","precinct":"25AF15","hd":"55","v_score":"0","decile":"2","lat":40.381206292597,"lng":-111.780124466021},{"id":"123725","name":"Oscar McClure","party":"Rep","address":"295 N 700 E, American Fork, UT 84003","precinct":"25AF15","hd":"55","v_score":"1.193887297","decile":"4","lat":40.383031163742,"lng":-111.779666987113},{"id":"123751","name":"Harvey Hansen","party":"","address":"251 Chipman Ave, American Fork, UT 84003","precinct":"25AF15","hd":"55","v_score":"5.407962308","decile":"7","lat":40.382625120467,"lng":-111.778520212395},{"id":"123898","name":"Alecia Bayer","party":"","address":"266 N 860 E, American Fork, UT 84003","precinct":"25AF15","hd":"55","v_score":"0","decile":"2","lat":40.370113376963,"lng":-111.774492543087},{"id":"124852","name":"Alan Hyatt-Langworth","party":"Rep","address":"231 N 825 E, American Fork, UT 84003","precinct":"25AF15","hd":"55","v_score":"4.214075011","decile":"7","lat":40.381501251979,"lng":-111.775592919601},{"id":"125757","name":"Adrian Hirthe","party":"Dem","address":"254 N 860 E, American Fork, UT 84003","precinct":"25AF15","hd":"55","v_score":"0","decile":"2","lat":40.370189249689,"lng":-111.774492821089},{"id":"125877","name":"Mr. Emery Schmitt","party":"Rep","address":"19 S 800 E, American Fork, UT 84003","precinct":"25AF15","hd":"55","v_score":"0","decile":"2","lat":40.374534600703,"lng":-111.776466131129},{"id":"126055","name":"Ica Douglas PhD","party":"Rep","address":"165 N 800 E, American Fork, UT 84003","precinct":"25AF15","hd":"55","v_score":"0","decile":"2","lat":40.380111949314,"lng":-111.776559557366},{"id":"126571","name":"Kristian Streich","party":"","address":"43 S 750 E, American Fork, UT 84003","precinct":"25AF15","hd":"55","v_score":"0","decile":"2","lat":40.376197196394,"lng":-111.777437341648},{"id":"127129","name":"Citlalli Ledner-Walter","party":"","address":"43 S 750 E, American Fork, UT 84003","precinct":"25AF15","hd":"55","v_score":"0","decile":"2","lat":40.376197196394,"lng":-111.777437341648},{"id":"127882","name":"Nakia Prohaska","party":"Rep","address":"208 N 775 E, American Fork, UT 84003","precinct":"25AF15","hd":"55","v_score":"0","decile":"2","lat":40.380597062559,"lng":-111.777364246892},{"id":"128071","name":"Mrs. Saige Price PhD","party":"","address":"185 N 700 E, American Fork, UT 84003","precinct":"25AF15","hd":"55","v_score":"0","decile":"2","lat":40.380513292639,"lng":-111.779654053282},{"id":"128557","name":"Corey Crooks","party":"Rep","address":"143 N 860 E, American Fork, UT 84003","precinct":"25AF15","hd":"55","v_score":"0","decile":"2","lat":40.380634152407,"lng":-111.774398364161},{"id":"128632","name":"Ms. Lashonda Kris","party":"Dem","address":"161 N 670 E, American Fork, UT 84003","precinct":"25AF15","hd":"55","v_score":"0","decile":"2","lat":40.379736384889,"lng":-111.780777258958},{"id":"129414","name":"Dr. Carolyn Hoeger DVM","party":"","address":"72 N 825 E, American Fork, UT 84003","precinct":"25AF15","hd":"55","v_score":"2.876042565","decile":"6","lat":40.378789187558,"lng":-111.775375643813},{"id":"129789","name":"Giselle Prosacco-Bosco","party":"Rep","address":"295 Parker Ave, American Fork, UT 84003","precinct":"25AF15","hd":"55","v_score":"2.876042565","decile":"6","lat":40.383059661103,"lng":-111.777391358752},{"id":"129898","name":"Dakota Fritsch","party":"","address":"798 E 30 N, American Fork, UT 84003","precinct":"25AF15","hd":"55","v_score":"0","decile":"2","lat":40.377456447079,"lng":-111.776478016611},{"id":"130940","name":"Dr. Abbigail Volkman DDS","party":"Rep","address":"16 N 700 E, Apt 6, American Fork, UT 84003","precinct":"25AF15","hd":"55","v_score":"0","decile":"2","lat":40.376862862445,"lng":-111.779492803311},{"id":"132948","name":"Tamara Vandervort","party":"","address":"167 N 900 E, American Fork, UT 84003","precinct":"25AF15","hd":"55","v_score":"0","decile":"2","lat":40.380812521473,"lng":-111.773239811501},{"id":"133927","name":"Joseluis Terry DVM","party":"Rep","address":"16 N 700 E, Apt 18, American Fork, UT 84003","precinct":"25AF15","hd":"55","v_score":"0","decile":"2","lat":40.376862862445,"lng":-111.779492803311},{"id":"134289","name":"Neely Considine III","party":"","address":"16 S 600 E, Apt 2, American Fork, UT 84003","precinct":"25AF15","hd":"55","v_score":"0","decile":"2","lat":40.376488808785,"lng":-111.782629397217},{"id":"134999","name":"Mrs. Frederica Windler DDS","party":"Rep","address":"221 N 825 E, American Fork, UT 84003","precinct":"25AF15","hd":"55","v_score":"3.781490609","decile":"6","lat":40.381416422361,"lng":-111.775602008499},{"id":"135997","name":"Jarrod Roob IV","party":"Rep","address":"19 N 700 E, Apt 24, American Fork, UT 84003","precinct":"25AF15","hd":"55","v_score":"0","decile":"2","lat":40.37573429318,"lng":-111.779645047803},{"id":"137054","name":"Miss Ferne Trantow MD","party":"","address":"654 Shelly Ave, American Fork, UT 84003","precinct":"25AF15","hd":"55","v_score":"5.40460374","decile":"7","lat":40.382108701128,"lng":-111.780524900102},{"id":"137489","name":"Fleet Jones","party":"","address":"213 N 900 E, American Fork, UT 84003","precinct":"25AF15","hd":"55","v_score":"2.315214949","decile":"5","lat":40.381322447032,"lng":-111.773244504},{"id":"137740","name":"Ferrell Turner","party":"","address":"174 N 800 E, American Fork, UT 84003","precinct":"25AF15","hd":"55","v_score":"7.947838735","decile":"8","lat":40.380225422222,"lng":-111.776422208746},{"id":"137915","name":"Acie Gottlieb-Hartmann","party":"Dem","address":"16 S 600 E, Apt 1, American Fork, UT 84003","precinct":"25AF15","hd":"55","v_score":"0","decile":"2","lat":40.376488808785,"lng":-111.782629397217},{"id":"138752","name":"Mrs. Mandi Gleichner DDS","party":"","address":"180 N 825 E, American Fork, UT 84003","precinct":"25AF15","hd":"55","v_score":"1.193887297","decile":"4","lat":40.380846044993,"lng":-111.775499281746},{"id":"140635","name":"Jaiden Williamson-Schuppe","party":"Rep","address":"273 N 900 E, American Fork, UT 84003","precinct":"25AF15","hd":"55","v_score":"9.242463391","decile":"8","lat":40.382547614191,"lng":-111.773258839556},{"id":"140648","name":"Isabella Ondricka","party":"","address":"808 E 300 N, American Fork, UT 84003","precinct":"25AF15","hd":"55","v_score":"13.26092733","decile":"9","lat":40.383089700703,"lng":-111.77644350568},{"id":"141686","name":"Vince Maggio-Satterfield","party":"","address":"16 N 700 E, Apt 3, American Fork, UT 84003","precinct":"25AF15","hd":"55","v_score":"19.65333578","decile":"10","lat":40.376862862445,"lng":-111.779492803311},{"id":"142618","name":"Mr. Rylan Jaskolski","party":"","address":"295 N 700 E, American Fork, UT 84003","precinct":"25AF15","hd":"55","v_score":"2.315214949","decile":"5","lat":40.383031163742,"lng":-111.779666987113},{"id":"143224","name":"Christoper Gottlieb DDS","party":"Rep","address":"165 N 800 E, American Fork, UT 84003","precinct":"25AF15","hd":"55","v_score":"12.13314748","decile":"9","lat":40.380111949314,"lng":-111.776559557366},{"id":"143675","name":"Margurite Ebert-Lesch","party":"Dem","address":"35 S 800 E, American Fork, UT 84003","precinct":"25AF15","hd":"55","v_score":"18.35167816","decile":"10","lat":40.374444903079,"lng":-111.776466131141},{"id":"144332","name":"Shawnte Flatley","party":"Dem","address":"628 E 230 N, American Fork, UT 84003","precinct":"25AF15","hd":"55","v_score":"0","decile":"3","lat":40.38149670097,"lng":-111.777570304},{"id":"145007","name":"Lota Torphy","party":"Dem","address":"685 E 170 N, American Fork, UT 84003","precinct":"25AF15","hd":"55","v_score":"1.193887297","decile":"4","lat":40.380295575767,"lng":-111.77979020326},{"id":"145151","name":"Mr. Westley Schmeler","party":"","address":"16 N 700 E, Apt 7, American Fork, UT 84003","precinct":"25AF15","hd":"55","v_score":"0","decile":"3","lat":40.376862862445,"lng":-111.779492803311},{"id":"145202","name":"Mason Greenfelder-Keeling","party":"","address":"632 E 30 N, American Fork, UT 84003","precinct":"25AF15","hd":"55","v_score":"6.657533174","decile":"7","lat":40.376976311392,"lng":-111.782132852955},{"id":"146092","name":"Coley Hammes","party":"","address":"632 E 30 N, American Fork, UT 84003","precinct":"25AF15","hd":"55","v_score":"6.657533174","decile":"7","lat":40.376976311392,"lng":-111.782132852955},{"id":"146702","name":"Sherilyn Rohan","party":"","address":"795 E 10 S, American Fork, UT 84003","precinct":"25AF15","hd":"55","v_score":"8.363183621","decile":"8","lat":40.376715292879,"lng":-111.777172975659},{"id":"146718","name":"Gwendolyn Hand","party":"Dem","address":"705 E 50 N, American Fork, UT 84003","precinct":"25AF15","hd":"55","v_score":"3.93832808","decile":"6","lat":40.377740446906,"lng":-111.779442322479},{"id":"146994","name":"Bert Bartell","party":"","address":"765 E 10 S, American Fork, UT 84003","precinct":"25AF15","hd":"55","v_score":"26.38204183","decile":"10","lat":40.376715292888,"lng":-111.777290774533},{"id":"147391","name":"Miss Gerda Mosciski DDS","party":"Dem","address":"232 N 860 E, American Fork, UT 84003","precinct":"25AF15","hd":"55","v_score":"25.1107121","decile":"10","lat":40.370329425698,"lng":-111.774494715341},{"id":"147753","name":"Amado Boehm","party":"Rep","address":"700 E 300 N, American Fork, UT 84003","precinct":"25AF15","hd":"55","v_score":"29.68136853","decile":"10","lat":40.383098700938,"lng":-111.779517119248},{"id":"147788","name":"Deloris Hintz","party":"Dem","address":"230 N 800 E, American Fork, UT 84003","precinct":"25AF15","hd":"55","v_score":"11.37977487","decile":"9","lat":40.380802029694,"lng":-111.776491908468},{"id":"147889","name":"Ms. Princess Adams","party":"","address":"160 N 825 E, American Fork, UT 84003","precinct":"25AF15","hd":"55","v_score":"11.46588297","decile":"9","lat":40.380544681051,"lng":-111.77548681872},{"id":"147968","name":"Miss Elenore Fay","party":"Dem","address":"230 N 800 E, American Fork, UT 84003","precinct":"25AF15","hd":"55","v_score":"8.421194992","decile":"8","lat":40.380802029694,"lng":-111.776491908468},{"id":"148166","name":"Dani Hayes","party":"","address":"733 E 50 S, American Fork, UT 84003","precinct":"25AF15","hd":"55","v_score":"20.91067752","decile":"10","lat":40.375734293096,"lng":-111.778542948202},{"id":"148322","name":"Dr. Billye Thompson","party":"Dem","address":"126 N 600 E, American Fork, UT 84003","precinct":"25AF15","hd":"55","v_score":"17.35851679","decile":"9","lat":40.379512290237,"lng":-111.782458099026},{"id":"148330","name":"Dr. Delmus Rogahn","party":"Dem","address":"31 N 775 E, American Fork, UT 84003","precinct":"25AF15","hd":"55","v_score":"20.39377672","decile":"10","lat":40.377966236157,"lng":-111.777392092786},{"id":"148428","name":"Vinie Koelpin","party":"Dem","address":"21 S 800 E, American Fork, UT 84003","precinct":"25AF15","hd":"55","v_score":"15.67698213","decile":"9","lat":40.3745233885,"lng":-111.776466131131},{"id":"148512","name":"Zavier Crona III","party":"Rep","address":"17 N 700 E, Apt 28, American Fork, UT 84003","precinct":"25AF15","hd":"55","v_score":"25.80307694","decile":"10","lat":40.377186009819,"lng":-111.779640951051},{"id":"148860","name":"Dr. Hillard Crona","party":"Dem","address":"716 E 50 N, American Fork, UT 84003","precinct":"25AF15","hd":"55","v_score":"10.38488476","decile":"9","lat":40.377624885183,"lng":-111.779302306824},{"id":"148897","name":"Donte Bednar","party":"Rep","address":"790 E Fleming Dr, American Fork, UT 84003","precinct":"25AF15","hd":"55","v_score":"8.347511332","decile":"8","lat":40.379932632163,"lng":-111.776794014831},{"id":"148984","name":"Litzy White","party":"Dem","address":"177 N 800 E, American Fork, UT 84003","precinct":"25AF15","hd":"55","v_score":"2.587603312","decile":"5","lat":40.380235508058,"lng":-111.77657449302},{"id":"149103","name":"Ruffin Klein","party":"Dem","address":"160 N 800 E, American Fork, UT 84003","precinct":"25AF15","hd":"55","v_score":"13.46861423","decile":"9","lat":40.380081270354,"lng":-111.776404783816},{"id":"149546","name":"Davian Kub I","party":"","address":"878 E Fleming Dr, American Fork, UT 84003","precinct":"25AF15","hd":"55","v_score":"35.592808","decile":"10","lat":40.379286364964,"lng":-111.773683270243},{"id":"149547","name":"Brien Botsford-Rath","party":"","address":"878 E Fleming Dr, American Fork, UT 84003","precinct":"25AF15","hd":"55","v_score":"31.97291391","decile":"10","lat":40.379286364964,"lng":-111.773683270243},{"id":"149855","name":"Alvah Carter","party":"","address":"643 Shelly Ave, American Fork, UT 84003","precinct":"25AF15","hd":"55","v_score":"27.05857207","decile":"10","lat":40.38222329253,"lng":-111.780759948967},{"id":"149872","name":"Donie Lebsack-Donnelly","party":"Rep","address":"646 E 300 N, American Fork, UT 84003","precinct":"25AF15","hd":"55","v_score":"18.28437571","decile":"10","lat":40.38312128292,"lng":-111.781094772408},{"id":"149888","name":"Miss Astrid Haag","party":"Rep","address":"48 N 825 E, American Fork, UT 84003","precinct":"25AF15","hd":"55","v_score":"6.814370645","decile":"8","lat":40.37828204192,"lng":-111.775367222643},{"id":"149993","name":"Cecilia Barrows","party":"","address":"48 N 825 E, American Fork, UT 84003","precinct":"25AF15","hd":"55","v_score":"8.280646305","decile":"8","lat":40.37828204192,"lng":-111.775367222643},{"id":"150002","name":"Peyton Bechtelar","party":"","address":"150 N 600 E, American Fork, UT 84003","precinct":"25AF15","hd":"55","v_score":"8.280646305","decile":"8","lat":40.380047084821,"lng":-111.782452540759},{"id":"150109","name":"Mrs. Shawnna Littel","party":"Dem","address":"220 N 600 E, American Fork, UT 84003","precinct":"25AF15","hd":"55","v_score":"35.592808","decile":"10","lat":40.381433701352,"lng":-111.782442121306},{"id":"150280","name":"Kegan Medhurst","party":"Dem","address":"194 N 600 E, American Fork, UT 84003","precinct":"25AF15","hd":"55","v_score":"18.19442671","decile":"10","lat":40.380847454094,"lng":-111.782443581297},{"id":"150726","name":"Gaye Kohler","party":"Rep","address":"733 E 90 N, American Fork, UT 84003","precinct":"25AF15","hd":"55","v_score":"26.9144526","decile":"10","lat":40.378597841496,"lng":-111.779422149451},{"id":"150755","name":"Lizbeth Stroman","party":"Rep","address":"733 E 90 N, American Fork, UT 84003","precinct":"25AF15","hd":"55","v_score":"26.9144526","decile":"10","lat":40.378597841496,"lng":-111.779422149451},{"id":"151027","name":"Miss Darian Jones","party":"Rep","address":"275 Parker Ave, American Fork, UT 84003","precinct":"25AF15","hd":"55","v_score":"2.744440783","decile":"6","lat":40.382862638491,"lng":-111.777393000632},{"id":"151164","name":"Karie Casper","party":"Rep","address":"675 E Seymore Dr, American Fork, UT 84003","precinct":"25AF15","hd":"55","v_score":"3.93832808","decile":"6","lat":40.378327429477,"lng":-111.780233028084},{"id":"152101","name":"Lular Jacobs","party":"Rep","address":"182 N 775 E, American Fork, UT 84003","precinct":"25AF15","hd":"55","v_score":"5.40460374","decile":"7","lat":40.380330995218,"lng":-111.777278166326},{"id":"152154","name":"Dr. Neva Pouros DDS","party":"","address":"647 E 220 N, American Fork, UT 84003","precinct":"25AF15","hd":"55","v_score":"9.116556227","decile":"8","lat":40.381206292613,"lng":-111.78033353839},{"id":"152186","name":"Aurelia Koss-Effertz","party":"Rep","address":"647 E 220 N, American Fork, UT 84003","precinct":"25AF15","hd":"55","v_score":"9.116556227","decile":"8","lat":40.381206292613,"lng":-111.78033353839},{"id":"152210","name":"Shirlene Rogahn","party":"Dem","address":"92 N 775 E, American Fork, UT 84003","precinct":"25AF15","hd":"55","v_score":"6.74007049","decile":"8","lat":40.378938997707,"lng":-111.777245046424},{"id":"152246","name":"Sherrill Schaden","party":"Rep","address":"92 N 775 E, American Fork, UT 84003","precinct":"25AF15","hd":"55","v_score":"5.273794831","decile":"7","lat":40.378938997707,"lng":-111.777245046424},{"id":"152768","name":"Murdock White","party":"","address":"232 N 860 E, American Fork, UT 84003","precinct":"25AF15","hd":"55","v_score":"30.379416","decile":"10","lat":40.370329425698,"lng":-111.774494715341},{"id":"153099","name":"Theta Kassulke","party":"Rep","address":"108 N 775 E, American Fork, UT 84003","precinct":"25AF15","hd":"55","v_score":"3.93832808","decile":"6","lat":40.379180696119,"lng":-111.777245885623},{"id":"153215","name":"Clinton Feil III","party":"Dem","address":"169 N 670 E, American Fork, UT 84003","precinct":"25AF15","hd":"55","v_score":"11.30609121","decile":"9","lat":40.379828418269,"lng":-111.7807775924},{"id":"153217","name":"Jameson Auer","party":"Dem","address":"276 N 600 E, American Fork, UT 84003","precinct":"25AF15","hd":"55","v_score":"33.79250644","decile":"10","lat":40.382669082932,"lng":-111.782442120571},{"id":"153243","name":"Dr. Marcus Champlin IV","party":"","address":"202 N 800 E, American Fork, UT 84003","precinct":"25AF15","hd":"55","v_score":"36.86397541","decile":"10","lat":40.380513725958,"lng":-111.776457058607},{"id":"153245","name":"Mrs. Stefanie Hilpert","party":"Dem","address":"685 E 170 N, American Fork, UT 84003","precinct":"25AF15","hd":"55","v_score":"13.09579129","decile":"9","lat":40.380295575767,"lng":-111.77979020326},{"id":"153265","name":"Alvaro Kohler","party":"Dem","address":"685 E 170 N, American Fork, UT 84003","precinct":"25AF15","hd":"55","v_score":"11.90190399","decile":"9","lat":40.380295575767,"lng":-111.77979020326},{"id":"154055","name":"Vinton Heathcote","party":"","address":"670 E 300 N, American Fork, UT 84003","precinct":"25AF15","hd":"55","v_score":"12.07513611","decile":"9","lat":40.383111387572,"lng":-111.780436735218},{"id":"154301","name":"Raquel Kulas","party":"Rep","address":"691 Seymore Dr, American Fork, UT 84003","precinct":"25AF15","hd":"55","v_score":"20.25373134","decile":"10","lat":40.378326292898,"lng":-111.77979898667},{"id":"154351","name":"Odell Shields","party":"Rep","address":"657 E Shelley Ave, American Fork, UT 84003","precinct":"25AF15","hd":"55","v_score":"28.22908373","decile":"10","lat":40.382223292509,"lng":-111.780485725273},{"id":"154471","name":"Hoy Bartell MD","party":"Dem","address":"126 N 600 E, American Fork, UT 84003","precinct":"25AF15","hd":"55","v_score":"25.80307694","decile":"10","lat":40.379512290237,"lng":-111.782458099026},{"id":"155689","name":"Sunny Anderson-Jacobs","party":"Rep","address":"54 N 870 E, American Fork, UT 84003","precinct":"25AF15","hd":"55","v_score":"3.93832808","decile":"6","lat":40.377955144155,"lng":-111.774225471128},{"id":"156176","name":"Isabela Kunze","party":"","address":"16 N 700 E, Apt 13, American Fork, UT 84003","precinct":"25AF15","hd":"55","v_score":"3.781490609","decile":"6","lat":40.376862862445,"lng":-111.779492803311},{"id":"156244","name":"Acy Nicolas","party":"Dem","address":"625 E 230 N, American Fork, UT 84003","precinct":"25AF15","hd":"55","v_score":"1.193887297","decile":"4","lat":40.381611292356,"lng":-111.777589992215},{"id":"156653","name":"Dr. Aric Deckow II","party":"Rep","address":"675 Seymore Dr, American Fork, UT 84003","precinct":"25AF15","hd":"55","v_score":"5.40460374","decile":"7","lat":40.378327429477,"lng":-111.780233028084},{"id":"156713","name":"Yasmine Strosin","party":"","address":"798 E 30 N, American Fork, UT 84003","precinct":"25AF15","hd":"55","v_score":"12.14993957","decile":"9","lat":40.377456447079,"lng":-111.776478016611},{"id":"156940","name":"Mr. Deshaun Schiller II","party":"","address":"155 N 825 E, American Fork, UT 84003","precinct":"25AF15","hd":"55","v_score":"8.617652165","decile":"8","lat":40.380457947209,"lng":-111.775627986518},{"id":"156989","name":"Ms. Earline Nienow","party":"Rep","address":"675 E 170 N, American Fork, UT 84003","precinct":"25AF15","hd":"55","v_score":"16.11238254","decile":"9","lat":40.380294779711,"lng":-111.779890109238},{"id":"157381","name":"Emory Rath MD","party":"Rep","address":"16 N 700 E, Apt 22, American Fork, UT 84003","precinct":"25AF15","hd":"55","v_score":"11.99259879","decile":"9","lat":40.376862862445,"lng":-111.779492803311},{"id":"157878","name":"Gaven Keeling","party":"","address":"37 N 800 E, American Fork, UT 84003","precinct":"25AF15","hd":"55","v_score":"11.37977487","decile":"9","lat":40.378125865144,"lng":-111.776491983123},{"id":"157937","name":"Mr. Benjamine Romaguera I","party":"","address":"16 N 700 E, Apt 10, American Fork, UT 84003","precinct":"25AF15","hd":"55","v_score":"1.193887297","decile":"4","lat":40.376862862445,"lng":-111.779492803311},{"id":"158416","name":"Jamison Quitzon","party":"Dem","address":"79 N 900 E, American Fork, UT 84003","precinct":"25AF15","hd":"55","v_score":"30.01715195","decile":"10","lat":40.378576803649,"lng":-111.77321614968},{"id":"158449","name":"Alexys Wunsch","party":"Dem","address":"190 N 600 E, American Fork, UT 84003","precinct":"25AF15","hd":"55","v_score":"30.65345867","decile":"10","lat":40.380774693251,"lng":-111.782444395793},{"id":"158729","name":"Alcie Quitzon","party":"","address":"647 E 100 N, American Fork, UT 84003","precinct":"25AF15","hd":"55","v_score":"11.54697831","decile":"9","lat":40.379040196263,"lng":-111.781361907572},{"id":"158924","name":"Henriette Weissnat","party":"","address":"54 Jackson Cir, American Fork, UT 84003","precinct":"25AF15","hd":"55","v_score":"20.02385127","decile":"10","lat":40.37800671574,"lng":-111.780094665649},{"id":"159439","name":"Maya Barton-Sipes","party":"Dem","address":"123 N 825 E, American Fork, UT 84003","precinct":"25AF15","hd":"55","v_score":"25.35304117","decile":"10","lat":40.379975060003,"lng":-111.775573320111},{"id":"159682","name":"Loren Hammes-Auer","party":"Dem","address":"684 E 100 N, American Fork, UT 84003","precinct":"25AF15","hd":"55","v_score":"5.40460374","decile":"7","lat":40.37892737218,"lng":-111.780135402396},{"id":"159708","name":"Armond Vandervort","party":"","address":"123 N 825 E, American Fork, UT 84003","precinct":"25AF15","hd":"55","v_score":"25.35304117","decile":"10","lat":40.379975060003,"lng":-111.775573320111},{"id":"159902","name":"Mr. Wilfredo Rice","party":"","address":"37 S 800 E, American Fork, UT 84003","precinct":"25AF15","hd":"55","v_score":"2.315214949","decile":"5","lat":40.374433690876,"lng":-111.776466131142},{"id":"159917","name":"Laquita Homenick DDS","party":"Dem","address":"19 N 700 E, Apt 17, American Fork, UT 84003","precinct":"25AF15","hd":"55","v_score":"20.07200838","decile":"10","lat":40.37573429318,"lng":-111.779645047803},{"id":"161056","name":"Tanika Champlin-Reynolds","party":"","address":"189 N 900 E, American Fork, UT 84003","precinct":"25AF15","hd":"55","v_score":"1.46627566","decile":"4","lat":40.381056398914,"lng":-111.77324205574},{"id":"161290","name":"Dr. Norene Lebsack","party":"Rep","address":"182 N 775 E, American Fork, UT 84003","precinct":"25AF15","hd":"55","v_score":"2.587603312","decile":"5","lat":40.380330995218,"lng":-111.777278166326},{"id":"161347","name":"Marvel Beier","party":"Rep","address":"624 E 30 N, American Fork, UT 84003","precinct":"25AF15","hd":"55","v_score":"10.13721141","decile":"9","lat":40.376974958112,"lng":-111.782218786694},{"id":"161978","name":"Burr Lynch","party":"","address":"196 N 860 E, American Fork, UT 84003","precinct":"25AF15","hd":"55","v_score":"29.70536095","decile":"10","lat":40.381112502715,"lng":-111.774274085629},{"id":"162119","name":"Marisela Roob","party":"","address":"632 E 230 N, American Fork, UT 84003","precinct":"25AF15","hd":"55","v_score":"28.22745188","decile":"10","lat":40.381496700969,"lng":-111.777550615769},{"id":"163032","name":"Mr. Oddie Feest V","party":"","address":"117 N 775 E, American Fork, UT 84003","precinct":"25AF15","hd":"55","v_score":"22.70037759","decile":"10","lat":40.379075908815,"lng":-111.77739594567},{"id":"163319","name":"Adriane Leffler","party":"Dem","address":"886 E 30 N, American Fork, UT 84003","precinct":"25AF15","hd":"55","v_score":"6.954919332","decile":"8","lat":40.377224108799,"lng":-111.773265075688},{"id":"163764","name":"Jefferson Cormier","party":"Rep","address":"714 E 140 N, American Fork, UT 84003","precinct":"25AF15","hd":"55","v_score":"1.193887297","decile":"4","lat":40.379471701346,"lng":-111.779466613479},{"id":"163794","name":"Wilbert Torphy-Anderson","party":"Dem","address":"143 N 860 E, American Fork, UT 84003","precinct":"25AF15","hd":"55","v_score":"10.22509301","decile":"9","lat":40.380634152407,"lng":-111.774398364161},{"id":"164424","name":"Merlene Predovic","party":"","address":"16 S 750 E, American Fork, UT 84003","precinct":"25AF15","hd":"55","v_score":"2.817000428","decile":"6","lat":40.376448611082,"lng":-111.777565301092},{"id":"164516","name":"Carter Yundt","party":"","address":"621 Shelly Ave, American Fork, UT 84003","precinct":"25AF15","hd":"55","v_score":"4.210716443","decile":"7","lat":40.382223292563,"lng":-111.781190871915},{"id":"165842","name":"Zachery Lindgren","party":"Rep","address":"77 N 870 E, American Fork, UT 84003","precinct":"25AF15","hd":"55","v_score":"5.77558031","decile":"7","lat":40.378237129199,"lng":-111.774377814106},{"id":"166310","name":"Jayden Reilly","party":"Dem","address":"165 N 860 E, American Fork, UT 84003","precinct":"25AF15","hd":"55","v_score":"3.93832808","decile":"6","lat":40.380834196235,"lng":-111.774409355552},{"id":"166446","name":"Linton Turner","party":"","address":"886 E 30 N, American Fork, UT 84003","precinct":"25AF15","hd":"55","v_score":"6.954919332","decile":"8","lat":40.377224108799,"lng":-111.773265075688},{"id":"166749","name":"Melissia Hickle","party":"Rep","address":"77 N 870 E, American Fork, UT 84003","precinct":"25AF15","hd":"55","v_score":"5.77558031","decile":"7","lat":40.378237129199,"lng":-111.774377814106},{"id":"167250","name":"Charlize Crona","party":"Dem","address":"37 N 800 E, American Fork, UT 84003","precinct":"25AF15","hd":"55","v_score":"14.48247422","decile":"9","lat":40.378125865144,"lng":-111.776491983123},{"id":"167866","name":"Dr. Raymundo Kris II","party":"","address":"684 E 100 N, American Fork, UT 84003","precinct":"25AF15","hd":"55","v_score":"1.193887297","decile":"4","lat":40.37892737218,"lng":-111.780135402396},{"id":"168032","name":"Tamela Ernser DDS","party":"Dem","address":"35 S 800 E, American Fork, UT 84003","precinct":"25AF15","hd":"55","v_score":"29.15089296","decile":"10","lat":40.374444903079,"lng":-111.776466131141},{"id":"168221","name":"Haven Heidenreich DDS","party":"","address":"865 E 50 S, American Fork, UT 84003","precinct":"25AF15","hd":"55","v_score":"14.64963002","decile":"9","lat":40.375734292751,"lng":-111.774062116481},{"id":"168876","name":"Dr. Maddux Hegmann","party":"Dem","address":"170 N 825 E, American Fork, UT 84003","precinct":"25AF15","hd":"55","v_score":"9.82709755","decile":"8","lat":40.380699176214,"lng":-111.775504308717},{"id":"168919","name":"Courtland Pfeffer","party":"","address":"89 N 825 E, American Fork, UT 84003","precinct":"25AF15","hd":"55","v_score":"1.193887297","decile":"4","lat":40.379168097416,"lng":-111.775532375853},{"id":"168956","name":"Sharita Pagac","party":"Rep","address":"733 E 50 S, American Fork, UT 84003","precinct":"25AF15","hd":"55","v_score":"1.121327652","decile":"3","lat":40.375734293096,"lng":-111.778542948202},{"id":"169076","name":"Donald Schmitt I","party":"Dem","address":"625 E 230 N, American Fork, UT 84003","precinct":"25AF15","hd":"55","v_score":"2.315214949","decile":"5","lat":40.381611292356,"lng":-111.777589992215},{"id":"169150","name":"Lamonte Windler","party":"Rep","address":"81 N 670 E, American Fork, UT 84003","precinct":"25AF15","hd":"55","v_score":"24.16429152","decile":"10","lat":40.378821606311,"lng":-111.780830935479},{"id":"169786","name":"Patrick Tromp","party":"","address":"685 E 170 N, American Fork, UT 84003","precinct":"25AF15","hd":"55","v_score":"11.47267816","decile":"9","lat":40.380295575767,"lng":-111.77979020326},{"id":"169939","name":"Torie Moen","party":"Rep","address":"646 E 300 N, American Fork, UT 84003","precinct":"25AF15","hd":"55","v_score":"14.13760315","decile":"9","lat":40.38312128292,"lng":-111.781094772408},{"id":"170131","name":"Jesus Aufderhar","party":"","address":"297 N 860 E, American Fork, UT 84003","precinct":"25AF15","hd":"55","v_score":"3.781490609","decile":"6","lat":40.369615923496,"lng":-111.774342137248},{"id":"170372","name":"Webster Botsford","party":"","address":"216 N 800 E, American Fork, UT 84003","precinct":"25AF15","hd":"55","v_score":"3.93832808","decile":"6","lat":40.380657877826,"lng":-111.776474483538},{"id":"170808","name":"Miss Channing Harber MD","party":"Rep","address":"894 E 300 N, American Fork, UT 84003","precinct":"25AF15","hd":"55","v_score":"24.89343572","decile":"10","lat":40.383089700467,"lng":-111.773371779885},{"id":"170855","name":"David Brown","party":"Rep","address":"639 E 230 N Cir, American Fork, UT 84003","precinct":"25AF15","hd":"55","v_score":"28.22908373","decile":"10","lat":40.381548292715,"lng":-111.782170665929},{"id":"171035","name":"Miss Danette Schulist","party":"","address":"708 E 50 N, American Fork, UT 84003","precinct":"25AF15","hd":"55","v_score":"2.315214949","decile":"5","lat":40.377625535201,"lng":-111.779396558432},{"id":"171924","name":"Iesha Schmeler MD","party":"Rep","address":"52 N 750 E, American Fork, UT 84003","precinct":"25AF15","hd":"55","v_score":"26.60945214","decile":"10","lat":40.378368876597,"lng":-111.778185123345},{"id":"172150","name":"Lyndsey Braun","party":"Rep","address":"622 E 100 N, American Fork, UT 84003","precinct":"25AF15","hd":"55","v_score":"5.191257514","decile":"7","lat":40.378919798273,"lng":-111.781935767105},{"id":"172639","name":"Joslyn McClure","party":"","address":"620 E 100 N, American Fork, UT 84003","precinct":"25AF15","hd":"55","v_score":"1.121327652","decile":"3","lat":40.378919313551,"lng":-111.781983754937},{"id":"173292","name":"Norbert Graham","party":"","address":"790 Fleming Dr, American Fork, UT 84003","precinct":"25AF15","hd":"55","v_score":"5.530510904","decile":"7","lat":40.379932632163,"lng":-111.776794014831},{"id":"173712","name":"Garnett Dickinson","party":"Dem","address":"16 N 700 E, Apt 7, American Fork, UT 84003","precinct":"25AF15","hd":"55","v_score":"0","decile":"3","lat":40.376862862445,"lng":-111.779492803311},{"id":"173877","name":"Abagail Nitzsche","party":"","address":"221 N 825 E, American Fork, UT 84003","precinct":"25AF15","hd":"55","v_score":"0","decile":"3","lat":40.381416422361,"lng":-111.775602008499},{"id":"173970","name":"Shad Johnson-Schoen","party":"Rep","address":"251 N Chipman Ave, American Fork, UT 84003","precinct":"25AF15","hd":"55","v_score":"2.315214949","decile":"5","lat":40.382625120467,"lng":-111.778520212395},{"id":"174574","name":"Dione Weimann","party":"Dem","address":"130 N 600 E, American Fork, UT 84003","precinct":"25AF15","hd":"55","v_score":"34.59349101","decile":"10","lat":40.379593044481,"lng":-111.782457126073},{"id":"174608","name":"Adilene Wehner","party":"Rep","address":"64 N 750 E, American Fork, UT 84003","precinct":"25AF15","hd":"55","v_score":"18.11188939","decile":"10","lat":40.378521656698,"lng":-111.778185123325},{"id":"174878","name":"Khari Ryan","party":"","address":"817 E Evergreen Dr, American Fork, UT 84003","precinct":"25AF15","hd":"55","v_score":"2.315214949","decile":"5","lat":40.382133292178,"lng":-111.776043961481},{"id":"175040","name":"Norita Graham","party":"Dem","address":"150 N 600 E, American Fork, UT 84003","precinct":"25AF15","hd":"55","v_score":"11.29723756","decile":"9","lat":40.380047084821,"lng":-111.782452540759},{"id":"175159","name":"Mr. Yael Gutkowski","party":"","address":"745 E 50 S, American Fork, UT 84003","precinct":"25AF15","hd":"55","v_score":"2.744440783","decile":"6","lat":40.375734293061,"lng":-111.778095128853},{"id":"175381","name":"Kaya Ratke","party":"","address":"250 Parker Ave, American Fork, UT 84003","precinct":"25AF15","hd":"55","v_score":"0","decile":"3","lat":40.382625483951,"lng":-111.777244540399},{"id":"175834","name":"Nora Erdman-Gleichner","party":"","address":"210 N 825 E, American Fork, UT 84003","precinct":"25AF15","hd":"55","v_score":"11.98978559","decile":"9","lat":40.381322271215,"lng":-111.775461164403},{"id":"175844","name":"Simona Dietrich","party":"","address":"651 Shelly Ave, American Fork, UT 84003","precinct":"25AF15","hd":"55","v_score":"3.781490609","decile":"6","lat":40.382223292518,"lng":-111.780603249714},{"id":"176026","name":"Mr. Cullen Bernier","party":"Dem","address":"678 E 220 N, American Fork, UT 84003","precinct":"25AF15","hd":"55","v_score":"0","decile":"3","lat":40.381091701197,"lng":-111.779915393667},{"id":"176514","name":"Gregorio Hahn V","party":"Rep","address":"609 E 30 N, American Fork, UT 84003","precinct":"25AF15","hd":"55","v_score":"3.781490609","decile":"6","lat":40.377086818465,"lng":-111.782393763049},{"id":"177577","name":"Mrs. Blair O'Hara DDS","party":"Rep","address":"254 N 860 E, American Fork, UT 84003","precinct":"25AF15","hd":"55","v_score":"15.1943348","decile":"9","lat":40.370189249689,"lng":-111.774492821089},{"id":"177626","name":"Miss Rosalie Block DDS","party":"","address":"807 E 10 S, American Fork, UT 84003","precinct":"25AF15","hd":"55","v_score":"2.315214949","decile":"5","lat":40.376715292875,"lng":-111.77712585611},{"id":"177959","name":"Tressie Tromp-Gleason","party":"Dem","address":"624 E 30 N, American Fork, UT 84003","precinct":"25AF15","hd":"55","v_score":"13.09579129","decile":"9","lat":40.376974958112,"lng":-111.782218786694},{"id":"178025","name":"Elisa Anderson","party":"","address":"834 E 300 N, American Fork, UT 84003","precinct":"25AF15","hd":"55","v_score":"17.96776993","decile":"10","lat":40.38308970063,"lng":-111.775490469154},{"id":"178356","name":"Bess Marks-Schaden","party":"Dem","address":"232 N 860 E, American Fork, UT 84003","precinct":"25AF15","hd":"55","v_score":"18.22103382","decile":"10","lat":40.370329425698,"lng":-111.774494715341},{"id":"178389","name":"Odessa Dach-Little","party":"Rep","address":"130 N 600 E, American Fork, UT 84003","precinct":"25AF15","hd":"55","v_score":"9.207031979","decile":"8","lat":40.379593044481,"lng":-111.782457126073},{"id":"178570","name":"Shannen Fay","party":"Dem","address":"85 N 670 E, American Fork, UT 84003","precinct":"25AF15","hd":"55","v_score":"37.38087621","decile":"10","lat":40.378845949734,"lng":-111.78083124362},{"id":"178582","name":"Dr. Zada Kertzmann","party":"Rep","address":"19 N 700 E, American Fork, UT 84003","precinct":"25AF15","hd":"55","v_score":"1.193887297","decile":"4","lat":40.37573429318,"lng":-111.779645047803},{"id":"178599","name":"Alan Bogisich-Lesch","party":"","address":"16 N 700 E, Apt 18, American Fork, UT 84003","precinct":"25AF15","hd":"55","v_score":"12.6510998","decile":"9","lat":40.376862862445,"lng":-111.779492803311},{"id":"178809","name":"Dr. Hubbard Kautzer Jr.","party":"Rep","address":"237 N 900 E, American Fork, UT 84003","precinct":"25AF15","hd":"55","v_score":"18.74333682","decile":"10","lat":40.381797724791,"lng":-111.773249768412},{"id":"178822","name":"Kenji Thompson","party":"Rep","address":"79 N 900 E, American Fork, UT 84003","precinct":"25AF15","hd":"55","v_score":"30.01715195","decile":"10","lat":40.378576803649,"lng":-111.77321614968},{"id":"178994","name":"Rubi Abbott","party":"","address":"809 E Evergreen Dr, American Fork, UT 84003","precinct":"25AF15","hd":"55","v_score":"8.999628265","decile":"8","lat":40.382133292192,"lng":-111.776222503638},{"id":"179134","name":"Cleva Labadie","party":"Rep","address":"622 E 100 N, American Fork, UT 84003","precinct":"25AF15","hd":"55","v_score":"2.315214949","decile":"5","lat":40.378919798273,"lng":-111.781935767105},{"id":"179178","name":"Dr. Linus Waters Sr.","party":"Rep","address":"16 N 700 E, Apt 22, American Fork, UT 84003","precinct":"25AF15","hd":"55","v_score":"11.99259879","decile":"9","lat":40.376862862445,"lng":-111.779492803311},{"id":"179272","name":"Karolyn Kovacek","party":"Dem","address":"152 N 860 E, American Fork, UT 84003","precinct":"25AF15","hd":"55","v_score":"8.363183621","decile":"8","lat":40.380335873608,"lng":-111.774222816311},{"id":"179537","name":"Nealie Osinski-Reichert","party":"","address":"733 E 50 S, American Fork, UT 84003","precinct":"25AF15","hd":"55","v_score":"20.91067752","decile":"10","lat":40.375734293096,"lng":-111.778542948202},{"id":"179605","name":"Shyheim Kilback","party":"Dem","address":"16 N 700 E, Apt 27, American Fork, UT 84003","precinct":"25AF15","hd":"55","v_score":"2.315214949","decile":"5","lat":40.376862862445,"lng":-111.779492803311},{"id":"180732","name":"Jacqueline Hessel","party":"","address":"66 Jackson Cir, American Fork, UT 84003","precinct":"25AF15","hd":"55","v_score":"0","decile":"3","lat":40.378062148562,"lng":-111.780092430448},{"id":"181064","name":"Dr. Vara Kuhic DVM","party":"","address":"263 N 860 E, American Fork, UT 84003","precinct":"25AF15","hd":"55","v_score":"1.121327652","decile":"3","lat":40.369959570671,"lng":-111.774342136871},{"id":"181380","name":"Rico Sanford-Harvey","party":"Dem","address":"628 E 230 N, American Fork, UT 84003","precinct":"25AF15","hd":"55","v_score":"0","decile":"3","lat":40.38149670097,"lng":-111.777570304}]