[{"vid":"99dcdb5850338acdadaa8a902481f902a65d08180ffe7bd0fa2b84cc0c41109d","name":"Ted Becker","party":"Rep","address":"445 N 570 W, American Fork, UT 84003","precinct":"25AF12","hd":"53","v_score":"5.258122542","decile":"7","lat":40.38607097450327,"lng":-111.81375373010694,"phone":"(594) 431-2358","sd":"21","ssbd":"11","lsbd":"School Board Aspen Peaks 7"},{"vid":"1223767","name":"Joaquin Denesik","party":"Rep","address":"576 W 500 N, American Fork, UT 84003","precinct":"25AF12","hd":"53","v_score":"2.958579882","decile":"6","lat":40.387233516879405,"lng":-111.81363184275779,"phone":"(676) 899-3186","sd":"21","ssbd":"11","lsbd":"School Board Aspen Peaks 7"},{"vid":"1243747","name":"Pollie Kling","party":"Dem","address":"499 N 700 W, American Fork, UT 84003","precinct":"25AF12","hd":"53","v_score":"18.30428832","decile":"10","lat":40.38740759444812,"lng":-111.81763531217,"phone":"(745) 652-5376","sd":"21","ssbd":"11","lsbd":"School Board Aspen Peaks 7"},{"vid":"1248212","name":"Jalynn Von DDS","party":"","address":"517 W 650 N, American Fork, UT 84003","precinct":"25AF12","hd":"53","v_score":"22.78715523","decile":"10","lat":40.389417274613024,"lng":-111.81197526580016,"phone":"(218) 408-5409","sd":"21","ssbd":"11","lsbd":"School Board Aspen Peaks 7"},{"vid":"1281067","name":"Dr. Harvey Okuneva","party":"Rep","address":"542 W 500 N, American Fork, UT 84003","precinct":"25AF12","hd":"53","v_score":"8.363183621","decile":"8","lat":40.38724670839673,"lng":-111.81270476913684,"phone":"(676) 294-5796","sd":"21","ssbd":"11","lsbd":"School Board Aspen Peaks 7"},{"vid":"36d3229a5b95e58e723d8ccd1f76b2753996fa57a510478e3ddae3a2f1a0abd8","name":"Lu Bogan","party":"Rep","address":"555 N 490 West Cir, American Fork, UT 84003","precinct":"25AF12","hd":"53","v_score":"3.781490609","decile":"6","lat":40.387857321703216,"lng":-111.81133414640212,"phone":"(490) 582-4749","sd":"21","ssbd":"11","lsbd":"School Board Aspen Peaks 7"},{"vid":"1316303","name":"Mr. Horace Durgan","party":"","address":"873 W 700 N, American Fork, UT 84003","precinct":"25AF12","hd":"53","v_score":"1.121327652","decile":"3","lat":40.39030738986099,"lng":-111.82073417210559,"phone":"(360) 892-8745","sd":"21","ssbd":"11","lsbd":"School Board Aspen Peaks 7"},{"vid":"1316476","name":"Seneca Swaniawski","party":"Rep","address":"356 N 480 W, American Fork, UT 84003","precinct":"25AF12","hd":"53","v_score":"12.37419689","decile":"9","lat":40.38423462895701,"lng":-111.81073402333679,"phone":"(930) 549-7384","sd":"21","ssbd":"11","lsbd":"School Board Aspen Peaks 7"},{"vid":"1317566","name":"Bryce Leuschke","party":"Dem","address":"493 N 400 W, American Fork, UT 84003","precinct":"25AF12","hd":"53","v_score":"20.81875705","decile":"10","lat":40.38696462754332,"lng":-111.80918561449938,"phone":"(205) 106-4643","sd":"21","ssbd":"11","lsbd":"School Board Aspen Peaks 7"},{"vid":"1318480","name":"Mrs. Carol Kub MD","party":"Rep","address":"342 N 560 W, American Fork, UT 84003","precinct":"25AF12","hd":"53","v_score":"1.623113131","decile":"4","lat":40.3841731690323,"lng":-111.81278632422688,"phone":"(378) 153-2161","sd":"21","ssbd":"11","lsbd":"School Board Aspen Peaks 7"},{"vid":"1333928","name":"Jamey Langosh","party":"Dem","address":"531 W 400 N, American Fork, UT 84003","precinct":"25AF12","hd":"53","v_score":"22.16796682","decile":"10","lat":40.38504731562215,"lng":-111.81215531144716,"phone":"(203) 106-1297","sd":"21","ssbd":"11","lsbd":"School Board Aspen Peaks 7"},{"vid":"1337059","name":"Bryn Leannon-Robel","party":"","address":"344 N 450 W, American Fork, UT 84003","precinct":"25AF12","hd":"53","v_score":"0","decile":"1","lat":40.38411166620038,"lng":-111.80971372078967,"phone":"(644) 669-0210","sd":"21","ssbd":"11","lsbd":"School Board Aspen Peaks 7"},{"vid":"1339882","name":"Kandace Dickinson MD","party":"","address":"451 N 600 W, American Fork, UT 84003","precinct":"25AF12","hd":"53","v_score":"21.14412949","decile":"10","lat":40.38593480293376,"lng":-111.8148436106463,"phone":"(662) 229-8193","sd":"21","ssbd":"11","lsbd":"School Board Aspen Peaks 7"},{"vid":"1343682","name":"Shiloh Graham","party":"Rep","address":"416 N 680 W, American Fork, UT 84003","precinct":"25AF12","hd":"53","v_score":"8.15240309","decile":"8","lat":40.38559847069357,"lng":-111.81649143463233,"phone":"(318) 549-0888","sd":"21","ssbd":"11","lsbd":"School Board Aspen Peaks 7"},{"vid":"1349081","name":"Luvenia Mitchell","party":"Rep","address":"481 N 400 W, American Fork, UT 84003","precinct":"25AF12","hd":"53","v_score":"16.2066738","decile":"9","lat":40.38668909275044,"lng":-111.80929376028081,"phone":"(259) 010-7201","sd":"21","ssbd":"11","lsbd":"School Board Aspen Peaks 7"},{"vid":"e5267404bef0606f2fb245025624b8c81f150b61e5a3afcf10e2aa0abd100699","name":"Dr. Wilma Monahan","party":"Dem","address":"689 W 410 N, American Fork, UT 84003","precinct":"25AF12","hd":"53","v_score":"16.39239889","decile":"9","lat":40.38559635848675,"lng":-111.81710353139985,"phone":"(160) 033-9030","sd":"21","ssbd":"11","lsbd":"School Board Aspen Peaks 7"},{"vid":"1360865","name":"Jaiden Erdman","party":"","address":"667 N 350 W, American Fork, UT 84003","precinct":"25AF12","hd":"53","v_score":"0","decile":"1","lat":40.39011873003439,"lng":-111.80829787924316,"phone":"(806) 080-5316","sd":"21","ssbd":"11","lsbd":"School Board Aspen Peaks 7"},{"vid":"1377332","name":"Reanna Becker-Wolf","party":"","address":"438 N 520 W, American Fork, UT 84003","precinct":"25AF12","hd":"53","v_score":"0","decile":"1","lat":40.386009510156214,"lng":-111.81169189297165,"phone":"(709) 211-4171","sd":"21","ssbd":"11","lsbd":"School Board Aspen Peaks 7"},{"vid":"1385200","name":"Colby Carter","party":"Dem","address":"538 N 680 W, American Fork, UT 84003","precinct":"25AF12","hd":"53","v_score":"2.315214949","decile":"5","lat":40.38795836414725,"lng":-111.81622666829628,"phone":"(831) 697-3673","sd":"21","ssbd":"11","lsbd":"School Board Aspen Peaks 7"},{"vid":"1415025","name":"Brandon Pfannerstill","party":"","address":"736 W 410 N, American Fork, UT 84003","precinct":"25AF12","hd":"53","v_score":"5.40460374","decile":"7","lat":40.38642575031567,"lng":-111.81829718418047,"phone":"(180) 268-1807","sd":"21","ssbd":"11","lsbd":"School Board Aspen Peaks 7"},{"vid":"62e7c648640a6f20a8a4d1e2e8052a17bc2d7dda303e3b6e40de9f3fe293e341","name":"Howell Jerde","party":"","address":"574 N 680 W, American Fork, UT 84003","precinct":"25AF12","hd":"53","v_score":"24.11582679","decile":"10","lat":40.3884413842893,"lng":-111.81623536333518,"phone":"(811) 242-8912","sd":"21","ssbd":"11","lsbd":"School Board Aspen Peaks 7"},{"vid":"1419276","name":"Kandace Marks","party":"","address":"593 W 480 N, American Fork, UT 84003","precinct":"25AF12","hd":"53","v_score":"10.06441387","decile":"9","lat":40.38642889875059,"lng":-111.81403638339414,"phone":"(492) 613-2433","sd":"21","ssbd":"11","lsbd":"School Board Aspen Peaks 7"},{"vid":"1422234","name":"Obie Johns","party":"Dem","address":"669 N 540 W, American Fork, UT 84003","precinct":"25AF12","hd":"53","v_score":"21.08356325","decile":"10","lat":40.389779384674426,"lng":-111.81268294798507,"phone":"(706) 668-3499","sd":"21","ssbd":"11","lsbd":"School Board Aspen Peaks 7"},{"vid":"1423490","name":"Nannette Lowe","party":"Dem","address":"571 N 650 W, American Fork, UT 84003","precinct":"25AF12","hd":"53","v_score":"2.315214949","decile":"5","lat":40.38842702348348,"lng":-111.81571401792014,"phone":"(213) 394-0457","sd":"21","ssbd":"11","lsbd":"School Board Aspen Peaks 7"},{"vid":"1424918","name":"Dr. Memphis Jast Sr.","party":"Dem","address":"489 N 520 W, American Fork, UT 84003","precinct":"25AF12","hd":"53","v_score":"11.37977487","decile":"9","lat":40.38695093189734,"lng":-111.81214190205124,"phone":"(328) 790-3507","sd":"21","ssbd":"11","lsbd":"School Board Aspen Peaks 7"},{"vid":"b04a44541b2a85cc1e49bf071e859f43984a422941454cf2ca9c10da01ab8ffb","name":"Mrs. Tiny Schaefer MD","party":"","address":"456 N 600 W, American Fork, UT 84003","precinct":"25AF12","hd":"53","v_score":"4.137918904","decile":"7","lat":40.386233270457474,"lng":-111.81413328196888,"phone":"(402) 904-7060","sd":"21","ssbd":"11","lsbd":"School Board Aspen Peaks 7"},{"vid":"1425343","name":"Jacqulyn Deckow","party":"Rep","address":"776 W 450 N, American Fork, UT 84003","precinct":"25AF12","hd":"53","v_score":"8.421194992","decile":"8","lat":40.38721932487321,"lng":-111.81871727275184,"phone":"(678) 030-9588","sd":"21","ssbd":"11","lsbd":"School Board Aspen Peaks 7"},{"vid":"1426851","name":"Ardis Cummerata","party":"Rep","address":"432 N 560 W, American Fork, UT 84003","precinct":"25AF12","hd":"53","v_score":"3.781490609","decile":"6","lat":40.38585449357621,"lng":-111.81261021185068,"phone":"(599) 370-5823","sd":"21","ssbd":"11","lsbd":"School Board Aspen Peaks 7"},{"vid":"1436238","name":"Audrianna Beier","party":"Dem","address":"776 W 450 N, American Fork, UT 84003","precinct":"25AF12","hd":"53","v_score":"5.40460374","decile":"7","lat":40.38721932487321,"lng":-111.81871727275184,"phone":"(217) 089-1163","sd":"21","ssbd":"11","lsbd":"School Board Aspen Peaks 7"},{"vid":"4568b6882e2dbe1316ca38ac854dbdf877566b4383b4e5589a13d1e912e923bc","name":"Lazaro Tillman","party":"","address":"488 N 520 W, American Fork, UT 84003","precinct":"25AF12","hd":"53","v_score":"5.273794831","decile":"7","lat":40.3869631082736,"lng":-111.81174480704378,"phone":"(871) 346-1450","sd":"21","ssbd":"11","lsbd":"School Board Aspen Peaks 7"},{"vid":"1474881","name":"Dr. Dora Rau Jr.","party":"","address":"424 N 580 W, American Fork, UT 84003","precinct":"25AF12","hd":"53","v_score":"2.315214949","decile":"5","lat":40.38552026590272,"lng":-111.81393781449194,"phone":"(450) 676-4672","sd":"21","ssbd":"11","lsbd":"School Board Aspen Peaks 7"},{"vid":"1482078","name":"Doreen Hahn","party":"","address":"752 W 450 N, American Fork, UT 84003","precinct":"25AF12","hd":"53","v_score":"20.4472089","decile":"10","lat":40.38698250532058,"lng":-111.81827664126912,"phone":"(580) 132-2467","sd":"21","ssbd":"11","lsbd":"School Board Aspen Peaks 7"},{"vid":"1495060","name":"Teagan Flatley","party":"","address":"369 N 580 W, American Fork, UT 84003","precinct":"25AF12","hd":"53","v_score":"5.40460374","decile":"7","lat":40.38493296649899,"lng":-111.81497256679974,"phone":"(503) 962-5684","sd":"21","ssbd":"11","lsbd":"School Board Aspen Peaks 7"},{"vid":"5404cde11181de62af94fe85b9c6ae0a3600976cc768f02d1a0e555ae0c7d295","name":"Wally Corkery-Stehr","party":"Dem","address":"361 N 480 W, American Fork, UT 84003","precinct":"25AF12","hd":"53","v_score":"5.61909958","decile":"7","lat":40.38435317814609,"lng":-111.8112917274689,"phone":"(778) 510-2998","sd":"21","ssbd":"11","lsbd":"School Board Aspen Peaks 7"},{"vid":"1496173","name":"Mr. Simeon Parker Jr.","party":"Rep","address":"583 N 780 W, American Fork, UT 84003","precinct":"25AF12","hd":"53","v_score":"1.121327652","decile":"3","lat":40.38903267487487,"lng":-111.81917398630557,"phone":"(503) 564-0901","sd":"21","ssbd":"11","lsbd":"School Board Aspen Peaks 7"},{"vid":"0a2dd06b4e71397eeb5742c374c96b66ecd1e2e69caf995919a829d78eee9266","name":"Herminia Osinski","party":"Rep","address":"412 N 520 W, American Fork, UT 84003","precinct":"25AF12","hd":"53","v_score":"6.814370645","decile":"8","lat":40.38559539190153,"lng":-111.81169952523796,"phone":"(850) 813-5260","sd":"21","ssbd":"11","lsbd":"School Board Aspen Peaks 7"},{"vid":"1513198","name":"Britt Hahn DDS","party":"","address":"493 N 400 W, American Fork, UT 84003","precinct":"25AF12","hd":"53","v_score":"2.744440783","decile":"5","lat":40.38696462754332,"lng":-111.80918561449938,"phone":"(217) 370-8962","sd":"21","ssbd":"11","lsbd":"School Board Aspen Peaks 7"},{"vid":"1517751","name":"Gerard Nienow","party":"Dem","address":"583 N 780 W, American Fork, UT 84003","precinct":"25AF12","hd":"53","v_score":"0","decile":"1","lat":40.38903267487487,"lng":-111.81917398630557,"phone":"(289) 735-8617","sd":"21","ssbd":"11","lsbd":"School Board Aspen Peaks 7"},{"vid":"78e4e4e9aa8d05a850258ea03b42adcc2b672af8c112795afcf4a10b7ab8b06a","name":"Mr. Hurley Champlin DVM","party":"Dem","address":"561 N 560 W, American Fork, UT 84003","precinct":"25AF12","hd":"53","v_score":"15.00919004","decile":"9","lat":40.38805493529512,"lng":-111.81318146042132,"phone":"(682) 292-7060","sd":"21","ssbd":"11","lsbd":"School Board Aspen Peaks 7"},{"vid":"1551613","name":"Maudie Lynch","party":"Rep","address":"574 N 680 W, American Fork, UT 84003","precinct":"25AF12","hd":"53","v_score":"21.5725918","decile":"10","lat":40.3884413842893,"lng":-111.81623536333518,"phone":"(710) 949-8659","sd":"21","ssbd":"11","lsbd":"School Board Aspen Peaks 7"},{"vid":"e64b7eb1d08a2ea407a6abffa3855317e93bbdb4860f9e97d664528db7177dc4","name":"Jep Bogan II","party":"Dem","address":"515 N 560 W, American Fork, UT 84003","precinct":"25AF12","hd":"53","v_score":"1.121327652","decile":"3","lat":40.38723466170787,"lng":-111.81308037755021,"phone":"(577) 331-3478","sd":"21","ssbd":"11","lsbd":"School Board Aspen Peaks 7"},{"vid":"9c853b93851e930afb1f90b20d8be1c4a547e5301b20f8b32a15e90041848599","name":"Shianne Gutkowski","party":"","address":"387 N 580 W, American Fork, UT 84003","precinct":"25AF12","hd":"53","v_score":"31.97157599","decile":"10","lat":40.385192554005705,"lng":-111.81477817085892,"phone":"(570) 185-4301","sd":"21","ssbd":"11","lsbd":"School Board Aspen Peaks 7"},{"vid":"f4de9deabb2530a09ad547a67c446723997f5f9c414fdaf89fd43f4e38843fa6","name":"Kael Casper","party":"Dem","address":"387 N 580 W, American Fork, UT 84003","precinct":"25AF12","hd":"53","v_score":"31.97157599","decile":"10","lat":40.385192554005705,"lng":-111.81477817085892,"phone":"(413) 704-3939","sd":"21","ssbd":"11","lsbd":"School Board Aspen Peaks 7"},{"vid":"1554546","name":"Jill Gorczany DVM","party":"","address":"424 N 480 W, American Fork, UT 84003","precinct":"25AF12","hd":"53","v_score":"8.347511332","decile":"8","lat":40.385650523096984,"lng":-111.8107079418305,"phone":"(440) 309-3023","sd":"21","ssbd":"11","lsbd":"School Board Aspen Peaks 7"},{"vid":"1568332","name":"Wyatt Lynch","party":"Rep","address":"363 N 580 W, American Fork, UT 84003","precinct":"25AF12","hd":"53","v_score":"9.498154327","decile":"8","lat":40.38485844059296,"lng":-111.81504206690805,"phone":"(283) 962-7335","sd":"21","ssbd":"11","lsbd":"School Board Aspen Peaks 7"},{"vid":"1577389","name":"Dr. Mackenzie Heidenreich PhD","party":"Rep","address":"432 N 560 W, American Fork, UT 84003","precinct":"25AF12","hd":"53","v_score":"3.781490609","decile":"6","lat":40.38585449357621,"lng":-111.81261021185068,"phone":"(325) 854-5576","sd":"21","ssbd":"11","lsbd":"School Board Aspen Peaks 7"},{"vid":"1578902","name":"Attie Wuckert","party":"Dem","address":"544 N 780 W, American Fork, UT 84003","precinct":"25AF12","hd":"53","v_score":"14.76181657","decile":"9","lat":40.388603261172065,"lng":-111.81863985091226,"phone":"(256) 988-5848","sd":"21","ssbd":"11","lsbd":"School Board Aspen Peaks 7"},{"vid":"1602034","name":"Barnie Harvey V","party":"Rep","address":"579 W 440 N, American Fork, UT 84003","precinct":"25AF12","hd":"53","v_score":"11.99259879","decile":"9","lat":40.385721625522116,"lng":-111.813445416264,"phone":"(223) 432-4423","sd":"21","ssbd":"11","lsbd":"School Board Aspen Peaks 7"},{"vid":"1606105","name":"Ethyl Breitenberg","party":"","address":"476 N 520 W, American Fork, UT 84003","precinct":"25AF12","hd":"53","v_score":"5.40460374","decile":"7","lat":40.38669036930812,"lng":-111.8116311299377,"phone":"(674) 697-7744","sd":"21","ssbd":"11","lsbd":"School Board Aspen Peaks 7"},{"vid":"e9738e82665affe94078079bec7a9ba6bdb996120b9fe96f33ccf0f98fcb9ca1","name":"Hosteen Frami-Watsica","party":"Rep","address":"403 N 450 W, American Fork, UT 84003","precinct":"25AF12","hd":"53","v_score":"5.258122542","decile":"7","lat":40.38531064508698,"lng":-111.81024742398468,"phone":"(346) 891-3214","sd":"21","ssbd":"11","lsbd":"School Board Aspen Peaks 7"},{"vid":"1619980","name":"Christi Howell DVM","party":"","address":"495 W 400 N, American Fork, UT 84003","precinct":"25AF12","hd":"53","v_score":"3.93832808","decile":"6","lat":40.38503282240987,"lng":-111.81120915768975,"phone":"(835) 838-1643","sd":"21","ssbd":"11","lsbd":"School Board Aspen Peaks 7"},{"vid":"1629110","name":"Zachery Weissnat-McKenzie","party":"","address":"538 N 680 W, American Fork, UT 84003","precinct":"25AF12","hd":"53","v_score":"2.315214949","decile":"5","lat":40.38795836414725,"lng":-111.81622666829628,"phone":"(739) 497-6469","sd":"21","ssbd":"11","lsbd":"School Board Aspen Peaks 7"},{"vid":"1629808","name":"Peyton Mraz","party":"Rep","address":"571 N 650 W, American Fork, UT 84003","precinct":"25AF12","hd":"53","v_score":"5.40460374","decile":"7","lat":40.38842702348348,"lng":-111.81571401792014,"phone":"(605) 478-1784","sd":"21","ssbd":"11","lsbd":"School Board Aspen Peaks 7"},{"vid":"26e56fc067b73b456bbdf2877ab3664e9b7fabcc3b54585f69babd445e9fc93d","name":"Orin Nitzsche","party":"Rep","address":"395 Clifton Ave, American Fork, UT 84003","precinct":"25AF12","hd":"53","v_score":"0","decile":"1","lat":40.38790043783411,"lng":-111.80915121226366,"phone":"(253) 852-2509","sd":"21","ssbd":"11","lsbd":"School Board Aspen Peaks 7"},{"vid":"7d37e719f49b5995088b3346a9e8ef63b700e85da84c388bf42633cc86b410f7","name":"Archer Kassulke-Pollich","party":"Rep","address":"561 N 560 W, American Fork, UT 84003","precinct":"25AF12","hd":"53","v_score":"10.36948566","decile":"9","lat":40.38805493529512,"lng":-111.81318146042132,"phone":"(251) 264-8321","sd":"21","ssbd":"11","lsbd":"School Board Aspen Peaks 7"},{"vid":"1656571","name":"Tristan Sipes DDS","party":"","address":"496 N 680 W, American Fork, UT 84003","precinct":"25AF12","hd":"53","v_score":"3.93832808","decile":"6","lat":40.38739697272422,"lng":-111.81631966161143,"phone":"(228) 033-3250","sd":"21","ssbd":"11","lsbd":"School Board Aspen Peaks 7"},{"vid":"1659177","name":"Mrs. Maiya Kulas DDS","party":"Dem","address":"345 N 450 W, American Fork, UT 84003","precinct":"25AF12","hd":"53","v_score":"0","decile":"1","lat":40.38413874959527,"lng":-111.81033819382225,"phone":"(430) 905-3121","sd":"21","ssbd":"11","lsbd":"School Board Aspen Peaks 7"},{"vid":"1662268","name":"Mr. Brandy Lind Jr.","party":"Rep","address":"667 N 350 W, # B, American Fork, UT 84003","precinct":"25AF12","hd":"53","v_score":"2.315214949","decile":"5","lat":40.39011873003439,"lng":-111.80829787924316,"phone":"(203) 960-3146","sd":"21","ssbd":"11","lsbd":"School Board Aspen Peaks 7"},{"vid":"1669583","name":"Iva Cormier","party":"Rep","address":"594 W 580 N, American Fork, UT 84003","precinct":"25AF12","hd":"53","v_score":"8.280646305","decile":"8","lat":40.38835107122488,"lng":-111.81431570813042,"phone":"(823) 770-5490","sd":"21","ssbd":"11","lsbd":"School Board Aspen Peaks 7"},{"vid":"1685428","name":"Miss Staci Strosin","party":"Rep","address":"530 N 420 W, American Fork, UT 84003","precinct":"25AF12","hd":"53","v_score":"0","decile":"1","lat":40.38753749154321,"lng":-111.80965362942605,"phone":"(114) 563-7419","sd":"21","ssbd":"11","lsbd":"School Board Aspen Peaks 7"},{"vid":"1686965","name":"Abigayle Jerde","party":"","address":"672 N 650 W, American Fork, UT 84003","precinct":"25AF12","hd":"53","v_score":"5.40460374","decile":"7","lat":40.309502993568444,"lng":-111.71117241224644,"phone":"(178) 395-6205","sd":"21","ssbd":"11","lsbd":"School Board Aspen Peaks 7"},{"vid":"3812ac7ba33b06d6d049f3d5b687ee92d70b15f4f5848ca30231628eb6ddfc30","name":"Darlyne Anderson","party":"Dem","address":"432 N 580 W, American Fork, UT 84003","precinct":"25AF12","hd":"53","v_score":"5.815909755","decile":"7","lat":40.38560361368635,"lng":-111.8138753912045,"phone":"(262) 120-9294","sd":"21","ssbd":"11","lsbd":"School Board Aspen Peaks 7"},{"vid":"1708210","name":"Greggory Rosenbaum MD","party":"Rep","address":"579 W 440 N, American Fork, UT 84003","precinct":"25AF12","hd":"53","v_score":"11.99259879","decile":"9","lat":40.385721625522116,"lng":-111.813445416264,"phone":"(399) 143-6860","sd":"21","ssbd":"11","lsbd":"School Board Aspen Peaks 7"},{"vid":"1733888","name":"Mattye Kilback","party":"","address":"561 N 420 W, American Fork, UT 84003","precinct":"25AF12","hd":"53","v_score":"1.121327652","decile":"3","lat":40.38809674430988,"lng":-111.8101745741374,"phone":"(221) 806-0156","sd":"21","ssbd":"11","lsbd":"School Board Aspen Peaks 7"},{"vid":"1736533","name":"Gennaro McGlynn","party":"","address":"536 W 650 N, American Fork, UT 84003","precinct":"25AF12","hd":"53","v_score":"0","decile":"1","lat":40.389767209633845,"lng":-111.81220879906019,"phone":"(799) 484-0631","sd":"21","ssbd":"11","lsbd":"School Board Aspen Peaks 7"},{"vid":"1738160","name":"Bradley Crona","party":"Rep","address":"604 W 460 N, American Fork, UT 84003","precinct":"25AF12","hd":"53","v_score":"2.315214949","decile":"5","lat":40.38659301535164,"lng":-111.81460273623631,"phone":"(763) 909-0472","sd":"21","ssbd":"11","lsbd":"School Board Aspen Peaks 7"},{"vid":"1739218","name":"Santiago Heaney II","party":"","address":"819 W 700 N, American Fork, UT 84003","precinct":"25AF12","hd":"53","v_score":"12.13674394","decile":"9","lat":40.39023340751199,"lng":-111.81944607256037,"phone":"(132) 485-8806","sd":"21","ssbd":"11","lsbd":"School Board Aspen Peaks 7"},{"vid":"1744423","name":"Hale Steuber","party":"Rep","address":"335 N 400 W, American Fork, UT 84003","precinct":"25AF12","hd":"53","v_score":"45.76919357","decile":"10","lat":40.38408152838052,"lng":-111.80929602646077,"phone":"(583) 428-7736","sd":"21","ssbd":"11","lsbd":"School Board Aspen Peaks 7"},{"vid":"1750400","name":"Sheldon McGlynn","party":"Dem","address":"433 N 700 W, American Fork, UT 84003","precinct":"25AF12","hd":"53","v_score":"4.465184987","decile":"7","lat":40.386220841925876,"lng":-111.81777262401745,"phone":"(737) 879-1175","sd":"21","ssbd":"11","lsbd":"School Board Aspen Peaks 7"},{"vid":"1770818","name":"Gee Oberbrunner-Casper","party":"","address":"420 N 560 W, American Fork, UT 84003","precinct":"25AF12","hd":"53","v_score":"10.33000704","decile":"9","lat":40.385637287449406,"lng":-111.81261533973375,"phone":"(298) 106-3794","sd":"21","ssbd":"11","lsbd":"School Board Aspen Peaks 7"},{"vid":"1778610","name":"Noelia Hessel","party":"Rep","address":"349 N 480 W, American Fork, UT 84003","precinct":"25AF12","hd":"53","v_score":"1.193887297","decile":"3","lat":40.38401891126921,"lng":-111.81126235610691,"phone":"(643) 104-9125","sd":"21","ssbd":"11","lsbd":"School Board Aspen Peaks 7"},{"vid":"1782470","name":"Boss Klocko","party":"","address":"446 N 600 W, American Fork, UT 84003","precinct":"25AF12","hd":"53","v_score":"3.781490609","decile":"6","lat":40.38604117023914,"lng":-111.81413239982327,"phone":"(301) 855-0880","sd":"21","ssbd":"11","lsbd":"School Board Aspen Peaks 7"},{"vid":"1784678","name":"Glenn Veum","party":"","address":"587 N 590 W, American Fork, UT 84003","precinct":"25AF12","hd":"53","v_score":"4.732607667","decile":"7","lat":40.38861274451939,"lng":-111.81383880637074,"phone":"(522) 776-2243","sd":"21","ssbd":"11","lsbd":"School Board Aspen Peaks 7"},{"vid":"1785510","name":"Mr. Jethro Kshlerin","party":"","address":"577 W 480 N, American Fork, UT 84003","precinct":"25AF12","hd":"53","v_score":"1.46627566","decile":"4","lat":40.38642976527136,"lng":-111.81371338640822,"phone":"(730) 034-9307","sd":"21","ssbd":"11","lsbd":"School Board Aspen Peaks 7"},{"vid":"1795126","name":"Mrs. Lillis Goldner","party":"Rep","address":"383 N 580 W, American Fork, UT 84003","precinct":"25AF12","hd":"53","v_score":"13.81451578","decile":"9","lat":40.38516281955715,"lng":-111.81483493016583,"phone":"(875) 547-4029","sd":"21","ssbd":"11","lsbd":"School Board Aspen Peaks 7"},{"vid":"1798092","name":"Mr. Jaiden Hagenes MD","party":"Rep","address":"335 N 400 W, American Fork, UT 84003","precinct":"25AF12","hd":"53","v_score":"8.363183621","decile":"8","lat":40.38408152838052,"lng":-111.80929602646077,"phone":"(463) 650-0745","sd":"21","ssbd":"11","lsbd":"School Board Aspen Peaks 7"},{"vid":"1821569","name":"Yaritza Daniel","party":"","address":"488 N 680 W, American Fork, UT 84003","precinct":"25AF12","hd":"53","v_score":"26.42542406","decile":"10","lat":40.387127766012014,"lng":-111.81629370471502,"phone":"(250) 573-8781","sd":"21","ssbd":"11","lsbd":"School Board Aspen Peaks 7"},{"vid":"1823838","name":"Treena Kuhlman","party":"Dem","address":"449 N 480 W, American Fork, UT 84003","precinct":"25AF12","hd":"53","v_score":"20.20421028","decile":"10","lat":40.38620478096712,"lng":-111.8113293717302,"phone":"(481) 844-9277","sd":"21","ssbd":"11","lsbd":"School Board Aspen Peaks 7"},{"vid":"1832561","name":"Macarthur Hoppe III","party":"","address":"396 N 480 W, American Fork, UT 84003","precinct":"25AF12","hd":"53","v_score":"7.169296324","decile":"8","lat":40.38502672626084,"lng":-111.81083779057423,"phone":"(602) 167-0866","sd":"21","ssbd":"11","lsbd":"School Board Aspen Peaks 7"},{"vid":"1835990","name":"Ernestine Jacobson","party":"Dem","address":"489 N 520 W, American Fork, UT 84003","precinct":"25AF12","hd":"53","v_score":"18.03463495","decile":"10","lat":40.38695093189734,"lng":-111.81214190205124,"phone":"(130) 688-1080","sd":"21","ssbd":"11","lsbd":"School Board Aspen Peaks 7"},{"vid":"202c0653bae6fe5771add14a00ecd5860ab83b443b3969b58b2affabebac7706","name":"Cornelius Gerlach","party":"","address":"553 W 600 N, American Fork, UT 84003","precinct":"25AF12","hd":"53","v_score":"0","decile":"1","lat":40.38852311616179,"lng":-111.81266509202449,"phone":"(240) 601-7592","sd":"21","ssbd":"11","lsbd":"School Board Aspen Peaks 7"},{"vid":"d34e566ddfee67ea0cee33902c10016b2475a6e7f970b940609d5bbe1b4e074b","name":"Tamela Beer","party":"Rep","address":"772 W 600 N, American Fork, UT 84003","precinct":"25AF12","hd":"53","v_score":"12.07513611","decile":"9","lat":40.38954948411083,"lng":-111.818649679709,"phone":"(280) 947-9734","sd":"21","ssbd":"11","lsbd":"School Board Aspen Peaks 7"},{"vid":"1873827","name":"Worley Upton","party":"Rep","address":"372 N 480 W, American Fork, UT 84003","precinct":"25AF12","hd":"53","v_score":"4.905839784","decile":"7","lat":40.38448159797628,"lng":-111.81072947462752,"phone":"(920) 349-0038","sd":"21","ssbd":"11","lsbd":"School Board Aspen Peaks 7"},{"vid":"1876005","name":"Walton Goodwin","party":"Dem","address":"473 W Hindley Dr, American Fork, UT 84003","precinct":"25AF12","hd":"53","v_score":"3.781490609","decile":"6","lat":40.38360308236986,"lng":-111.81081731809944,"phone":"(694) 788-6371","sd":"21","ssbd":"11","lsbd":"School Board Aspen Peaks 7"},{"vid":"6cd36d51655c81b71a3a1fe60c5fb4132ab4d07c8443ca2264395ecaffc1f72e","name":"Ashely Rohan-Leuschke","party":"","address":"437 N 680 W, American Fork, UT 84003","precinct":"25AF12","hd":"53","v_score":"3.781490609","decile":"6","lat":40.38619037662941,"lng":-111.8169686362369,"phone":"(514) 212-2337","sd":"21","ssbd":"11","lsbd":"School Board Aspen Peaks 7"},{"vid":"1877574","name":"Jalen Volkman","party":"","address":"383 W 600 N, American Fork, UT 84003","precinct":"25AF12","hd":"53","v_score":"8.347511332","decile":"8","lat":40.388698425763984,"lng":-111.80891788225888,"phone":"(705) 201-5525","sd":"21","ssbd":"11","lsbd":"School Board Aspen Peaks 7"},{"vid":"312f6b721d189c233b1d3e84cc034a90b660d90399a6d0e87b44c41acc634b5c","name":"Harding Wolff","party":"Dem","address":"542 W 600 N, American Fork, UT 84003","precinct":"25AF12","hd":"53","v_score":"11.18900094","decile":"9","lat":40.388904808082486,"lng":-111.8122710914529,"phone":"(878) 751-3975","sd":"21","ssbd":"11","lsbd":"School Board Aspen Peaks 7"},{"vid":"1879622","name":"Clifton Effertz","party":"","address":"577 W 630 N, American Fork, UT 84003","precinct":"25AF12","hd":"53","v_score":"20.3985915","decile":"10","lat":40.388996726317735,"lng":-111.81356828495397,"phone":"(445) 584-1856","sd":"21","ssbd":"11","lsbd":"School Board Aspen Peaks 7"},{"vid":"3dea2c803c7907d0b55e2378ecad28c514ff92648d9b070392c8f02eab726aeb","name":"Lillian Leannon","party":"Rep","address":"598 N 680 W, American Fork, UT 84003","precinct":"25AF12","hd":"53","v_score":"10.52632313","decile":"9","lat":40.38897536489092,"lng":-111.81620356820538,"phone":"(405) 345-9726","sd":"21","ssbd":"11","lsbd":"School Board Aspen Peaks 7"},{"vid":"1886599","name":"Ulysses Tromp-Brown","party":"Dem","address":"449 N 480 W, American Fork, UT 84003","precinct":"25AF12","hd":"53","v_score":"11.25286924","decile":"9","lat":40.38620478096712,"lng":-111.8113293717302,"phone":"(699) 756-1401","sd":"21","ssbd":"11","lsbd":"School Board Aspen Peaks 7"},{"vid":"3793d12d8c47474a9f8cc2a1f5e750e780af24cb63fe55b8a7accf1a8971da80","name":"Stephen Langosh","party":"Rep","address":"733 W 500 N, American Fork, UT 84003","precinct":"25AF12","hd":"53","v_score":"22.85402026","decile":"10","lat":40.38737965934761,"lng":-111.81804835697335,"phone":"(685) 468-4711","sd":"21","ssbd":"11","lsbd":"School Board Aspen Peaks 7"},{"vid":"1890535","name":"Tyquan Kunde-Quigley","party":"Rep","address":"641 N 420 W, American Fork, UT 84003","precinct":"25AF12","hd":"53","v_score":"0","decile":"1","lat":40.389620100180124,"lng":-111.81019440408798,"phone":"(781) 342-2139","sd":"21","ssbd":"11","lsbd":"School Board Aspen Peaks 7"},{"vid":"1894277","name":"Ryan Feil","party":"Rep","address":"432 N 680 W, American Fork, UT 84003","precinct":"25AF12","hd":"53","v_score":"5.546183193","decile":"7","lat":40.38602977019699,"lng":-111.81638229692769,"phone":"(731) 414-7780","sd":"21","ssbd":"11","lsbd":"School Board Aspen Peaks 7"},{"vid":"1900502","name":"Prince Kessler","party":"","address":"772 W 500 N, American Fork, UT 84003","precinct":"25AF12","hd":"53","v_score":"3.016591252","decile":"6","lat":40.38802519283365,"lng":-111.81886580185284,"phone":"(246) 615-6729","sd":"21","ssbd":"11","lsbd":"School Board Aspen Peaks 7"},{"vid":"1901645","name":"Cornel Davis Sr.","party":"Dem","address":"497 N 680 W, American Fork, UT 84003","precinct":"25AF12","hd":"53","v_score":"22.70037759","decile":"10","lat":40.38738584122292,"lng":-111.81673064558254,"phone":"(625) 266-5563","sd":"21","ssbd":"11","lsbd":"School Board Aspen Peaks 7"},{"vid":"b171230ad871cfd8131c5f22ecfac8861a4a057cc70ba98005c205da71561ec9","name":"Sincere Bernier","party":"","address":"335 N 400 W, American Fork, UT 84003","precinct":"25AF12","hd":"53","v_score":"40.78891255","decile":"10","lat":40.38408152838052,"lng":-111.80929602646077,"phone":"(428) 289-2767","sd":"21","ssbd":"11","lsbd":"School Board Aspen Peaks 7"},{"vid":"1932382","name":"Tyra Cole","party":"","address":"437 N 480 W, American Fork, UT 84003","precinct":"25AF12","hd":"53","v_score":"11.29723756","decile":"9","lat":40.38594849927016,"lng":-111.81133410872634,"phone":"(322) 878-8448","sd":"21","ssbd":"11","lsbd":"School Board Aspen Peaks 7"},{"vid":"1936931","name":"Jordan Abshire-Stokes","party":"Dem","address":"675 N 690 W, American Fork, UT 84003","precinct":"25AF12","hd":"53","v_score":"2.744440783","decile":"5","lat":40.389854478289564,"lng":-111.81732574433526,"phone":"(886) 184-9722","sd":"21","ssbd":"11","lsbd":"School Board Aspen Peaks 7"},{"vid":"1943055","name":"Miss Stacey Berge MD","party":"Dem","address":"477 N 450 W, American Fork, UT 84003","precinct":"25AF12","hd":"53","v_score":"8.280646305","decile":"8","lat":40.386143851748166,"lng":-111.81082850199726,"phone":"(188) 374-1179","sd":"21","ssbd":"11","lsbd":"School Board Aspen Peaks 7"},{"vid":"1943550","name":"Terrence Hermann","party":"","address":"417 W 600 N, American Fork, UT 84003","precinct":"25AF12","hd":"53","v_score":"1.46627566","decile":"4","lat":40.38877679546108,"lng":-111.80964928907494,"phone":"(213) 165-3587","sd":"21","ssbd":"11","lsbd":"School Board Aspen Peaks 7"},{"vid":"1945337","name":"Skip Kunze","party":"Dem","address":"473 W Hindley Dr, American Fork, UT 84003","precinct":"25AF12","hd":"53","v_score":"3.089388791","decile":"6","lat":40.38360308236986,"lng":-111.81081731809944,"phone":"(730) 102-4143","sd":"21","ssbd":"11","lsbd":"School Board Aspen Peaks 7"},{"vid":"1968707","name":"Jamal Klein","party":"Dem","address":"587 N 590 W, American Fork, UT 84003","precinct":"25AF12","hd":"53","v_score":"3.781490609","decile":"6","lat":40.38861274451939,"lng":-111.81383880637074,"phone":"(583) 283-2213","sd":"21","ssbd":"11","lsbd":"School Board Aspen Peaks 7"},{"vid":"1969621","name":"Kyrie Jenkins","party":"Rep","address":"356 N 480 W, American Fork, UT 84003","precinct":"25AF12","hd":"53","v_score":"9.629756109","decile":"8","lat":40.38423462895701,"lng":-111.81073402333679,"phone":"(525) 202-9510","sd":"21","ssbd":"11","lsbd":"School Board Aspen Peaks 7"},{"vid":"1973401","name":"Mr. Bertram Senger IV","party":"Rep","address":"488 N 680 W, American Fork, UT 84003","precinct":"25AF12","hd":"53","v_score":"3.664562647","decile":"6","lat":40.387127766012014,"lng":-111.81629370471502,"phone":"(782) 438-4347","sd":"21","ssbd":"11","lsbd":"School Board Aspen Peaks 7"},{"vid":"8d0035a5cba436e442fd1e06844f6e527b9a972beacdae8d1072a08d8134230f","name":"Dennie Wiza MD","party":"","address":"731 W 700 N, American Fork, UT 84003","precinct":"25AF12","hd":"53","v_score":"2.587603312","decile":"5","lat":40.39015863199316,"lng":-111.81804364265145,"phone":"(327) 469-7305","sd":"21","ssbd":"11","lsbd":"School Board Aspen Peaks 7"},{"vid":"cd7ecbc8c0443e1ee22a6ed37ca7fd6b135754abf03335d114cb8d58a2b18547","name":"Johnie Pouros","party":"Rep","address":"551 W 550 N, American Fork, UT 84003","precinct":"25AF12","hd":"53","v_score":"6.481563075","decile":"7","lat":40.38773907845713,"lng":-111.81262918189623,"phone":"(617) 705-2592","sd":"21","ssbd":"11","lsbd":"School Board Aspen Peaks 7"},{"vid":"2026860","name":"Mrs. Kayla Runte DVM","party":"","address":"455 N 400 W, American Fork, UT 84003","precinct":"25AF12","hd":"53","v_score":"2.315214949","decile":"5","lat":40.38604931250612,"lng":-111.80929914388432,"phone":"(716) 893-6687","sd":"21","ssbd":"11","lsbd":"School Board Aspen Peaks 7"},{"vid":"2028726","name":"Denny Cartwright","party":"Dem","address":"524 W 650 N, American Fork, UT 84003","precinct":"25AF12","hd":"53","v_score":"8.216702423","decile":"8","lat":40.38965720880448,"lng":-111.81193340831214,"phone":"(971) 863-9633","sd":"21","ssbd":"11","lsbd":"School Board Aspen Peaks 7"},{"vid":"2036220","name":"Newt Crona","party":"","address":"420 N 560 W, American Fork, UT 84003","precinct":"25AF12","hd":"53","v_score":"10.33000704","decile":"9","lat":40.385637287449406,"lng":-111.81261533973375,"phone":"(250) 005-5163","sd":"21","ssbd":"11","lsbd":"School Board Aspen Peaks 7"},{"vid":"2055549","name":"Elmire Baumbach","party":"","address":"751 W 600 N, American Fork, UT 84003","precinct":"25AF12","hd":"53","v_score":"1.193887297","decile":"3","lat":40.38902982535738,"lng":-111.81835561900579,"phone":"(941) 399-3341","sd":"21","ssbd":"11","lsbd":"School Board Aspen Peaks 7"},{"vid":"e7ab2bafc8755f4ffa66c2644dd51f80324f5b4342dfca1dd317e9fccfa3a8b6","name":"Sloane Kassulke","party":"Rep","address":"313 N 400 W, American Fork, UT 84003","precinct":"25AF12","hd":"53","v_score":"5.40460374","decile":"7","lat":40.38345124673732,"lng":-111.80941077815346,"phone":"(720) 474-1651","sd":"21","ssbd":"11","lsbd":"School Board Aspen Peaks 7"},{"vid":"2056490","name":"Donato Cruickshank Jr.","party":"Dem","address":"485 N 680 W, American Fork, UT 84003","precinct":"25AF12","hd":"53","v_score":"6.954919332","decile":"8","lat":40.38707128288681,"lng":-111.81687359471938,"phone":"(966) 985-0790","sd":"21","ssbd":"11","lsbd":"School Board Aspen Peaks 7"},{"vid":"2056730","name":"Dustan Williamson","party":"Dem","address":"371 W 600 N, American Fork, UT 84003","precinct":"25AF12","hd":"53","v_score":"1.46627566","decile":"4","lat":40.38869912051727,"lng":-111.80865469384693,"phone":"(749) 476-7130","sd":"21","ssbd":"11","lsbd":"School Board Aspen Peaks 7"},{"vid":"2068396","name":"Iona Berge MD","party":"Rep","address":"444 N 560 W, American Fork, UT 84003","precinct":"25AF12","hd":"53","v_score":"13.63188752","decile":"9","lat":40.38608584091293,"lng":-111.81264318855563,"phone":"(272) 723-0791","sd":"21","ssbd":"11","lsbd":"School Board Aspen Peaks 7"},{"vid":"56d8abceb3443f776aa9a5c73b96f39cbf8916c95d5da49f193fb69a8dcd3a00","name":"Mr. Dusty Armstrong IV","party":"Dem","address":"654 N 420 W, American Fork, UT 84003","precinct":"25AF12","hd":"53","v_score":"3.93832808","decile":"6","lat":40.389772710728906,"lng":-111.80951213273137,"phone":"(903) 952-0991","sd":"21","ssbd":"11","lsbd":"School Board Aspen Peaks 7"},{"vid":"2072351","name":"Reece Ebert","party":"Rep","address":"541 W 600 N, American Fork, UT 84003","precinct":"25AF12","hd":"53","v_score":"0","decile":"1","lat":40.38846563621879,"lng":-111.8122029021363,"phone":"(211) 307-1075","sd":"21","ssbd":"11","lsbd":"School Board Aspen Peaks 7"},{"vid":"d05586a658c8769a948b67c2d28ae3f6d50837f3fb08ef6249e9e468ba22bfea","name":"Mr. Woodroe Gerlach Jr.","party":"","address":"553 W 600 N, American Fork, UT 84003","precinct":"25AF12","hd":"53","v_score":"0","decile":"1","lat":40.38852311616179,"lng":-111.81266509202449,"phone":"(968) 539-7167","sd":"21","ssbd":"11","lsbd":"School Board Aspen Peaks 7"},{"vid":"7a372903e7f779346d0e047eb3cd4c52232ed079ca1a5f6df00605ffebe4bdc9","name":"Jabari Glover","party":"","address":"772 W 500 N, American Fork, UT 84003","precinct":"25AF12","hd":"53","v_score":"13.99344568","decile":"9","lat":40.38802519283365,"lng":-111.81886580185284,"phone":"(876) 191-5251","sd":"21","ssbd":"11","lsbd":"School Board Aspen Peaks 7"},{"vid":"2083030","name":"Marilyn Olson","party":"","address":"554 W 600 N, American Fork, UT 84003","precinct":"25AF12","hd":"53","v_score":"11.21417074","decile":"9","lat":40.388826109708546,"lng":-111.81269328381629,"phone":"(479) 655-1015","sd":"21","ssbd":"11","lsbd":"School Board Aspen Peaks 7"},{"vid":"2096587","name":"Ms. Alisha Kub DDS","party":"Rep","address":"494 N 560 W, American Fork, UT 84003","precinct":"25AF12","hd":"53","v_score":"1.46627566","decile":"4","lat":40.386969268456504,"lng":-111.8127024468984,"phone":"(413) 535-6658","sd":"21","ssbd":"11","lsbd":"School Board Aspen Peaks 7"},{"vid":"2107583","name":"Dylan Medhurst-Breitenberg","party":"Dem","address":"425 W 600 N, American Fork, UT 84003","precinct":"25AF12","hd":"53","v_score":"1.121327652","decile":"3","lat":40.388757853027414,"lng":-111.8100842997716,"phone":"(397) 325-6798","sd":"21","ssbd":"11","lsbd":"School Board Aspen Peaks 7"},{"vid":"2107666","name":"Ms. Alesia Marks MD","party":"","address":"494 N 560 W, American Fork, UT 84003","precinct":"25AF12","hd":"53","v_score":"1.46627566","decile":"4","lat":40.386969268456504,"lng":-111.8127024468984,"phone":"(538) 735-4452","sd":"21","ssbd":"11","lsbd":"School Board Aspen Peaks 7"},{"vid":"2108690","name":"Chrystal Crist","party":"","address":"375 N 580 W, American Fork, UT 84003","precinct":"25AF12","hd":"53","v_score":"10.9941379","decile":"9","lat":40.38501759625815,"lng":-111.81492287334568,"phone":"(839) 905-2017","sd":"21","ssbd":"11","lsbd":"School Board Aspen Peaks 7"},{"vid":"0116aedca70c487b5ded91047482c7c0f666aa550d0bc0b7ea191bcec944b635","name":"Leanne Heller","party":"Dem","address":"578 N 490 West Cir, American Fork, UT 84003","precinct":"25AF12","hd":"53","v_score":"1.121327652","decile":"3","lat":40.38811354262668,"lng":-111.81087661706889,"phone":"(736) 126-8989","sd":"21","ssbd":"11","lsbd":"School Board Aspen Peaks 7"},{"vid":"2121313","name":"Francisquita Rolfson","party":"Rep","address":"375 N 580 W, American Fork, UT 84003","precinct":"25AF12","hd":"53","v_score":"14.38526013","decile":"9","lat":40.38501759625815,"lng":-111.81492287334568,"phone":"(214) 634-2990","sd":"21","ssbd":"11","lsbd":"School Board Aspen Peaks 7"},{"vid":"2128813","name":"Le Beier","party":"Dem","address":"669 N 540 W, American Fork, UT 84003","precinct":"25AF12","hd":"53","v_score":"15.03795631","decile":"9","lat":40.389779384674426,"lng":-111.81268294798507,"phone":"(680) 032-2687","sd":"21","ssbd":"11","lsbd":"School Board Aspen Peaks 7"},{"vid":"2132157","name":"Ursula Wuckert DVM","party":"Dem","address":"533 N 490 West Cir, American Fork, UT 84003","precinct":"25AF12","hd":"53","v_score":"3.781490609","decile":"6","lat":40.38760449742264,"lng":-111.81142199899543,"phone":"(581) 165-9559","sd":"21","ssbd":"11","lsbd":"School Board Aspen Peaks 7"},{"vid":"2132374","name":"Antoine Olson","party":"Dem","address":"502 N 650 W, American Fork, UT 84003","precinct":"25AF12","hd":"53","v_score":"2.315214949","decile":"5","lat":40.387653722621835,"lng":-111.81534817157463,"phone":"(767) 533-2012","sd":"21","ssbd":"11","lsbd":"School Board Aspen Peaks 7"},{"vid":"2134206","name":"Harlen Erdman PhD","party":"","address":"769 W 500 N, American Fork, UT 84003","precinct":"25AF12","hd":"53","v_score":"9.82542041","decile":"8","lat":40.387545721940334,"lng":-111.81878573461945,"phone":"(512) 994-1447","sd":"21","ssbd":"11","lsbd":"School Board Aspen Peaks 7"},{"vid":"2136795","name":"Bobby Ruecker-Konopelski","party":"Dem","address":"511 N 490 West Cir, American Fork, UT 84003","precinct":"25AF12","hd":"53","v_score":"3.93832808","decile":"6","lat":40.38725015661341,"lng":-111.81135218607682,"phone":"(245) 666-2996","sd":"21","ssbd":"11","lsbd":"School Board Aspen Peaks 7"},{"vid":"2152918","name":"Dr. Misael Dooley","party":"","address":"538 W 600 N, American Fork, UT 84003","precinct":"25AF12","hd":"53","v_score":"2.315214949","decile":"5","lat":40.38892263423283,"lng":-111.81194945245018,"phone":"(665) 337-4914","sd":"21","ssbd":"11","lsbd":"School Board Aspen Peaks 7"},{"vid":"a82c9a46e8fb4007a1a413c41560413f51dcd7b596ccf08852d37914984ec213","name":"Ms. Corey Haley","party":"","address":"457 N 570 W, American Fork, UT 84003","precinct":"25AF12","hd":"53","v_score":"4.210716443","decile":"7","lat":40.38621430127033,"lng":-111.81378484243552,"phone":"(330) 246-1606","sd":"21","ssbd":"11","lsbd":"School Board Aspen Peaks 7"},{"vid":"2161983","name":"Ulysses Nienow","party":"","address":"819 W 700 N, American Fork, UT 84003","precinct":"25AF12","hd":"53","v_score":"12.13674394","decile":"9","lat":40.39023340751199,"lng":-111.81944607256037,"phone":"(376) 210-7723","sd":"21","ssbd":"11","lsbd":"School Board Aspen Peaks 7"},{"vid":"2166936","name":"Cletus Stracke","party":"Rep","address":"453 N 520 W, American Fork, UT 84003","precinct":"25AF12","hd":"53","v_score":"3.089388791","decile":"6","lat":40.38626318753641,"lng":-111.8122623260517,"phone":"(823) 906-4769","sd":"21","ssbd":"11","lsbd":"School Board Aspen Peaks 7"},{"vid":"3555b50da74bc32ae8541a941d13f621871a85206064136ec465073fe209992e","name":"Juston Walter","party":"Dem","address":"481 N 400 W, American Fork, UT 84003","precinct":"25AF12","hd":"53","v_score":"1.193887297","decile":"3","lat":40.38668909275044,"lng":-111.80929376028081,"phone":"(173) 533-0489","sd":"21","ssbd":"11","lsbd":"School Board Aspen Peaks 7"},{"vid":"2178249","name":"Dr. Marion Maggio V","party":"","address":"629 N 690 W, American Fork, UT 84003","precinct":"25AF12","hd":"53","v_score":"6.814370645","decile":"8","lat":40.38929329339244,"lng":-111.81746953091219,"phone":"(308) 473-5640","sd":"21","ssbd":"11","lsbd":"School Board Aspen Peaks 7"},{"vid":"1a6502c62278a5428446dd8e1d4381f12a738a0c94aac587e2a96865f7ee7bc9","name":"Autry Prohaska-Nicolas","party":"Rep","address":"527 N 560 W, American Fork, UT 84003","precinct":"25AF12","hd":"53","v_score":"0","decile":"1","lat":40.38757867180024,"lng":-111.81315090521508,"phone":"(347) 532-4776","sd":"21","ssbd":"11","lsbd":"School Board Aspen Peaks 7"},{"vid":"e407297798c58f395fc5dd997d8e833827e72967839ec59a8179abfff000b908","name":"Mr. Mervyn Sauer I","party":"","address":"381 N 400 W, American Fork, UT 84003","precinct":"25AF12","hd":"53","v_score":"0","decile":"1","lat":40.38443827477743,"lng":-111.80929408017089,"phone":"(500) 347-8848","sd":"21","ssbd":"11","lsbd":"School Board Aspen Peaks 7"},{"vid":"1b8598a8b0eac654f9ea14d6bdca33049a182d978774497cf32d2542fccae16e","name":"Miss Ollie Bashirian","party":"Dem","address":"595 N 560 W, American Fork, UT 84003","precinct":"25AF12","hd":"53","v_score":"3.664562647","decile":"6","lat":40.3884976545443,"lng":-111.81317647611897,"phone":"(726) 211-1948","sd":"21","ssbd":"11","lsbd":"School Board Aspen Peaks 7"},{"vid":"a1a8d81857622af8b3728bbbbdd30d4dd3805d4b4d86c8352f9dbd1ee4a62da6","name":"Carmen Ebert-Hauck","party":"Rep","address":"553 W 600 N, American Fork, UT 84003","precinct":"25AF12","hd":"53","v_score":"0","decile":"1","lat":40.38852311616179,"lng":-111.81266509202449,"phone":"(147) 777-9003","sd":"21","ssbd":"11","lsbd":"School Board Aspen Peaks 7"},{"vid":"3563de53a63d84d48615e7a17d3b16388a22f3c395b5ede40aedafc4b6a2e7c5","name":"Carolyn Nienow DDS","party":"Dem","address":"495 W 400 N, American Fork, UT 84003","precinct":"25AF12","hd":"53","v_score":"2.315214949","decile":"5","lat":40.38503282240987,"lng":-111.81120915768975,"phone":"(867) 499-4353","sd":"21","ssbd":"11","lsbd":"School Board Aspen Peaks 7"},{"vid":"c19196ff8302f09a5256eab634e7916f1b32937b0f5965e3f05e0f1efce6f6b8","name":"Mr. Earl Hackett","party":"Dem","address":"587 N 590 W, American Fork, UT 84003","precinct":"25AF12","hd":"53","v_score":"8.274713794","decile":"8","lat":40.38861274451939,"lng":-111.81383880637074,"phone":"(594) 884-6732","sd":"21","ssbd":"11","lsbd":"School Board Aspen Peaks 7"},{"vid":"86eb5126cba73c4e73313836a644fad04e50f45450b309e70053d934763b7e80","name":"Gray Grimes","party":"Dem","address":"481 N 400 W, American Fork, UT 84003","precinct":"25AF12","hd":"53","v_score":"5.407962308","decile":"7","lat":40.38668909275044,"lng":-111.80929376028081,"phone":"(569) 869-6127","sd":"21","ssbd":"11","lsbd":"School Board Aspen Peaks 7"},{"vid":"4c93f0cfba692c7f06ad113fe98779bdce4db01d665c0e173262c42e4882be4a","name":"Joaquin Graham","party":"","address":"669 N 540 W, American Fork, UT 84003","precinct":"25AF12","hd":"53","v_score":"13.97135325","decile":"9","lat":40.389779384674426,"lng":-111.81268294798507,"phone":"(650) 192-1822","sd":"21","ssbd":"11","lsbd":"School Board Aspen Peaks 7"},{"vid":"7e3441d0ff78a302a2a3ed0d696a30e01b833082fd91f5711ac221c0b3657d96","name":"Mr. Misael Brown","party":"","address":"796 W 600 N, American Fork, UT 84003","precinct":"25AF12","hd":"53","v_score":"6.814370645","decile":"8","lat":40.389726502147695,"lng":-111.8191871891747,"phone":"(664) 888-7572","sd":"21","ssbd":"11","lsbd":"School Board Aspen Peaks 7"},{"vid":"2112075bf91bc7d45dc24fc7870e8803549eb0e6a4a4adc2dd5f9388ce032f12","name":"Shaquille Casper-Haley","party":"Dem","address":"544 N 780 W, American Fork, UT 84003","precinct":"25AF12","hd":"53","v_score":"0","decile":"1","lat":40.388603261172065,"lng":-111.81863985091226,"phone":"(930) 877-5830","sd":"21","ssbd":"11","lsbd":"School Board Aspen Peaks 7"},{"vid":"2237602","name":"Mamie Zemlak V","party":"Rep","address":"622 W 460 N, American Fork, UT 84003","precinct":"25AF12","hd":"53","v_score":"2.315214949","decile":"5","lat":40.38658308153882,"lng":-111.81491916195608,"phone":"(833) 240-8098","sd":"21","ssbd":"11","lsbd":"School Board Aspen Peaks 7"},{"vid":"3bfb56b09cad9a663e978c63b40493c1e84a18a04c0b902b8730672d78b69ebb","name":"Lexi Olson-Luettgen","party":"Rep","address":"693 N 540 W, American Fork, UT 84003","precinct":"25AF12","hd":"53","v_score":"17.65631692","decile":"10","lat":40.390342789970155,"lng":-111.8124183786532,"phone":"(657) 856-9226","sd":"21","ssbd":"11","lsbd":"School Board Aspen Peaks 7"},{"vid":"2242588","name":"Hope Greenholt","party":"","address":"473 W Hindley Dr, American Fork, UT 84003","precinct":"25AF12","hd":"53","v_score":"3.93832808","decile":"6","lat":40.38360308236986,"lng":-111.81081731809944,"phone":"(143) 450-2422","sd":"21","ssbd":"11","lsbd":"School Board Aspen Peaks 7"},{"vid":"3defb1ade36167a911632764a8596125e385ffd19ba18dd667ce2f404a50c3e3","name":"Dr. Wilton Nader Sr.","party":"Dem","address":"453 N 520 W, American Fork, UT 84003","precinct":"25AF12","hd":"53","v_score":"3.93832808","decile":"6","lat":40.38626318753641,"lng":-111.8122623260517,"phone":"(580) 937-3510","sd":"21","ssbd":"11","lsbd":"School Board Aspen Peaks 7"},{"vid":"63325881834a365b03ec3e7062c715fd9bc915cf971f8333a405b344d582f033","name":"Britt Witting-Jast","party":"Rep","address":"769 W 500 N, American Fork, UT 84003","precinct":"25AF12","hd":"53","v_score":"8.236277988","decile":"8","lat":40.387545721940334,"lng":-111.81878573461945,"phone":"(291) 969-2582","sd":"21","ssbd":"11","lsbd":"School Board Aspen Peaks 7"},{"vid":"f2fe6f47c56f75279cef1b2ee93be792136276e5de3f65ec9144c734d8dfdf3b","name":"Cherilyn Gleason","party":"Dem","address":"825 W 700 N, American Fork, UT 84003","precinct":"25AF12","hd":"53","v_score":"27.0798583","decile":"10","lat":40.39021258739444,"lng":-111.81972214805363,"phone":"(111) 017-0006","sd":"21","ssbd":"11","lsbd":"School Board Aspen Peaks 7"},{"vid":"c875349322b87e149bf0b66b9a510bd04ebaa7ea69ff879d47ff8b16a14c16bc","name":"Shelia Kunze PhD","party":"Dem","address":"522 N 780 W, American Fork, UT 84003","precinct":"25AF12","hd":"53","v_score":"9.907118004","decile":"8","lat":40.38835269896354,"lng":-111.81869517800085,"phone":"(869) 695-4756","sd":"21","ssbd":"11","lsbd":"School Board Aspen Peaks 7"},{"vid":"2279947","name":"Adelynn Auer","party":"","address":"692 W 410 N, American Fork, UT 84003","precinct":"25AF12","hd":"53","v_score":"0","decile":"1","lat":40.386041054974946,"lng":-111.81737027528197,"phone":"(589) 571-7640","sd":"21","ssbd":"11","lsbd":"School Board Aspen Peaks 7"},{"vid":"2281248","name":"Junious Homenick-Lynch","party":"","address":"589 W 480 N, American Fork, UT 84003","precinct":"25AF12","hd":"53","v_score":"0","decile":"1","lat":40.386442865375045,"lng":-111.81397926455578,"phone":"(904) 501-8258","sd":"21","ssbd":"11","lsbd":"School Board Aspen Peaks 7"},{"vid":"0f1277229ece7629abf3c3df41ddf1bd9caf875504549f6c99f8999d42560a2a","name":"Shalon Hessel","party":"","address":"403 N 450 W, American Fork, UT 84003","precinct":"25AF12","hd":"53","v_score":"5.258122542","decile":"7","lat":40.38531064508698,"lng":-111.81024742398468,"phone":"(622) 728-7058","sd":"21","ssbd":"11","lsbd":"School Board Aspen Peaks 7"},{"vid":"a0bf173199f5f85ed57053239e7cec8273d3fe2f199b7b760a64da2aaee92c2a","name":"Tyrell Pollich","party":"","address":"424 N 480 W, American Fork, UT 84003","precinct":"25AF12","hd":"53","v_score":"2.942907593","decile":"6","lat":40.385650523096984,"lng":-111.8107079418305,"phone":"(151) 714-4546","sd":"21","ssbd":"11","lsbd":"School Board Aspen Peaks 7"},{"vid":"4cc20a2509a88dfca2f43b2d2efdbbfc5cb78a88733552dca2708f8ca961da49","name":"Bama Schaefer","party":"Dem","address":"577 N 490 West Cir, American Fork, UT 84003","precinct":"25AF12","hd":"53","v_score":"6.52928996","decile":"7","lat":40.38808143247343,"lng":-111.81136228455202,"phone":"(366) 685-4614","sd":"21","ssbd":"11","lsbd":"School Board Aspen Peaks 7"},{"vid":"2302015","name":"Leaner Friesen DDS","party":"Rep","address":"390 N 580 W, American Fork, UT 84003","precinct":"25AF12","hd":"53","v_score":"0","decile":"1","lat":40.38504638336003,"lng":-111.81429269086499,"phone":"(647) 120-9317","sd":"21","ssbd":"11","lsbd":"School Board Aspen Peaks 7"},{"vid":"76adbfd6c844e283e5fb6d62619380c58a7e5f6d01d8d616a0b0583218ce5e67","name":"Dr. Elzada Feest PhD","party":"","address":"654 N 420 W, American Fork, UT 84003","precinct":"25AF12","hd":"53","v_score":"5.815909755","decile":"7","lat":40.389772710728906,"lng":-111.80951213273137,"phone":"(425) 471-2421","sd":"21","ssbd":"11","lsbd":"School Board Aspen Peaks 7"},{"vid":"2320390","name":"Dr. Juluis Sporer","party":"","address":"538 W 500 N, American Fork, UT 84003","precinct":"25AF12","hd":"53","v_score":"13.42455999","decile":"9","lat":40.38733818106965,"lng":-111.81227526286975,"phone":"(847) 020-4974","sd":"21","ssbd":"11","lsbd":"School Board Aspen Peaks 7"},{"vid":"2320779","name":"Sigmund Wuckert-Wintheiser","party":"Dem","address":"561 W 440 N, American Fork, UT 84003","precinct":"25AF12","hd":"53","v_score":"6.814370645","decile":"8","lat":40.385782728699674,"lng":-111.81310636839922,"phone":"(675) 499-6924","sd":"21","ssbd":"11","lsbd":"School Board Aspen Peaks 7"},{"vid":"2320936","name":"Estefany Jenkins","party":"","address":"736 W 410 N, American Fork, UT 84003","precinct":"25AF12","hd":"53","v_score":"1.121327652","decile":"3","lat":40.38642575031567,"lng":-111.81829718418047,"phone":"(796) 221-6766","sd":"21","ssbd":"11","lsbd":"School Board Aspen Peaks 7"},{"vid":"2332977","name":"Malaya Lemke MD","party":"Dem","address":"472 N 680 W, American Fork, UT 84003","precinct":"25AF12","hd":"53","v_score":"2.315214949","decile":"5","lat":40.38690817266004,"lng":-111.8163114236247,"phone":"(312) 998-0311","sd":"21","ssbd":"11","lsbd":"School Board Aspen Peaks 7"},{"vid":"2338569","name":"Ashlyn Runolfsdottir-Mayert","party":"","address":"406 N 580 W, American Fork, UT 84003","precinct":"25AF12","hd":"53","v_score":"2.744440783","decile":"5","lat":40.38524934442995,"lng":-111.81411680758521,"phone":"(852) 564-9798","sd":"21","ssbd":"11","lsbd":"School Board Aspen Peaks 7"},{"vid":"2339242","name":"Dr. Ham Gusikowski PhD","party":"","address":"373 N 480 W, American Fork, UT 84003","precinct":"25AF12","hd":"53","v_score":"1.121327652","decile":"3","lat":40.384558980801096,"lng":-111.81128792669693,"phone":"(621) 664-0125","sd":"21","ssbd":"11","lsbd":"School Board Aspen Peaks 7"},{"vid":"2344329","name":"Larissa Rempel-Glover","party":"Rep","address":"542 W 600 N, American Fork, UT 84003","precinct":"25AF12","hd":"53","v_score":"1.121327652","decile":"3","lat":40.388904808082486,"lng":-111.8122710914529,"phone":"(978) 514-1490","sd":"21","ssbd":"11","lsbd":"School Board Aspen Peaks 7"},{"vid":"2346828","name":"Jolene Lubowitz DVM","party":"Rep","address":"516 W 600 N, American Fork, UT 84003","precinct":"25AF12","hd":"53","v_score":"0","decile":"1","lat":40.38893053933419,"lng":-111.81155769950588,"phone":"(234) 222-2311","sd":"21","ssbd":"11","lsbd":"School Board Aspen Peaks 7"},{"vid":"2347000","name":"Mr. Simon Nader","party":"Dem","address":"622 W 460 N, American Fork, UT 84003","precinct":"25AF12","hd":"53","v_score":"2.315214949","decile":"5","lat":40.38658308153882,"lng":-111.81491916195608,"phone":"(333) 142-4619","sd":"21","ssbd":"11","lsbd":"School Board Aspen Peaks 7"},{"vid":"2349900","name":"Mac Dach","party":"Rep","address":"464 N 680 W, American Fork, UT 84003","precinct":"25AF12","hd":"53","v_score":"0","decile":"1","lat":40.386688551633206,"lng":-111.81632914217501,"phone":"(287) 994-3021","sd":"21","ssbd":"11","lsbd":"School Board Aspen Peaks 7"},{"vid":"2357761","name":"Darrien Cassin","party":"","address":"384 N 480 W, American Fork, UT 84003","precinct":"25AF12","hd":"53","v_score":"1.121327652","decile":"3","lat":40.384728567321744,"lng":-111.81072492681655,"phone":"(146) 019-3450","sd":"21","ssbd":"11","lsbd":"School Board Aspen Peaks 7"},{"vid":"2366834","name":"Carrol Barton","party":"Rep","address":"568 N 580 W, American Fork, UT 84003","precinct":"25AF12","hd":"53","v_score":"2.315214949","decile":"5","lat":40.38785677426897,"lng":-111.81363588855865,"phone":"(778) 642-3598","sd":"21","ssbd":"11","lsbd":"School Board Aspen Peaks 7"},{"vid":"2383672","name":"Federico Marquardt","party":"Rep","address":"373 N 480 W, American Fork, UT 84003","precinct":"25AF12","hd":"53","v_score":"1.121327652","decile":"3","lat":40.384558980801096,"lng":-111.81128792669693,"phone":"(779) 088-4890","sd":"21","ssbd":"11","lsbd":"School Board Aspen Peaks 7"},{"vid":"2384576","name":"Mr. Gerard Pagac II","party":"","address":"446 N 700 W, American Fork, UT 84003","precinct":"25AF12","hd":"53","v_score":"0","decile":"1","lat":40.3865704701712,"lng":-111.81723756922536,"phone":"(607) 355-6266","sd":"21","ssbd":"11","lsbd":"School Board Aspen Peaks 7"},{"vid":"2384866","name":"Jep Doyle","party":"Dem","address":"553 W 600 N, American Fork, UT 84003","precinct":"25AF12","hd":"53","v_score":"0","decile":"1","lat":40.38852311616179,"lng":-111.81266509202449,"phone":"(553) 905-9113","sd":"21","ssbd":"11","lsbd":"School Board Aspen Peaks 7"},{"vid":"2385544","name":"Javon Blanda","party":"","address":"553 W 600 N, American Fork, UT 84003","precinct":"25AF12","hd":"53","v_score":"0","decile":"1","lat":40.38852311616179,"lng":-111.81266509202449,"phone":"(461) 809-8056","sd":"21","ssbd":"11","lsbd":"School Board Aspen Peaks 7"},{"vid":"2385888","name":"Nereida Donnelly","party":"Dem","address":"396 W 500 N, American Fork, UT 84003","precinct":"25AF12","hd":"53","v_score":"11.687527","decile":"9","lat":40.38742754338363,"lng":-111.80918582455531,"phone":"(356) 903-3059","sd":"21","ssbd":"11","lsbd":"School Board Aspen Peaks 7"},{"vid":"2388716","name":"Franklyn Trantow","party":"","address":"372 N 480 W, American Fork, UT 84003","precinct":"25AF12","hd":"53","v_score":"8.903210001","decile":"8","lat":40.38448159797628,"lng":-111.81072947462752,"phone":"(991) 423-0261","sd":"21","ssbd":"11","lsbd":"School Board Aspen Peaks 7"},{"vid":"2389215","name":"Yulissa Reichert","party":"","address":"424 W 500 N, American Fork, UT 84003","precinct":"25AF12","hd":"53","v_score":"1.121327652","decile":"3","lat":40.38724756783294,"lng":-111.81011125514613,"phone":"(145) 365-3593","sd":"21","ssbd":"11","lsbd":"School Board Aspen Peaks 7"},{"vid":"2398107","name":"Shelly Dare MD","party":"Dem","address":"695 N 600 W, American Fork, UT 84003","precinct":"25AF12","hd":"53","v_score":"2.315214949","decile":"5","lat":40.3903330655995,"lng":-111.81443417865815,"phone":"(927) 005-3625","sd":"21","ssbd":"11","lsbd":"School Board Aspen Peaks 7"},{"vid":"2399489","name":"Jessee McGlynn","party":"Rep","address":"526 W 500 N, American Fork, UT 84003","precinct":"25AF12","hd":"53","v_score":"1.121327652","decile":"3","lat":40.38735741390969,"lng":-111.81192410019625,"phone":"(442) 525-0163","sd":"21","ssbd":"11","lsbd":"School Board Aspen Peaks 7"},{"vid":"2400177","name":"Neppie Kuvalis","party":"Dem","address":"488 N 520 W, American Fork, UT 84003","precinct":"25AF12","hd":"53","v_score":"2.315214949","decile":"5","lat":40.3869631082736,"lng":-111.81174480704378,"phone":"(360) 122-3811","sd":"21","ssbd":"11","lsbd":"School Board Aspen Peaks 7"},{"vid":"2405154","name":"Paisley Terry-Friesen","party":"","address":"412 N 520 W, American Fork, UT 84003","precinct":"25AF12","hd":"53","v_score":"1.121327652","decile":"3","lat":40.38559539190153,"lng":-111.81169952523796,"phone":"(388) 499-6759","sd":"21","ssbd":"11","lsbd":"School Board Aspen Peaks 7"},{"vid":"2407805","name":"Vanessa McClure","party":"","address":"772 W 500 N, American Fork, UT 84003","precinct":"25AF12","hd":"53","v_score":"3.93832808","decile":"6","lat":40.38802519283365,"lng":-111.81886580185284,"phone":"(314) 282-7833","sd":"21","ssbd":"11","lsbd":"School Board Aspen Peaks 7"},{"vid":"2413964","name":"Ragna Bernhard","party":"Rep","address":"497 W 500 N, American Fork, UT 84003","precinct":"25AF12","hd":"53","v_score":"3.93832808","decile":"6","lat":40.386874880902084,"lng":-111.81106568583128,"phone":"(614) 241-0878","sd":"21","ssbd":"11","lsbd":"School Board Aspen Peaks 7"},{"vid":"2420242","name":"Dr. Amasa Rohan","party":"Dem","address":"659 N 600 W, American Fork, UT 84003","precinct":"25AF12","hd":"53","v_score":"3.93832808","decile":"6","lat":40.389615778455095,"lng":-111.81469023798402,"phone":"(411) 187-0278","sd":"21","ssbd":"11","lsbd":"School Board Aspen Peaks 7"},{"vid":"2427192","name":"Gunnar Nienow PhD","party":"","address":"369 N 580 W, American Fork, UT 84003","precinct":"25AF12","hd":"53","v_score":"3.93832808","decile":"6","lat":40.38493296649899,"lng":-111.81497256679974,"phone":"(355) 500-4156","sd":"21","ssbd":"11","lsbd":"School Board Aspen Peaks 7"},{"vid":"2429080","name":"Mr. Tyriq Feest II","party":"Rep","address":"433 W 700 N, American Fork, UT 84003","precinct":"25AF12","hd":"53","v_score":"5.191257514","decile":"7","lat":40.390397027846795,"lng":-111.81037285500307,"phone":"(778) 007-4252","sd":"21","ssbd":"11","lsbd":"School Board Aspen Peaks 7"},{"vid":"2432367","name":"Mr. Tristin Larson PhD","party":"","address":"695 N 600 W, American Fork, UT 84003","precinct":"25AF12","hd":"53","v_score":"1.121327652","decile":"3","lat":40.3903330655995,"lng":-111.81443417865815,"phone":"(390) 948-4931","sd":"21","ssbd":"11","lsbd":"School Board Aspen Peaks 7"},{"vid":"2433478","name":"Walker Kunde","party":"Dem","address":"559 N 650 W, American Fork, UT 84003","precinct":"25AF12","hd":"53","v_score":"1.193887297","decile":"3","lat":40.38818002521405,"lng":-111.81584921184458,"phone":"(665) 823-3818","sd":"21","ssbd":"11","lsbd":"School Board Aspen Peaks 7"},{"vid":"2436168","name":"Dr. Turner Ryan","party":"Rep","address":"403 N 450 W, American Fork, UT 84003","precinct":"25AF12","hd":"53","v_score":"1.193887297","decile":"3","lat":40.38531064508698,"lng":-111.81024742398468,"phone":"(352) 564-3357","sd":"21","ssbd":"11","lsbd":"School Board Aspen Peaks 7"},{"vid":"2437937","name":"Raphael Aufderhar","party":"Dem","address":"456 N 600 W, American Fork, UT 84003","precinct":"25AF12","hd":"53","v_score":"3.997370217","decile":"6","lat":40.386233270457474,"lng":-111.81413328196888,"phone":"(585) 137-6171","sd":"21","ssbd":"11","lsbd":"School Board Aspen Peaks 7"},{"vid":"2444786","name":"Fleeta Homenick","party":"","address":"433 N 700 W, American Fork, UT 84003","precinct":"25AF12","hd":"53","v_score":"4.858449944","decile":"7","lat":40.386220841925876,"lng":-111.81777262401745,"phone":"(975) 722-2087","sd":"21","ssbd":"11","lsbd":"School Board Aspen Peaks 7"},{"vid":"2447984","name":"Dr. Johannah Bauch","party":"","address":"561 W 440 N, American Fork, UT 84003","precinct":"25AF12","hd":"53","v_score":"2.315214949","decile":"5","lat":40.385782728699674,"lng":-111.81310636839922,"phone":"(187) 008-8552","sd":"21","ssbd":"11","lsbd":"School Board Aspen Peaks 7"},{"vid":"2464843","name":"Pershing Anderson","party":"Rep","address":"368 N 450 W, American Fork, UT 84003","precinct":"25AF12","hd":"53","v_score":"0","decile":"1","lat":40.38454007446566,"lng":-111.80970606229255,"phone":"(492) 544-3734","sd":"21","ssbd":"11","lsbd":"School Board Aspen Peaks 7"},{"vid":"2469510","name":"Florencio Wisozk","party":"","address":"455 W 400 N, American Fork, UT 84003","precinct":"25AF12","hd":"53","v_score":"5.83359168","decile":"7","lat":40.38502139788262,"lng":-111.81026433571223,"phone":"(854) 226-0850","sd":"21","ssbd":"11","lsbd":"School Board Aspen Peaks 7"},{"vid":"2469902","name":"Alline Brekke","party":"","address":"752 W 450 N, American Fork, UT 84003","precinct":"25AF12","hd":"53","v_score":"10.04766669","decile":"9","lat":40.38698250532058,"lng":-111.81827664126912,"phone":"(842) 772-8649","sd":"21","ssbd":"11","lsbd":"School Board Aspen Peaks 7"},{"vid":"2472371","name":"Quinn Frami","party":"","address":"453 N 520 W, American Fork, UT 84003","precinct":"25AF12","hd":"53","v_score":"10.56619935","decile":"9","lat":40.38626318753641,"lng":-111.8122623260517,"phone":"(829) 046-9151","sd":"21","ssbd":"11","lsbd":"School Board Aspen Peaks 7"},{"vid":"2473236","name":"Aidyn Watsica Sr.","party":"Dem","address":"429 N 520 W, American Fork, UT 84003","precinct":"25AF12","hd":"53","v_score":"1.193887297","decile":"3","lat":40.38579163786854,"lng":-111.81229172734199,"phone":"(238) 633-6337","sd":"21","ssbd":"11","lsbd":"School Board Aspen Peaks 7"},{"vid":"2475685","name":"Carole Gislason","party":"Dem","address":"447 N 600 W, American Fork, UT 84003","precinct":"25AF12","hd":"53","v_score":"4.069929862","decile":"6","lat":40.38585363911684,"lng":-111.81478561044943,"phone":"(788) 510-1401","sd":"21","ssbd":"11","lsbd":"School Board Aspen Peaks 7"},{"vid":"2480429","name":"Meredith Schroeder","party":"Rep","address":"455 N 700 W, American Fork, UT 84003","precinct":"25AF12","hd":"53","v_score":"1.193887297","decile":"3","lat":40.3867070613295,"lng":-111.8177757037686,"phone":"(677) 020-7497","sd":"21","ssbd":"11","lsbd":"School Board Aspen Peaks 7"},{"vid":"2483454","name":"Boston Wolf-Terry","party":"Dem","address":"627 W 460 N, American Fork, UT 84003","precinct":"25AF12","hd":"53","v_score":"7.8339691","decile":"8","lat":40.38617196596062,"lng":-111.81507052484753,"phone":"(686) 351-5516","sd":"21","ssbd":"11","lsbd":"School Board Aspen Peaks 7"},{"vid":"2487437","name":"Jaylene Gottlieb DVM","party":"Dem","address":"544 N 780 W, American Fork, UT 84003","precinct":"25AF12","hd":"53","v_score":"0","decile":"1","lat":40.388603261172065,"lng":-111.81863985091226,"phone":"(277) 978-7717","sd":"21","ssbd":"11","lsbd":"School Board Aspen Peaks 7"},{"vid":"2488012","name":"Karma Towne","party":"Dem","address":"681 N 540 W, American Fork, UT 84003","precinct":"25AF12","hd":"53","v_score":"0","decile":"1","lat":40.390104500027405,"lng":-111.81256070143841,"phone":"(512) 654-6055","sd":"21","ssbd":"11","lsbd":"School Board Aspen Peaks 7"},{"vid":"2496280","name":"Carie Stark","party":"","address":"555 N 490 West Cir, American Fork, UT 84003","precinct":"25AF12","hd":"53","v_score":"1.193887297","decile":"3","lat":40.387857321703216,"lng":-111.81133414640212,"phone":"(586) 941-3549","sd":"21","ssbd":"11","lsbd":"School Board Aspen Peaks 7"},{"vid":"2498638","name":"Anita Pfannerstill","party":"Rep","address":"577 N 490 West Cir, American Fork, UT 84003","precinct":"25AF12","hd":"53","v_score":"1.193887297","decile":"3","lat":40.38808143247343,"lng":-111.81136228455202,"phone":"(568) 421-5714","sd":"21","ssbd":"11","lsbd":"School Board Aspen Peaks 7"},{"vid":"2499679","name":"Mr. Hartwell Carroll","party":"","address":"461 N 680 W, American Fork, UT 84003","precinct":"25AF12","hd":"53","v_score":"0","decile":"1","lat":40.386638712380254,"lng":-111.81693246557197,"phone":"(775) 281-6071","sd":"21","ssbd":"11","lsbd":"School Board Aspen Peaks 7"},{"vid":"2503076","name":"Pierre Bernier V","party":"Rep","address":"420 N 560 W, American Fork, UT 84003","precinct":"25AF12","hd":"53","v_score":"0","decile":"1","lat":40.385637287449406,"lng":-111.81261533973375,"phone":"(175) 658-9024","sd":"21","ssbd":"11","lsbd":"School Board Aspen Peaks 7"},{"vid":"2510349","name":"Colonel Stracke PhD","party":"Dem","address":"727 W 600 N, American Fork, UT 84003","precinct":"25AF12","hd":"53","v_score":"6.757310005","decile":"8","lat":40.38891421028015,"lng":-111.81789603094494,"phone":"(820) 671-3254","sd":"21","ssbd":"11","lsbd":"School Board Aspen Peaks 7"},{"vid":"2515608","name":"Lavona Schowalter","party":"","address":"455 N 560 W, American Fork, UT 84003","precinct":"25AF12","hd":"53","v_score":"16.16230549","decile":"9","lat":40.38601218484996,"lng":-111.81311021054354,"phone":"(907) 404-2063","sd":"21","ssbd":"11","lsbd":"School Board Aspen Peaks 7"},{"vid":"2518019","name":"Waino Hessel","party":"Dem","address":"528 N 650 W, American Fork, UT 84003","precinct":"25AF12","hd":"53","v_score":"3.711952487","decile":"6","lat":40.387955961426755,"lng":-111.81528043022738,"phone":"(886) 791-3882","sd":"21","ssbd":"11","lsbd":"School Board Aspen Peaks 7"},{"vid":"2522534","name":"Selina Rath DVM","party":"Dem","address":"673 N 650 W, American Fork, UT 84003","precinct":"25AF12","hd":"53","v_score":"2.817000428","decile":"6","lat":40.3094988929543,"lng":-111.71149415999463,"phone":"(240) 941-0491","sd":"21","ssbd":"11","lsbd":"School Board Aspen Peaks 7"},{"vid":"2522776","name":"Dr. Gale Corkery DDS","party":"","address":"580 N 420 W, American Fork, UT 84003","precinct":"25AF12","hd":"53","v_score":"0","decile":"1","lat":40.38852541076902,"lng":-111.80957548282352,"phone":"(725) 825-9150","sd":"21","ssbd":"11","lsbd":"School Board Aspen Peaks 7"},{"vid":"2523204","name":"Chandra Rogahn-Luettgen","party":"","address":"582 W 580 N, American Fork, UT 84003","precinct":"25AF12","hd":"53","v_score":"7.182939378","decile":"8","lat":40.388112899249975,"lng":-111.81391527012872,"phone":"(855) 889-6117","sd":"21","ssbd":"11","lsbd":"School Board Aspen Peaks 7"},{"vid":"2526074","name":"Ms. Caron Deckow PhD","party":"Rep","address":"607 W 500 N, American Fork, UT 84003","precinct":"25AF12","hd":"53","v_score":"1.193887297","decile":"4","lat":40.387058467009396,"lng":-111.814569876459,"phone":"(534) 895-9731","sd":"21","ssbd":"11","lsbd":"School Board Aspen Peaks 7"},{"vid":"2531772","name":"Ely VonRueden","party":"Dem","address":"495 N 650 W, American Fork, UT 84003","precinct":"25AF12","hd":"53","v_score":"1.193887297","decile":"4","lat":40.387398219778234,"lng":-111.81579472799135,"phone":"(771) 130-0245","sd":"21","ssbd":"11","lsbd":"School Board Aspen Peaks 7"},{"vid":"2533063","name":"Brande Donnelly-Doyle","party":"","address":"611 W 460 N, American Fork, UT 84003","precinct":"25AF12","hd":"53","v_score":"2.817000428","decile":"6","lat":40.38617290953033,"lng":-111.81472003887492,"phone":"(434) 726-8740","sd":"21","ssbd":"11","lsbd":"School Board Aspen Peaks 7"},{"vid":"2539914","name":"Joesph O'Connell III","party":"Rep","address":"793 W 500 N, American Fork, UT 84003","precinct":"25AF12","hd":"53","v_score":"0","decile":"1","lat":40.387817940138966,"lng":-111.81935863870679,"phone":"(319) 913-0826","sd":"21","ssbd":"11","lsbd":"School Board Aspen Peaks 7"},{"vid":"2544623","name":"Dr. Tangela Gleason","party":"Dem","address":"485 N 680 W, American Fork, UT 84003","precinct":"25AF12","hd":"53","v_score":"0","decile":"1","lat":40.38707128288681,"lng":-111.81687359471938,"phone":"(509) 323-2424","sd":"21","ssbd":"11","lsbd":"School Board Aspen Peaks 7"},{"vid":"2548196","name":"Dorthy Hegmann","party":"","address":"586 N 590 W, American Fork, UT 84003","precinct":"25AF12","hd":"53","v_score":"1.623113131","decile":"5","lat":40.388543245175015,"lng":-111.8136190032777,"phone":"(237) 257-2837","sd":"21","ssbd":"11","lsbd":"School Board Aspen Peaks 7"},{"vid":"2548719","name":"Susan Hagenes","party":"Dem","address":"438 N 580 W, American Fork, UT 84003","precinct":"25AF12","hd":"53","v_score":"3.737122292","decile":"6","lat":40.38566233546224,"lng":-111.81378940876458,"phone":"(625) 065-5069","sd":"21","ssbd":"11","lsbd":"School Board Aspen Peaks 7"},{"vid":"2548814","name":"Cleve Shanahan","party":"Dem","address":"586 N 590 W, American Fork, UT 84003","precinct":"25AF12","hd":"53","v_score":"1.623113131","decile":"5","lat":40.388543245175015,"lng":-111.8136190032777,"phone":"(473) 234-4361","sd":"21","ssbd":"11","lsbd":"School Board Aspen Peaks 7"},{"vid":"2549556","name":"Britney Parisian","party":"","address":"693 N 540 W, American Fork, UT 84003","precinct":"25AF12","hd":"53","v_score":"0","decile":"1","lat":40.390342789970155,"lng":-111.8124183786532,"phone":"(898) 674-2140","sd":"21","ssbd":"11","lsbd":"School Board Aspen Peaks 7"},{"vid":"2557937","name":"Dr. Wallace Mann II","party":"","address":"673 N 650 W, American Fork, UT 84003","precinct":"25AF12","hd":"53","v_score":"1.193887297","decile":"4","lat":40.3094988929543,"lng":-111.71149415999463,"phone":"(247) 424-9519","sd":"21","ssbd":"11","lsbd":"School Board Aspen Peaks 7"},{"vid":"2559544","name":"Mr. Ewing Graham III","party":"","address":"522 N 780 W, American Fork, UT 84003","precinct":"25AF12","hd":"53","v_score":"0","decile":"1","lat":40.38835269896354,"lng":-111.81869517800085,"phone":"(501) 302-9884","sd":"21","ssbd":"11","lsbd":"School Board Aspen Peaks 7"},{"vid":"2560566","name":"Justyn Koch","party":"Dem","address":"438 N 580 W, American Fork, UT 84003","precinct":"25AF12","hd":"53","v_score":"2.543234995","decile":"5","lat":40.38566233546224,"lng":-111.81378940876458,"phone":"(427) 204-9744","sd":"21","ssbd":"11","lsbd":"School Board Aspen Peaks 7"},{"vid":"2585025","name":"Tilden Schmitt","party":"","address":"727 W 600 N, American Fork, UT 84003","precinct":"25AF12","hd":"53","v_score":"9.119914795","decile":"8","lat":40.38891421028015,"lng":-111.81789603094494,"phone":"(344) 462-1448","sd":"21","ssbd":"11","lsbd":"School Board Aspen Peaks 7"},{"vid":"2588413","name":"Mr. Valentino Bosco IV","party":"","address":"437 N 680 W, American Fork, UT 84003","precinct":"25AF12","hd":"53","v_score":"1.193887297","decile":"4","lat":40.38619037662941,"lng":-111.8169686362369,"phone":"(433) 267-8419","sd":"21","ssbd":"11","lsbd":"School Board Aspen Peaks 7"},{"vid":"2602583","name":"Natasha Zemlak-McClure","party":"Dem","address":"473 N 680 W, American Fork, UT 84003","precinct":"25AF12","hd":"53","v_score":"0","decile":"1","lat":40.38686288101822,"lng":-111.81691437994007,"phone":"(402) 260-8482","sd":"21","ssbd":"11","lsbd":"School Board Aspen Peaks 7"},{"vid":"2609015","name":"Prentiss Kuphal","party":"","address":"372 N 480 W, American Fork, UT 84003","precinct":"25AF12","hd":"53","v_score":"1.193887297","decile":"4","lat":40.38448159797628,"lng":-111.81072947462752,"phone":"(755) 033-1958","sd":"21","ssbd":"11","lsbd":"School Board Aspen Peaks 7"},{"vid":"2617545","name":"Mr. Dana Jones DVM","party":"Rep","address":"611 W 460 N, American Fork, UT 84003","precinct":"25AF12","hd":"53","v_score":"1.193887297","decile":"4","lat":40.38617290953033,"lng":-111.81472003887492,"phone":"(576) 800-6050","sd":"21","ssbd":"11","lsbd":"School Board Aspen Peaks 7"},{"vid":"2623485","name":"Nelle Maggio-Effertz","party":"Rep","address":"522 N 780 W, American Fork, UT 84003","precinct":"25AF12","hd":"53","v_score":"5.407962308","decile":"7","lat":40.38835269896354,"lng":-111.81869517800085,"phone":"(214) 419-6918","sd":"21","ssbd":"11","lsbd":"School Board Aspen Peaks 7"},{"vid":"2625580","name":"Mr. Paul Hegmann PhD","party":"","address":"819 W 700 N, American Fork, UT 84003","precinct":"25AF12","hd":"53","v_score":"7.926027498","decile":"8","lat":40.39023340751199,"lng":-111.81944607256037,"phone":"(694) 006-9624","sd":"21","ssbd":"11","lsbd":"School Board Aspen Peaks 7"},{"vid":"2636993","name":"Eber Strosin","party":"Rep","address":"539 W 600 N, American Fork, UT 84003","precinct":"25AF12","hd":"53","v_score":"2.817000428","decile":"6","lat":40.3884376777599,"lng":-111.81186863821063,"phone":"(580) 522-5526","sd":"21","ssbd":"11","lsbd":"School Board Aspen Peaks 7"},{"vid":"2639042","name":"Caesar DuBuque","party":"","address":"485 W 600 N, American Fork, UT 84003","precinct":"25AF12","hd":"53","v_score":"5.926494964","decile":"7","lat":40.388623458307045,"lng":-111.8111307756633,"phone":"(704) 383-8570","sd":"21","ssbd":"11","lsbd":"School Board Aspen Peaks 7"},{"vid":"2643274","name":"Ardith Johnson PhD","party":"Rep","address":"692 W 410 N, American Fork, UT 84003","precinct":"25AF12","hd":"53","v_score":"5.693042993","decile":"7","lat":40.386041054974946,"lng":-111.81737027528197,"phone":"(419) 059-0281","sd":"21","ssbd":"11","lsbd":"School Board Aspen Peaks 7"},{"vid":"2647428","name":"Mona Grady","party":"Rep","address":"495 W 400 N, American Fork, UT 84003","precinct":"25AF12","hd":"53","v_score":"1.193887297","decile":"4","lat":40.38503282240987,"lng":-111.81120915768975,"phone":"(838) 987-7503","sd":"21","ssbd":"11","lsbd":"School Board Aspen Peaks 7"},{"vid":"2649345","name":"Kloe Bruen DVM","party":"Rep","address":"758 W 600 N, American Fork, UT 84003","precinct":"25AF12","hd":"53","v_score":"0","decile":"1","lat":40.389550736317375,"lng":-111.81835110209389,"phone":"(230) 924-2233","sd":"21","ssbd":"11","lsbd":"School Board Aspen Peaks 7"},{"vid":"2653459","name":"Jayvion Romaguera","party":"","address":"758 W 600 N, American Fork, UT 84003","precinct":"25AF12","hd":"53","v_score":"1.193887297","decile":"4","lat":40.389550736317375,"lng":-111.81835110209389,"phone":"(520) 309-1838","sd":"21","ssbd":"11","lsbd":"School Board Aspen Peaks 7"},{"vid":"2654569","name":"Hailie Dicki","party":"Rep","address":"494 W 600 N, American Fork, UT 84003","precinct":"25AF12","hd":"53","v_score":"1.193887297","decile":"4","lat":40.38894137549562,"lng":-111.81125128107169,"phone":"(967) 668-9859","sd":"21","ssbd":"11","lsbd":"School Board Aspen Peaks 7"},{"vid":"2668563","name":"Tavaris McDermott-Thiel","party":"","address":"825 W 700 N, American Fork, UT 84003","precinct":"25AF12","hd":"53","v_score":"0","decile":"1","lat":40.39021258739444,"lng":-111.81972214805363,"phone":"(215) 952-9945","sd":"21","ssbd":"11","lsbd":"School Board Aspen Peaks 7"},{"vid":"2669896","name":"Rosaline Waters","party":"Rep","address":"374 N 580 W, American Fork, UT 84003","precinct":"25AF12","hd":"53","v_score":"0","decile":"2","lat":40.38481831596192,"lng":-111.81445452319758,"phone":"(377) 906-0161","sd":"21","ssbd":"11","lsbd":"School Board Aspen Peaks 7"},{"vid":"2671456","name":"Dr. Hayden Green DDS","party":"","address":"618 W 460 N, American Fork, UT 84003","precinct":"25AF12","hd":"53","v_score":"5.926494964","decile":"7","lat":40.38660614292993,"lng":-111.81485733396936,"phone":"(419) 436-9441","sd":"21","ssbd":"11","lsbd":"School Board Aspen Peaks 7"},{"vid":"2677009","name":"Murray Jenkins-O'Connell","party":"Dem","address":"583 W 500 N, American Fork, UT 84003","precinct":"25AF12","hd":"53","v_score":"4.069929862","decile":"6","lat":40.38689254173124,"lng":-111.81379519777776,"phone":"(675) 485-9246","sd":"21","ssbd":"11","lsbd":"School Board Aspen Peaks 7"},{"vid":"2684581","name":"Mrs. Melisa Powlowski MD","party":"Dem","address":"593 W 630 N, American Fork, UT 84003","precinct":"25AF12","hd":"53","v_score":"1.193887297","decile":"4","lat":40.38908271282553,"lng":-111.81430794713125,"phone":"(459) 935-7157","sd":"21","ssbd":"11","lsbd":"School Board Aspen Peaks 7"},{"vid":"2695158","name":"Mariyah Walsh","party":"Dem","address":"528 N 650 W, American Fork, UT 84003","precinct":"25AF12","hd":"53","v_score":"0","decile":"2","lat":40.387955961426755,"lng":-111.81528043022738,"phone":"(293) 258-0211","sd":"21","ssbd":"11","lsbd":"School Board Aspen Peaks 7"},{"vid":"2697190","name":"Carmen Bayer","party":"Dem","address":"428 N 580 W, American Fork, UT 84003","precinct":"25AF12","hd":"53","v_score":"1.193887297","decile":"4","lat":40.3855469887384,"lng":-111.81389383549092,"phone":"(835) 146-1233","sd":"21","ssbd":"11","lsbd":"School Board Aspen Peaks 7"},{"vid":"2711747","name":"North Bayer-Barton","party":"","address":"538 N 680 W, American Fork, UT 84003","precinct":"25AF12","hd":"53","v_score":"1.193887297","decile":"4","lat":40.38795836414725,"lng":-111.81622666829628,"phone":"(342) 402-8650","sd":"21","ssbd":"11","lsbd":"School Board Aspen Peaks 7"},{"vid":"2712328","name":"Miley Champlin","party":"Rep","address":"536 W 650 N, American Fork, UT 84003","precinct":"25AF12","hd":"53","v_score":"9.638447451","decile":"8","lat":40.389767209633845,"lng":-111.81220879906019,"phone":"(361) 117-8134","sd":"21","ssbd":"11","lsbd":"School Board Aspen Peaks 7"},{"vid":"2713062","name":"Sabastian Boyle","party":"Rep","address":"618 W 460 N, American Fork, UT 84003","precinct":"25AF12","hd":"53","v_score":"1.193887297","decile":"4","lat":40.38660614292993,"lng":-111.81485733396936,"phone":"(433) 795-0908","sd":"21","ssbd":"11","lsbd":"School Board Aspen Peaks 7"},{"vid":"2721875","name":"Mr. Charls Nienow","party":"Rep","address":"517 W 650 N, American Fork, UT 84003","precinct":"25AF12","hd":"53","v_score":"7.090117576","decile":"8","lat":40.389417274613024,"lng":-111.81197526580016,"phone":"(641) 417-0125","sd":"21","ssbd":"11","lsbd":"School Board Aspen Peaks 7"},{"vid":"2725472","name":"Dema Kessler","party":"Rep","address":"453 N 570 W, American Fork, UT 84003","precinct":"25AF12","hd":"53","v_score":"1.193887297","decile":"4","lat":40.386166934181645,"lng":-111.81378790597294,"phone":"(995) 191-1182","sd":"21","ssbd":"11","lsbd":"School Board Aspen Peaks 7"},{"vid":"2736329","name":"Dr. King Harvey II","party":"Rep","address":"626 W 580 N, American Fork, UT 84003","precinct":"25AF12","hd":"53","v_score":"0","decile":"2","lat":40.388617583958194,"lng":-111.814832981997,"phone":"(909) 986-1481","sd":"21","ssbd":"11","lsbd":"School Board Aspen Peaks 7"},{"vid":"2737676","name":"Guadalupe Kozey","party":"Rep","address":"555 N 490 West Cir, American Fork, UT 84003","precinct":"25AF12","hd":"53","v_score":"1.193887297","decile":"4","lat":40.387857321703216,"lng":-111.81133414640212,"phone":"(872) 916-0706","sd":"21","ssbd":"11","lsbd":"School Board Aspen Peaks 7"},{"vid":"2738377","name":"Bird Yundt","party":"","address":"547 N 780 W, American Fork, UT 84003","precinct":"25AF12","hd":"53","v_score":"1.193887297","decile":"4","lat":40.38861315990261,"lng":-111.81924090091277,"phone":"(759) 236-4780","sd":"21","ssbd":"11","lsbd":"School Board Aspen Peaks 7"},{"vid":"2739138","name":"Essex Cartwright","party":"","address":"449 N 680 W, American Fork, UT 84003","precinct":"25AF12","hd":"53","v_score":"0","decile":"2","lat":40.386414544934865,"lng":-111.81695055045529,"phone":"(688) 228-2825","sd":"21","ssbd":"11","lsbd":"School Board Aspen Peaks 7"},{"vid":"2739576","name":"Leonardo Hills Sr.","party":"","address":"667 N 350 W, American Fork, UT 84003","precinct":"25AF12","hd":"53","v_score":"0","decile":"2","lat":40.39011873003439,"lng":-111.80829787924316,"phone":"(579) 900-0072","sd":"21","ssbd":"11","lsbd":"School Board Aspen Peaks 7"},{"vid":"2741168","name":"Rosamond Eichmann","party":"Rep","address":"627 N 420 W, American Fork, UT 84003","precinct":"25AF12","hd":"53","v_score":"1.193887297","decile":"4","lat":40.38936351070409,"lng":-111.8102848647964,"phone":"(663) 354-9945","sd":"21","ssbd":"11","lsbd":"School Board Aspen Peaks 7"},{"vid":"2744222","name":"Aubrey Pouros II","party":"","address":"588 N 780 W, American Fork, UT 84003","precinct":"25AF12","hd":"53","v_score":"1.193887297","decile":"4","lat":40.3892133301046,"lng":-111.81870725843247,"phone":"(307) 222-2414","sd":"21","ssbd":"11","lsbd":"School Board Aspen Peaks 7"},{"vid":"2745738","name":"Mr. Christion Bashirian","party":"","address":"607 N 560 W, American Fork, UT 84003","precinct":"25AF12","hd":"53","v_score":"0","decile":"2","lat":40.388741912213554,"lng":-111.813209638865,"phone":"(870) 035-6039","sd":"21","ssbd":"11","lsbd":"School Board Aspen Peaks 7"},{"vid":"2748999","name":"Dr. Alphonso Pacocha I","party":"Rep","address":"799 W 450 N, American Fork, UT 84003","precinct":"25AF12","hd":"53","v_score":"1.193887297","decile":"4","lat":40.387162527844374,"lng":-111.81954499320351,"phone":"(934) 038-1061","sd":"21","ssbd":"11","lsbd":"School Board Aspen Peaks 7"},{"vid":"2752896","name":"Dominik Frami","party":"","address":"695 N 600 W, American Fork, UT 84003","precinct":"25AF12","hd":"53","v_score":"1.193887297","decile":"4","lat":40.3903330655995,"lng":-111.81443417865815,"phone":"(713) 433-4760","sd":"21","ssbd":"11","lsbd":"School Board Aspen Peaks 7"},{"vid":"2757965","name":"Sheridan O'Hara-Koch","party":"Rep","address":"554 W 600 N, American Fork, UT 84003","precinct":"25AF12","hd":"53","v_score":"8.284004873","decile":"8","lat":40.388826109708546,"lng":-111.81269328381629,"phone":"(843) 579-1916","sd":"21","ssbd":"11","lsbd":"School Board Aspen Peaks 7"},{"vid":"2770564","name":"Izayah Johns","party":"Dem","address":"659 N 600 W, American Fork, UT 84003","precinct":"25AF12","hd":"53","v_score":"1.193887297","decile":"4","lat":40.389615778455095,"lng":-111.81469023798402,"phone":"(485) 453-6853","sd":"21","ssbd":"11","lsbd":"School Board Aspen Peaks 7"},{"vid":"2774038","name":"Miss Vessie Wyman DVM","party":"Dem","address":"682 N 690 W, American Fork, UT 84003","precinct":"25AF12","hd":"53","v_score":"5.407962308","decile":"7","lat":40.39009764152229,"lng":-111.81659977351904,"phone":"(969) 789-9840","sd":"21","ssbd":"11","lsbd":"School Board Aspen Peaks 7"},{"vid":"2782616","name":"Ryan McClure","party":"","address":"485 N 680 W, American Fork, UT 84003","precinct":"25AF12","hd":"53","v_score":"0","decile":"2","lat":40.38707128288681,"lng":-111.81687359471938,"phone":"(594) 356-5271","sd":"21","ssbd":"11","lsbd":"School Board Aspen Peaks 7"},{"vid":"2783940","name":"Dortha Ziemann","party":"Dem","address":"454 N 600 W, American Fork, UT 84003","precinct":"25AF12","hd":"53","v_score":"5.407962308","decile":"7","lat":40.386184432359876,"lng":-111.81418760876632,"phone":"(311) 224-3218","sd":"21","ssbd":"11","lsbd":"School Board Aspen Peaks 7"},{"vid":"2789075","name":"Dr. Napoleon Gerlach","party":"Dem","address":"449 N 570 W, American Fork, UT 84003","precinct":"25AF12","hd":"53","v_score":"8.284004873","decile":"8","lat":40.38611832293075,"lng":-111.81375774154668,"phone":"(195) 864-6743","sd":"21","ssbd":"11","lsbd":"School Board Aspen Peaks 7"},{"vid":"2799026","name":"Karsyn Kuhic","party":"Rep","address":"748 W 450 N, American Fork, UT 84003","precinct":"25AF12","hd":"53","v_score":"4.069929862","decile":"7","lat":40.38675202501785,"lng":-111.81823610110531,"phone":"(411) 453-6861","sd":"21","ssbd":"11","lsbd":"School Board Aspen Peaks 7"},{"vid":"2803473","name":"Laraine Kuhn PhD","party":"Dem","address":"456 N 600 W, American Fork, UT 84003","precinct":"25AF12","hd":"53","v_score":"4.069929862","decile":"7","lat":40.386233270457474,"lng":-111.81413328196888,"phone":"(549) 461-5713","sd":"21","ssbd":"11","lsbd":"School Board Aspen Peaks 7"},{"vid":"2807707","name":"Charlsie Bogisich","party":"Dem","address":"387 N 520 W, American Fork, UT 84003","precinct":"25AF12","hd":"53","v_score":"1.193887297","decile":"4","lat":40.38481245724993,"lng":-111.81230975443367,"phone":"(703) 103-4472","sd":"21","ssbd":"11","lsbd":"School Board Aspen Peaks 7"},{"vid":"2811571","name":"Emily Marvin","party":"","address":"736 W 410 N, American Fork, UT 84003","precinct":"25AF12","hd":"53","v_score":"0","decile":"2","lat":40.38642575031567,"lng":-111.81829718418047,"phone":"(201) 768-0856","sd":"21","ssbd":"11","lsbd":"School Board Aspen Peaks 7"},{"vid":"2816360","name":"Dr. Tyrik Botsford","party":"Dem","address":"511 N 490 West Cir, American Fork, UT 84003","precinct":"25AF12","hd":"53","v_score":"5.407962308","decile":"7","lat":40.38725015661341,"lng":-111.81135218607682,"phone":"(130) 112-8535","sd":"21","ssbd":"11","lsbd":"School Board Aspen Peaks 7"},{"vid":"2822816","name":"Bess Rempel","party":"Rep","address":"456 N 680 W, American Fork, UT 84003","precinct":"25AF12","hd":"53","v_score":"0","decile":"2","lat":40.38646895767037,"lng":-111.81634686018634,"phone":"(736) 846-2002","sd":"21","ssbd":"11","lsbd":"School Board Aspen Peaks 7"},{"vid":"2840361","name":"Tia Bednar","party":"","address":"529 N 780 W, American Fork, UT 84003","precinct":"25AF12","hd":"53","v_score":"5.407962308","decile":"7","lat":40.38840340225758,"lng":-111.81927434069924,"phone":"(314) 978-7563","sd":"21","ssbd":"11","lsbd":"School Board Aspen Peaks 7"},{"vid":"2843330","name":"Alani Nader","party":"","address":"549 W 550 N, American Fork, UT 84003","precinct":"25AF12","hd":"53","v_score":"1.193887297","decile":"4","lat":40.387681690110036,"lng":-111.81228214865858,"phone":"(194) 461-6368","sd":"21","ssbd":"11","lsbd":"School Board Aspen Peaks 7"},{"vid":"2852707","name":"Erling Ortiz","party":"Dem","address":"464 N 680 W, American Fork, UT 84003","precinct":"25AF12","hd":"53","v_score":"1.193887297","decile":"4","lat":40.386688551633206,"lng":-111.81632914217501,"phone":"(162) 420-7195","sd":"21","ssbd":"11","lsbd":"School Board Aspen Peaks 7"},{"vid":"2857622","name":"Adrianna Lynch","party":"","address":"511 N 490 West Cir, American Fork, UT 84003","precinct":"25AF12","hd":"53","v_score":"5.407962308","decile":"7","lat":40.38725015661341,"lng":-111.81135218607682,"phone":"(792) 134-6311","sd":"21","ssbd":"11","lsbd":"School Board Aspen Peaks 7"},{"vid":"2861473","name":"Abe Grant","party":"Dem","address":"534 N 490 West Cir, American Fork, UT 84003","precinct":"25AF12","hd":"53","v_score":"4.069929862","decile":"7","lat":40.387606424891295,"lng":-111.81082102355509,"phone":"(111) 788-5516","sd":"21","ssbd":"11","lsbd":"School Board Aspen Peaks 7"},{"vid":"2883659","name":"Virge Dach","party":"","address":"516 W 600 N, American Fork, UT 84003","precinct":"25AF12","hd":"53","v_score":"1.193887297","decile":"4","lat":40.38893053933419,"lng":-111.81155769950588,"phone":"(882) 311-7923","sd":"21","ssbd":"11","lsbd":"School Board Aspen Peaks 7"},{"vid":"2888292","name":"Simeon Bogisich-Becker","party":"","address":"465 N 520 W, Bsmt, American Fork, UT 84003","precinct":"25AF12","hd":"53","v_score":"1.193887297","decile":"4","lat":40.38645357907825,"lng":-111.81228416592282,"phone":"(531) 575-0841","sd":"21","ssbd":"11","lsbd":"School Board Aspen Peaks 7"},{"vid":"2889289","name":"Ms. Suzy Grady","party":"","address":"667 N 350 W, American Fork, UT 84003","precinct":"25AF12","hd":"53","v_score":"1.193887297","decile":"4","lat":40.39011873003439,"lng":-111.80829787924316,"phone":"(690) 773-3980","sd":"21","ssbd":"11","lsbd":"School Board Aspen Peaks 7"},{"vid":"2890860","name":"Markus Bergnaum","party":"","address":"369 N 450 W, American Fork, UT 84003","precinct":"25AF12","hd":"53","v_score":"0","decile":"2","lat":40.38455035462885,"lng":-111.81033062336003,"phone":"(740) 922-5366","sd":"21","ssbd":"11","lsbd":"School Board Aspen Peaks 7"},{"vid":"2900256","name":"Mr. Elgie Hilll PhD","party":"Dem","address":"541 W 600 N, American Fork, UT 84003","precinct":"25AF12","hd":"53","v_score":"0","decile":"2","lat":40.38846563621879,"lng":-111.8122029021363,"phone":"(932) 380-4127","sd":"21","ssbd":"11","lsbd":"School Board Aspen Peaks 7"},{"vid":"2903220","name":"Dr. Mahlon Walsh IV","party":"Dem","address":"825 W 700 N, American Fork, UT 84003","precinct":"25AF12","hd":"53","v_score":"0","decile":"2","lat":40.39021258739444,"lng":-111.81972214805363,"phone":"(318) 558-4191","sd":"21","ssbd":"11","lsbd":"School Board Aspen Peaks 7"},{"vid":"2907554","name":"Shane Huel","party":"Dem","address":"554 W 600 N, American Fork, UT 84003","precinct":"25AF12","hd":"53","v_score":"7.090117576","decile":"8","lat":40.388826109708546,"lng":-111.81269328381629,"phone":"(473) 134-2651","sd":"21","ssbd":"11","lsbd":"School Board Aspen Peaks 7"},{"vid":"2909404","name":"Mrs. Lexi Abshire PhD","party":"Rep","address":"595 W 480 N, American Fork, UT 84003","precinct":"25AF12","hd":"53","v_score":"7.090117576","decile":"8","lat":40.38645162788887,"lng":-111.81409842209997,"phone":"(817) 111-7145","sd":"21","ssbd":"11","lsbd":"School Board Aspen Peaks 7"},{"vid":"2941125","name":"Miss Alexandra Casper","party":"Rep","address":"635 N 350 W, American Fork, UT 84003","precinct":"25AF12","hd":"53","v_score":"0","decile":"2","lat":40.38954132423869,"lng":-111.80829524897604,"phone":"(929) 606-9880","sd":"21","ssbd":"11","lsbd":"School Board Aspen Peaks 7"},{"vid":"2942364","name":"Miss Lonna Leannon","party":"","address":"819 W 700 N, American Fork, UT 84003","precinct":"25AF12","hd":"53","v_score":"4.214075011","decile":"7","lat":40.39023340751199,"lng":-111.81944607256037,"phone":"(779) 607-0128","sd":"21","ssbd":"11","lsbd":"School Board Aspen Peaks 7"},{"vid":"2973295","name":"Elvie Barrows","party":"Rep","address":"748 W 450 N, American Fork, UT 84003","precinct":"25AF12","hd":"53","v_score":"0","decile":"2","lat":40.38675202501785,"lng":-111.81823610110531,"phone":"(220) 025-3628","sd":"21","ssbd":"11","lsbd":"School Board Aspen Peaks 7"},{"vid":"d7f69d999900cd4d37007f6344b7dc0f9d74c076a0a9da96ae5fcab997176885","name":"Mr. Lemuel Kulas MD","party":"Rep","address":"437 N 480 W, American Fork, UT 84003","precinct":"25AF12","hd":"53","v_score":"8.280646305","decile":"8","lat":40.38594849927016,"lng":-111.81133410872634,"phone":"(639) 503-0698","sd":"21","ssbd":"11","lsbd":"School Board Aspen Peaks 7"},{"vid":"3083935","name":"Jacquline Pollich","party":"","address":"495 N 650 W, American Fork, UT 84003","precinct":"25AF12","hd":"53","v_score":"2.744440783","decile":"5","lat":40.387398219778234,"lng":-111.81579472799135,"phone":"(376) 147-5822","sd":"21","ssbd":"11","lsbd":"School Board Aspen Peaks 7"},{"vid":"f7ca2952ad044f20b7c247bdb8502a4ab31b5c2c9328e5bde7d2590a7ba5ad55","name":"Norah Hessel PhD","party":"Dem","address":"536 W 550 N, American Fork, UT 84003","precinct":"25AF12","hd":"53","v_score":"11.86178988","decile":"9","lat":40.388018650753324,"lng":-111.81201947254678,"phone":"(285) 636-7456","sd":"21","ssbd":"11","lsbd":"School Board Aspen Peaks 7"},{"vid":"3233343","name":"Miss Danica Hudson","party":"","address":"542 W 600 N, American Fork, UT 84003","precinct":"25AF12","hd":"53","v_score":"1.193887297","decile":"4","lat":40.388904808082486,"lng":-111.8122710914529,"phone":"(583) 132-2962","sd":"21","ssbd":"11","lsbd":"School Board Aspen Peaks 7"},{"vid":"3301324","name":"Dr. Alex Christiansen","party":"Dem","address":"494 W 600 N, American Fork, UT 84003","precinct":"25AF12","hd":"53","v_score":"0","decile":"2","lat":40.38894137549562,"lng":-111.81125128107169,"phone":"(789) 249-7091","sd":"21","ssbd":"11","lsbd":"School Board Aspen Peaks 7"},{"vid":"3321329","name":"Davin Stroman","party":"Rep","address":"485 N 680 W, American Fork, UT 84003","precinct":"25AF12","hd":"53","v_score":"11.37977487","decile":"9","lat":40.38707128288681,"lng":-111.81687359471938,"phone":"(723) 654-6527","sd":"21","ssbd":"11","lsbd":"School Board Aspen Peaks 7"},{"vid":"3341675","name":"Dr. Jame Lebsack III","party":"","address":"464 N 520 W, American Fork, UT 84003","precinct":"25AF12","hd":"53","v_score":"2.315214949","decile":"5","lat":40.38645999553044,"lng":-111.81163572362263,"phone":"(708) 595-7950","sd":"21","ssbd":"11","lsbd":"School Board Aspen Peaks 7"},{"vid":"3378790","name":"Annika Gleason","party":"","address":"372 N 480 W, American Fork, UT 84003","precinct":"25AF12","hd":"53","v_score":"20.44004036","decile":"10","lat":40.38448159797628,"lng":-111.81072947462752,"phone":"(736) 030-3863","sd":"21","ssbd":"11","lsbd":"School Board Aspen Peaks 7"},{"vid":"3523651","name":"Savanna Deckow","party":"Rep","address":"373 N 480 W, American Fork, UT 84003","precinct":"25AF12","hd":"53","v_score":"0","decile":"2","lat":40.384558980801096,"lng":-111.81128792669693,"phone":"(490) 956-3967","sd":"21","ssbd":"11","lsbd":"School Board Aspen Peaks 7"},{"vid":"3552365","name":"Mrs. Caryl Rau","party":"Dem","address":"369 N 450 W, American Fork, UT 84003","precinct":"25AF12","hd":"53","v_score":"15.00919004","decile":"9","lat":40.38455035462885,"lng":-111.81033062336003,"phone":"(622) 185-7342","sd":"21","ssbd":"11","lsbd":"School Board Aspen Peaks 7"},{"vid":"4607989","name":"Sada Larkin","party":"Rep","address":"583 N 560 W, American Fork, UT 84003","precinct":"25AF12","hd":"53","v_score":"3.93832808","decile":"6","lat":40.3882865342109,"lng":-111.8131429445247,"phone":"(437) 290-3108","sd":"21","ssbd":"11","lsbd":"School Board Aspen Peaks 7"},{"vid":"edf100a0ed8e2d089cd0906045b206aa4240430526c9cffde4cd6b9751447555","name":"Cristobal Cartwright","party":"","address":"624 W 460 N, American Fork, UT 84003","precinct":"25AF12","hd":"53","v_score":"3.781490609","decile":"6","lat":40.38660580505342,"lng":-111.81498294431756,"phone":"(967) 509-0038","sd":"21","ssbd":"11","lsbd":"School Board Aspen Peaks 7"},{"vid":"5862116","name":"Lorin Hagenes","party":"Dem","address":"758 W 600 N, American Fork, UT 84003","precinct":"25AF12","hd":"53","v_score":"1.193887297","decile":"4","lat":40.389550736317375,"lng":-111.81835110209389,"phone":"(265) 728-0620","sd":"21","ssbd":"11","lsbd":"School Board Aspen Peaks 7"},{"vid":"a1a2aabee18dfb824ae742f49000aac8e363baae215f8efe3746c4ce29096026","name":"Zaiden Kozey-Hermiston","party":"","address":"621 N 350 W, American Fork, UT 84003","precinct":"25AF12","hd":"53","v_score":"8.421194992","decile":"8","lat":40.389347054931584,"lng":-111.8082944004274,"phone":"(730) 697-3705","sd":"21","ssbd":"11","lsbd":"School Board Aspen Peaks 7"},{"vid":"5937283","name":"Mrs. Aleen Kris DDS","party":"Dem","address":"692 W 410 N, American Fork, UT 84003","precinct":"25AF12","hd":"53","v_score":"2.315214949","decile":"5","lat":40.386041054974946,"lng":-111.81737027528197,"phone":"(348) 704-7828","sd":"21","ssbd":"11","lsbd":"School Board Aspen Peaks 7"},{"vid":"5945644","name":"Avie Crist PhD","party":"Rep","address":"497 W 500 N, American Fork, UT 84003","precinct":"25AF12","hd":"53","v_score":"7.947838735","decile":"8","lat":40.386874880902084,"lng":-111.81106568583128,"phone":"(408) 424-5227","sd":"21","ssbd":"11","lsbd":"School Board Aspen Peaks 7"},{"vid":"5951649","name":"Mr. Yandel Balistreri III","party":"Rep","address":"479 N 400 W, American Fork, UT 84003","precinct":"25AF12","hd":"53","v_score":"1.121327652","decile":"3","lat":40.38647305667227,"lng":-111.80925966768864,"phone":"(150) 183-2345","sd":"21","ssbd":"11","lsbd":"School Board Aspen Peaks 7"},{"vid":"6043405","name":"Jenna Altenwerth","party":"Dem","address":"432 N 680 W, American Fork, UT 84003","precinct":"25AF12","hd":"53","v_score":"0","decile":"3","lat":40.38602977019699,"lng":-111.81638229692769,"phone":"(540) 372-3696","sd":"21","ssbd":"11","lsbd":"School Board Aspen Peaks 7"},{"vid":"6072733","name":"Clearence Auer","party":"Rep","address":"727 W 600 N, American Fork, UT 84003","precinct":"25AF12","hd":"53","v_score":"34.43796862","decile":"10","lat":40.38891421028015,"lng":-111.81789603094494,"phone":"(987) 997-0680","sd":"21","ssbd":"11","lsbd":"School Board Aspen Peaks 7"},{"vid":"6101422","name":"Mr. Ab Rath I","party":"","address":"476 N 520 W, American Fork, UT 84003","precinct":"25AF12","hd":"53","v_score":"5.40460374","decile":"7","lat":40.38669036930812,"lng":-111.8116311299377,"phone":"(647) 309-5285","sd":"21","ssbd":"11","lsbd":"School Board Aspen Peaks 7"},{"vid":"6167928","name":"Mr. Fredrick Ziemann","party":"","address":"368 N 450 W, American Fork, UT 84003","precinct":"25AF12","hd":"53","v_score":"2.817000428","decile":"6","lat":40.38454007446566,"lng":-111.80970606229255,"phone":"(969) 403-7531","sd":"21","ssbd":"11","lsbd":"School Board Aspen Peaks 7"},{"vid":"6184128","name":"Link Brakus PhD","party":"Dem","address":"356 N 480 W, American Fork, UT 84003","precinct":"25AF12","hd":"53","v_score":"0","decile":"3","lat":40.38423462895701,"lng":-111.81073402333679,"phone":"(440) 039-4925","sd":"21","ssbd":"11","lsbd":"School Board Aspen Peaks 7"},{"vid":"c2f76f9f0ce9fd90a81bf4c0a5ade9aebc858c91d79df50e50352940a46ed853","name":"Gael Mertz","party":"","address":"380 N 450 W, American Fork, UT 84003","precinct":"25AF12","hd":"53","v_score":"32.96005954","decile":"10","lat":40.384745876823374,"lng":-111.80970244100398,"phone":"(102) 449-1505","sd":"21","ssbd":"11","lsbd":"School Board Aspen Peaks 7"},{"vid":"6204232","name":"Ms. Devan Koch MD","party":"Dem","address":"416 W 600 N, American Fork, UT 84003","precinct":"25AF12","hd":"53","v_score":"22.70037759","decile":"10","lat":40.389066837026505,"lng":-111.8095837592925,"phone":"(743) 408-2532","sd":"21","ssbd":"11","lsbd":"School Board Aspen Peaks 7"},{"vid":"6204233","name":"Elizbeth Bednar-Donnelly","party":"Rep","address":"416 W 600 N, American Fork, UT 84003","precinct":"25AF12","hd":"53","v_score":"19.74179771","decile":"10","lat":40.389066837026505,"lng":-111.8095837592925,"phone":"(750) 382-7993","sd":"21","ssbd":"11","lsbd":"School Board Aspen Peaks 7"},{"vid":"6206297","name":"Mr. Derrell Stark","party":"Rep","address":"455 W 400 N, American Fork, UT 84003","precinct":"25AF12","hd":"53","v_score":"18.8876186","decile":"10","lat":40.38502139788262,"lng":-111.81026433571223,"phone":"(882) 283-8801","sd":"21","ssbd":"11","lsbd":"School Board Aspen Peaks 7"},{"vid":"5e3e9f3e0d259929a40ced95c974e3ab9d32f71132434aa0a69f75ae0b2b3b3e","name":"Miss Dwan Spinka","party":"Rep","address":"581 N 420 W, American Fork, UT 84003","precinct":"25AF12","hd":"53","v_score":"0","decile":"3","lat":40.388493756894235,"lng":-111.8102658073371,"phone":"(908) 565-0067","sd":"21","ssbd":"11","lsbd":"School Board Aspen Peaks 7"},