[{"vid":"713042","name":"Laurene Ondricka","party":"Rep","address":"1317 N 200 E, American Fork, UT 84003","precinct":"25AF04","hd":"55","v_score":"1.121327652","decile":"3","lat":40.40210089816767,"lng":-111.79198797819113},{"vid":"778676","name":"Lynn Murazik-Dietrich","party":"","address":"856 N 750 E, American Fork, UT 84003","precinct":"25AF04","hd":"55","v_score":"3.93832808","decile":"6","lat":40.39461811786504,"lng":-111.77843304838883},{"vid":"1258483","name":"Kaydence Wunsch","party":"Dem","address":"366 E 925 N, American Fork, UT 84003","precinct":"25AF04","hd":"55","v_score":"0","decile":"1","lat":40.395748584361826,"lng":-111.78929218423848},{"vid":"1259899","name":"Conner Haley","party":"Rep","address":"539 E 900 N, American Fork, UT 84003","precinct":"25AF04","hd":"55","v_score":"2.315214949","decile":"5","lat":40.39483615625123,"lng":-111.78348580780305},{"vid":"1272014","name":"Marni Goodwin","party":"Dem","address":"811 N 350 E, American Fork, UT 84003","precinct":"25AF04","hd":"55","v_score":"2.315214949","decile":"5","lat":40.39305211437737,"lng":-111.79016934653414},{"vid":"1277477","name":"Les Leuschke","party":"Dem","address":"926 N 400 E, American Fork, UT 84003","precinct":"25AF04","hd":"55","v_score":"2.744440783","decile":"5","lat":40.39540443779478,"lng":-111.78735080837787},{"vid":"1303358","name":"Ford Kutch","party":"Rep","address":"715 E 700 N, American Fork, UT 84003","precinct":"25AF04","hd":"55","v_score":"5.40460374","decile":"7","lat":40.39235870138288,"lng":-111.77992770994491},{"vid":"1307665","name":"Aura Frami","party":"","address":"715 E 700 N, American Fork, UT 84003","precinct":"25AF04","hd":"55","v_score":"8.280646305","decile":"8","lat":40.39235870138288,"lng":-111.77992770994491},{"vid":"1307988","name":"Orval Lindgren","party":"","address":"722 N 350 E, American Fork, UT 84003","precinct":"25AF04","hd":"55","v_score":"13.76678889","decile":"9","lat":40.3914011599003,"lng":-111.7890773624473},{"vid":"1316427","name":"Abel Ullrich","party":"Rep","address":"786 N 540 E, American Fork, UT 84003","precinct":"25AF04","hd":"55","v_score":"2.958579882","decile":"6","lat":40.39308025921276,"lng":-111.78394332379206},{"vid":"1326942","name":"Annamae D'Amore","party":"","address":"851 N 400 E, American Fork, UT 84003","precinct":"25AF04","hd":"55","v_score":"5.40460374","decile":"7","lat":40.393837159185274,"lng":-111.78790493692595},{"vid":"1333737","name":"Meryl Buckridge-Wolf","party":"","address":"735 N 200 E, American Fork, UT 84003","precinct":"25AF04","hd":"55","v_score":"28.3499084","decile":"10","lat":40.39172137349958,"lng":-111.79344850918629},{"vid":"1379900","name":"Dr. Thaddeus Simonis","party":"Dem","address":"609 N 200 E, American Fork, UT 84003","precinct":"25AF04","hd":"55","v_score":"0","decile":"1","lat":40.38919894524036,"lng":-111.79335864850562},{"vid":"1390077","name":"Admiral Metz","party":"Dem","address":"618 E 875 N, American Fork, UT 84003","precinct":"25AF04","hd":"55","v_score":"11.39481209","decile":"9","lat":40.394776948379004,"lng":-111.78176413967132},{"vid":"171ee47145f818553cce54a808780613e779e3655ce46145eb6986669ea11fce","name":"Dozier Larson","party":"","address":"770 N 200 E, American Fork, UT 84003","precinct":"25AF04","hd":"55","v_score":"2.587603312","decile":"5","lat":40.39248160960653,"lng":-111.79228410450081},{"vid":"06d4ef589035851b0e7b8aa2bab2c112ed32acdeb271106371f5ef3c5630bf01","name":"Donn Cormier-Glover","party":"","address":"904 N 290 E, American Fork, UT 84003","precinct":"25AF04","hd":"55","v_score":"0","decile":"1","lat":40.39511073659057,"lng":-111.79076613968802},{"vid":"81dbd38c87cb36eadc2c650fb864192b6f81f52074f7da516216720ffed02fb6","name":"Dedric Fritsch","party":"Rep","address":"527 E 700 N, American Fork, UT 84003","precinct":"25AF04","hd":"55","v_score":"2.315214949","decile":"5","lat":40.392093102105385,"lng":-111.78520961013878},{"vid":"0cebd83b2e1affee7f9ea8de14b31b1f805a3ac4945ea6d9f79c8c494629521d","name":"Hermann Schoen Sr.","party":"Rep","address":"735 N 200 E, American Fork, UT 84003","precinct":"25AF04","hd":"55","v_score":"32.56038695","decile":"10","lat":40.39172137349958,"lng":-111.79344850918629},{"vid":"1477026","name":"Dameon Tremblay-Kutch","party":"","address":"402 E 920 N, American Fork, UT 84003","precinct":"25AF04","hd":"55","v_score":"19.82433503","decile":"10","lat":40.39520001707615,"lng":-111.78746086127519},{"vid":"1484097","name":"Lucetta Hilll DDS","party":"Dem","address":"370 E 800 N, American Fork, UT 84003","precinct":"25AF04","hd":"55","v_score":"6.881235673","decile":"8","lat":40.39275174596454,"lng":-111.78871004045176},{"vid":"1485354","name":"Hence Graham","party":"","address":"370 E 800 N, American Fork, UT 84003","precinct":"25AF04","hd":"55","v_score":"3.93832808","decile":"6","lat":40.39275174596454,"lng":-111.78871004045176},{"vid":"1491914","name":"Alisson Fay-Greenfelder","party":"Dem","address":"635 N 200 E, American Fork, UT 84003","precinct":"25AF04","hd":"55","v_score":"31.89473363","decile":"10","lat":40.38977297661114,"lng":-111.79345524433508},{"vid":"1550495","name":"Danial Stark","party":"Dem","address":"840 N 100 E, American Fork, UT 84003","precinct":"25AF04","hd":"55","v_score":"8.347511332","decile":"8","lat":40.39371939483671,"lng":-111.7954472133822},{"vid":"1559923","name":"Gaylene Thompson","party":"Rep","address":"301 E 925 N, American Fork, UT 84003","precinct":"25AF04","hd":"55","v_score":"3.93832808","decile":"6","lat":40.39587261192968,"lng":-111.79056461810505},{"vid":"1563343","name":"Earlean Osinski DVM","party":"","address":"854 N 400 E, American Fork, UT 84003","precinct":"25AF04","hd":"55","v_score":"1.121327652","decile":"3","lat":40.394108446633936,"lng":-111.78737115339209},{"vid":"1585599","name":"Matt Aufderhar","party":"","address":"349 E 925 N, American Fork, UT 84003","precinct":"25AF04","hd":"55","v_score":"3.781490609","decile":"6","lat":40.39600370753383,"lng":-111.78964092799292},{"vid":"1586552","name":"Elby Lehner","party":"Dem","address":"961 N 200 E, American Fork, UT 84003","precinct":"25AF04","hd":"55","v_score":"5.69030266","decile":"7","lat":40.39621169883591,"lng":-111.79381906004885},{"vid":"1587215","name":"Nikki Zulauf","party":"Rep","address":"936 N 100 E, American Fork, UT 84003","precinct":"25AF04","hd":"55","v_score":"0","decile":"1","lat":40.39608834866954,"lng":-111.79563400082782},{"vid":"1590737","name":"Kaycee Greenholt","party":"Dem","address":"1090 N 100 E, American Fork, UT 84003","precinct":"25AF04","hd":"55","v_score":"1.121327652","decile":"3","lat":40.398498223692044,"lng":-111.79482947286334},{"vid":"1594290","name":"Britany Stark DDS","party":"Rep","address":"1230 N 100 E, American Fork, UT 84003","precinct":"25AF04","hd":"55","v_score":"2.315214949","decile":"5","lat":40.401187414568525,"lng":-111.79314847685205},{"vid":"70fc4a7cbf743fdc98e6d98f999f508bec7bff4832b24c294bf5187eca4e4a6d","name":"Slade Schiller","party":"Rep","address":"865 N 520 E, American Fork, UT 84003","precinct":"25AF04","hd":"55","v_score":"13.25735655","decile":"9","lat":40.39435652248519,"lng":-111.78534378607293},{"vid":"1597324","name":"Mari Johnston","party":"Dem","address":"840 N 610 E, American Fork, UT 84003","precinct":"25AF04","hd":"55","v_score":"22.51168949","decile":"10","lat":40.39426717618399,"lng":-111.78171711985492},{"vid":"1626875","name":"Elouise Miller","party":"Rep","address":"728 E 875 N, American Fork, UT 84003","precinct":"25AF04","hd":"55","v_score":"13.46923073","decile":"9","lat":40.39479888958046,"lng":-111.7789425047218},{"vid":"1653644","name":"Mr. Luigi Gerhold","party":"Dem","address":"895 N 900 E, American Fork, UT 84003","precinct":"25AF04","hd":"55","v_score":"1.121327652","decile":"3","lat":40.396893100464624,"lng":-111.78517459048523},{"vid":"6d4426b36785a9f99899cb49fcfc852284e35eccc6c3799c0a2ae961d4b70762","name":"Marrion Hansen-Shanahan","party":"Dem","address":"895 N 900 E, American Fork, UT 84003","precinct":"25AF04","hd":"55","v_score":"1.121327652","decile":"3","lat":40.396893100464624,"lng":-111.78517459048523},{"vid":"1697699","name":"Buffy Nikolaus","party":"Dem","address":"963 N 400 E, American Fork, UT 84003","precinct":"25AF04","hd":"55","v_score":"2.315214949","decile":"5","lat":40.39642000397373,"lng":-111.78764582509663},{"vid":"1721428","name":"Dallas Wiegand-Barton","party":"Dem","address":"848 N 100 E, American Fork, UT 84003","precinct":"25AF04","hd":"55","v_score":"8.280646305","decile":"8","lat":40.393932779138886,"lng":-111.79553568683755},{"vid":"7efbd74b5c80fb44b7b75f719e54527f3dc9ec5c3e632535d15f6d4e8d8f8eae","name":"Paige Marquardt","party":"","address":"931 N 500 E, American Fork, UT 84003","precinct":"25AF04","hd":"55","v_score":"3.781490609","decile":"6","lat":40.39556279672324,"lng":-111.78645828736809},{"vid":"1739091","name":"Pearly Reichert","party":"Dem","address":"931 N 500 E, American Fork, UT 84003","precinct":"25AF04","hd":"55","v_score":"2.315214949","decile":"5","lat":40.39556279672324,"lng":-111.78645828736809},{"vid":"1755623","name":"Farrah Schowalter-Daugherty","party":"Rep","address":"728 E 875 N, American Fork, UT 84003","precinct":"25AF04","hd":"55","v_score":"19.02905697","decile":"10","lat":40.39479888958046,"lng":-111.7789425047218},{"vid":"1759315","name":"Josefa Hammes MD","party":"Rep","address":"770 N 200 E, American Fork, UT 84003","precinct":"25AF04","hd":"55","v_score":"1.121327652","decile":"3","lat":40.39248160960653,"lng":-111.79228410450081},{"vid":"1773509","name":"Odalys Padberg","party":"Rep","address":"782 N 310 E, American Fork, UT 84003","precinct":"25AF04","hd":"55","v_score":"1.46627566","decile":"4","lat":40.392360096933025,"lng":-111.7905755778613},{"vid":"1785747","name":"Oswald Hane","party":"Dem","address":"789 N 500 E, American Fork, UT 84003","precinct":"25AF04","hd":"55","v_score":"1.121327652","decile":"3","lat":40.39284840310986,"lng":-111.78617540390186},{"vid":"1799098","name":"Bebe Rohan","party":"Rep","address":"850 N 350 E, American Fork, UT 84003","precinct":"25AF04","hd":"55","v_score":"14.24014515","decile":"9","lat":40.39403289151489,"lng":-111.7895247241993},{"vid":"061c5838a03a89f4384b130d61fd888cb2ec6d81d43a27b891beeb0f4ee71ad2","name":"Amma Kautzer","party":"","address":"228 E 900 N, American Fork, UT 84003","precinct":"25AF04","hd":"55","v_score":"13.61621523","decile":"9","lat":40.39472522218,"lng":-111.79237139999533},{"vid":"1818241","name":"Albertina Stark","party":"","address":"291 E 700 N, American Fork, UT 84003","precinct":"25AF04","hd":"55","v_score":"1.193887297","decile":"3","lat":40.39157525204667,"lng":-111.79084827198714},{"vid":"c956ce1e5ec45d922a41f0e1e6317afabedd46d70eab60782a7fc67cfe5876bb","name":"Willis Lakin-Koepp","party":"Dem","address":"619 N 230 E, American Fork, UT 84003","precinct":"25AF04","hd":"55","v_score":"24.96756651","decile":"10","lat":40.389421633204606,"lng":-111.79249520976038},{"vid":"1832998","name":"Hedy O'Connell","party":"","address":"912 N 290 E, American Fork, UT 84003","precinct":"25AF04","hd":"55","v_score":"10.8238813","decile":"9","lat":40.395421264110375,"lng":-111.79081947979633},{"vid":"1833012","name":"Ms. Clevie Gulgowski","party":"","address":"1166 N 100 E, American Fork, UT 84003","precinct":"25AF04","hd":"55","v_score":"1.121327652","decile":"3","lat":40.40019240843584,"lng":-111.79376684277803},{"vid":"1836399","name":"Kaylene Gaylord","party":"Rep","address":"734 N 350 E, American Fork, UT 84003","precinct":"25AF04","hd":"55","v_score":"8.547102156","decile":"8","lat":40.39163159866244,"lng":-111.7889021130156},{"vid":"1841904","name":"Noelia Marvin","party":"","address":"718 N 350 E, American Fork, UT 84003","precinct":"25AF04","hd":"55","v_score":"6.881235673","decile":"8","lat":40.391137831528795,"lng":-111.7894265520199},{"vid":"1843583","name":"Yoshio Johnson","party":"","address":"783 E 700 N, American Fork, UT 84003","precinct":"25AF04","hd":"55","v_score":"6.657533174","decile":"7","lat":40.39223768394103,"lng":-111.77819092675789},{"vid":"63203cf8d028a10dd85aca72e2b7f68301e870b08cea143b386a37cb340a9607","name":"Mickey Lynch DDS","party":"","address":"695 N 200 E, American Fork, UT 84003","precinct":"25AF04","hd":"55","v_score":"2.315214949","decile":"5","lat":40.39084801492352,"lng":-111.79339801516323},{"vid":"1849280","name":"Neppie Jones","party":"Dem","address":"366 E 870 N, American Fork, UT 84003","precinct":"25AF04","hd":"55","v_score":"8.421194992","decile":"8","lat":40.394771816442905,"lng":-111.7883564500425},{"vid":"ff707b31c2f38c3352905fc792ee02decda6ac498df6d2f6a84d844aeb339323","name":"Rena McCullough","party":"","address":"614 N 100 E, American Fork, UT 84003","precinct":"25AF04","hd":"55","v_score":"2.587603312","decile":"5","lat":40.389390914677435,"lng":-111.79538080416715},{"vid":"1860758","name":"Mr. Oakley Robel PhD","party":"Rep","address":"822 N 100 E, American Fork, UT 84003","precinct":"25AF04","hd":"55","v_score":"4.568975008","decile":"7","lat":40.39312598845764,"lng":-111.79545854329388},{"vid":"1872246","name":"Lurline Ernser","party":"Rep","address":"672 E 875 N, American Fork, UT 84003","precinct":"25AF04","hd":"55","v_score":"1.193887297","decile":"3","lat":40.394722538376335,"lng":-111.7801956385613},{"vid":"1872629","name":"Christina Becker II","party":"Rep","address":"789 N 310 E, American Fork, UT 84003","precinct":"25AF04","hd":"55","v_score":"3.711952487","decile":"6","lat":40.39254134950075,"lng":-111.79096728694563},{"vid":"1875259","name":"Kenya Reilly-Huels","party":"Dem","address":"782 N 310 E, American Fork, UT 84003","precinct":"25AF04","hd":"55","v_score":"2.660162957","decile":"5","lat":40.392360096933025,"lng":-111.7905755778613},{"vid":"1878460","name":"Ms. Dorthey Goldner DDS","party":"Rep","address":"851 N 360 E, American Fork, UT 84003","precinct":"25AF04","hd":"55","v_score":"6.481563075","decile":"7","lat":40.3940042330091,"lng":-111.78915286446203},{"vid":"1879514","name":"Bo Veum Sr.","party":"","address":"795 N 310 E, American Fork, UT 84003","precinct":"25AF04","hd":"55","v_score":"9.907118004","decile":"8","lat":40.39288236714998,"lng":-111.79098628056458},{"vid":"1880656","name":"Jason Boehm I","party":"Rep","address":"920 N 100 E, American Fork, UT 84003","precinct":"25AF04","hd":"55","v_score":"2.315214949","decile":"5","lat":40.3958169813302,"lng":-111.79553789220155},{"vid":"8598ecab91b7519128920d522df677358093a5543cbb13a1af1d045b6ccdcb7c","name":"Miss Nicolle Bins DDS","party":"Rep","address":"352 E 800 N, American Fork, UT 84003","precinct":"25AF04","hd":"55","v_score":"8.280646305","decile":"8","lat":40.392758957443895,"lng":-111.78949169602151},{"vid":"1896775","name":"Mr. Kolton Wolf Jr.","party":"Dem","address":"777 N 390 E, American Fork, UT 84003","precinct":"25AF04","hd":"55","v_score":"2.587603312","decile":"5","lat":40.39222264456008,"lng":-111.78833173095985},{"vid":"1899299","name":"Alijah Fritsch","party":"Dem","address":"851 N 360 E, American Fork, UT 84003","precinct":"25AF04","hd":"55","v_score":"5.191257514","decile":"7","lat":40.3940042330091,"lng":-111.78915286446203},{"vid":"1905164","name":"Ah Wyman","party":"Rep","address":"609 N 200 E, American Fork, UT 84003","precinct":"25AF04","hd":"55","v_score":"2.587603312","decile":"5","lat":40.38919894524036,"lng":-111.79335864850562},{"vid":"1906108","name":"Booker Senger Sr.","party":"","address":"291 E 700 N, American Fork, UT 84003","precinct":"25AF04","hd":"55","v_score":"7.721463142","decile":"8","lat":40.39157525204667,"lng":-111.79084827198714},{"vid":"1924449","name":"Mr. Darrien Zboncak DDS","party":"","address":"868 N 400 E, American Fork, UT 84003","precinct":"25AF04","hd":"55","v_score":"3.781490609","decile":"6","lat":40.39435861866632,"lng":-111.78751989923757},{"vid":"922ffa1cf28afaa4a86fe3cb91437f31748ab51f288ecca870fcd52c55731b65","name":"Tobias Yundt","party":"Rep","address":"635 N 200 E, American Fork, UT 84003","precinct":"25AF04","hd":"55","v_score":"8.363183621","decile":"8","lat":40.38977297661114,"lng":-111.79345524433508},{"vid":"1971866","name":"Alto Quitzon","party":"Rep","address":"301 E 925 N, American Fork, UT 84003","precinct":"25AF04","hd":"55","v_score":"3.93832808","decile":"6","lat":40.39587261192968,"lng":-111.79056461810505},{"vid":"1988991","name":"Lorine Crooks","party":"Dem","address":"801 N 500 E, American Fork, UT 84003","precinct":"25AF04","hd":"55","v_score":"2.315214949","decile":"5","lat":40.393055419760806,"lng":-111.78631525977256},{"vid":"1997467","name":"Kortney Roob-Johns","party":"Dem","address":"963 N 400 E, American Fork, UT 84003","precinct":"25AF04","hd":"55","v_score":"2.315214949","decile":"5","lat":40.39642000397373,"lng":-111.78764582509663},{"vid":"2020008","name":"Kyree Torphy","party":"Rep","address":"329 E 700 N, American Fork, UT 84003","precinct":"25AF04","hd":"55","v_score":"2.315214949","decile":"5","lat":40.3912807742635,"lng":-111.78994165801508},{"vid":"2020678","name":"Squire Pagac-Blanda","party":"","address":"787 N 610 E, American Fork, UT 84003","precinct":"25AF04","hd":"55","v_score":"2.315214949","decile":"5","lat":40.39345997025115,"lng":-111.78229596978983},{"vid":"2025942","name":"Wilkie Prosacco","party":"Rep","address":"638 N 100 E, American Fork, UT 84003","precinct":"25AF04","hd":"55","v_score":"1.121327652","decile":"3","lat":40.38984148346432,"lng":-111.79545828655536},{"vid":"2026844","name":"Rollie Kassulke","party":"","address":"1346 N 100 E, American Fork, UT 84003","precinct":"25AF04","hd":"55","v_score":"0","decile":"1","lat":40.40269756530467,"lng":-111.79210970470317},{"vid":"2034820","name":"Babe Hintz-Keeling","party":"Dem","address":"258 E 900 N, American Fork, UT 84003","precinct":"25AF04","hd":"55","v_score":"15.07605507","decile":"9","lat":40.394607121193715,"lng":-111.79169135673014},{"vid":"2037049","name":"Miss Phylicia Bradtke MD","party":"Dem","address":"258 E 900 N, American Fork, UT 84003","precinct":"25AF04","hd":"55","v_score":"11.36410258","decile":"9","lat":40.394607121193715,"lng":-111.79169135673014},{"vid":"2041806","name":"Lyn Reinger","party":"","address":"509 E 900 N, American Fork, UT 84003","precinct":"25AF04","hd":"55","v_score":"3.93832808","decile":"6","lat":40.395057794762046,"lng":-111.78543771628459},{"vid":"2048549","name":"Carri Ullrich-Johns","party":"Rep","address":"926 N 400 E, American Fork, UT 84003","precinct":"25AF04","hd":"55","v_score":"2.744440783","decile":"5","lat":40.39540443779478,"lng":-111.78735080837787},{"vid":"2053459","name":"Fulton Ullrich","party":"","address":"1152 N 100 E, American Fork, UT 84003","precinct":"25AF04","hd":"55","v_score":"16.57131358","decile":"9","lat":40.39993317292889,"lng":-111.79392797053626},{"vid":"2056755","name":"Miss Malissa Parisian","party":"Dem","address":"742 N 730 E, American Fork, UT 84003","precinct":"25AF04","hd":"55","v_score":"8.507303088","decile":"8","lat":40.39206811826706,"lng":-111.77903117670257},{"vid":"2057825","name":"Santino Waters","party":"Dem","address":"425 E 700 N, American Fork, UT 84003","precinct":"25AF04","hd":"55","v_score":"3.93832808","decile":"6","lat":40.391122252048895,"lng":-111.78780808832867},{"vid":"2069800","name":"Phyliss Goodwin DVM","party":"","address":"718 N 350 E, American Fork, UT 84003","precinct":"25AF04","hd":"55","v_score":"5.273794831","decile":"7","lat":40.391137831528795,"lng":-111.7894265520199},{"vid":"2071192","name":"Miss Porsha Mante DDS","party":"","address":"1182 N 100 E, American Fork, UT 84003","precinct":"25AF04","hd":"55","v_score":"3.93832808","decile":"6","lat":40.4004437852702,"lng":-111.79361064784865},{"vid":"6361428ac2de173e367244db027e4b71c6be90bf55328e6666434c78561fa320","name":"Dr. Brandy Hessel MD","party":"","address":"267 E 800 N, American Fork, UT 84003","precinct":"25AF04","hd":"55","v_score":"23.45391251","decile":"10","lat":40.39341431351882,"lng":-111.79174861651416},{"vid":"76c3d503467f2f340547b66fce48d2d4b6a0c580ba2107cb10548ea6e447e891","name":"Jackson Harris","party":"Dem","address":"1331 N 200 E, American Fork, UT 84003","precinct":"25AF04","hd":"55","v_score":"37.66929909","decile":"10","lat":40.40260304054201,"lng":-111.79170765980504},{"vid":"2088277","name":"Khalilah Hickle","party":"","address":"949 N 400 E, American Fork, UT 84003","precinct":"25AF04","hd":"55","v_score":"2.587603312","decile":"5","lat":40.395874944345614,"lng":-111.78776320467858},{"vid":"2093363","name":"Dr. Yahir Cormier","party":"Rep","address":"357 E 700 N, American Fork, UT 84003","precinct":"25AF04","hd":"55","v_score":"15.53273099","decile":"9","lat":40.39125074770786,"lng":-111.78903858917586},{"vid":"2093365","name":"Kazuo White","party":"","address":"357 E 700 N, American Fork, UT 84003","precinct":"25AF04","hd":"55","v_score":"15.53273099","decile":"9","lat":40.39125074770786,"lng":-111.78903858917586},{"vid":"bae683f84614fbc960813a28f21fc67aa99768d8ccf6ac8fcff76e7ea8014aa4","name":"Taraji Will","party":"Rep","address":"1331 N 200 E, American Fork, UT 84003","precinct":"25AF04","hd":"55","v_score":"37.66929909","decile":"10","lat":40.40260304054201,"lng":-111.79170765980504},{"vid":"2098679","name":"Kyara Marks","party":"Dem","address":"712 E 750 N, American Fork, UT 84003","precinct":"25AF04","hd":"55","v_score":"2.315214949","decile":"5","lat":40.392902049533504,"lng":-111.77993700136994},{"vid":"348e0be09c90a981891626341aeb19be3900a66f06758c304f1da67be4fe6324","name":"Mr. Clemence Mayer","party":"Dem","address":"1152 N 100 E, American Fork, UT 84003","precinct":"25AF04","hd":"55","v_score":"5.258122542","decile":"7","lat":40.39993317292889,"lng":-111.79392797053626},{"vid":"2128867","name":"Ms. Lovey Hoeger","party":"Rep","address":"665 E 700 N, American Fork, UT 84003","precinct":"25AF04","hd":"55","v_score":"2.587603312","decile":"5","lat":40.392091288339294,"lng":-111.78082950691943},{"vid":"2132392","name":"Dr. Jeb Fritsch","party":"Dem","address":"783 E 700 N, American Fork, UT 84003","precinct":"25AF04","hd":"55","v_score":"9.35760564","decile":"8","lat":40.39223768394103,"lng":-111.77819092675789},{"vid":"2132431","name":"Debrah West","party":"","address":"551 E 700 N, American Fork, UT 84003","precinct":"25AF04","hd":"55","v_score":"3.781490609","decile":"6","lat":40.392152058849845,"lng":-111.78428326580082},{"vid":"2139663","name":"Jenelle Rosenbaum","party":"Dem","address":"366 E 870 N, American Fork, UT 84003","precinct":"25AF04","hd":"55","v_score":"3.93832808","decile":"6","lat":40.394771816442905,"lng":-111.7883564500425},{"vid":"2148110","name":"Tyrus Murphy","party":"Rep","address":"648 N 150 E, American Fork, UT 84003","precinct":"25AF04","hd":"55","v_score":"3.781490609","decile":"6","lat":40.3898226147275,"lng":-111.79407482508424},{"vid":"401d62f5788fc4c51169f9e44ebc979e6da760aa019d3cf177553bf8869690fc","name":"Mr. Dalvin Wilderman DDS","party":"Dem","address":"817 N 540 E, American Fork, UT 84003","precinct":"25AF04","hd":"55","v_score":"3.781490609","decile":"6","lat":40.39346661703282,"lng":-111.78427489419697},{"vid":"0fa390af97aad14a6970ec176fa070db0218b6b5a8a591392e0bca8bb927cce7","name":"Jasiah Konopelski","party":"Rep","address":"1342 N 100 E, American Fork, UT 84003","precinct":"25AF04","hd":"55","v_score":"2.660162957","decile":"5","lat":40.40251207317237,"lng":-111.79232818624664},{"vid":"2171188","name":"Alijah Wunsch","party":"Dem","address":"764 N 610 E, American Fork, UT 84003","precinct":"25AF04","hd":"55","v_score":"1.121327652","decile":"3","lat":40.39291237600403,"lng":-111.7817589504451},{"vid":"344d835c12335630e2b0e3bb771edd209539664102d862685f06244475c512b3","name":"Miss Priscila Runolfsson MD","party":"","address":"873 N 610 E, American Fork, UT 84003","precinct":"25AF04","hd":"55","v_score":"0","decile":"1","lat":40.39510969461725,"lng":-111.78220936610212},{"vid":"2184505","name":"Junious Abshire-Denesik","party":"Dem","address":"728 E 875 N, American Fork, UT 84003","precinct":"25AF04","hd":"55","v_score":"16.15301441","decile":"9","lat":40.39479888958046,"lng":-111.7789425047218},{"vid":"f2ec52a48d5fdef4c17a921b8e06fe292ebcd6f1e4953930ad1f5291273166ee","name":"Ronny Labadie","party":"Dem","address":"787 N 610 E, American Fork, UT 84003","precinct":"25AF04","hd":"55","v_score":"1.193887297","decile":"3","lat":40.39345997025115,"lng":-111.78229596978983},{"vid":"0dc3e221b10403b5710dd66d2bd1dbe2acaa011ee03961992daefee1ae279d57","name":"Rube Wolff","party":"","address":"1075 N 200 E, American Fork, UT 84003","precinct":"25AF04","hd":"55","v_score":"1.623113131","decile":"5","lat":40.39834776207923,"lng":-111.79404327364054},{"vid":"2ba5aed1c155e6cc119c12035170a2c05145f8de1bd9dc49970501bc8c3d5034","name":"Hjalmer Steuber","party":"","address":"896 N 540 E, American Fork, UT 84003","precinct":"25AF04","hd":"55","v_score":"0","decile":"1","lat":40.39461815546739,"lng":-111.78339431737118},{"vid":"2192670","name":"Dr. Theron Wiza","party":"Dem","address":"825 N 730 E, American Fork, UT 84003","precinct":"25AF04","hd":"55","v_score":"3.93832808","decile":"6","lat":40.39386586139064,"lng":-111.77949369109392},{"vid":"fe6a6debe26918d1e01dbf64a95671ffde092a51768d691963a8b404144080ba","name":"Caroline Murray","party":"","address":"1005 N 200 E, American Fork, UT 84003","precinct":"25AF04","hd":"55","v_score":"24.71310576","decile":"10","lat":40.396759783207074,"lng":-111.79361125472053},{"vid":"2221431","name":"Jaden Lowe","party":"Dem","address":"138 E 1120 N, American Fork, UT 84003","precinct":"25AF04","hd":"55","v_score":"1.121327652","decile":"3","lat":40.39874430318831,"lng":-111.7937134766742},{"vid":"2229503","name":"Dr. Aidyn Purdy","party":"Rep","address":"401 E 980 N, American Fork, UT 84003","precinct":"25AF04","hd":"55","v_score":"1.193887297","decile":"3","lat":40.39713411646552,"lng":-111.78736724454421},{"vid":"2230851","name":"Mr. Jamison Waelchi","party":"Rep","address":"655 N 200 E, American Fork, UT 84003","precinct":"25AF04","hd":"55","v_score":"2.744440783","decile":"5","lat":40.390087113330814,"lng":-111.79341427774453},{"vid":"2234226","name":"Cornelia Ferry","party":"Dem","address":"1166 N 100 E, American Fork, UT 84003","precinct":"25AF04","hd":"55","v_score":"6.881235673","decile":"8","lat":40.40019240843584,"lng":-111.79376684277803},{"vid":"6b261267503ceb3aff1f1466c209ccbdc4e9cb5a2cb7af1a6490e7db3dfa45ca","name":"Deirdre Funk","party":"","address":"746 N 730 E, American Fork, UT 84003","precinct":"25AF04","hd":"55","v_score":"1.193887297","decile":"3","lat":40.392890058082585,"lng":-111.77897455246979},{"vid":"504090b8504e575102d4035698dc64c96f44a22b7031459338078f5f1ec568ba","name":"Clinton Hettinger","party":"Rep","address":"937 N 240 E, American Fork, UT 84003","precinct":"25AF04","hd":"55","v_score":"0","decile":"1","lat":40.39560767289323,"lng":-111.79228366495512},{"vid":"297943eee50330ddc5b9a51708c04d490aeb0490a51b201834e829da9939fb21","name":"Ryan Goodwin","party":"Rep","address":"957 N 400 E, American Fork, UT 84003","precinct":"25AF04","hd":"55","v_score":"16.26158998","decile":"9","lat":40.39615256941115,"lng":-111.78784000071919},{"vid":"2255769","name":"Erna Halvorson","party":"","address":"757 N 500 E, American Fork, UT 84003","precinct":"25AF04","hd":"55","v_score":"1.121327652","decile":"3","lat":40.39262149965327,"lng":-111.78604340333268},{"vid":"2257416","name":"Deb Corkery","party":"Rep","address":"818 N 100 E, American Fork, UT 84003","precinct":"25AF04","hd":"55","v_score":"1.121327652","decile":"3","lat":40.39292303966845,"lng":-111.79544862337787},{"vid":"09901638141212192a9434d5e5fca71d03c24e1b005029a96f7341bc8b31ad33","name":"Ms. Angelina Schuppe","party":"","address":"535 E 900 N, American Fork, UT 84003","precinct":"25AF04","hd":"55","v_score":"6.881235673","decile":"8","lat":40.3948559522172,"lng":-111.78381934864483},{"vid":"5100cc20fcd78e64ee40bd53f7d764c3ada99947b387228c81c4fa94ef6c01aa","name":"Tiera Emard","party":"Rep","address":"868 N 400 E, American Fork, UT 84003","precinct":"25AF04","hd":"55","v_score":"1.623113131","decile":"5","lat":40.39435861866632,"lng":-111.78751989923757},{"vid":"cd2a9026bece955d9390adc718a2c171a4266be940cb49361b1964f985bdcfe4","name":"Mr. Eino Jacobson","party":"","address":"619 N 200 E, American Fork, UT 84003","precinct":"25AF04","hd":"55","v_score":"2.876042565","decile":"6","lat":40.389562775106654,"lng":-111.79345767014567},{"vid":"10be89324afdfc0ef0521ba5a76f41456af880a1070b9fcecfdb90ef010127a9","name":"Thor Boyer","party":"","address":"745 E 750 N, American Fork, UT 84003","precinct":"25AF04","hd":"55","v_score":"0","decile":"1","lat":40.39328248307499,"lng":-111.77844717120975},{"vid":"2272152","name":"Sherie Wolf","party":"Rep","address":"1352 N 100 E, American Fork, UT 84003","precinct":"25AF04","hd":"55","v_score":"9.678939211","decile":"8","lat":40.40308284813349,"lng":-111.79197370190799},{"vid":"2f5b31ec24fd84539acb1e898161efe8b1b8e6dfb191e2750172e8f2e2586162","name":"Markell Kris","party":"Rep","address":"757 N 500 E, American Fork, UT 84003","precinct":"25AF04","hd":"55","v_score":"1.121327652","decile":"3","lat":40.39262149965327,"lng":-111.78604340333268},{"vid":"2282868","name":"Stephen Jacobi","party":"Dem","address":"892 N 340 E, American Fork, UT 84003","precinct":"25AF04","hd":"55","v_score":"4.905839784","decile":"7","lat":40.39521063627195,"lng":-111.78955713236108},{"vid":"2284457","name":"Dr. Andres Feeney Sr.","party":"Dem","address":"942 N 240 E, American Fork, UT 84003","precinct":"25AF04","hd":"55","v_score":"7.650280567","decile":"8","lat":40.39571953149432,"lng":-111.79175987887254},{"vid":"24fad301cd378f024652086cfe4019d163d220806d08207b43c63cafe338ee42","name":"Shenna Metz","party":"","address":"877 N 340 E, American Fork, UT 84003","precinct":"25AF04","hd":"55","v_score":"0","decile":"1","lat":40.39481407583751,"lng":-111.79032185331721},{"vid":"2000d630d06b6c022c27e7e9da7055727fa37e66073114b7757615d654cb6104","name":"Kerwin Aufderhar DVM","party":"Dem","address":"293 E 925 N, American Fork, UT 84003","precinct":"25AF04","hd":"55","v_score":"0","decile":"1","lat":40.39570766898037,"lng":-111.7909397925025},{"vid":"2293936","name":"Thea McGlynn","party":"Rep","address":"1126 N 100 E, American Fork, UT 84003","precinct":"25AF04","hd":"55","v_score":"2.942907593","decile":"6","lat":40.399347661699586,"lng":-111.79447965494853},{"vid":"0e466378b05de7ea263cd29207cb26f163e6cf38dc605f93fae69f82b505b5a6","name":"Rosalind Legros","party":"","address":"868 N 400 E, American Fork, UT 84003","precinct":"25AF04","hd":"55","v_score":"2.315214949","decile":"5","lat":40.39435861866632,"lng":-111.78751989923757},{"vid":"2297950","name":"Dianne Kozey","party":"Dem","address":"825 N 730 E, American Fork, UT 84003","precinct":"25AF04","hd":"55","v_score":"5.258122542","decile":"7","lat":40.39386586139064,"lng":-111.77949369109392},{"vid":"1e86a232ee0462a44eef24582d2aa3b92317b1778a6cdd79f8f9a7656dd98681","name":"Wiley Dibbert","party":"","address":"836 N 100 E, American Fork, UT 84003","precinct":"25AF04","hd":"55","v_score":"1.121327652","decile":"3","lat":40.39352091987308,"lng":-111.79547783587225},{"vid":"2316582","name":"Dr. Jovani Kirlin Jr.","party":"Rep","address":"746 E 830 N, American Fork, UT 84003","precinct":"25AF04","hd":"55","v_score":"2.315214949","decile":"5","lat":40.39392849560471,"lng":-111.77847785028817},{"vid":"2318013","name":"Star Ritchie DVM","party":"Dem","address":"1147 N 160 E, American Fork, UT 84003","precinct":"25AF04","hd":"55","v_score":"5.815909755","decile":"7","lat":40.39969410136778,"lng":-111.79363332815363},{"vid":"2325662","name":"Arron Torphy-Hills","party":"Rep","address":"825 N 520 E, American Fork, UT 84003","precinct":"25AF04","hd":"55","v_score":"1.623113131","decile":"5","lat":40.39383651041459,"lng":-111.78535759893234},{"vid":"2332003","name":"Malakai Rogahn","party":"","address":"896 N 290 E, American Fork, UT 84003","precinct":"25AF04","hd":"55","v_score":"1.121327652","decile":"3","lat":40.39446859857348,"lng":-111.79081262427006},{"vid":"2332037","name":"Tayshaun Reinger","party":"Rep","address":"734 N Riverwalk Dr, American Fork, UT 84003","precinct":"25AF04","hd":"55","v_score":"5.335402662","decile":"7","lat":40.39200229346193,"lng":-111.78646850342874},{"vid":"2341389","name":"Dr. Eduardo Hackett I","party":"Rep","address":"868 N 100 E, American Fork, UT 84003","precinct":"25AF04","hd":"55","v_score":"0","decile":"1","lat":40.39460220468674,"lng":-111.79550778444617},{"vid":"2343185","name":"Sula Daniel-Gutmann","party":"Dem","address":"521 E 900 N, American Fork, UT 84003","precinct":"25AF04","hd":"55","v_score":"0","decile":"1","lat":40.395016377572546,"lng":-111.78479391366305},{"vid":"2344037","name":"Alvira Hammes-Ruecker","party":"Dem","address":"1147 N 160 E, American Fork, UT 84003","precinct":"25AF04","hd":"55","v_score":"2.817000428","decile":"6","lat":40.39969410136778,"lng":-111.79363332815363},{"vid":"2351927","name":"Sanjuanita Collins","party":"Dem","address":"746 N 730 E, American Fork, UT 84003","precinct":"25AF04","hd":"55","v_score":"3.93832808","decile":"6","lat":40.392890058082585,"lng":-111.77897455246979},{"vid":"2368911","name":"Geneva Renner","party":"Rep","address":"638 N 100 E, American Fork, UT 84003","precinct":"25AF04","hd":"55","v_score":"0","decile":"1","lat":40.38984148346432,"lng":-111.79545828655536},{"vid":"2369023","name":"Hailie Brown-Swift","party":"Rep","address":"734 N 350 E, American Fork, UT 84003","precinct":"25AF04","hd":"55","v_score":"2.315214949","decile":"5","lat":40.39163159866244,"lng":-111.7889021130156},{"vid":"2373675","name":"Grover Hackett","party":"Dem","address":"918 N 200 E, American Fork, UT 84003","precinct":"25AF04","hd":"55","v_score":"14.40759057","decile":"9","lat":40.395342050581085,"lng":-111.7926938028355},{"vid":"2374761","name":"Mr. Lucky Armstrong Jr.","party":"Dem","address":"1147 N 160 E, American Fork, UT 84003","precinct":"25AF04","hd":"55","v_score":"9.567299636","decile":"8","lat":40.39969410136778,"lng":-111.79363332815363},{"vid":"2376661","name":"Octave Hilpert","party":"Dem","address":"221 E 900 N, American Fork, UT 84003","precinct":"25AF04","hd":"55","v_score":"2.315214949","decile":"5","lat":40.395043741007996,"lng":-111.79284790737131},{"vid":"2386603","name":"Miss Danyel Treutel","party":"","address":"746 N 730 E, American Fork, UT 84003","precinct":"25AF04","hd":"55","v_score":"6.52928996","decile":"7","lat":40.392890058082585,"lng":-111.77897455246979},{"vid":"2386710","name":"Dorris Jacobs-Maggio","party":"Dem","address":"745 N 730 E, American Fork, UT 84003","precinct":"25AF04","hd":"55","v_score":"2.315214949","decile":"5","lat":40.39289130786982,"lng":-111.77945469247277},{"vid":"2391455","name":"Miss Peyton Pfannerstill","party":"","address":"1152 N 160 E, American Fork, UT 84003","precinct":"25AF04","hd":"55","v_score":"1.121327652","decile":"3","lat":40.399713157646296,"lng":-111.79280340053411},{"vid":"2391552","name":"Mr. Chin Hahn","party":"Rep","address":"138 E 1120 N, American Fork, UT 84003","precinct":"25AF04","hd":"55","v_score":"2.315214949","decile":"5","lat":40.39874430318831,"lng":-111.7937134766742},{"vid":"2401023","name":"Dr. Truman Mann","party":"Dem","address":"513 E 800 N, American Fork, UT 84003","precinct":"25AF04","hd":"55","v_score":"9.830961897","decile":"8","lat":40.39352688135807,"lng":-111.78564507145816},{"vid":"2403767","name":"Dr. Alpheus Mraz Sr.","party":"Dem","address":"937 N 240 E, American Fork, UT 84003","precinct":"25AF04","hd":"55","v_score":"0","decile":"1","lat":40.39560767289323,"lng":-111.79228366495512},{"vid":"2406344","name":"Pearley Jenkins","party":"","address":"895 N 900 E, American Fork, UT 84003","precinct":"25AF04","hd":"55","v_score":"2.315214949","decile":"5","lat":40.396893100464624,"lng":-111.78517459048523},{"vid":"2406351","name":"Brandi Lesch-Hettinger","party":"Rep","address":"895 N 900 E, American Fork, UT 84003","precinct":"25AF04","hd":"55","v_score":"6.481563075","decile":"7","lat":40.396893100464624,"lng":-111.78517459048523},{"vid":"2406354","name":"Una Boyer","party":"Dem","address":"895 N 900 E, American Fork, UT 84003","precinct":"25AF04","hd":"55","v_score":"1.121327652","decile":"3","lat":40.396893100464624,"lng":-111.78517459048523},{"vid":"2406365","name":"Ester Beahan","party":"","address":"895 N 900 E, American Fork, UT 84003","precinct":"25AF04","hd":"55","v_score":"1.121327652","decile":"3","lat":40.396893100464624,"lng":-111.78517459048523},{"vid":"2408661","name":"Dr. Kalvin Kassulke","party":"Rep","address":"782 N 310 E, American Fork, UT 84003","precinct":"25AF04","hd":"55","v_score":"2.817000428","decile":"6","lat":40.392360096933025,"lng":-111.7905755778613},{"vid":"2413220","name":"Jonell Hickle","party":"Dem","address":"225 E 700 N, American Fork, UT 84003","precinct":"25AF04","hd":"55","v_score":"12.08307454","decile":"9","lat":40.39132459492191,"lng":-111.79248012381281},{"vid":"2415741","name":"Ms. Bina Luettgen DDS","party":"Dem","address":"305 E 800 N, American Fork, UT 84003","precinct":"25AF04","hd":"55","v_score":"1.121327652","decile":"3","lat":40.393148675296096,"lng":-111.79050458660325},{"vid":"2429993","name":"Cheyenne Buckridge Sr.","party":"","address":"1369 N 200 E, American Fork, UT 84003","precinct":"25AF04","hd":"55","v_score":"1.121327652","decile":"3","lat":40.403877969765055,"lng":-111.79118631393176},{"vid":"2431526","name":"Mr. Arvil Hauck","party":"Dem","address":"1228 N 160 E, American Fork, UT 84003","precinct":"25AF04","hd":"55","v_score":"25.03283206","decile":"10","lat":40.40078179072515,"lng":-111.79225964112982},{"vid":"2447432","name":"Dr. Glynda McCullough","party":"Dem","address":"854 N 400 E, American Fork, UT 84003","precinct":"25AF04","hd":"55","v_score":"3.93832808","decile":"6","lat":40.394108446633936,"lng":-111.78737115339209},{"vid":"2453257","name":"Dr. Marlen McDermott","party":"","address":"770 N 350 E, American Fork, UT 84003","precinct":"25AF04","hd":"55","v_score":"3.93832808","decile":"6","lat":40.392459295932504,"lng":-111.78931660580015},{"vid":"2480426","name":"Waldemar Gerhold-Marvin","party":"Dem","address":"896 N 540 E, American Fork, UT 84003","precinct":"25AF04","hd":"55","v_score":"4.069929862","decile":"6","lat":40.39461815546739,"lng":-111.78339431737118},{"vid":"2485206","name":"Montie Sipes","party":"","address":"785 N 390 E, American Fork, UT 84003","precinct":"25AF04","hd":"55","v_score":"0","decile":"1","lat":40.3924728220935,"lng":-111.7882453029684},{"vid":"2489339","name":"Arbie Blick-Becker","party":"Dem","address":"976 N 200 E, American Fork, UT 84003","precinct":"25AF04","hd":"55","v_score":"4.069929862","decile":"6","lat":40.3958415396326,"lng":-111.79269281253274},{"vid":"2492992","name":"Earlie Kub","party":"","address":"1126 N 100 E, American Fork, UT 84003","precinct":"25AF04","hd":"55","v_score":"0","decile":"1","lat":40.399347661699586,"lng":-111.79447965494853},{"vid":"2497250","name":"Tiesha Adams","party":"Dem","address":"413 E 775 N, American Fork, UT 84003","precinct":"25AF04","hd":"55","v_score":"1.193887297","decile":"3","lat":40.39232967334279,"lng":-111.787434308659},{"vid":"2500112","name":"Evelynn Kub","party":"Rep","address":"918 N 200 E, American Fork, UT 84003","precinct":"25AF04","hd":"55","v_score":"4.905839784","decile":"7","lat":40.395342050581085,"lng":-111.7926938028355},{"vid":"2513883","name":"Marty Volkman","party":"Rep","address":"522 E 900 N, American Fork, UT 84003","precinct":"25AF04","hd":"55","v_score":"1.193887297","decile":"4","lat":40.39461003112279,"lng":-111.78473298958815},{"vid":"2516175","name":"Erica Schuppe DVM","party":"","address":"742 N 730 E, American Fork, UT 84003","precinct":"25AF04","hd":"55","v_score":"0","decile":"1","lat":40.39206811826706,"lng":-111.77903117670257},{"vid":"2517413","name":"Darrion Hoeger-Rath","party":"Rep","address":"1152 N 100 E, American Fork, UT 84003","precinct":"25AF04","hd":"55","v_score":"9.638447451","decile":"8","lat":40.39993317292889,"lng":-111.79392797053626},{"vid":"2518294","name":"Dr. Jaxton Borer MD","party":"Rep","address":"509 E 900 N, American Fork, UT 84003","precinct":"25AF04","hd":"55","v_score":"5.926494964","decile":"7","lat":40.395057794762046,"lng":-111.78543771628459},{"vid":"2529399","name":"Mace Fay","party":"","address":"258 E 900 N, American Fork, UT 84003","precinct":"25AF04","hd":"55","v_score":"0","decile":"1","lat":40.394607121193715,"lng":-111.79169135673014},{"vid":"2537483","name":"Noma Labadie","party":"","address":"367 E 870 N, American Fork, UT 84003","precinct":"25AF04","hd":"55","v_score":"16.1686867","decile":"9","lat":40.39486886545243,"lng":-111.78919117182973},{"vid":"2545994","name":"Chas Goldner","party":"","address":"840 N 610 E, American Fork, UT 84003","precinct":"25AF04","hd":"55","v_score":"20.51460138","decile":"10","lat":40.39426717618399,"lng":-111.78171711985492},{"vid":"2556918","name":"Mr. Archibald Metz I","party":"","address":"801 N 500 E, American Fork, UT 84003","precinct":"25AF04","hd":"55","v_score":"0","decile":"1","lat":40.393055419760806,"lng":-111.78631525977256},{"vid":"2560609","name":"Maricela Rohan DDS","party":"Dem","address":"535 E 900 N, American Fork, UT 84003","precinct":"25AF04","hd":"55","v_score":"3.737122292","decile":"6","lat":40.3948559522172,"lng":-111.78381934864483},{"vid":"2563235","name":"Darrien Wolff","party":"Dem","address":"851 N 400 E, American Fork, UT 84003","precinct":"25AF04","hd":"55","v_score":"1.193887297","decile":"4","lat":40.393837159185274,"lng":-111.78790493692595},{"vid":"2571174","name":"Mrs. Delsie Herman","party":"Rep","address":"783 E 700 N, American Fork, UT 84003","precinct":"25AF04","hd":"55","v_score":"8.236277988","decile":"8","lat":40.39223768394103,"lng":-111.77819092675789},{"vid":"2578101","name":"Laurence Gibson","party":"Dem","address":"266 E 800 N, American Fork, UT 84003","precinct":"25AF04","hd":"55","v_score":"0","decile":"1","lat":40.39298210748017,"lng":-111.79176110615086},{"vid":"2600500","name":"Mallie Beahan","party":"Rep","address":"730 N 200 E, American Fork, UT 84003","precinct":"25AF04","hd":"55","v_score":"1.193887297","decile":"4","lat":40.391638396055285,"lng":-111.79253333551868},{"vid":"2601379","name":"Chloie Mayer DVM","party":"Dem","address":"518 E 800 N, American Fork, UT 84003","precinct":"25AF04","hd":"55","v_score":"0","decile":"1","lat":40.39313922973398,"lng":-111.78518800545342},{"vid":"2611879","name":"Noel Effertz-Jakubowski","party":"","address":"925 N 240 E, American Fork, UT 84003","precinct":"25AF04","hd":"55","v_score":"1.193887297","decile":"4","lat":40.39539502844593,"lng":-111.79236026609604},{"vid":"2613475","name":"Anjelica Senger","party":"Dem","address":"765 N 350 E, American Fork, UT 84003","precinct":"25AF04","hd":"55","v_score":"0","decile":"1","lat":40.39221760379143,"lng":-111.7899978170934},{"vid":"2616814","name":"Collette Wilderman","party":"Rep","address":"258 E 900 N, American Fork, UT 84003","precinct":"25AF04","hd":"55","v_score":"1.193887297","decile":"4","lat":40.394607121193715,"lng":-111.79169135673014},{"vid":"2637105","name":"Parker Cormier","party":"","address":"384 E 920 N, American Fork, UT 84003","precinct":"25AF04","hd":"55","v_score":"9.40499548","decile":"8","lat":40.395150847876685,"lng":-111.78782124304084},{"vid":"2639441","name":"Trae O'Reilly III","party":"Rep","address":"857 N 360 E, American Fork, UT 84003","precinct":"25AF04","hd":"55","v_score":"1.193887297","decile":"4","lat":40.39428513905823,"lng":-111.78919035415282},{"vid":"2644337","name":"Kaitlin Bartell","party":"Rep","address":"708 N 500 E, American Fork, UT 84003","precinct":"25AF04","hd":"55","v_score":"1.623113131","decile":"5","lat":40.391987378752894,"lng":-111.78551902444106},{"vid":"2654576","name":"Mrs. Lilian Little","party":"","address":"1126 N 100 E, American Fork, UT 84003","precinct":"25AF04","hd":"55","v_score":"0","decile":"1","lat":40.399347661699586,"lng":-111.79447965494853},{"vid":"2658921","name":"Mrs. Shreya Hamill DDS","party":"Dem","address":"853 N 340 E, American Fork, UT 84003","precinct":"25AF04","hd":"55","v_score":"1.193887297","decile":"4","lat":40.394144224761995,"lng":-111.79004806018919},{"vid":"2663489","name":"Chet Bergstrom","party":"","address":"891 N 400 E, American Fork, UT 84003","precinct":"25AF04","hd":"55","v_score":"1.193887297","decile":"4","lat":40.394681253973545,"lng":-111.78777281877086},{"vid":"2666870","name":"Bartholomew Cummerata","party":"","address":"886 N 200 E, American Fork, UT 84003","precinct":"25AF04","hd":"55","v_score":"1.193887297","decile":"4","lat":40.394386122981686,"lng":-111.79254829516312},{"vid":"2683995","name":"Dewitt Stanton","party":"Rep","address":"618 E 875 N, American Fork, UT 84003","precinct":"25AF04","hd":"55","v_score":"16.4922578","decile":"9","lat":40.394776948379004,"lng":-111.78176413967132},{"vid":"2686770","name":"Danita Hudson DDS","party":"","address":"844 N 540 E, American Fork, UT 84003","precinct":"25AF04","hd":"55","v_score":"0","decile":"2","lat":40.39388980446593,"lng":-111.78357081638069},{"vid":"2686944","name":"Cristina Koepp","party":"Dem","address":"745 N 610 E, American Fork, UT 84003","precinct":"25AF04","hd":"55","v_score":"1.193887297","decile":"4","lat":40.39263668484734,"lng":-111.78229260685671},{"vid":"2687437","name":"Reuben Wyman II","party":"Rep","address":"1346 N 100 E, American Fork, UT 84003","precinct":"25AF04","hd":"55","v_score":"0","decile":"2","lat":40.40269756530467,"lng":-111.79210970470317},{"vid":"2688420","name":"Sonya Huel PhD","party":"Rep","address":"225 E 700 N, American Fork, UT 84003","precinct":"25AF04","hd":"55","v_score":"4.069929862","decile":"7","lat":40.39132459492191,"lng":-111.79248012381281},{"vid":"2688542","name":"Dr. Colette Dare MD","party":"Dem","address":"746 N 730 E, American Fork, UT 84003","precinct":"25AF04","hd":"55","v_score":"0","decile":"2","lat":40.392890058082585,"lng":-111.77897455246979},{"vid":"2689981","name":"Deacon Fisher","party":"","address":"892 N 340 E, American Fork, UT 84003","precinct":"25AF04","hd":"55","v_score":"4.905839784","decile":"7","lat":40.39521063627195,"lng":-111.78955713236108},{"vid":"2692646","name":"Jules Stark DVM","party":"Rep","address":"638 N 100 E, American Fork, UT 84003","precinct":"25AF04","hd":"55","v_score":"0","decile":"2","lat":40.38984148346432,"lng":-111.79545828655536},{"vid":"2695129","name":"Harl Carroll PhD","party":"Dem","address":"817 N 540 E, American Fork, UT 84003","precinct":"25AF04","hd":"55","v_score":"0","decile":"2","lat":40.39346661703282,"lng":-111.78427489419697},{"vid":"2703200","name":"Mr. Salomon Dietrich","party":"","address":"742 N 100 E, American Fork, UT 84003","precinct":"25AF04","hd":"55","v_score":"0","decile":"2","lat":40.39192075948945,"lng":-111.79540129743374},{"vid":"2703207","name":"Dewitt Batz","party":"Dem","address":"742 N 100 E, American Fork, UT 84003","precinct":"25AF04","hd":"55","v_score":"0","decile":"2","lat":40.39192075948945,"lng":-111.79540129743374},{"vid":"2703332","name":"Nayely Nicolas","party":"Dem","address":"745 E 750 N, American Fork, UT 84003","precinct":"25AF04","hd":"55","v_score":"0","decile":"2","lat":40.39328248307499,"lng":-111.77844717120975},{"vid":"2712618","name":"Judy Hessel","party":"Dem","address":"957 N 400 E, American Fork, UT 84003","precinct":"25AF04","hd":"55","v_score":"3.711952487","decile":"6","lat":40.39615256941115,"lng":-111.78784000071919},{"vid":"2713235","name":"Dr. Benjamine Emmerich","party":"","address":"976 N 200 E, American Fork, UT 84003","precinct":"25AF04","hd":"55","v_score":"0","decile":"2","lat":40.3958415396326,"lng":-111.79269281253274},{"vid":"2713445","name":"Miss Adina Wintheiser","party":"","address":"937 N 200 E, American Fork, UT 84003","precinct":"25AF04","hd":"55","v_score":"26.60266161","decile":"10","lat":40.39550662566518,"lng":-111.79416561382594},{"vid":"2724357","name":"Alwin McLaughlin","party":"Rep","address":"521 E 900 N, American Fork, UT 84003","precinct":"25AF04","hd":"55","v_score":"0","decile":"2","lat":40.395016377572546,"lng":-111.78479391366305},{"vid":"2726793","name":"Ms. Sarah Williamson MD","party":"","address":"294 E 780 N, American Fork, UT 84003","precinct":"25AF04","hd":"55","v_score":"1.193887297","decile":"4","lat":40.39221285544125,"lng":-111.79117953575793},{"vid":"2736476","name":"Giselle Deckow-Wilderman","party":"Dem","address":"949 N 400 E, American Fork, UT 84003","precinct":"25AF04","hd":"55","v_score":"0","decile":"2","lat":40.395874944345614,"lng":-111.78776320467858},{"vid":"2737729","name":"Dr. Kyson Christiansen IV","party":"","address":"852 N 520 E, American Fork, UT 84003","precinct":"25AF04","hd":"55","v_score":"0","decile":"2","lat":40.39402944844906,"lng":-111.78467939445434},{"vid":"2742016","name":"Marianne Medhurst-Marks","party":"Rep","address":"391 E 920 N, American Fork, UT 84003","precinct":"25AF04","hd":"55","v_score":"2.876042565","decile":"6","lat":40.39551783675988,"lng":-111.78778727650243},{"vid":"2743544","name":"Marnie Batz","party":"Rep","address":"732 N 610 E, American Fork, UT 84003","precinct":"25AF04","hd":"55","v_score":"0","decile":"2","lat":40.39236351855121,"lng":-111.7817566895652},{"vid":"2746415","name":"Jana Price-Beatty","party":"Dem","address":"715 N 610 E, American Fork, UT 84003","precinct":"25AF04","hd":"55","v_score":"1.193887297","decile":"4","lat":40.39208782856838,"lng":-111.78229037813651},{"vid":"2749987","name":"Clare Kuhlman","party":"","address":"826 N 520 E, American Fork, UT 84003","precinct":"25AF04","hd":"55","v_score":"0","decile":"2","lat":40.39378391040938,"lng":-111.7847163182668},{"vid":"2766050","name":"Mohammad Batz","party":"","address":"1352 N 100 E, American Fork, UT 84003","precinct":"25AF04","hd":"55","v_score":"8.284004873","decile":"8","lat":40.40308284813349,"lng":-111.79197370190799},{"vid":"2772397","name":"Lorinda Stark DDS","party":"Rep","address":"1126 N 100 E, American Fork, UT 84003","precinct":"25AF04","hd":"55","v_score":"0","decile":"2","lat":40.399347661699586,"lng":-111.79447965494853},{"vid":"2780038","name":"Rexford Collier","party":"Dem","address":"665 E 700 N, American Fork, UT 84003","precinct":"25AF04","hd":"55","v_score":"1.193887297","decile":"4","lat":40.392091288339294,"lng":-111.78082950691943},{"vid":"2780550","name":"Ean Leffler","party":"","address":"522 E 900 N, American Fork, UT 84003","precinct":"25AF04","hd":"55","v_score":"0","decile":"2","lat":40.39461003112279,"lng":-111.78473298958815},{"vid":"2785335","name":"Bradley O'Connell","party":"Rep","address":"692 E 750 N, American Fork, UT 84003","precinct":"25AF04","hd":"55","v_score":"0","decile":"2","lat":40.39290328020515,"lng":-111.78021903208013},{"vid":"2786001","name":"Dr. Billy Pollich","party":"","address":"294 E 780 N, American Fork, UT 84003","precinct":"25AF04","hd":"55","v_score":"1.193887297","decile":"4","lat":40.39221285544125,"lng":-111.79117953575793},{"vid":"2787989","name":"Luka Stark","party":"","address":"844 N 750 E, American Fork, UT 84003","precinct":"25AF04","hd":"55","v_score":"0","decile":"2","lat":40.39422510359893,"lng":-111.77850456752539},{"vid":"2791882","name":"Sheri Bogisich MD","party":"Dem","address":"695 N 200 E, American Fork, UT 84003","precinct":"25AF04","hd":"55","v_score":"1.193887297","decile":"4","lat":40.39084801492352,"lng":-111.79339801516323},{"vid":"2798670","name":"Ima Towne-Heller","party":"Dem","address":"796 N 610 E, American Fork, UT 84003","precinct":"25AF04","hd":"55","v_score":"1.193887297","decile":"4","lat":40.39346123226736,"lng":-111.78176117503307},{"vid":"2798682","name":"Isaiah Rolfson","party":"Dem","address":"942 N 240 E, American Fork, UT 84003","precinct":"25AF04","hd":"55","v_score":"1.193887297","decile":"4","lat":40.39571953149432,"lng":-111.79175987887254},{"vid":"2815609","name":"Roxy Mayer","party":"Dem","address":"789 N 500 E, American Fork, UT 84003","precinct":"25AF04","hd":"55","v_score":"1.193887297","decile":"4","lat":40.39284840310986,"lng":-111.78617540390186},{"vid":"2825925","name":"Mr. Emett Goodwin MD","party":"","address":"1124 N 160 E, American Fork, UT 84003","precinct":"25AF04","hd":"55","v_score":"22.89070912","decile":"10","lat":40.399508751998866,"lng":-111.79277249399676},{"vid":"2828872","name":"Ottie Schulist","party":"","address":"527 E 700 N, American Fork, UT 84003","precinct":"25AF04","hd":"55","v_score":"5.258122542","decile":"7","lat":40.392093102105385,"lng":-111.78520961013878},{"vid":"2843759","name":"Zed Gislason III","party":"","address":"221 E 900 N, American Fork, UT 84003","precinct":"25AF04","hd":"55","v_score":"0","decile":"2","lat":40.395043741007996,"lng":-111.79284790737131},{"vid":"2845310","name":"Kenton Treutel","party":"","address":"925 N 240 E, American Fork, UT 84003","precinct":"25AF04","hd":"55","v_score":"0","decile":"2","lat":40.39539502844593,"lng":-111.79236026609604},{"vid":"2848454","name":"Lemuel Spencer","party":"Rep","address":"528 E 750 N, American Fork, UT 84003","precinct":"25AF04","hd":"55","v_score":"0","decile":"2","lat":40.392381657656934,"lng":-111.78472651895626},{"vid":"2851040","name":"Weston Kihn","party":"Dem","address":"799 N 200 E, American Fork, UT 84003","precinct":"25AF04","hd":"55","v_score":"0","decile":"2","lat":40.39292313538434,"lng":-111.79361802741889},{"vid":"2857053","name":"Bryan Cummings DVM","party":"Rep","address":"528 E 750 N, American Fork, UT 84003","precinct":"25AF04","hd":"55","v_score":"7.090117576","decile":"8","lat":40.392381657656934,"lng":-111.78472651895626},{"vid":"2857645","name":"Trent Reilly","party":"","address":"527 E 700 N, American Fork, UT 84003","precinct":"25AF04","hd":"55","v_score":"1.193887297","decile":"4","lat":40.392093102105385,"lng":-111.78520961013878},{"vid":"2871005","name":"Irvin Schamberger","party":"Dem","address":"648 N 150 E, American Fork, UT 84003","precinct":"25AF04","hd":"55","v_score":"1.193887297","decile":"4","lat":40.3898226147275,"lng":-111.79407482508424},{"vid":"2877648","name":"Sharleen Kautzer","party":"","address":"527 E 700 N, American Fork, UT 84003","precinct":"25AF04","hd":"55","v_score":"2.315214949","decile":"5","lat":40.392093102105385,"lng":-111.78520961013878},{"vid":"2880564","name":"Dakotah Mitchell","party":"Dem","address":"844 N 540 E, American Fork, UT 84003","precinct":"25AF04","hd":"55","v_score":"1.193887297","decile":"4","lat":40.39388980446593,"lng":-111.78357081638069},{"vid":"2894298","name":"Merle Cremin","party":"Dem","address":"695 N 200 E, American Fork, UT 84003","precinct":"25AF04","hd":"55","v_score":"0","decile":"2","lat":40.39084801492352,"lng":-111.79339801516323},{"vid":"2897399","name":"Dane Von-Bauch","party":"Rep","address":"734 N Riverwalk Dr, American Fork, UT 84003","precinct":"25AF04","hd":"55","v_score":"7.090117576","decile":"8","lat":40.39200229346193,"lng":-111.78646850342874},{"vid":"2899199","name":"Gerardo Grant","party":"Dem","address":"527 E 700 N, American Fork, UT 84003","precinct":"25AF04","hd":"55","v_score":"0","decile":"2","lat":40.392093102105385,"lng":-111.78520961013878},{"vid":"2904133","name":"Zeb Schroeder-O'Reilly","party":"","address":"715 N 610 E, American Fork, UT 84003","precinct":"25AF04","hd":"55","v_score":"0","decile":"2","lat":40.39208782856838,"lng":-111.78229037813651},{"vid":"2909116","name":"Cornel Mraz III","party":"Dem","address":"886 N 200 E, American Fork, UT 84003","precinct":"25AF04","hd":"55","v_score":"0","decile":"2","lat":40.394386122981686,"lng":-111.79254829516312},{"vid":"2923091","name":"Drema Boyle-Marvin","party":"Rep","address":"513 E 800 N, American Fork, UT 84003","precinct":"25AF04","hd":"55","v_score":"0","decile":"2","lat":40.39352688135807,"lng":-111.78564507145816},{"vid":"2923720","name":"Mr. Alpheus Hirthe DDS","party":"Dem","address":"715 E 700 N, American Fork, UT 84003","precinct":"25AF04","hd":"55","v_score":"2.876042565","decile":"6","lat":40.39235870138288,"lng":-111.77992770994491},{"vid":"2924527","name":"Kip Schmeler","party":"Rep","address":"732 N 610 E, American Fork, UT 84003","precinct":"25AF04","hd":"55","v_score":"0","decile":"2","lat":40.39236351855121,"lng":-111.7817566895652},{"vid":"2928032","name":"Luciano Grimes","party":"","address":"826 N 520 E, American Fork, UT 84003","precinct":"25AF04","hd":"55","v_score":"0","decile":"2","lat":40.39378391040938,"lng":-111.7847163182668},{"vid":"2930456","name":"Capitola Barton DDS","party":"","address":"748 N 350 E, American Fork, UT 84003","precinct":"25AF04","hd":"55","v_score":"0","decile":"2","lat":40.39184528742876,"lng":-111.7894531604518},{"vid":"2941647","name":"Hilda Green","party":"Rep","address":"661 E 875 N, American Fork, UT 84003","precinct":"25AF04","hd":"55","v_score":"0","decile":"2","lat":40.39528841370187,"lng":-111.7803985836403},{"vid":"2955147","name":"Laverne Ebert","party":"Dem","address":"409 E 980 N, American Fork, UT 84003","precinct":"25AF04","hd":"55","v_score":"0","decile":"2","lat":40.397061407867504,"lng":-111.78674206657371},{"vid":"2955937","name":"Kaydence Champlin","party":"","address":"782 N 310 E, American Fork, UT 84003","precinct":"25AF04","hd":"55","v_score":"0","decile":"2","lat":40.392360096933025,"lng":-111.7905755778613},{"vid":"2967469","name":"Eura Turner-White","party":"Dem","address":"305 E 800 N, American Fork, UT 84003","precinct":"25AF04","hd":"55","v_score":"0","decile":"2","lat":40.393148675296096,"lng":-111.79050458660325},{"vid":"2967619","name":"Cecilia Lindgren DDS","party":"Rep","address":"841 N 350 E, American Fork, UT 84003","precinct":"25AF04","hd":"55","v_score":"0","decile":"2","lat":40.39391799122442,"lng":-111.79018458744108},{"vid":"2969721","name":"Kieran Hills PhD","party":"","address":"838 N 400 E, American Fork, UT 84003","precinct":"25AF04","hd":"55","v_score":"2.876042565","decile":"6","lat":40.3936356665418,"lng":-111.78741134784215},{"vid":"2971069","name":"Clemon Hamill","party":"","address":"1331 N 200 E, American Fork, UT 84003","precinct":"25AF04","hd":"55","v_score":"0","decile":"2","lat":40.40260304054201,"lng":-111.79170765980504},{"vid":"2976310","name":"Gilford Stracke","party":"Dem","address":"665 E 700 N, American Fork, UT 84003","precinct":"25AF04","hd":"55","v_score":"0","decile":"2","lat":40.392091288339294,"lng":-111.78082950691943},{"vid":"2984709","name":"Eve Pouros","party":"Rep","address":"975 N 240 E, American Fork, UT 84003","precinct":"25AF04","hd":"55","v_score":"0","decile":"2","lat":40.39622889669989,"lng":-111.7922043801089},{"vid":"3029915","name":"Dr. Micheal Davis V","party":"Dem","address":"296 E 980 N, American Fork, UT 84003","precinct":"25AF04","hd":"55","v_score":"5.874951892","decile":"7","lat":40.39621846151379,"lng":-111.79094755565738},{"vid":"3114145","name":"Ms. Jayla Murazik","party":"Dem","address":"978 N 200 E, American Fork, UT 84003","precinct":"25AF04","hd":"55","v_score":"16.41341546","decile":"9","lat":40.39617184841877,"lng":-111.7928069383717},{"vid":"3127483","name":"Branson Ledner Jr.","party":"Dem","address":"896 N 540 E, American Fork, UT 84003","precinct":"25AF04","hd":"55","v_score":"3.93832808","decile":"6","lat":40.39461815546739,"lng":-111.78339431737118},{"vid":"3147246","name":"Gabriella Smith","party":"Rep","address":"895 N 900 E, American Fork, UT 84003","precinct":"25AF04","hd":"55","v_score":"5.287675778","decile":"7","lat":40.396893100464624,"lng":-111.78517459048523},{"vid":"b7c95d71fc58f8b0b21790acfb0b49cd91bd1d2a5eb2b442967229f959b52710","name":"Avis Funk","party":"Rep","address":"844 N 540 E, American Fork, UT 84003","precinct":"25AF04","hd":"55","v_score":"5.258122542","decile":"7","lat":40.39388980446593,"lng":-111.78357081638069},{"vid":"3249685","name":"Qiana Goldner","party":"Rep","address":"844 N 540 E, American Fork, UT 84003","precinct":"25AF04","hd":"55","v_score":"6.724398202","decile":"8","lat":40.39388980446593,"lng":-111.78357081638069},{"vid":"7caa685adc89bddad022f1b5ec52753721a5a16cde6fdd024f2110b461f39b11","name":"Dr. Davian Macejkovic","party":"Rep","address":"1309 N 200 E, American Fork, UT 84003","precinct":"25AF04","hd":"55","v_score":"3.781490609","decile":"6","lat":40.401867679698846,"lng":-111.79201654791102},{"vid":"3271740","name":"Rod Botsford-Bailey","party":"Dem","address":"884 N 540 E, American Fork, UT 84003","precinct":"25AF04","hd":"55","v_score":"32.56038695","decile":"10","lat":40.39438693591597,"lng":-111.78344955106374},{"vid":"3287117","name":"Margarite Veum","party":"","address":"522 E 750 N, American Fork, UT 84003","precinct":"25AF04","hd":"55","v_score":"14.18213378","decile":"9","lat":40.39233607084419,"lng":-111.7851386678195},{"vid":"3355318","name":"Keanu Schuppe","party":"Dem","address":"844 N 540 E, American Fork, UT 84003","precinct":"25AF04","hd":"55","v_score":"1.193887297","decile":"4","lat":40.39388980446593,"lng":-111.78357081638069},{"vid":"3475977","name":"Ms. Anie Hand","party":"","address":"787 N 610 E, American Fork, UT 84003","precinct":"25AF04","hd":"55","v_score":"12.72912257","decile":"9","lat":40.39345997025115,"lng":-111.78229596978983},{"vid":"3513061","name":"Jade Metz MD","party":"Rep","address":"780 N 390 E, American Fork, UT 84003","precinct":"25AF04","hd":"55","v_score":"2.315214949","decile":"5","lat":40.392264822297655,"lng":-111.7877650635318},{"vid":"3540202","name":"Ms. Natosha Nicolas PhD","party":"Rep","address":"1147 N 160 E, American Fork, UT 84003","precinct":"25AF04","hd":"55","v_score":"13.32779236","decile":"9","lat":40.39969410136778,"lng":-111.79363332815363},{"vid":"4200184","name":"Mr. Ephriam Hilpert V","party":"Rep","address":"778 N 730 E, American Fork, UT 84003","precinct":"25AF04","hd":"55","v_score":"3.781490609","decile":"6","lat":40.39322274107593,"lng":-111.77902954880628},{"vid":"4504612","name":"Mrs. Nila DuBuque MD","party":"Rep","address":"892 N 340 E, American Fork, UT 84003","precinct":"25AF04","hd":"55","v_score":"1.46627566","decile":"4","lat":40.39521063627195,"lng":-111.78955713236108},{"vid":"5214350","name":"Dr. Ximena Olson DVM","party":"Dem","address":"692 E 750 N, American Fork, UT 84003","precinct":"25AF04","hd":"55","v_score":"5.40460374","decile":"7","lat":40.39290328020515,"lng":-111.78021903208013},{"vid":"5226964","name":"Alverta Waelchi","party":"","address":"692 E 750 N, American Fork, UT 84003","precinct":"25AF04","hd":"55","v_score":"9.913499214","decile":"9","lat":40.39290328020515,"lng":-111.78021903208013},{"vid":"5860073","name":"Keifer Tremblay-Bernier","party":"Dem","address":"1352 N 100 E, American Fork, UT 84003","precinct":"25AF04","hd":"55","v_score":"2.315214949","decile":"5","lat":40.40308284813349,"lng":-111.79197370190799},{"vid":"2fcbf5b998601797c69989c08d548dad4634a6a6f018a25666a907c5541ca49c","name":"Mrs. Vivien Schuster PhD","party":"","address":"1230 N 100 E, American Fork, UT 84003","precinct":"25AF04","hd":"55","v_score":"3.93832808","decile":"6","lat":40.401187414568525,"lng":-111.79314847685205},{"vid":"5904354","name":"Rupert Thiel","party":"Rep","address":"1230 N 100 E, American Fork, UT 84003","precinct":"25AF04","hd":"55","v_score":"3.93832808","decile":"6","lat":40.401187414568525,"lng":-111.79314847685205},{"vid":"6070051","name":"Altha Harber","party":"Dem","address":"852 N 520 E, American Fork, UT 84003","precinct":"25AF04","hd":"55","v_score":"21.84903737","decile":"10","lat":40.39402944844906,"lng":-111.78467939445434},{"vid":"fc0c972153f08d9a03ac0eab85c207340976c40163f17235d5d7d594c20377b1","name":"Kandice White-Hills","party":"","address":"710 N 200 E, American Fork, UT 84003","precinct":"25AF04","hd":"55","v_score":"0","decile":"3","lat":40.391447566191836,"lng":-111.79280860752883},{"vid":"6148151","name":"Mr. Babe Morar","party":"Rep","address":"366 E 870 N, American Fork, UT 84003","precinct":"25AF04","hd":"55","v_score":"1.46627566","decile":"4","lat":40.394771816442905,"lng":-111.7883564500425},{"vid":"6183100","name":"Corrina Towne","party":"Dem","address":"732 N 610 E, American Fork, UT 84003","precinct":"25AF04","hd":"55","v_score":"12.70146297","decile":"9","lat":40.39236351855121,"lng":-111.7817566895652},{"vid":"6203126","name":"Dusty Swaniawski","party":"Rep","address":"731 N 350 E, American Fork, UT 84003","precinct":"25AF04","hd":"55","v_score":"25.28454428","decile":"10","lat":40.39153025838259,"lng":-111.79003962055447},{"vid":"6203127","name":"Laron Effertz","party":"","address":"731 N 350 E, American Fork, UT 84003","precinct":"25AF04","hd":"55","v_score":"30.01715195","decile":"10","lat":40.39153025838259,"lng":-111.79003962055447},{"vid":"6203424","name":"Ms. Evette Zboncak DVM","party":"","address":"711 N 390 E, American Fork, UT 84003","precinct":"25AF04","hd":"55","v_score":"11.38334565","decile":"9","lat":40.39114705292197,"lng":-111.78826193656504},{"vid":"6206730","name":"Sophronia Bogan","party":"Rep","address":"402 E 920 N, American Fork, UT 84003","precinct":"25AF04","hd":"55","v_score":"22.76724262","decile":"10","lat":40.39520001707615,"lng":-111.78746086127519},{"vid":"6207461","name":"Dr. Tom Witting MD","party":"Rep","address":"764 N 610 E, American Fork, UT 84003","precinct":"25AF04","hd":"55","v_score":"14.25581744","decile":"9","lat":40.39291237600403,"lng":-111.7817589504451},{"vid":"6211973","name":"Dr. Marylin Pollich DVM","party":"Dem","address":"840 N 610 E, American Fork, UT 84003","precinct":"25AF04","hd":"55","v_score":"28.34631194","decile":"10","lat":40.39426717618399,"lng":-111.78171711985492},{"vid":"6213254","name":"Tori Renner","party":"Rep","address":"665 E 700 N, American Fork, UT 84003","precinct":"25AF04","hd":"55","v_score":"24.04343341","decile":"10","lat":40.392091288339294,"lng":-111.78082950691943},{"vid":"6214376","name":"Dr. Sammy Anderson II","party":"","address":"735 N 200 E, American Fork, UT 84003","precinct":"25AF04","hd":"55","v_score":"32.56038695","decile":"10","lat":40.39172137349958,"lng":-111.79344850918629},{"vid":"6219060","name":"Concetta Osinski PhD","party":"Rep","address":"329 E 700 N, American Fork, UT 84003","precinct":"25AF04","hd":"55","v_score":"2.315214949","decile":"5","lat":40.3912807742635,"lng":-111.78994165801508},{"vid":"6219761","name":"Ogden McDermott","party":"Dem","address":"513 E 800 N, American Fork, UT 84003","precinct":"25AF04","hd":"55","v_score":"12.61703202","decile":"9","lat":40.39352688135807,"lng":-111.78564507145816},{"vid":"6221417","name":"Ashlyn Torphy","party":"","address":"351 E 800 N, American Fork, UT 84003","precinct":"25AF04","hd":"55","v_score":"1.121327652","decile":"3","lat":40.3931818451411,"lng":-111.78951720745692},{"vid":"6226347","name":"Dr. Aileen Kunde","party":"Rep","address":"789 N 500 E, American Fork, UT 84003","precinct":"25AF04","hd":"55","v_score":"10.2407653","decile":"9","lat":40.39284840310986,"lng":-111.78617540390186},{"vid":"6229690","name":"Dr. Kassie Terry DVM","party":"","address":"1374 N 100 E, American Fork, UT 84003","precinct":"25AF04","hd":"55","v_score":"3.93832808","decile":"6","lat":40.40444229073627,"lng":-111.79109048163158},{"vid":"6235935","name":"Mrs. Golden Harris PhD","party":"Rep","address":"817 N 540 E, American Fork, UT 84003","precinct":"25AF04","hd":"55","v_score":"5.40460374","decile":"7","lat":40.39346661703282,"lng":-111.78427489419697},{"vid":"6238264","name":"Junior Reichel","party":"","address":"781 N 650 E, American Fork, UT 84003","precinct":"25AF04","hd":"55","v_score":"30.20822132","decile":"10","lat":40.393383658772386,"lng":-111.78130592814597},{"vid":"08905af4eac4fcb4b7e987ad9efe2434a94ecd2a9798872b338e56742ba0736b","name":"Emelie Bradtke","party":"","address":"749 N 650 E, American Fork, UT 84003","precinct":"25AF04","hd":"55","v_score":"8.347511332","decile":"8","lat":40.392638767480015,"lng":-111.78141684755074},{"vid":"6238594","name":"Kristy Bednar","party":"Dem","address":"349 E 925 N, American Fork, UT 84003","precinct":"25AF04","hd":"55","v_score":"3.781490609","decile":"6","lat":40.39600370753383,"lng":-111.78964092799292},{"vid":"6243587","name":"Mrs. Caryn Fisher DDS","party":"","address":"727 N 390 E, American Fork, UT 84003","precinct":"25AF04","hd":"55","v_score":"3.089388791","decile":"6","lat":40.39146539805489,"lng":-111.78835190262959},{"vid":"6243590","name":"Hamp Bartoletti","party":"Dem","address":"727 N 390 E, American Fork, UT 84003","precinct":"25AF04","hd":"55","v_score":"3.089388791","decile":"6","lat":40.39146539805489,"lng":-111.78835190262959},{"vid":"6250302","name":"Gladstone Ryan","party":"","address":"618 E 875 N, American Fork, UT 84003","precinct":"25AF04","hd":"55","v_score":"16.4922578","decile":"9","lat":40.394776948379004,"lng":-111.78176413967132},{"vid":"6256927","name":"Euna McKenzie-Emmerich","party":"","address":"1100 N 100 E, American Fork, UT 84003","precinct":"25AF04","hd":"55","v_score":"29.4576876","decile":"10","lat":40.39885938102829,"lng":-111.7947539295785},{"vid":"6256932","name":"Mrs. Wende Durgan","party":"","address":"1100 N 100 E, American Fork, UT 84003","precinct":"25AF04","hd":"55","v_score":"29.4576876","decile":"10","lat":40.39885938102829,"lng":-111.7947539295785},{"vid":"6266958","name":"Dr. Lum Bednar PhD","party":"Dem","address":"516 E 900 N, American Fork, UT 84003","precinct":"25AF04","hd":"55","v_score":"1.623113131","decile":"5","lat":40.39463753655008,"lng":-111.78507825104226},{"vid":"6268168","name":"Christen Ratke","party":"Dem","address":"920 N 100 E, American Fork, UT 84003","precinct":"25AF04","hd":"55","v_score":"18.3488229","decile":"10","lat":40.3958169813302,"lng":-111.79553789220155},{"vid":"6270861","name":"Okey Raynor-DuBuque","party":"","address":"864 N 360 E, American Fork, UT 84003","precinct":"25AF04","hd":"55","v_score":"21.75831688","decile":"10","lat":40.39440581234773,"lng":-111.78882537164142},{"vid":"6273417","name":"Lizette Leffler","party":"Rep","address":"734 N 350 E, American Fork, UT 84003","precinct":"25AF04","hd":"55","v_score":"3.781490609","decile":"6","lat":40.39163159866244,"lng":-111.7889021130156},{"vid":"6273890","name":"Jajuan West","party":"Dem","address":"817 N 540 E, American Fork, UT 84003","precinct":"25AF04","hd":"55","v_score":"5.335065618","decile":"7","lat":40.39346661703282,"lng":-111.78427489419697},{"vid":"6275135","name":"Walter Lehner","party":"Rep","address":"828 N 350 E, American Fork, UT 84003","precinct":"25AF04","hd":"55","v_score":"23.45391251","decile":"10","lat":40.393456258366264,"lng":-111.78951420528725},{"vid":"6279726","name":"Elise Buckridge","party":"Rep","address":"794 N 390 E, American Fork, UT 84003","precinct":"25AF04","hd":"55","v_score":"28.18652018","decile":"10","lat":40.392734632370406,"lng":-111.7877536348952},{"vid":"6281662","name":"Leigh Upton","party":"Rep","address":"627 E 875 N, American Fork, UT 84003","precinct":"25AF04","hd":"55","v_score":"16.97287982","decile":"9","lat":40.39524346233624,"lng":-111.78140245755799},{"vid":"6284111","name":"Ermine Schneider","party":"Rep","address":"354 E 925 N, American Fork, UT 84003","precinct":"25AF04","hd":"55","v_score":"37.38087621","decile":"10","lat":40.39556284011888,"lng":-111.78942057498254},{"vid":"6285148","name":"Miss Alberta Harris PhD","party":"","address":"826 N 520 E, American Fork, UT 84003","precinct":"25AF04","hd":"55","v_score":"8.421194992","decile":"8","lat":40.39378391040938,"lng":-111.7847163182668},{"vid":"6289630","name":"Louvenia Moen PhD","party":"Dem","address":"783 E 700 N, American Fork, UT 84003","precinct":"25AF04","hd":"55","v_score":"18.74706992","decile":"10","lat":40.39223768394103,"lng":-111.77819092675789},{"vid":"6291017","name":"Dr. Derald Paucek II","party":"","address":"844 N 750 E, American Fork, UT 84003","precinct":"25AF04","hd":"55","v_score":"1.121327652","decile":"3","lat":40.39422510359893,"lng":-111.77850456752539},{"vid":"6295860","name":"Dr. Cullen Willms","party":"Rep","address":"767 E 750 N, American Fork, UT 84003","precinct":"25AF04","hd":"55","v_score":"14.31864359","decile":"9","lat":40.39302100048458,"lng":-111.77835188545119},{"vid":"6297627","name":"Liliana Hirthe-Swaniawski","party":"Dem","address":"918 N 200 E, American Fork, UT 84003","precinct":"25AF04","hd":"55","v_score":"15.87386623","decile":"9","lat":40.395342050581085,"lng":-111.7926938028355},{"vid":"6299304","name":"Carlee Jaskolski","party":"","address":"896 N 540 E, American Fork, UT 84003","precinct":"25AF04","hd":"55","v_score":"3.93832808","decile":"6","lat":40.39461815546739,"lng":-111.78339431737118},{"vid":"0841442545bb6aaaf12c46ff685fe7249e9c78dadab12aceefda17c2897c2ef6","name":"Hayes Halvorson","party":"","address":"754 N 500 E, American Fork, UT 84003","precinct":"25AF04","hd":"55","v_score":"5.693042993","decile":"7","lat":40.39284317864117,"lng":-111.78565639805606},{"vid":"47cba658258b3e26b551f03e5acbb9163f42222770fe5b2bb349cb30c2107e38","name":"Webb Smitham","party":"Dem","address":"850 N 350 E, American Fork, UT 84003","precinct":"25AF04","hd":"55","v_score":"29.74327159","decile":"10","lat":40.39403289151489,"lng":-111.7895247241993},{"vid":"6305718","name":"Dedric Grimes","party":"","address":"844 N 750 E, American Fork, UT 84003","precinct":"25AF04","hd":"55","v_score":"1.121327652","decile":"3","lat":40.39422510359893,"lng":-111.77850456752539},{"vid":"6308600","name":"Charity Gottlieb DVM","party":"","address":"895 N 900 E, American Fork, UT 84003","precinct":"25AF04","hd":"55","v_score":"0","decile":"3","lat":40.396893100464624,"lng":-111.78517459048523},{"vid":"6311795","name":"Alvaro Hand","party":"Dem","address":"221 E 900 N, American Fork, UT 84003","precinct":"25AF04","hd":"55","v_score":"11.29723756","decile":"9","lat":40.395043741007996,"lng":-111.79284790737131},{"vid":"8e98b31b7ff18c37ea1d36c3e7e6009bb17240d362ebefc89233f5663470f6ac","name":"Antoine Raynor V","party":"","address":"322 E 800 N, American Fork, UT 84003","precinct":"25AF04","hd":"55","v_score":"30.29075864","decile":"10","lat":40.3926973439026,"lng":-111.79061554565335},{"vid":"6328500","name":"Elizah Leuschke","party":"","address":"735 N 200 E, American Fork, UT 84003","precinct":"25AF04","hd":"55","v_score":"32.56038695","decile":"10","lat":40.39172137349958,"lng":-111.79344850918629},{"vid":"6345766","name":"Alpha Bayer","party":"","address":"284 E 800 N, American Fork, UT 84003","precinct":"25AF04","hd":"55","v_score":"35.50329454","decile":"10","lat":40.39303517424406,"lng":-111.79136666869809},{"vid":"65cd1102e303b233f9aaba0b1bf0167e3148884e7e4927feca3e6eb975ebad39","name":"Allyson Mann-Barton","party":"Rep","address":"1192 N 160 E, American Fork, UT 84003","precinct":"25AF04","hd":"55","v_score":"15.83182192","decile":"9","lat":40.40034438371483,"lng":-111.79247904331919},{"vid":"6351022","name":"Aisha Greenholt","party":"Dem","address":"838 N 400 E, American Fork, UT 84003","precinct":"25AF04","hd":"55","v_score":"1.193887297","decile":"4","lat":40.3936356665418,"lng":-111.78741134784215},{"vid":"6352208","name":"Freeda Ledner","party":"Rep","address":"895 N 900 E, American Fork, UT 84003","precinct":"25AF04","hd":"55","v_score":"4.833280139","decile":"7","lat":40.396893100464624,"lng":-111.78517459048523},{"vid":"6355980","name":"Ozzie Lehner","party":"Dem","address":"734 N 350 E, American Fork, UT 84003","precinct":"25AF04","hd":"55","v_score":"3.781490609","decile":"6","lat":40.39163159866244,"lng":-111.7889021130156},{"vid":"6359912","name":"Mrs. Jalynn Lind DVM","party":"Dem","address":"661 E 875 N, American Fork, UT 84003","precinct":"25AF04","hd":"55","v_score":"6.814370645","decile":"8","lat":40.39528841370187,"lng":-111.7803985836403},{"vid":"6369704","name":"Tamera Carter","party":"","address":"817 N 200 E, American Fork, UT 84003","precinct":"25AF04","hd":"55","v_score":"2.315214949","decile":"5","lat":40.39358705063414,"lng":-111.79348928850806},{"vid":"6369721","name":"Art Wiza","party":"Dem","address":"825 N 730 E, American Fork, UT 84003","precinct":"25AF04","hd":"55","v_score":"3.93832808","decile":"6","lat":40.39386586139064,"lng":-111.77949369109392},{"vid":"6369969","name":"Mr. Thurston Bahringer","party":"Dem","address":"801 N 500 E, American Fork, UT 84003","precinct":"25AF04","hd":"55","v_score":"2.315214949","decile":"5","lat":40.393055419760806,"lng":-111.78631525977256},{"vid":"6372927","name":"Mr. Lora Schuster DVM","party":"Rep","address":"1374 N 100 E, American Fork, UT 84003","precinct":"25AF04","hd":"55","v_score":"3.93832808","decile":"6","lat":40.40444229073627,"lng":-111.79109048163158},{"vid":"6375551","name":"Camila Schoen","party":"Dem","address":"745 E 750 N, American Fork, UT 84003","precinct":"25AF04","hd":"55","v_score":"3.93832808","decile":"6","lat":40.39328248307499,"lng":-111.77844717120975},{"vid":"6378017","name":"Mia McDermott","party":"","address":"221 E 900 N, American Fork, UT 84003","precinct":"25AF04","hd":"55","v_score":"8.280646305","decile":"8","lat":40.395043741007996,"lng":-111.79284790737131},{"vid":"6380423","name":"Aspen Cremin","party":"","address":"764 N 610 E, American Fork, UT 84003","precinct":"25AF04","hd":"55","v_score":"14.25581744","decile":"9","lat":40.39291237600403,"lng":-111.7817589504451},{"vid":"6387645","name":"Dr. Wendel Greenholt","party":"Dem","address":"402 E 920 N, American Fork, UT 84003","precinct":"25AF04","hd":"55","v_score":"19.82433503","decile":"10","lat":40.39520001707615,"lng":-111.78746086127519},{"vid":"ad22247ebcbb7a8f8d6e101a3acc6242c7733b1b8d5d804f3bb7568c62ae8d66","name":"Linda Robel","party":"Dem","address":"516 E 900 N, American Fork, UT 84003","precinct":"25AF04","hd":"55","v_score":"1.623113131","decile":"5","lat":40.39463753655008,"lng":-111.78507825104226},{"vid":"6389204","name":"Maricela Johnston","party":"","address":"522 E 900 N, American Fork, UT 84003","precinct":"25AF04","hd":"55","v_score":"21.84619848","decile":"10","lat":40.39461003112279,"lng":-111.78473298958815},{"vid":"6391840","name":"Nevada Breitenberg","party":"Dem","address":"742 E 750 N, American Fork, UT 84003","precinct":"25AF04","hd":"55","v_score":"1.193887297","decile":"4","lat":40.39275964993302,"lng":-111.77854496489236},{"vid":"6398653","name":"Mr. Lula Fritsch","party":"","address":"1346 N 100 E, American Fork, UT 84003","precinct":"25AF04","hd":"55","v_score":"19.39191047","decile":"10","lat":40.40269756530467,"lng":-111.79210970470317},{"vid":"6399135","name":"Zandra Prosacco PhD","party":"Rep","address":"828 N 100 E, American Fork, UT 84003","precinct":"25AF04","hd":"55","v_score":"3.93832808","decile":"6","lat":40.39332236915705,"lng":-111.795468158681},{"vid":"6400871","name":"Vesta Lynch","party":"","address":"267 E 800 N, American Fork, UT 84003","precinct":"25AF04","hd":"55","v_score":"15.80416232","decile":"9","lat":40.39341431351882,"lng":-111.79174861651416},{"vid":"8793d2f722942cd3cc0ac31c37fd05c1ee488c77d28d945cbd7148135f8c813e","name":"Maci Morar","party":"Dem","address":"661 E 875 N, American Fork, UT 84003","precinct":"25AF04","hd":"55","v_score":"6.814370645","decile":"8","lat":40.39528841370187,"lng":-111.7803985836403},{"vid":"6405634","name":"Alba Stiedemann","party":"","address":"1352 N 100 E, American Fork, UT 84003","precinct":"25AF04","hd":"55","v_score":"1.193887297","decile":"4","lat":40.40308284813349,"lng":-111.79197370190799},{"vid":"6406844","name":"Alexande Will","party":"","address":"796 N 610 E, American Fork, UT 84003","precinct":"25AF04","hd":"55","v_score":"8.421194992","decile":"8","lat":40.39346123226736,"lng":-111.78176117503307},{"vid":"6406857","name":"Heber Dickens-Sipes","party":"Dem","address":"796 N 610 E, American Fork, UT 84003","precinct":"25AF04","hd":"55","v_score":"8.421194992","decile":"8","lat":40.39346123226736,"lng":-111.78176117503307},{"vid":"6421340","name":"Lolla Grady DVM","party":"Rep","address":"957 N 400 E, American Fork, UT 84003","precinct":"25AF04","hd":"55","v_score":"16.80774378","decile":"9","lat":40.39615256941115,"lng":-111.78784000071919},{"vid":"6424474","name":"Gene O'Reilly","party":"Dem","address":"925 N 240 E, American Fork, UT 84003","precinct":"25AF04","hd":"55","v_score":"16.20846797","decile":"9","lat":40.39539502844593,"lng":-111.79236026609604},{"vid":"6427203","name":"Corrina Kirlin-Hoeger","party":"","address":"868 N 520 E, American Fork, UT 84003","precinct":"25AF04","hd":"55","v_score":"6.798081861","decile":"8","lat":40.394289987206534,"lng":-111.78461858033621},{"vid":"6427709","name":"Rolla Denesik","party":"","address":"742 N 100 E, American Fork, UT 84003","precinct":"25AF04","hd":"55","v_score":"3.93832808","decile":"6","lat":40.39192075948945,"lng":-111.79540129743374},{"vid":"bf6caed2cc68d428d1dc287987ed029a9c848831a8a00582807a997f7163c5a6","name":"Miss Leta Casper","party":"Dem","address":"722 N 350 E, American Fork, UT 84003","precinct":"25AF04","hd":"55","v_score":"9.35760564","decile":"8","lat":40.3914011599003,"lng":-111.7890773624473},{"vid":"6434170","name":"Helmer Leannon","party":"","address":"1126 N 100 E, American Fork, UT 84003","precinct":"25AF04","hd":"55","v_score":"2.315214949","decile":"5","lat":40.399347661699586,"lng":-111.79447965494853},{"vid":"6436840","name":"Martina Marks","party":"","address":"521 E 900 N, American Fork, UT 84003","precinct":"25AF04","hd":"55","v_score":"5.40460374","decile":"7","lat":40.395016377572546,"lng":-111.78479391366305},{"vid":"6436869","name":"Dr. Darcy Schimmel PhD","party":"","address":"728 E 875 N, American Fork, UT 84003","precinct":"25AF04","hd":"55","v_score":"19.02905697","decile":"10","lat":40.39479888958046,"lng":-111.7789425047218},{"vid":"6443381","name":"Maybelle Zulauf","party":"Dem","address":"1126 N 100 E, American Fork, UT 84003","precinct":"25AF04","hd":"55","v_score":"2.315214949","decile":"5","lat":40.399347661699586,"lng":-111.79447965494853},{"vid":"6452552","name":"Blake Satterfield DVM","party":"Dem","address":"937 N 240 E, American Fork, UT 84003","precinct":"25AF04","hd":"55","v_score":"1.193887297","decile":"4","lat":40.39560767289323,"lng":-111.79228366495512},{"vid":"6452775","name":"Woody Torphy","party":"Dem","address":"799 N 200 E, American Fork, UT 84003","precinct":"25AF04","hd":"55","v_score":"3.93832808","decile":"6","lat":40.39292313538434,"lng":-111.79361802741889},{"vid":"6453452","name":"Kamya Fadel PhD","party":"","address":"856 N 750 E, American Fork, UT 84003","precinct":"25AF04","hd":"55","v_score":"3.93832808","decile":"6","lat":40.39461811786504,"lng":-111.77843304838883},{"vid":"b62d0b69e94a0da13067be9701eaa3814477e2098b45a2abfef74a08827648e5","name":"Sumner Beier","party":"","address":"723 N 730 E, American Fork, UT 84003","precinct":"25AF04","hd":"55","v_score":"7.947838735","decile":"8","lat":40.39202964661075,"lng":-111.77946060998347},{"vid":"6455464","name":"Hadley Boyer PhD","party":"","address":"522 E 750 N, American Fork, UT 84003","precinct":"25AF04","hd":"55","v_score":"6.657533174","decile":"7","lat":40.39233607084419,"lng":-111.7851386678195},{"vid":"6462210","name":"Arletta Zulauf","party":"Dem","address":"828 N 350 E, American Fork, UT 84003","precinct":"25AF04","hd":"55","v_score":"17.55242504","decile":"9","lat":40.393456258366264,"lng":-111.78951420528725},{"vid":"6462598","name":"Skye Watsica","party":"Rep","address":"862 N 290 E, American Fork, UT 84003","precinct":"25AF04","hd":"55","v_score":"16.02813801","decile":"9","lat":40.39414539368322,"lng":-111.79076633267181},{"vid":"d5e12e7f7d3a4e67f0430d2ca480940ad766af4a2731d71c7f262a4336e0dca8","name":"Camila Pagac","party":"Dem","address":"745 E 750 N, American Fork, UT 84003","precinct":"25AF04","hd":"55","v_score":"3.93832808","decile":"6","lat":40.39328248307499,"lng":-111.77844717120975},{"vid":"6470121","name":"Reggie Borer","party":"Dem","address":"862 N 290 E, American Fork, UT 84003","precinct":"25AF04","hd":"55","v_score":"23.70365327","decile":"10","lat":40.39414539368322,"lng":-111.79076633267181},{"vid":"6474459","name":"Niko Koch","party":"Rep","address":"522 E 900 N, American Fork, UT 84003","precinct":"25AF04","hd":"55","v_score":"21.84619848","decile":"10","lat":40.39461003112279,"lng":-111.78473298958815},{"vid":"6479697","name":"Faith Dare","party":"Dem","address":"718 N 350 E, American Fork, UT 84003","precinct":"25AF04","hd":"55","v_score":"8.363183621","decile":"8","lat":40.391137831528795,"lng":-111.7894265520199},{"vid":"6481922","name":"Clydie Schinner","party":"Dem","address":"868 N 400 E, American Fork, UT 84003","precinct":"25AF04","hd":"55","v_score":"5.40460374","decile":"7","lat":40.39435861866632,"lng":-111.78751989923757},{"vid":"6486977","name":"Gregg Powlowski","party":"Rep","address":"284 E 900 N, American Fork, UT 84003","precinct":"25AF04","hd":"55","v_score":"1.46627566","decile":"4","lat":40.39477762103156,"lng":-111.79123269352172},{"vid":"6489050","name":"Clair Ernser","party":"Rep","address":"886 N 200 E, American Fork, UT 84003","precinct":"25AF04","hd":"55","v_score":"2.315214949","decile":"5","lat":40.394386122981686,"lng":-111.79254829516312},{"vid":"6490759","name":"Shanelle Bernhard","party":"Dem","address":"742 E 750 N, American Fork, UT 84003","precinct":"25AF04","hd":"55","v_score":"1.193887297","decile":"4","lat":40.39275964993302,"lng":-111.77854496489236},{"vid":"6494118","name":"Miss Evangelina Quigley","party":"Dem","address":"862 N 100 E, American Fork, UT 84003","precinct":"25AF04","hd":"55","v_score":"2.744440783","decile":"6","lat":40.39435925430862,"lng":-111.79550175854725},{"vid":"f037391bbd1352415fb9c2bb4a0b148e62c8895ee8c179da09ccc753e0671cca","name":"Claire Treutel","party":"","address":"877 N 340 E, American Fork, UT 84003","precinct":"25AF04","hd":"55","v_score":"0","decile":"3","lat":40.39481407583751,"lng":-111.79032185331721},{"vid":"6495438","name":"Jaden Dickens","party":"Rep","address":"920 N 100 E, American Fork, UT 84003","precinct":"25AF04","hd":"55","v_score":"21.36541415","decile":"10","lat":40.3958169813302,"lng":-111.79553789220155},{"vid":"6496445","name":"Mr. Josef Ferry Sr.","party":"Rep","address":"267 E 800 N, American Fork, UT 84003","precinct":"25AF04","hd":"55","v_score":"8.280646305","decile":"8","lat":40.39341431351882,"lng":-111.79174861651416},{"vid":"6497582","name":"Leander Koch","party":"Dem","address":"1115 N 200 E, American Fork, UT 84003","precinct":"25AF04","hd":"55","v_score":"8.421194992","decile":"8","lat":40.39886459109656,"lng":-111.7931803210509},{"vid":"6497583","name":"Hermine Bergstrom","party":"","address":"1115 N 200 E, American Fork, UT 84003","precinct":"25AF04","hd":"55","v_score":"5.40460374","decile":"7","lat":40.39886459109656,"lng":-111.7931803210509},{"vid":"6497667","name":"Zilpha Senger","party":"","address":"816 N 520 E, American Fork, UT 84003","precinct":"25AF04","hd":"55","v_score":"2.587603312","decile":"5","lat":40.39345706674301,"lng":-111.78484437553392},{"vid":"6498142","name":"Ms. Carleigh O'Reilly MD","party":"Dem","address":"957 N 400 E, American Fork, UT 84003","precinct":"25AF04","hd":"55","v_score":"15.18463064","decile":"9","lat":40.39615256941115,"lng":-111.78784000071919},{"vid":"6498495","name":"Dr. Semaj Anderson","party":"","address":"868 N 520 E, American Fork, UT 84003","precinct":"25AF04","hd":"55","v_score":"6.798081861","decile":"8","lat":40.394289987206534,"lng":-111.78461858033621},{"vid":"2dc7d6e9eeaae6e415bd3f5abbcf2333965306d561cadb208265f0e39dff2890","name":"Mr. Jett Stamm DVM","party":"","address":"1152 N 160 E, American Fork, UT 84003","precinct":"25AF04","hd":"55","v_score":"2.315214949","decile":"5","lat":40.399713157646296,"lng":-111.79280340053411},{"vid":"6502404","name":"Antoine Kuphal III","party":"","address":"783 N Riverwalk Dr, American Fork, UT 84003","precinct":"25AF04","hd":"55","v_score":"2.817000428","decile":"6","lat":40.39276891441839,"lng":-111.78689288794838},{"vid":"6502975","name":"Erwin Beahan","party":"Dem","address":"840 N 100 E, American Fork, UT 84003","precinct":"25AF04","hd":"55","v_score":"8.347511332","decile":"8","lat":40.39371939483671,"lng":-111.7954472133822},{"vid":"6505257","name":"Sally Emmerich","party":"","address":"840 N 610 E, American Fork, UT 84003","precinct":"25AF04","hd":"55","v_score":"22.51168949","decile":"10","lat":40.39426717618399,"lng":-111.78171711985492},{"vid":"6506737","name":"Jered Boyer-Mohr","party":"Rep","address":"760 N 100 E, American Fork, UT 84003","precinct":"25AF04","hd":"55","v_score":"39.70667252","decile":"10","lat":40.39231811880587,"lng":-111.79545617692182},{"vid":"6509178","name":"Ms. Kaylin Considine MD","party":"","address":"925 N 370 E, American Fork, UT 84003","precinct":"25AF04","hd":"55","v_score":"10.22509301","decile":"9","lat":40.395459287727824,"lng":-111.78888504520485},{"vid":"6515257","name":"Gusta Swaniawski","party":"","address":"1346 N 100 E, American Fork, UT 84003","precinct":"25AF04","hd":"55","v_score":"24.50082261","decile":"10","lat":40.40269756530467,"lng":-111.79210970470317},{"vid":"6520790","name":"Latifah Mayer","party":"Dem","address":"1124 N 160 E, American Fork, UT 84003","precinct":"25AF04","hd":"55","v_score":"22.89070912","decile":"10","lat":40.399508751998866,"lng":-111.79277249399676},{"vid":"6520826","name":"Lorenzo Franecki","party":"Dem","address":"804 N 150 E, American Fork, UT 84003","precinct":"25AF04","hd":"55","v_score":"0","decile":"3","lat":40.393010281573694,"lng":-111.79395224247625},{"vid":"6522532","name":"Elsworth Gleichner","party":"Dem","address":"936 N 100 E, American Fork, UT 84003","precinct":"25AF04","hd":"55","v_score":"2.315214949","decile":"5","lat":40.39608834866954,"lng":-111.79563400082782},{"vid":"6523389","name":"Asbury Marks","party":"","address":"759 N 610 E, American Fork, UT 84003","precinct":"25AF04","hd":"55","v_score":"22.48959706","decile":"10","lat":40.392911113156515,"lng":-111.78229373981195},{"vid":"6529062","name":"Teri Shields","party":"Rep","address":"965 N 370 E, American Fork, UT 84003","precinct":"25AF04","hd":"55","v_score":"3.93832808","decile":"6","lat":40.39622440741925,"lng":-111.7888031389732}]