[{"vid":"99dcdb5850338acdadaa8a902481f902a65d08180ffe7bd0fa2b84cc0c41109d","name":"Ted Becker","party":"Rep","address":"445 N 570 W, American Fork, UT 84003","precinct":"25AF12","hd":"53","v_score":"5.258122542","decile":"7","lat":40.38607097450327,"lng":-111.81375373010694},{"vid":"1223767","name":"Joaquin Denesik","party":"Rep","address":"576 W 500 N, American Fork, UT 84003","precinct":"25AF12","hd":"53","v_score":"2.958579882","decile":"6","lat":40.387233516879405,"lng":-111.81363184275779},{"vid":"1243747","name":"Pollie Kling","party":"Dem","address":"499 N 700 W, American Fork, UT 84003","precinct":"25AF12","hd":"53","v_score":"18.30428832","decile":"10","lat":40.38740759444812,"lng":-111.81763531217},{"vid":"1248212","name":"Jalynn Von DDS","party":"","address":"517 W 650 N, American Fork, UT 84003","precinct":"25AF12","hd":"53","v_score":"22.78715523","decile":"10","lat":40.389417274613024,"lng":-111.81197526580016},{"vid":"1281067","name":"Dr. Harvey Okuneva","party":"Rep","address":"542 W 500 N, American Fork, UT 84003","precinct":"25AF12","hd":"53","v_score":"8.363183621","decile":"8","lat":40.38724670839673,"lng":-111.81270476913684},{"vid":"36d3229a5b95e58e723d8ccd1f76b2753996fa57a510478e3ddae3a2f1a0abd8","name":"Lu Bogan","party":"Rep","address":"555 N 490 West Cir, American Fork, UT 84003","precinct":"25AF12","hd":"53","v_score":"3.781490609","decile":"6","lat":40.387857321703216,"lng":-111.81133414640212},{"vid":"1316303","name":"Mr. Horace Durgan","party":"","address":"873 W 700 N, American Fork, UT 84003","precinct":"25AF12","hd":"53","v_score":"1.121327652","decile":"3","lat":40.39030738986099,"lng":-111.82073417210559},{"vid":"1316476","name":"Seneca Swaniawski","party":"Rep","address":"356 N 480 W, American Fork, UT 84003","precinct":"25AF12","hd":"53","v_score":"12.37419689","decile":"9","lat":40.38423462895701,"lng":-111.81073402333679},{"vid":"1317566","name":"Bryce Leuschke","party":"Dem","address":"493 N 400 W, American Fork, UT 84003","precinct":"25AF12","hd":"53","v_score":"20.81875705","decile":"10","lat":40.38696462754332,"lng":-111.80918561449938},{"vid":"1318480","name":"Mrs. Carol Kub MD","party":"Rep","address":"342 N 560 W, American Fork, UT 84003","precinct":"25AF12","hd":"53","v_score":"1.623113131","decile":"4","lat":40.3841731690323,"lng":-111.81278632422688},{"vid":"1333928","name":"Jamey Langosh","party":"Dem","address":"531 W 400 N, American Fork, UT 84003","precinct":"25AF12","hd":"53","v_score":"22.16796682","decile":"10","lat":40.38504731562215,"lng":-111.81215531144716},{"vid":"1337059","name":"Bryn Leannon-Robel","party":"","address":"344 N 450 W, American Fork, UT 84003","precinct":"25AF12","hd":"53","v_score":"0","decile":"1","lat":40.38411166620038,"lng":-111.80971372078967},{"vid":"1339882","name":"Kandace Dickinson MD","party":"","address":"451 N 600 W, American Fork, UT 84003","precinct":"25AF12","hd":"53","v_score":"21.14412949","decile":"10","lat":40.38593480293376,"lng":-111.8148436106463},{"vid":"1343682","name":"Shiloh Graham","party":"Rep","address":"416 N 680 W, American Fork, UT 84003","precinct":"25AF12","hd":"53","v_score":"8.15240309","decile":"8","lat":40.38559847069357,"lng":-111.81649143463233},{"vid":"1349081","name":"Luvenia Mitchell","party":"Rep","address":"481 N 400 W, American Fork, UT 84003","precinct":"25AF12","hd":"53","v_score":"16.2066738","decile":"9","lat":40.38668909275044,"lng":-111.80929376028081},{"vid":"e5267404bef0606f2fb245025624b8c81f150b61e5a3afcf10e2aa0abd100699","name":"Dr. Wilma Monahan","party":"Dem","address":"689 W 410 N, American Fork, UT 84003","precinct":"25AF12","hd":"53","v_score":"16.39239889","decile":"9","lat":40.38559635848675,"lng":-111.81710353139985},{"vid":"1360865","name":"Jaiden Erdman","party":"","address":"667 N 350 W, American Fork, UT 84003","precinct":"25AF12","hd":"53","v_score":"0","decile":"1","lat":40.39011873003439,"lng":-111.80829787924316},{"vid":"1377332","name":"Reanna Becker-Wolf","party":"","address":"438 N 520 W, American Fork, UT 84003","precinct":"25AF12","hd":"53","v_score":"0","decile":"1","lat":40.386009510156214,"lng":-111.81169189297165},{"vid":"1385200","name":"Colby Carter","party":"Dem","address":"538 N 680 W, American Fork, UT 84003","precinct":"25AF12","hd":"53","v_score":"2.315214949","decile":"5","lat":40.38795836414725,"lng":-111.81622666829628},{"vid":"1415025","name":"Brandon Pfannerstill","party":"","address":"736 W 410 N, American Fork, UT 84003","precinct":"25AF12","hd":"53","v_score":"5.40460374","decile":"7","lat":40.38642575031567,"lng":-111.81829718418047},{"vid":"62e7c648640a6f20a8a4d1e2e8052a17bc2d7dda303e3b6e40de9f3fe293e341","name":"Howell Jerde","party":"","address":"574 N 680 W, American Fork, UT 84003","precinct":"25AF12","hd":"53","v_score":"24.11582679","decile":"10","lat":40.3884413842893,"lng":-111.81623536333518},{"vid":"1419276","name":"Kandace Marks","party":"","address":"593 W 480 N, American Fork, UT 84003","precinct":"25AF12","hd":"53","v_score":"10.06441387","decile":"9","lat":40.38642889875059,"lng":-111.81403638339414},{"vid":"1422234","name":"Obie Johns","party":"Dem","address":"669 N 540 W, American Fork, UT 84003","precinct":"25AF12","hd":"53","v_score":"21.08356325","decile":"10","lat":40.389779384674426,"lng":-111.81268294798507},{"vid":"1423490","name":"Nannette Lowe","party":"Dem","address":"571 N 650 W, American Fork, UT 84003","precinct":"25AF12","hd":"53","v_score":"2.315214949","decile":"5","lat":40.38842702348348,"lng":-111.81571401792014},{"vid":"1424918","name":"Dr. Memphis Jast Sr.","party":"Dem","address":"489 N 520 W, American Fork, UT 84003","precinct":"25AF12","hd":"53","v_score":"11.37977487","decile":"9","lat":40.38695093189734,"lng":-111.81214190205124},{"vid":"b04a44541b2a85cc1e49bf071e859f43984a422941454cf2ca9c10da01ab8ffb","name":"Mrs. Tiny Schaefer MD","party":"","address":"456 N 600 W, American Fork, UT 84003","precinct":"25AF12","hd":"53","v_score":"4.137918904","decile":"7","lat":40.386233270457474,"lng":-111.81413328196888},{"vid":"1425343","name":"Jacqulyn Deckow","party":"Rep","address":"776 W 450 N, American Fork, UT 84003","precinct":"25AF12","hd":"53","v_score":"8.421194992","decile":"8","lat":40.38721932487321,"lng":-111.81871727275184},{"vid":"1426851","name":"Ardis Cummerata","party":"Rep","address":"432 N 560 W, American Fork, UT 84003","precinct":"25AF12","hd":"53","v_score":"3.781490609","decile":"6","lat":40.38585449357621,"lng":-111.81261021185068},{"vid":"1436238","name":"Audrianna Beier","party":"Dem","address":"776 W 450 N, American Fork, UT 84003","precinct":"25AF12","hd":"53","v_score":"5.40460374","decile":"7","lat":40.38721932487321,"lng":-111.81871727275184},{"vid":"4568b6882e2dbe1316ca38ac854dbdf877566b4383b4e5589a13d1e912e923bc","name":"Lazaro Tillman","party":"","address":"488 N 520 W, American Fork, UT 84003","precinct":"25AF12","hd":"53","v_score":"5.273794831","decile":"7","lat":40.3869631082736,"lng":-111.81174480704378},{"vid":"1474881","name":"Dr. Dora Rau Jr.","party":"","address":"424 N 580 W, American Fork, UT 84003","precinct":"25AF12","hd":"53","v_score":"2.315214949","decile":"5","lat":40.38552026590272,"lng":-111.81393781449194},{"vid":"1482078","name":"Doreen Hahn","party":"","address":"752 W 450 N, American Fork, UT 84003","precinct":"25AF12","hd":"53","v_score":"20.4472089","decile":"10","lat":40.38698250532058,"lng":-111.81827664126912},{"vid":"1495060","name":"Teagan Flatley","party":"","address":"369 N 580 W, American Fork, UT 84003","precinct":"25AF12","hd":"53","v_score":"5.40460374","decile":"7","lat":40.38493296649899,"lng":-111.81497256679974},{"vid":"5404cde11181de62af94fe85b9c6ae0a3600976cc768f02d1a0e555ae0c7d295","name":"Wally Corkery-Stehr","party":"Dem","address":"361 N 480 W, American Fork, UT 84003","precinct":"25AF12","hd":"53","v_score":"5.61909958","decile":"7","lat":40.38435317814609,"lng":-111.8112917274689},{"vid":"1496173","name":"Mr. Simeon Parker Jr.","party":"Rep","address":"583 N 780 W, American Fork, UT 84003","precinct":"25AF12","hd":"53","v_score":"1.121327652","decile":"3","lat":40.38903267487487,"lng":-111.81917398630557},{"vid":"0a2dd06b4e71397eeb5742c374c96b66ecd1e2e69caf995919a829d78eee9266","name":"Herminia Osinski","party":"Rep","address":"412 N 520 W, American Fork, UT 84003","precinct":"25AF12","hd":"53","v_score":"6.814370645","decile":"8","lat":40.38559539190153,"lng":-111.81169952523796},{"vid":"1513198","name":"Britt Hahn DDS","party":"","address":"493 N 400 W, American Fork, UT 84003","precinct":"25AF12","hd":"53","v_score":"2.744440783","decile":"5","lat":40.38696462754332,"lng":-111.80918561449938},{"vid":"1517751","name":"Gerard Nienow","party":"Dem","address":"583 N 780 W, American Fork, UT 84003","precinct":"25AF12","hd":"53","v_score":"0","decile":"1","lat":40.38903267487487,"lng":-111.81917398630557},{"vid":"78e4e4e9aa8d05a850258ea03b42adcc2b672af8c112795afcf4a10b7ab8b06a","name":"Mr. Hurley Champlin DVM","party":"Dem","address":"561 N 560 W, American Fork, UT 84003","precinct":"25AF12","hd":"53","v_score":"15.00919004","decile":"9","lat":40.38805493529512,"lng":-111.81318146042132},{"vid":"1551613","name":"Maudie Lynch","party":"Rep","address":"574 N 680 W, American Fork, UT 84003","precinct":"25AF12","hd":"53","v_score":"21.5725918","decile":"10","lat":40.3884413842893,"lng":-111.81623536333518},{"vid":"e64b7eb1d08a2ea407a6abffa3855317e93bbdb4860f9e97d664528db7177dc4","name":"Jep Bogan II","party":"Dem","address":"515 N 560 W, American Fork, UT 84003","precinct":"25AF12","hd":"53","v_score":"1.121327652","decile":"3","lat":40.38723466170787,"lng":-111.81308037755021},{"vid":"9c853b93851e930afb1f90b20d8be1c4a547e5301b20f8b32a15e90041848599","name":"Shianne Gutkowski","party":"","address":"387 N 580 W, American Fork, UT 84003","precinct":"25AF12","hd":"53","v_score":"31.97157599","decile":"10","lat":40.385192554005705,"lng":-111.81477817085892},{"vid":"f4de9deabb2530a09ad547a67c446723997f5f9c414fdaf89fd43f4e38843fa6","name":"Kael Casper","party":"Dem","address":"387 N 580 W, American Fork, UT 84003","precinct":"25AF12","hd":"53","v_score":"31.97157599","decile":"10","lat":40.385192554005705,"lng":-111.81477817085892},{"vid":"1554546","name":"Jill Gorczany DVM","party":"","address":"424 N 480 W, American Fork, UT 84003","precinct":"25AF12","hd":"53","v_score":"8.347511332","decile":"8","lat":40.385650523096984,"lng":-111.8107079418305},{"vid":"1568332","name":"Wyatt Lynch","party":"Rep","address":"363 N 580 W, American Fork, UT 84003","precinct":"25AF12","hd":"53","v_score":"9.498154327","decile":"8","lat":40.38485844059296,"lng":-111.81504206690805},{"vid":"1577389","name":"Dr. Mackenzie Heidenreich PhD","party":"Rep","address":"432 N 560 W, American Fork, UT 84003","precinct":"25AF12","hd":"53","v_score":"3.781490609","decile":"6","lat":40.38585449357621,"lng":-111.81261021185068},{"vid":"1578902","name":"Attie Wuckert","party":"Dem","address":"544 N 780 W, American Fork, UT 84003","precinct":"25AF12","hd":"53","v_score":"14.76181657","decile":"9","lat":40.388603261172065,"lng":-111.81863985091226},{"vid":"1602034","name":"Barnie Harvey V","party":"Rep","address":"579 W 440 N, American Fork, UT 84003","precinct":"25AF12","hd":"53","v_score":"11.99259879","decile":"9","lat":40.385721625522116,"lng":-111.813445416264},{"vid":"1606105","name":"Ethyl Breitenberg","party":"","address":"476 N 520 W, American Fork, UT 84003","precinct":"25AF12","hd":"53","v_score":"5.40460374","decile":"7","lat":40.38669036930812,"lng":-111.8116311299377},{"vid":"e9738e82665affe94078079bec7a9ba6bdb996120b9fe96f33ccf0f98fcb9ca1","name":"Hosteen Frami-Watsica","party":"Rep","address":"403 N 450 W, American Fork, UT 84003","precinct":"25AF12","hd":"53","v_score":"5.258122542","decile":"7","lat":40.38531064508698,"lng":-111.81024742398468},{"vid":"1619980","name":"Christi Howell DVM","party":"","address":"495 W 400 N, American Fork, UT 84003","precinct":"25AF12","hd":"53","v_score":"3.93832808","decile":"6","lat":40.38503282240987,"lng":-111.81120915768975},{"vid":"1629110","name":"Zachery Weissnat-McKenzie","party":"","address":"538 N 680 W, American Fork, UT 84003","precinct":"25AF12","hd":"53","v_score":"2.315214949","decile":"5","lat":40.38795836414725,"lng":-111.81622666829628},{"vid":"1629808","name":"Peyton Mraz","party":"Rep","address":"571 N 650 W, American Fork, UT 84003","precinct":"25AF12","hd":"53","v_score":"5.40460374","decile":"7","lat":40.38842702348348,"lng":-111.81571401792014},{"vid":"26e56fc067b73b456bbdf2877ab3664e9b7fabcc3b54585f69babd445e9fc93d","name":"Orin Nitzsche","party":"Rep","address":"395 Clifton Ave, American Fork, UT 84003","precinct":"25AF12","hd":"53","v_score":"0","decile":"1","lat":40.38790043783411,"lng":-111.80915121226366},{"vid":"7d37e719f49b5995088b3346a9e8ef63b700e85da84c388bf42633cc86b410f7","name":"Archer Kassulke-Pollich","party":"Rep","address":"561 N 560 W, American Fork, UT 84003","precinct":"25AF12","hd":"53","v_score":"10.36948566","decile":"9","lat":40.38805493529512,"lng":-111.81318146042132},{"vid":"1656571","name":"Tristan Sipes DDS","party":"","address":"496 N 680 W, American Fork, UT 84003","precinct":"25AF12","hd":"53","v_score":"3.93832808","decile":"6","lat":40.38739697272422,"lng":-111.81631966161143},{"vid":"1659177","name":"Mrs. Maiya Kulas DDS","party":"Dem","address":"345 N 450 W, American Fork, UT 84003","precinct":"25AF12","hd":"53","v_score":"0","decile":"1","lat":40.38413874959527,"lng":-111.81033819382225},{"vid":"1662268","name":"Mr. Brandy Lind Jr.","party":"Rep","address":"667 N 350 W, # B, American Fork, UT 84003","precinct":"25AF12","hd":"53","v_score":"2.315214949","decile":"5","lat":40.39011873003439,"lng":-111.80829787924316},{"vid":"1669583","name":"Iva Cormier","party":"Rep","address":"594 W 580 N, American Fork, UT 84003","precinct":"25AF12","hd":"53","v_score":"8.280646305","decile":"8","lat":40.38835107122488,"lng":-111.81431570813042},{"vid":"1685428","name":"Miss Staci Strosin","party":"Rep","address":"530 N 420 W, American Fork, UT 84003","precinct":"25AF12","hd":"53","v_score":"0","decile":"1","lat":40.38753749154321,"lng":-111.80965362942605},{"vid":"1686965","name":"Abigayle Jerde","party":"","address":"672 N 650 W, American Fork, UT 84003","precinct":"25AF12","hd":"53","v_score":"5.40460374","decile":"7","lat":40.309502993568444,"lng":-111.71117241224644},{"vid":"3812ac7ba33b06d6d049f3d5b687ee92d70b15f4f5848ca30231628eb6ddfc30","name":"Darlyne Anderson","party":"Dem","address":"432 N 580 W, American Fork, UT 84003","precinct":"25AF12","hd":"53","v_score":"5.815909755","decile":"7","lat":40.38560361368635,"lng":-111.8138753912045},{"vid":"1708210","name":"Greggory Rosenbaum MD","party":"Rep","address":"579 W 440 N, American Fork, UT 84003","precinct":"25AF12","hd":"53","v_score":"11.99259879","decile":"9","lat":40.385721625522116,"lng":-111.813445416264},{"vid":"1733888","name":"Mattye Kilback","party":"","address":"561 N 420 W, American Fork, UT 84003","precinct":"25AF12","hd":"53","v_score":"1.121327652","decile":"3","lat":40.38809674430988,"lng":-111.8101745741374},{"vid":"1736533","name":"Gennaro McGlynn","party":"","address":"536 W 650 N, American Fork, UT 84003","precinct":"25AF12","hd":"53","v_score":"0","decile":"1","lat":40.389767209633845,"lng":-111.81220879906019},{"vid":"1738160","name":"Bradley Crona","party":"Rep","address":"604 W 460 N, American Fork, UT 84003","precinct":"25AF12","hd":"53","v_score":"2.315214949","decile":"5","lat":40.38659301535164,"lng":-111.81460273623631},{"vid":"1739218","name":"Santiago Heaney II","party":"","address":"819 W 700 N, American Fork, UT 84003","precinct":"25AF12","hd":"53","v_score":"12.13674394","decile":"9","lat":40.39023340751199,"lng":-111.81944607256037},{"vid":"1744423","name":"Hale Steuber","party":"Rep","address":"335 N 400 W, American Fork, UT 84003","precinct":"25AF12","hd":"53","v_score":"45.76919357","decile":"10","lat":40.38408152838052,"lng":-111.80929602646077},{"vid":"1750400","name":"Sheldon McGlynn","party":"Dem","address":"433 N 700 W, American Fork, UT 84003","precinct":"25AF12","hd":"53","v_score":"4.465184987","decile":"7","lat":40.386220841925876,"lng":-111.81777262401745},{"vid":"1770818","name":"Gee Oberbrunner-Casper","party":"","address":"420 N 560 W, American Fork, UT 84003","precinct":"25AF12","hd":"53","v_score":"10.33000704","decile":"9","lat":40.385637287449406,"lng":-111.81261533973375},{"vid":"1778610","name":"Noelia Hessel","party":"Rep","address":"349 N 480 W, American Fork, UT 84003","precinct":"25AF12","hd":"53","v_score":"1.193887297","decile":"3","lat":40.38401891126921,"lng":-111.81126235610691},{"vid":"1782470","name":"Boss Klocko","party":"","address":"446 N 600 W, American Fork, UT 84003","precinct":"25AF12","hd":"53","v_score":"3.781490609","decile":"6","lat":40.38604117023914,"lng":-111.81413239982327},{"vid":"1784678","name":"Glenn Veum","party":"","address":"587 N 590 W, American Fork, UT 84003","precinct":"25AF12","hd":"53","v_score":"4.732607667","decile":"7","lat":40.38861274451939,"lng":-111.81383880637074},{"vid":"1785510","name":"Mr. Jethro Kshlerin","party":"","address":"577 W 480 N, American Fork, UT 84003","precinct":"25AF12","hd":"53","v_score":"1.46627566","decile":"4","lat":40.38642976527136,"lng":-111.81371338640822},{"vid":"1795126","name":"Mrs. Lillis Goldner","party":"Rep","address":"383 N 580 W, American Fork, UT 84003","precinct":"25AF12","hd":"53","v_score":"13.81451578","decile":"9","lat":40.38516281955715,"lng":-111.81483493016583},{"vid":"1798092","name":"Mr. Jaiden Hagenes MD","party":"Rep","address":"335 N 400 W, American Fork, UT 84003","precinct":"25AF12","hd":"53","v_score":"8.363183621","decile":"8","lat":40.38408152838052,"lng":-111.80929602646077},{"vid":"1821569","name":"Yaritza Daniel","party":"","address":"488 N 680 W, American Fork, UT 84003","precinct":"25AF12","hd":"53","v_score":"26.42542406","decile":"10","lat":40.387127766012014,"lng":-111.81629370471502},{"vid":"1823838","name":"Treena Kuhlman","party":"Dem","address":"449 N 480 W, American Fork, UT 84003","precinct":"25AF12","hd":"53","v_score":"20.20421028","decile":"10","lat":40.38620478096712,"lng":-111.8113293717302},{"vid":"1832561","name":"Macarthur Hoppe III","party":"","address":"396 N 480 W, American Fork, UT 84003","precinct":"25AF12","hd":"53","v_score":"7.169296324","decile":"8","lat":40.38502672626084,"lng":-111.81083779057423},{"vid":"1835990","name":"Ernestine Jacobson","party":"Dem","address":"489 N 520 W, American Fork, UT 84003","precinct":"25AF12","hd":"53","v_score":"18.03463495","decile":"10","lat":40.38695093189734,"lng":-111.81214190205124},{"vid":"202c0653bae6fe5771add14a00ecd5860ab83b443b3969b58b2affabebac7706","name":"Cornelius Gerlach","party":"","address":"553 W 600 N, American Fork, UT 84003","precinct":"25AF12","hd":"53","v_score":"0","decile":"1","lat":40.38852311616179,"lng":-111.81266509202449},{"vid":"d34e566ddfee67ea0cee33902c10016b2475a6e7f970b940609d5bbe1b4e074b","name":"Tamela Beer","party":"Rep","address":"772 W 600 N, American Fork, UT 84003","precinct":"25AF12","hd":"53","v_score":"12.07513611","decile":"9","lat":40.38954948411083,"lng":-111.818649679709},{"vid":"1873827","name":"Worley Upton","party":"Rep","address":"372 N 480 W, American Fork, UT 84003","precinct":"25AF12","hd":"53","v_score":"4.905839784","decile":"7","lat":40.38448159797628,"lng":-111.81072947462752},{"vid":"1876005","name":"Walton Goodwin","party":"Dem","address":"473 W Hindley Dr, American Fork, UT 84003","precinct":"25AF12","hd":"53","v_score":"3.781490609","decile":"6","lat":40.38360308236986,"lng":-111.81081731809944},{"vid":"6cd36d51655c81b71a3a1fe60c5fb4132ab4d07c8443ca2264395ecaffc1f72e","name":"Ashely Rohan-Leuschke","party":"","address":"437 N 680 W, American Fork, UT 84003","precinct":"25AF12","hd":"53","v_score":"3.781490609","decile":"6","lat":40.38619037662941,"lng":-111.8169686362369},{"vid":"1877574","name":"Jalen Volkman","party":"","address":"383 W 600 N, American Fork, UT 84003","precinct":"25AF12","hd":"53","v_score":"8.347511332","decile":"8","lat":40.388698425763984,"lng":-111.80891788225888},{"vid":"312f6b721d189c233b1d3e84cc034a90b660d90399a6d0e87b44c41acc634b5c","name":"Harding Wolff","party":"Dem","address":"542 W 600 N, American Fork, UT 84003","precinct":"25AF12","hd":"53","v_score":"11.18900094","decile":"9","lat":40.388904808082486,"lng":-111.8122710914529},{"vid":"1879622","name":"Clifton Effertz","party":"","address":"577 W 630 N, American Fork, UT 84003","precinct":"25AF12","hd":"53","v_score":"20.3985915","decile":"10","lat":40.388996726317735,"lng":-111.81356828495397},{"vid":"3dea2c803c7907d0b55e2378ecad28c514ff92648d9b070392c8f02eab726aeb","name":"Lillian Leannon","party":"Rep","address":"598 N 680 W, American Fork, UT 84003","precinct":"25AF12","hd":"53","v_score":"10.52632313","decile":"9","lat":40.38897536489092,"lng":-111.81620356820538},{"vid":"1886599","name":"Ulysses Tromp-Brown","party":"Dem","address":"449 N 480 W, American Fork, UT 84003","precinct":"25AF12","hd":"53","v_score":"11.25286924","decile":"9","lat":40.38620478096712,"lng":-111.8113293717302},{"vid":"3793d12d8c47474a9f8cc2a1f5e750e780af24cb63fe55b8a7accf1a8971da80","name":"Stephen Langosh","party":"Rep","address":"733 W 500 N, American Fork, UT 84003","precinct":"25AF12","hd":"53","v_score":"22.85402026","decile":"10","lat":40.38737965934761,"lng":-111.81804835697335},{"vid":"1890535","name":"Tyquan Kunde-Quigley","party":"Rep","address":"641 N 420 W, American Fork, UT 84003","precinct":"25AF12","hd":"53","v_score":"0","decile":"1","lat":40.389620100180124,"lng":-111.81019440408798},{"vid":"1894277","name":"Ryan Feil","party":"Rep","address":"432 N 680 W, American Fork, UT 84003","precinct":"25AF12","hd":"53","v_score":"5.546183193","decile":"7","lat":40.38602977019699,"lng":-111.81638229692769},{"vid":"1900502","name":"Prince Kessler","party":"","address":"772 W 500 N, American Fork, UT 84003","precinct":"25AF12","hd":"53","v_score":"3.016591252","decile":"6","lat":40.38802519283365,"lng":-111.81886580185284},{"vid":"1901645","name":"Cornel Davis Sr.","party":"Dem","address":"497 N 680 W, American Fork, UT 84003","precinct":"25AF12","hd":"53","v_score":"22.70037759","decile":"10","lat":40.38738584122292,"lng":-111.81673064558254},{"vid":"b171230ad871cfd8131c5f22ecfac8861a4a057cc70ba98005c205da71561ec9","name":"Sincere Bernier","party":"","address":"335 N 400 W, American Fork, UT 84003","precinct":"25AF12","hd":"53","v_score":"40.78891255","decile":"10","lat":40.38408152838052,"lng":-111.80929602646077},{"vid":"1932382","name":"Tyra Cole","party":"","address":"437 N 480 W, American Fork, UT 84003","precinct":"25AF12","hd":"53","v_score":"11.29723756","decile":"9","lat":40.38594849927016,"lng":-111.81133410872634},{"vid":"1936931","name":"Jordan Abshire-Stokes","party":"Dem","address":"675 N 690 W, American Fork, UT 84003","precinct":"25AF12","hd":"53","v_score":"2.744440783","decile":"5","lat":40.389854478289564,"lng":-111.81732574433526},{"vid":"1943055","name":"Miss Stacey Berge MD","party":"Dem","address":"477 N 450 W, American Fork, UT 84003","precinct":"25AF12","hd":"53","v_score":"8.280646305","decile":"8","lat":40.386143851748166,"lng":-111.81082850199726},{"vid":"1943550","name":"Terrence Hermann","party":"","address":"417 W 600 N, American Fork, UT 84003","precinct":"25AF12","hd":"53","v_score":"1.46627566","decile":"4","lat":40.38877679546108,"lng":-111.80964928907494},{"vid":"1945337","name":"Skip Kunze","party":"Dem","address":"473 W Hindley Dr, American Fork, UT 84003","precinct":"25AF12","hd":"53","v_score":"3.089388791","decile":"6","lat":40.38360308236986,"lng":-111.81081731809944},{"vid":"1968707","name":"Jamal Klein","party":"Dem","address":"587 N 590 W, American Fork, UT 84003","precinct":"25AF12","hd":"53","v_score":"3.781490609","decile":"6","lat":40.38861274451939,"lng":-111.81383880637074},{"vid":"1969621","name":"Kyrie Jenkins","party":"Rep","address":"356 N 480 W, American Fork, UT 84003","precinct":"25AF12","hd":"53","v_score":"9.629756109","decile":"8","lat":40.38423462895701,"lng":-111.81073402333679},{"vid":"1973401","name":"Mr. Bertram Senger IV","party":"Rep","address":"488 N 680 W, American Fork, UT 84003","precinct":"25AF12","hd":"53","v_score":"3.664562647","decile":"6","lat":40.387127766012014,"lng":-111.81629370471502},{"vid":"8d0035a5cba436e442fd1e06844f6e527b9a972beacdae8d1072a08d8134230f","name":"Dennie Wiza MD","party":"","address":"731 W 700 N, American Fork, UT 84003","precinct":"25AF12","hd":"53","v_score":"2.587603312","decile":"5","lat":40.39015863199316,"lng":-111.81804364265145},{"vid":"cd7ecbc8c0443e1ee22a6ed37ca7fd6b135754abf03335d114cb8d58a2b18547","name":"Johnie Pouros","party":"Rep","address":"551 W 550 N, American Fork, UT 84003","precinct":"25AF12","hd":"53","v_score":"6.481563075","decile":"7","lat":40.38773907845713,"lng":-111.81262918189623},{"vid":"2026860","name":"Mrs. Kayla Runte DVM","party":"","address":"455 N 400 W, American Fork, UT 84003","precinct":"25AF12","hd":"53","v_score":"2.315214949","decile":"5","lat":40.38604931250612,"lng":-111.80929914388432},{"vid":"2028726","name":"Denny Cartwright","party":"Dem","address":"524 W 650 N, American Fork, UT 84003","precinct":"25AF12","hd":"53","v_score":"8.216702423","decile":"8","lat":40.38965720880448,"lng":-111.81193340831214},{"vid":"2036220","name":"Newt Crona","party":"","address":"420 N 560 W, American Fork, UT 84003","precinct":"25AF12","hd":"53","v_score":"10.33000704","decile":"9","lat":40.385637287449406,"lng":-111.81261533973375},{"vid":"2055549","name":"Elmire Baumbach","party":"","address":"751 W 600 N, American Fork, UT 84003","precinct":"25AF12","hd":"53","v_score":"1.193887297","decile":"3","lat":40.38902982535738,"lng":-111.81835561900579},{"vid":"e7ab2bafc8755f4ffa66c2644dd51f80324f5b4342dfca1dd317e9fccfa3a8b6","name":"Sloane Kassulke","party":"Rep","address":"313 N 400 W, American Fork, UT 84003","precinct":"25AF12","hd":"53","v_score":"5.40460374","decile":"7","lat":40.38345124673732,"lng":-111.80941077815346},{"vid":"2056490","name":"Donato Cruickshank Jr.","party":"Dem","address":"485 N 680 W, American Fork, UT 84003","precinct":"25AF12","hd":"53","v_score":"6.954919332","decile":"8","lat":40.38707128288681,"lng":-111.81687359471938},{"vid":"2056730","name":"Dustan Williamson","party":"Dem","address":"371 W 600 N, American Fork, UT 84003","precinct":"25AF12","hd":"53","v_score":"1.46627566","decile":"4","lat":40.38869912051727,"lng":-111.80865469384693},{"vid":"2068396","name":"Iona Berge MD","party":"Rep","address":"444 N 560 W, American Fork, UT 84003","precinct":"25AF12","hd":"53","v_score":"13.63188752","decile":"9","lat":40.38608584091293,"lng":-111.81264318855563},{"vid":"56d8abceb3443f776aa9a5c73b96f39cbf8916c95d5da49f193fb69a8dcd3a00","name":"Mr. Dusty Armstrong IV","party":"Dem","address":"654 N 420 W, American Fork, UT 84003","precinct":"25AF12","hd":"53","v_score":"3.93832808","decile":"6","lat":40.389772710728906,"lng":-111.80951213273137},{"vid":"2072351","name":"Reece Ebert","party":"Rep","address":"541 W 600 N, American Fork, UT 84003","precinct":"25AF12","hd":"53","v_score":"0","decile":"1","lat":40.38846563621879,"lng":-111.8122029021363},{"vid":"d05586a658c8769a948b67c2d28ae3f6d50837f3fb08ef6249e9e468ba22bfea","name":"Mr. Woodroe Gerlach Jr.","party":"","address":"553 W 600 N, American Fork, UT 84003","precinct":"25AF12","hd":"53","v_score":"0","decile":"1","lat":40.38852311616179,"lng":-111.81266509202449},{"vid":"7a372903e7f779346d0e047eb3cd4c52232ed079ca1a5f6df00605ffebe4bdc9","name":"Jabari Glover","party":"","address":"772 W 500 N, American Fork, UT 84003","precinct":"25AF12","hd":"53","v_score":"13.99344568","decile":"9","lat":40.38802519283365,"lng":-111.81886580185284},{"vid":"2083030","name":"Marilyn Olson","party":"","address":"554 W 600 N, American Fork, UT 84003","precinct":"25AF12","hd":"53","v_score":"11.21417074","decile":"9","lat":40.388826109708546,"lng":-111.81269328381629},{"vid":"2096587","name":"Ms. Alisha Kub DDS","party":"Rep","address":"494 N 560 W, American Fork, UT 84003","precinct":"25AF12","hd":"53","v_score":"1.46627566","decile":"4","lat":40.386969268456504,"lng":-111.8127024468984},{"vid":"2107583","name":"Dylan Medhurst-Breitenberg","party":"Dem","address":"425 W 600 N, American Fork, UT 84003","precinct":"25AF12","hd":"53","v_score":"1.121327652","decile":"3","lat":40.388757853027414,"lng":-111.8100842997716},{"vid":"2107666","name":"Ms. Alesia Marks MD","party":"","address":"494 N 560 W, American Fork, UT 84003","precinct":"25AF12","hd":"53","v_score":"1.46627566","decile":"4","lat":40.386969268456504,"lng":-111.8127024468984},{"vid":"2108690","name":"Chrystal Crist","party":"","address":"375 N 580 W, American Fork, UT 84003","precinct":"25AF12","hd":"53","v_score":"10.9941379","decile":"9","lat":40.38501759625815,"lng":-111.81492287334568},{"vid":"0116aedca70c487b5ded91047482c7c0f666aa550d0bc0b7ea191bcec944b635","name":"Leanne Heller","party":"Dem","address":"578 N 490 West Cir, American Fork, UT 84003","precinct":"25AF12","hd":"53","v_score":"1.121327652","decile":"3","lat":40.38811354262668,"lng":-111.81087661706889},{"vid":"2121313","name":"Francisquita Rolfson","party":"Rep","address":"375 N 580 W, American Fork, UT 84003","precinct":"25AF12","hd":"53","v_score":"14.38526013","decile":"9","lat":40.38501759625815,"lng":-111.81492287334568},{"vid":"2128813","name":"Le Beier","party":"Dem","address":"669 N 540 W, American Fork, UT 84003","precinct":"25AF12","hd":"53","v_score":"15.03795631","decile":"9","lat":40.389779384674426,"lng":-111.81268294798507},{"vid":"2132157","name":"Ursula Wuckert DVM","party":"Dem","address":"533 N 490 West Cir, American Fork, UT 84003","precinct":"25AF12","hd":"53","v_score":"3.781490609","decile":"6","lat":40.38760449742264,"lng":-111.81142199899543},{"vid":"2132374","name":"Antoine Olson","party":"Dem","address":"502 N 650 W, American Fork, UT 84003","precinct":"25AF12","hd":"53","v_score":"2.315214949","decile":"5","lat":40.387653722621835,"lng":-111.81534817157463},{"vid":"2134206","name":"Harlen Erdman PhD","party":"","address":"769 W 500 N, American Fork, UT 84003","precinct":"25AF12","hd":"53","v_score":"9.82542041","decile":"8","lat":40.387545721940334,"lng":-111.81878573461945},{"vid":"2136795","name":"Bobby Ruecker-Konopelski","party":"Dem","address":"511 N 490 West Cir, American Fork, UT 84003","precinct":"25AF12","hd":"53","v_score":"3.93832808","decile":"6","lat":40.38725015661341,"lng":-111.81135218607682},{"vid":"2152918","name":"Dr. Misael Dooley","party":"","address":"538 W 600 N, American Fork, UT 84003","precinct":"25AF12","hd":"53","v_score":"2.315214949","decile":"5","lat":40.38892263423283,"lng":-111.81194945245018},{"vid":"a82c9a46e8fb4007a1a413c41560413f51dcd7b596ccf08852d37914984ec213","name":"Ms. Corey Haley","party":"","address":"457 N 570 W, American Fork, UT 84003","precinct":"25AF12","hd":"53","v_score":"4.210716443","decile":"7","lat":40.38621430127033,"lng":-111.81378484243552},{"vid":"2161983","name":"Ulysses Nienow","party":"","address":"819 W 700 N, American Fork, UT 84003","precinct":"25AF12","hd":"53","v_score":"12.13674394","decile":"9","lat":40.39023340751199,"lng":-111.81944607256037},{"vid":"2166936","name":"Cletus Stracke","party":"Rep","address":"453 N 520 W, American Fork, UT 84003","precinct":"25AF12","hd":"53","v_score":"3.089388791","decile":"6","lat":40.38626318753641,"lng":-111.8122623260517},{"vid":"3555b50da74bc32ae8541a941d13f621871a85206064136ec465073fe209992e","name":"Juston Walter","party":"Dem","address":"481 N 400 W, American Fork, UT 84003","precinct":"25AF12","hd":"53","v_score":"1.193887297","decile":"3","lat":40.38668909275044,"lng":-111.80929376028081},{"vid":"2178249","name":"Dr. Marion Maggio V","party":"","address":"629 N 690 W, American Fork, UT 84003","precinct":"25AF12","hd":"53","v_score":"6.814370645","decile":"8","lat":40.38929329339244,"lng":-111.81746953091219},{"vid":"1a6502c62278a5428446dd8e1d4381f12a738a0c94aac587e2a96865f7ee7bc9","name":"Autry Prohaska-Nicolas","party":"Rep","address":"527 N 560 W, American Fork, UT 84003","precinct":"25AF12","hd":"53","v_score":"0","decile":"1","lat":40.38757867180024,"lng":-111.81315090521508},{"vid":"e407297798c58f395fc5dd997d8e833827e72967839ec59a8179abfff000b908","name":"Mr. Mervyn Sauer I","party":"","address":"381 N 400 W, American Fork, UT 84003","precinct":"25AF12","hd":"53","v_score":"0","decile":"1","lat":40.38443827477743,"lng":-111.80929408017089},{"vid":"1b8598a8b0eac654f9ea14d6bdca33049a182d978774497cf32d2542fccae16e","name":"Miss Ollie Bashirian","party":"Dem","address":"595 N 560 W, American Fork, UT 84003","precinct":"25AF12","hd":"53","v_score":"3.664562647","decile":"6","lat":40.3884976545443,"lng":-111.81317647611897},{"vid":"a1a8d81857622af8b3728bbbbdd30d4dd3805d4b4d86c8352f9dbd1ee4a62da6","name":"Carmen Ebert-Hauck","party":"Rep","address":"553 W 600 N, American Fork, UT 84003","precinct":"25AF12","hd":"53","v_score":"0","decile":"1","lat":40.38852311616179,"lng":-111.81266509202449},{"vid":"3563de53a63d84d48615e7a17d3b16388a22f3c395b5ede40aedafc4b6a2e7c5","name":"Carolyn Nienow DDS","party":"Dem","address":"495 W 400 N, American Fork, UT 84003","precinct":"25AF12","hd":"53","v_score":"2.315214949","decile":"5","lat":40.38503282240987,"lng":-111.81120915768975},{"vid":"c19196ff8302f09a5256eab634e7916f1b32937b0f5965e3f05e0f1efce6f6b8","name":"Mr. Earl Hackett","party":"Dem","address":"587 N 590 W, American Fork, UT 84003","precinct":"25AF12","hd":"53","v_score":"8.274713794","decile":"8","lat":40.38861274451939,"lng":-111.81383880637074},{"vid":"86eb5126cba73c4e73313836a644fad04e50f45450b309e70053d934763b7e80","name":"Gray Grimes","party":"Dem","address":"481 N 400 W, American Fork, UT 84003","precinct":"25AF12","hd":"53","v_score":"5.407962308","decile":"7","lat":40.38668909275044,"lng":-111.80929376028081},{"vid":"4c93f0cfba692c7f06ad113fe98779bdce4db01d665c0e173262c42e4882be4a","name":"Joaquin Graham","party":"","address":"669 N 540 W, American Fork, UT 84003","precinct":"25AF12","hd":"53","v_score":"13.97135325","decile":"9","lat":40.389779384674426,"lng":-111.81268294798507},{"vid":"7e3441d0ff78a302a2a3ed0d696a30e01b833082fd91f5711ac221c0b3657d96","name":"Mr. Misael Brown","party":"","address":"796 W 600 N, American Fork, UT 84003","precinct":"25AF12","hd":"53","v_score":"6.814370645","decile":"8","lat":40.389726502147695,"lng":-111.8191871891747},{"vid":"2112075bf91bc7d45dc24fc7870e8803549eb0e6a4a4adc2dd5f9388ce032f12","name":"Shaquille Casper-Haley","party":"Dem","address":"544 N 780 W, American Fork, UT 84003","precinct":"25AF12","hd":"53","v_score":"0","decile":"1","lat":40.388603261172065,"lng":-111.81863985091226},{"vid":"2237602","name":"Mamie Zemlak V","party":"Rep","address":"622 W 460 N, American Fork, UT 84003","precinct":"25AF12","hd":"53","v_score":"2.315214949","decile":"5","lat":40.38658308153882,"lng":-111.81491916195608},{"vid":"3bfb56b09cad9a663e978c63b40493c1e84a18a04c0b902b8730672d78b69ebb","name":"Lexi Olson-Luettgen","party":"Rep","address":"693 N 540 W, American Fork, UT 84003","precinct":"25AF12","hd":"53","v_score":"17.65631692","decile":"10","lat":40.390342789970155,"lng":-111.8124183786532},{"vid":"2242588","name":"Hope Greenholt","party":"","address":"473 W Hindley Dr, American Fork, UT 84003","precinct":"25AF12","hd":"53","v_score":"3.93832808","decile":"6","lat":40.38360308236986,"lng":-111.81081731809944},{"vid":"3defb1ade36167a911632764a8596125e385ffd19ba18dd667ce2f404a50c3e3","name":"Dr. Wilton Nader Sr.","party":"Dem","address":"453 N 520 W, American Fork, UT 84003","precinct":"25AF12","hd":"53","v_score":"3.93832808","decile":"6","lat":40.38626318753641,"lng":-111.8122623260517},{"vid":"63325881834a365b03ec3e7062c715fd9bc915cf971f8333a405b344d582f033","name":"Britt Witting-Jast","party":"Rep","address":"769 W 500 N, American Fork, UT 84003","precinct":"25AF12","hd":"53","v_score":"8.236277988","decile":"8","lat":40.387545721940334,"lng":-111.81878573461945},{"vid":"f2fe6f47c56f75279cef1b2ee93be792136276e5de3f65ec9144c734d8dfdf3b","name":"Cherilyn Gleason","party":"Dem","address":"825 W 700 N, American Fork, UT 84003","precinct":"25AF12","hd":"53","v_score":"27.0798583","decile":"10","lat":40.39021258739444,"lng":-111.81972214805363},{"vid":"c875349322b87e149bf0b66b9a510bd04ebaa7ea69ff879d47ff8b16a14c16bc","name":"Shelia Kunze PhD","party":"Dem","address":"522 N 780 W, American Fork, UT 84003","precinct":"25AF12","hd":"53","v_score":"9.907118004","decile":"8","lat":40.38835269896354,"lng":-111.81869517800085},{"vid":"2279947","name":"Adelynn Auer","party":"","address":"692 W 410 N, American Fork, UT 84003","precinct":"25AF12","hd":"53","v_score":"0","decile":"1","lat":40.386041054974946,"lng":-111.81737027528197},{"vid":"2281248","name":"Junious Homenick-Lynch","party":"","address":"589 W 480 N, American Fork, UT 84003","precinct":"25AF12","hd":"53","v_score":"0","decile":"1","lat":40.386442865375045,"lng":-111.81397926455578},{"vid":"0f1277229ece7629abf3c3df41ddf1bd9caf875504549f6c99f8999d42560a2a","name":"Shalon Hessel","party":"","address":"403 N 450 W, American Fork, UT 84003","precinct":"25AF12","hd":"53","v_score":"5.258122542","decile":"7","lat":40.38531064508698,"lng":-111.81024742398468},{"vid":"a0bf173199f5f85ed57053239e7cec8273d3fe2f199b7b760a64da2aaee92c2a","name":"Tyrell Pollich","party":"","address":"424 N 480 W, American Fork, UT 84003","precinct":"25AF12","hd":"53","v_score":"2.942907593","decile":"6","lat":40.385650523096984,"lng":-111.8107079418305},{"vid":"4cc20a2509a88dfca2f43b2d2efdbbfc5cb78a88733552dca2708f8ca961da49","name":"Bama Schaefer","party":"Dem","address":"577 N 490 West Cir, American Fork, UT 84003","precinct":"25AF12","hd":"53","v_score":"6.52928996","decile":"7","lat":40.38808143247343,"lng":-111.81136228455202},{"vid":"2302015","name":"Leaner Friesen DDS","party":"Rep","address":"390 N 580 W, American Fork, UT 84003","precinct":"25AF12","hd":"53","v_score":"0","decile":"1","lat":40.38504638336003,"lng":-111.81429269086499},{"vid":"76adbfd6c844e283e5fb6d62619380c58a7e5f6d01d8d616a0b0583218ce5e67","name":"Dr. Elzada Feest PhD","party":"","address":"654 N 420 W, American Fork, UT 84003","precinct":"25AF12","hd":"53","v_score":"5.815909755","decile":"7","lat":40.389772710728906,"lng":-111.80951213273137},{"vid":"2320390","name":"Dr. Juluis Sporer","party":"","address":"538 W 500 N, American Fork, UT 84003","precinct":"25AF12","hd":"53","v_score":"13.42455999","decile":"9","lat":40.38733818106965,"lng":-111.81227526286975},{"vid":"2320779","name":"Sigmund Wuckert-Wintheiser","party":"Dem","address":"561 W 440 N, American Fork, UT 84003","precinct":"25AF12","hd":"53","v_score":"6.814370645","decile":"8","lat":40.385782728699674,"lng":-111.81310636839922},{"vid":"2320936","name":"Estefany Jenkins","party":"","address":"736 W 410 N, American Fork, UT 84003","precinct":"25AF12","hd":"53","v_score":"1.121327652","decile":"3","lat":40.38642575031567,"lng":-111.81829718418047},{"vid":"2332977","name":"Malaya Lemke MD","party":"Dem","address":"472 N 680 W, American Fork, UT 84003","precinct":"25AF12","hd":"53","v_score":"2.315214949","decile":"5","lat":40.38690817266004,"lng":-111.8163114236247},{"vid":"2338569","name":"Ashlyn Runolfsdottir-Mayert","party":"","address":"406 N 580 W, American Fork, UT 84003","precinct":"25AF12","hd":"53","v_score":"2.744440783","decile":"5","lat":40.38524934442995,"lng":-111.81411680758521},{"vid":"2339242","name":"Dr. Ham Gusikowski PhD","party":"","address":"373 N 480 W, American Fork, UT 84003","precinct":"25AF12","hd":"53","v_score":"1.121327652","decile":"3","lat":40.384558980801096,"lng":-111.81128792669693},{"vid":"2344329","name":"Larissa Rempel-Glover","party":"Rep","address":"542 W 600 N, American Fork, UT 84003","precinct":"25AF12","hd":"53","v_score":"1.121327652","decile":"3","lat":40.388904808082486,"lng":-111.8122710914529},{"vid":"2346828","name":"Jolene Lubowitz DVM","party":"Rep","address":"516 W 600 N, American Fork, UT 84003","precinct":"25AF12","hd":"53","v_score":"0","decile":"1","lat":40.38893053933419,"lng":-111.81155769950588},{"vid":"2347000","name":"Mr. Simon Nader","party":"Dem","address":"622 W 460 N, American Fork, UT 84003","precinct":"25AF12","hd":"53","v_score":"2.315214949","decile":"5","lat":40.38658308153882,"lng":-111.81491916195608},{"vid":"2349900","name":"Mac Dach","party":"Rep","address":"464 N 680 W, American Fork, UT 84003","precinct":"25AF12","hd":"53","v_score":"0","decile":"1","lat":40.386688551633206,"lng":-111.81632914217501},{"vid":"2357761","name":"Darrien Cassin","party":"","address":"384 N 480 W, American Fork, UT 84003","precinct":"25AF12","hd":"53","v_score":"1.121327652","decile":"3","lat":40.384728567321744,"lng":-111.81072492681655},{"vid":"2366834","name":"Carrol Barton","party":"Rep","address":"568 N 580 W, American Fork, UT 84003","precinct":"25AF12","hd":"53","v_score":"2.315214949","decile":"5","lat":40.38785677426897,"lng":-111.81363588855865},{"vid":"2383672","name":"Federico Marquardt","party":"Rep","address":"373 N 480 W, American Fork, UT 84003","precinct":"25AF12","hd":"53","v_score":"1.121327652","decile":"3","lat":40.384558980801096,"lng":-111.81128792669693},{"vid":"2384576","name":"Mr. Gerard Pagac II","party":"","address":"446 N 700 W, American Fork, UT 84003","precinct":"25AF12","hd":"53","v_score":"0","decile":"1","lat":40.3865704701712,"lng":-111.81723756922536},{"vid":"2384866","name":"Jep Doyle","party":"Dem","address":"553 W 600 N, American Fork, UT 84003","precinct":"25AF12","hd":"53","v_score":"0","decile":"1","lat":40.38852311616179,"lng":-111.81266509202449},{"vid":"2385544","name":"Javon Blanda","party":"","address":"553 W 600 N, American Fork, UT 84003","precinct":"25AF12","hd":"53","v_score":"0","decile":"1","lat":40.38852311616179,"lng":-111.81266509202449},{"vid":"2385888","name":"Nereida Donnelly","party":"Dem","address":"396 W 500 N, American Fork, UT 84003","precinct":"25AF12","hd":"53","v_score":"11.687527","decile":"9","lat":40.38742754338363,"lng":-111.80918582455531},{"vid":"2388716","name":"Franklyn Trantow","party":"","address":"372 N 480 W, American Fork, UT 84003","precinct":"25AF12","hd":"53","v_score":"8.903210001","decile":"8","lat":40.38448159797628,"lng":-111.81072947462752},{"vid":"2389215","name":"Yulissa Reichert","party":"","address":"424 W 500 N, American Fork, UT 84003","precinct":"25AF12","hd":"53","v_score":"1.121327652","decile":"3","lat":40.38724756783294,"lng":-111.81011125514613},{"vid":"2398107","name":"Shelly Dare MD","party":"Dem","address":"695 N 600 W, American Fork, UT 84003","precinct":"25AF12","hd":"53","v_score":"2.315214949","decile":"5","lat":40.3903330655995,"lng":-111.81443417865815},{"vid":"2399489","name":"Jessee McGlynn","party":"Rep","address":"526 W 500 N, American Fork, UT 84003","precinct":"25AF12","hd":"53","v_score":"1.121327652","decile":"3","lat":40.38735741390969,"lng":-111.81192410019625},{"vid":"2400177","name":"Neppie Kuvalis","party":"Dem","address":"488 N 520 W, American Fork, UT 84003","precinct":"25AF12","hd":"53","v_score":"2.315214949","decile":"5","lat":40.3869631082736,"lng":-111.81174480704378},{"vid":"2405154","name":"Paisley Terry-Friesen","party":"","address":"412 N 520 W, American Fork, UT 84003","precinct":"25AF12","hd":"53","v_score":"1.121327652","decile":"3","lat":40.38559539190153,"lng":-111.81169952523796},{"vid":"2407805","name":"Vanessa McClure","party":"","address":"772 W 500 N, American Fork, UT 84003","precinct":"25AF12","hd":"53","v_score":"3.93832808","decile":"6","lat":40.38802519283365,"lng":-111.81886580185284},{"vid":"2413964","name":"Ragna Bernhard","party":"Rep","address":"497 W 500 N, American Fork, UT 84003","precinct":"25AF12","hd":"53","v_score":"3.93832808","decile":"6","lat":40.386874880902084,"lng":-111.81106568583128},{"vid":"2420242","name":"Dr. Amasa Rohan","party":"Dem","address":"659 N 600 W, American Fork, UT 84003","precinct":"25AF12","hd":"53","v_score":"3.93832808","decile":"6","lat":40.389615778455095,"lng":-111.81469023798402},{"vid":"2427192","name":"Gunnar Nienow PhD","party":"","address":"369 N 580 W, American Fork, UT 84003","precinct":"25AF12","hd":"53","v_score":"3.93832808","decile":"6","lat":40.38493296649899,"lng":-111.81497256679974},{"vid":"2429080","name":"Mr. Tyriq Feest II","party":"Rep","address":"433 W 700 N, American Fork, UT 84003","precinct":"25AF12","hd":"53","v_score":"5.191257514","decile":"7","lat":40.390397027846795,"lng":-111.81037285500307},{"vid":"2432367","name":"Mr. Tristin Larson PhD","party":"","address":"695 N 600 W, American Fork, UT 84003","precinct":"25AF12","hd":"53","v_score":"1.121327652","decile":"3","lat":40.3903330655995,"lng":-111.81443417865815},{"vid":"2433478","name":"Walker Kunde","party":"Dem","address":"559 N 650 W, American Fork, UT 84003","precinct":"25AF12","hd":"53","v_score":"1.193887297","decile":"3","lat":40.38818002521405,"lng":-111.81584921184458},{"vid":"2436168","name":"Dr. Turner Ryan","party":"Rep","address":"403 N 450 W, American Fork, UT 84003","precinct":"25AF12","hd":"53","v_score":"1.193887297","decile":"3","lat":40.38531064508698,"lng":-111.81024742398468},{"vid":"2437937","name":"Raphael Aufderhar","party":"Dem","address":"456 N 600 W, American Fork, UT 84003","precinct":"25AF12","hd":"53","v_score":"3.997370217","decile":"6","lat":40.386233270457474,"lng":-111.81413328196888},{"vid":"2444786","name":"Fleeta Homenick","party":"","address":"433 N 700 W, American Fork, UT 84003","precinct":"25AF12","hd":"53","v_score":"4.858449944","decile":"7","lat":40.386220841925876,"lng":-111.81777262401745},{"vid":"2447984","name":"Dr. Johannah Bauch","party":"","address":"561 W 440 N, American Fork, UT 84003","precinct":"25AF12","hd":"53","v_score":"2.315214949","decile":"5","lat":40.385782728699674,"lng":-111.81310636839922},{"vid":"2464843","name":"Pershing Anderson","party":"Rep","address":"368 N 450 W, American Fork, UT 84003","precinct":"25AF12","hd":"53","v_score":"0","decile":"1","lat":40.38454007446566,"lng":-111.80970606229255},{"vid":"2469510","name":"Florencio Wisozk","party":"","address":"455 W 400 N, American Fork, UT 84003","precinct":"25AF12","hd":"53","v_score":"5.83359168","decile":"7","lat":40.38502139788262,"lng":-111.81026433571223},{"vid":"2469902","name":"Alline Brekke","party":"","address":"752 W 450 N, American Fork, UT 84003","precinct":"25AF12","hd":"53","v_score":"10.04766669","decile":"9","lat":40.38698250532058,"lng":-111.81827664126912},{"vid":"2472371","name":"Quinn Frami","party":"","address":"453 N 520 W, American Fork, UT 84003","precinct":"25AF12","hd":"53","v_score":"10.56619935","decile":"9","lat":40.38626318753641,"lng":-111.8122623260517},{"vid":"2473236","name":"Aidyn Watsica Sr.","party":"Dem","address":"429 N 520 W, American Fork, UT 84003","precinct":"25AF12","hd":"53","v_score":"1.193887297","decile":"3","lat":40.38579163786854,"lng":-111.81229172734199},{"vid":"2475685","name":"Carole Gislason","party":"Dem","address":"447 N 600 W, American Fork, UT 84003","precinct":"25AF12","hd":"53","v_score":"4.069929862","decile":"6","lat":40.38585363911684,"lng":-111.81478561044943},{"vid":"2480429","name":"Meredith Schroeder","party":"Rep","address":"455 N 700 W, American Fork, UT 84003","precinct":"25AF12","hd":"53","v_score":"1.193887297","decile":"3","lat":40.3867070613295,"lng":-111.8177757037686},{"vid":"2483454","name":"Boston Wolf-Terry","party":"Dem","address":"627 W 460 N, American Fork, UT 84003","precinct":"25AF12","hd":"53","v_score":"7.8339691","decile":"8","lat":40.38617196596062,"lng":-111.81507052484753},{"vid":"2487437","name":"Jaylene Gottlieb DVM","party":"Dem","address":"544 N 780 W, American Fork, UT 84003","precinct":"25AF12","hd":"53","v_score":"0","decile":"1","lat":40.388603261172065,"lng":-111.81863985091226},{"vid":"2488012","name":"Karma Towne","party":"Dem","address":"681 N 540 W, American Fork, UT 84003","precinct":"25AF12","hd":"53","v_score":"0","decile":"1","lat":40.390104500027405,"lng":-111.81256070143841},{"vid":"2496280","name":"Carie Stark","party":"","address":"555 N 490 West Cir, American Fork, UT 84003","precinct":"25AF12","hd":"53","v_score":"1.193887297","decile":"3","lat":40.387857321703216,"lng":-111.81133414640212},{"vid":"2498638","name":"Anita Pfannerstill","party":"Rep","address":"577 N 490 West Cir, American Fork, UT 84003","precinct":"25AF12","hd":"53","v_score":"1.193887297","decile":"3","lat":40.38808143247343,"lng":-111.81136228455202},{"vid":"2499679","name":"Mr. Hartwell Carroll","party":"","address":"461 N 680 W, American Fork, UT 84003","precinct":"25AF12","hd":"53","v_score":"0","decile":"1","lat":40.386638712380254,"lng":-111.81693246557197},{"vid":"2503076","name":"Pierre Bernier V","party":"Rep","address":"420 N 560 W, American Fork, UT 84003","precinct":"25AF12","hd":"53","v_score":"0","decile":"1","lat":40.385637287449406,"lng":-111.81261533973375},{"vid":"2510349","name":"Colonel Stracke PhD","party":"Dem","address":"727 W 600 N, American Fork, UT 84003","precinct":"25AF12","hd":"53","v_score":"6.757310005","decile":"8","lat":40.38891421028015,"lng":-111.81789603094494},{"vid":"2515608","name":"Lavona Schowalter","party":"","address":"455 N 560 W, American Fork, UT 84003","precinct":"25AF12","hd":"53","v_score":"16.16230549","decile":"9","lat":40.38601218484996,"lng":-111.81311021054354},{"vid":"2518019","name":"Waino Hessel","party":"Dem","address":"528 N 650 W, American Fork, UT 84003","precinct":"25AF12","hd":"53","v_score":"3.711952487","decile":"6","lat":40.387955961426755,"lng":-111.81528043022738},{"vid":"2522534","name":"Selina Rath DVM","party":"Dem","address":"673 N 650 W, American Fork, UT 84003","precinct":"25AF12","hd":"53","v_score":"2.817000428","decile":"6","lat":40.3094988929543,"lng":-111.71149415999463},{"vid":"2522776","name":"Dr. Gale Corkery DDS","party":"","address":"580 N 420 W, American Fork, UT 84003","precinct":"25AF12","hd":"53","v_score":"0","decile":"1","lat":40.38852541076902,"lng":-111.80957548282352},{"vid":"2523204","name":"Chandra Rogahn-Luettgen","party":"","address":"582 W 580 N, American Fork, UT 84003","precinct":"25AF12","hd":"53","v_score":"7.182939378","decile":"8","lat":40.388112899249975,"lng":-111.81391527012872},{"vid":"2526074","name":"Ms. Caron Deckow PhD","party":"Rep","address":"607 W 500 N, American Fork, UT 84003","precinct":"25AF12","hd":"53","v_score":"1.193887297","decile":"4","lat":40.387058467009396,"lng":-111.814569876459},{"vid":"2531772","name":"Ely VonRueden","party":"Dem","address":"495 N 650 W, American Fork, UT 84003","precinct":"25AF12","hd":"53","v_score":"1.193887297","decile":"4","lat":40.387398219778234,"lng":-111.81579472799135},{"vid":"2533063","name":"Brande Donnelly-Doyle","party":"","address":"611 W 460 N, American Fork, UT 84003","precinct":"25AF12","hd":"53","v_score":"2.817000428","decile":"6","lat":40.38617290953033,"lng":-111.81472003887492},{"vid":"2539914","name":"Joesph O'Connell III","party":"Rep","address":"793 W 500 N, American Fork, UT 84003","precinct":"25AF12","hd":"53","v_score":"0","decile":"1","lat":40.387817940138966,"lng":-111.81935863870679},{"vid":"2544623","name":"Dr. Tangela Gleason","party":"Dem","address":"485 N 680 W, American Fork, UT 84003","precinct":"25AF12","hd":"53","v_score":"0","decile":"1","lat":40.38707128288681,"lng":-111.81687359471938},{"vid":"2548196","name":"Dorthy Hegmann","party":"","address":"586 N 590 W, American Fork, UT 84003","precinct":"25AF12","hd":"53","v_score":"1.623113131","decile":"5","lat":40.388543245175015,"lng":-111.8136190032777},{"vid":"2548719","name":"Susan Hagenes","party":"Dem","address":"438 N 580 W, American Fork, UT 84003","precinct":"25AF12","hd":"53","v_score":"3.737122292","decile":"6","lat":40.38566233546224,"lng":-111.81378940876458},{"vid":"2548814","name":"Cleve Shanahan","party":"Dem","address":"586 N 590 W, American Fork, UT 84003","precinct":"25AF12","hd":"53","v_score":"1.623113131","decile":"5","lat":40.388543245175015,"lng":-111.8136190032777},{"vid":"2549556","name":"Britney Parisian","party":"","address":"693 N 540 W, American Fork, UT 84003","precinct":"25AF12","hd":"53","v_score":"0","decile":"1","lat":40.390342789970155,"lng":-111.8124183786532},{"vid":"2557937","name":"Dr. Wallace Mann II","party":"","address":"673 N 650 W, American Fork, UT 84003","precinct":"25AF12","hd":"53","v_score":"1.193887297","decile":"4","lat":40.3094988929543,"lng":-111.71149415999463},{"vid":"2559544","name":"Mr. Ewing Graham III","party":"","address":"522 N 780 W, American Fork, UT 84003","precinct":"25AF12","hd":"53","v_score":"0","decile":"1","lat":40.38835269896354,"lng":-111.81869517800085},{"vid":"2560566","name":"Justyn Koch","party":"Dem","address":"438 N 580 W, American Fork, UT 84003","precinct":"25AF12","hd":"53","v_score":"2.543234995","decile":"5","lat":40.38566233546224,"lng":-111.81378940876458},{"vid":"2585025","name":"Tilden Schmitt","party":"","address":"727 W 600 N, American Fork, UT 84003","precinct":"25AF12","hd":"53","v_score":"9.119914795","decile":"8","lat":40.38891421028015,"lng":-111.81789603094494},{"vid":"2588413","name":"Mr. Valentino Bosco IV","party":"","address":"437 N 680 W, American Fork, UT 84003","precinct":"25AF12","hd":"53","v_score":"1.193887297","decile":"4","lat":40.38619037662941,"lng":-111.8169686362369},{"vid":"2602583","name":"Natasha Zemlak-McClure","party":"Dem","address":"473 N 680 W, American Fork, UT 84003","precinct":"25AF12","hd":"53","v_score":"0","decile":"1","lat":40.38686288101822,"lng":-111.81691437994007},{"vid":"2609015","name":"Prentiss Kuphal","party":"","address":"372 N 480 W, American Fork, UT 84003","precinct":"25AF12","hd":"53","v_score":"1.193887297","decile":"4","lat":40.38448159797628,"lng":-111.81072947462752},{"vid":"2617545","name":"Mr. Dana Jones DVM","party":"Rep","address":"611 W 460 N, American Fork, UT 84003","precinct":"25AF12","hd":"53","v_score":"1.193887297","decile":"4","lat":40.38617290953033,"lng":-111.81472003887492},{"vid":"2623485","name":"Nelle Maggio-Effertz","party":"Rep","address":"522 N 780 W, American Fork, UT 84003","precinct":"25AF12","hd":"53","v_score":"5.407962308","decile":"7","lat":40.38835269896354,"lng":-111.81869517800085},{"vid":"2625580","name":"Mr. Paul Hegmann PhD","party":"","address":"819 W 700 N, American Fork, UT 84003","precinct":"25AF12","hd":"53","v_score":"7.926027498","decile":"8","lat":40.39023340751199,"lng":-111.81944607256037},{"vid":"2636993","name":"Eber Strosin","party":"Rep","address":"539 W 600 N, American Fork, UT 84003","precinct":"25AF12","hd":"53","v_score":"2.817000428","decile":"6","lat":40.3884376777599,"lng":-111.81186863821063},{"vid":"2639042","name":"Caesar DuBuque","party":"","address":"485 W 600 N, American Fork, UT 84003","precinct":"25AF12","hd":"53","v_score":"5.926494964","decile":"7","lat":40.388623458307045,"lng":-111.8111307756633},{"vid":"2643274","name":"Ardith Johnson PhD","party":"Rep","address":"692 W 410 N, American Fork, UT 84003","precinct":"25AF12","hd":"53","v_score":"5.693042993","decile":"7","lat":40.386041054974946,"lng":-111.81737027528197},{"vid":"2647428","name":"Mona Grady","party":"Rep","address":"495 W 400 N, American Fork, UT 84003","precinct":"25AF12","hd":"53","v_score":"1.193887297","decile":"4","lat":40.38503282240987,"lng":-111.81120915768975},{"vid":"2649345","name":"Kloe Bruen DVM","party":"Rep","address":"758 W 600 N, American Fork, UT 84003","precinct":"25AF12","hd":"53","v_score":"0","decile":"1","lat":40.389550736317375,"lng":-111.81835110209389},{"vid":"2653459","name":"Jayvion Romaguera","party":"","address":"758 W 600 N, American Fork, UT 84003","precinct":"25AF12","hd":"53","v_score":"1.193887297","decile":"4","lat":40.389550736317375,"lng":-111.81835110209389},{"vid":"2654569","name":"Hailie Dicki","party":"Rep","address":"494 W 600 N, American Fork, UT 84003","precinct":"25AF12","hd":"53","v_score":"1.193887297","decile":"4","lat":40.38894137549562,"lng":-111.81125128107169},{"vid":"2668563","name":"Tavaris McDermott-Thiel","party":"","address":"825 W 700 N, American Fork, UT 84003","precinct":"25AF12","hd":"53","v_score":"0","decile":"1","lat":40.39021258739444,"lng":-111.81972214805363},{"vid":"2669896","name":"Rosaline Waters","party":"Rep","address":"374 N 580 W, American Fork, UT 84003","precinct":"25AF12","hd":"53","v_score":"0","decile":"2","lat":40.38481831596192,"lng":-111.81445452319758},{"vid":"2671456","name":"Dr. Hayden Green DDS","party":"","address":"618 W 460 N, American Fork, UT 84003","precinct":"25AF12","hd":"53","v_score":"5.926494964","decile":"7","lat":40.38660614292993,"lng":-111.81485733396936},{"vid":"2677009","name":"Murray Jenkins-O'Connell","party":"Dem","address":"583 W 500 N, American Fork, UT 84003","precinct":"25AF12","hd":"53","v_score":"4.069929862","decile":"6","lat":40.38689254173124,"lng":-111.81379519777776},{"vid":"2684581","name":"Mrs. Melisa Powlowski MD","party":"Dem","address":"593 W 630 N, American Fork, UT 84003","precinct":"25AF12","hd":"53","v_score":"1.193887297","decile":"4","lat":40.38908271282553,"lng":-111.81430794713125},{"vid":"2695158","name":"Mariyah Walsh","party":"Dem","address":"528 N 650 W, American Fork, UT 84003","precinct":"25AF12","hd":"53","v_score":"0","decile":"2","lat":40.387955961426755,"lng":-111.81528043022738},{"vid":"2697190","name":"Carmen Bayer","party":"Dem","address":"428 N 580 W, American Fork, UT 84003","precinct":"25AF12","hd":"53","v_score":"1.193887297","decile":"4","lat":40.3855469887384,"lng":-111.81389383549092},{"vid":"2711747","name":"North Bayer-Barton","party":"","address":"538 N 680 W, American Fork, UT 84003","precinct":"25AF12","hd":"53","v_score":"1.193887297","decile":"4","lat":40.38795836414725,"lng":-111.81622666829628},{"vid":"2712328","name":"Miley Champlin","party":"Rep","address":"536 W 650 N, American Fork, UT 84003","precinct":"25AF12","hd":"53","v_score":"9.638447451","decile":"8","lat":40.389767209633845,"lng":-111.81220879906019},{"vid":"2713062","name":"Sabastian Boyle","party":"Rep","address":"618 W 460 N, American Fork, UT 84003","precinct":"25AF12","hd":"53","v_score":"1.193887297","decile":"4","lat":40.38660614292993,"lng":-111.81485733396936},{"vid":"2721875","name":"Mr. Charls Nienow","party":"Rep","address":"517 W 650 N, American Fork, UT 84003","precinct":"25AF12","hd":"53","v_score":"7.090117576","decile":"8","lat":40.389417274613024,"lng":-111.81197526580016},{"vid":"2725472","name":"Dema Kessler","party":"Rep","address":"453 N 570 W, American Fork, UT 84003","precinct":"25AF12","hd":"53","v_score":"1.193887297","decile":"4","lat":40.386166934181645,"lng":-111.81378790597294},{"vid":"2736329","name":"Dr. King Harvey II","party":"Rep","address":"626 W 580 N, American Fork, UT 84003","precinct":"25AF12","hd":"53","v_score":"0","decile":"2","lat":40.388617583958194,"lng":-111.814832981997},{"vid":"2737676","name":"Guadalupe Kozey","party":"Rep","address":"555 N 490 West Cir, American Fork, UT 84003","precinct":"25AF12","hd":"53","v_score":"1.193887297","decile":"4","lat":40.387857321703216,"lng":-111.81133414640212},{"vid":"2738377","name":"Bird Yundt","party":"","address":"547 N 780 W, American Fork, UT 84003","precinct":"25AF12","hd":"53","v_score":"1.193887297","decile":"4","lat":40.38861315990261,"lng":-111.81924090091277},{"vid":"2739138","name":"Essex Cartwright","party":"","address":"449 N 680 W, American Fork, UT 84003","precinct":"25AF12","hd":"53","v_score":"0","decile":"2","lat":40.386414544934865,"lng":-111.81695055045529},{"vid":"2739576","name":"Leonardo Hills Sr.","party":"","address":"667 N 350 W, American Fork, UT 84003","precinct":"25AF12","hd":"53","v_score":"0","decile":"2","lat":40.39011873003439,"lng":-111.80829787924316},{"vid":"2741168","name":"Rosamond Eichmann","party":"Rep","address":"627 N 420 W, American Fork, UT 84003","precinct":"25AF12","hd":"53","v_score":"1.193887297","decile":"4","lat":40.38936351070409,"lng":-111.8102848647964},{"vid":"2744222","name":"Aubrey Pouros II","party":"","address":"588 N 780 W, American Fork, UT 84003","precinct":"25AF12","hd":"53","v_score":"1.193887297","decile":"4","lat":40.3892133301046,"lng":-111.81870725843247},{"vid":"2745738","name":"Mr. Christion Bashirian","party":"","address":"607 N 560 W, American Fork, UT 84003","precinct":"25AF12","hd":"53","v_score":"0","decile":"2","lat":40.388741912213554,"lng":-111.813209638865},{"vid":"2748999","name":"Dr. Alphonso Pacocha I","party":"Rep","address":"799 W 450 N, American Fork, UT 84003","precinct":"25AF12","hd":"53","v_score":"1.193887297","decile":"4","lat":40.387162527844374,"lng":-111.81954499320351},{"vid":"2752896","name":"Dominik Frami","party":"","address":"695 N 600 W, American Fork, UT 84003","precinct":"25AF12","hd":"53","v_score":"1.193887297","decile":"4","lat":40.3903330655995,"lng":-111.81443417865815},{"vid":"2757965","name":"Sheridan O'Hara-Koch","party":"Rep","address":"554 W 600 N, American Fork, UT 84003","precinct":"25AF12","hd":"53","v_score":"8.284004873","decile":"8","lat":40.388826109708546,"lng":-111.81269328381629},{"vid":"2770564","name":"Izayah Johns","party":"Dem","address":"659 N 600 W, American Fork, UT 84003","precinct":"25AF12","hd":"53","v_score":"1.193887297","decile":"4","lat":40.389615778455095,"lng":-111.81469023798402},{"vid":"2774038","name":"Miss Vessie Wyman DVM","party":"Dem","address":"682 N 690 W, American Fork, UT 84003","precinct":"25AF12","hd":"53","v_score":"5.407962308","decile":"7","lat":40.39009764152229,"lng":-111.81659977351904},{"vid":"2782616","name":"Ryan McClure","party":"","address":"485 N 680 W, American Fork, UT 84003","precinct":"25AF12","hd":"53","v_score":"0","decile":"2","lat":40.38707128288681,"lng":-111.81687359471938},{"vid":"2783940","name":"Dortha Ziemann","party":"Dem","address":"454 N 600 W, American Fork, UT 84003","precinct":"25AF12","hd":"53","v_score":"5.407962308","decile":"7","lat":40.386184432359876,"lng":-111.81418760876632},{"vid":"2789075","name":"Dr. Napoleon Gerlach","party":"Dem","address":"449 N 570 W, American Fork, UT 84003","precinct":"25AF12","hd":"53","v_score":"8.284004873","decile":"8","lat":40.38611832293075,"lng":-111.81375774154668},{"vid":"2799026","name":"Karsyn Kuhic","party":"Rep","address":"748 W 450 N, American Fork, UT 84003","precinct":"25AF12","hd":"53","v_score":"4.069929862","decile":"7","lat":40.38675202501785,"lng":-111.81823610110531},{"vid":"2803473","name":"Laraine Kuhn PhD","party":"Dem","address":"456 N 600 W, American Fork, UT 84003","precinct":"25AF12","hd":"53","v_score":"4.069929862","decile":"7","lat":40.386233270457474,"lng":-111.81413328196888},{"vid":"2807707","name":"Charlsie Bogisich","party":"Dem","address":"387 N 520 W, American Fork, UT 84003","precinct":"25AF12","hd":"53","v_score":"1.193887297","decile":"4","lat":40.38481245724993,"lng":-111.81230975443367},{"vid":"2811571","name":"Emily Marvin","party":"","address":"736 W 410 N, American Fork, UT 84003","precinct":"25AF12","hd":"53","v_score":"0","decile":"2","lat":40.38642575031567,"lng":-111.81829718418047},{"vid":"2816360","name":"Dr. Tyrik Botsford","party":"Dem","address":"511 N 490 West Cir, American Fork, UT 84003","precinct":"25AF12","hd":"53","v_score":"5.407962308","decile":"7","lat":40.38725015661341,"lng":-111.81135218607682},{"vid":"2822816","name":"Bess Rempel","party":"Rep","address":"456 N 680 W, American Fork, UT 84003","precinct":"25AF12","hd":"53","v_score":"0","decile":"2","lat":40.38646895767037,"lng":-111.81634686018634},{"vid":"2840361","name":"Tia Bednar","party":"","address":"529 N 780 W, American Fork, UT 84003","precinct":"25AF12","hd":"53","v_score":"5.407962308","decile":"7","lat":40.38840340225758,"lng":-111.81927434069924},{"vid":"2843330","name":"Alani Nader","party":"","address":"549 W 550 N, American Fork, UT 84003","precinct":"25AF12","hd":"53","v_score":"1.193887297","decile":"4","lat":40.387681690110036,"lng":-111.81228214865858},{"vid":"2852707","name":"Erling Ortiz","party":"Dem","address":"464 N 680 W, American Fork, UT 84003","precinct":"25AF12","hd":"53","v_score":"1.193887297","decile":"4","lat":40.386688551633206,"lng":-111.81632914217501},{"vid":"2857622","name":"Adrianna Lynch","party":"","address":"511 N 490 West Cir, American Fork, UT 84003","precinct":"25AF12","hd":"53","v_score":"5.407962308","decile":"7","lat":40.38725015661341,"lng":-111.81135218607682},{"vid":"2861473","name":"Abe Grant","party":"Dem","address":"534 N 490 West Cir, American Fork, UT 84003","precinct":"25AF12","hd":"53","v_score":"4.069929862","decile":"7","lat":40.387606424891295,"lng":-111.81082102355509},{"vid":"2883659","name":"Virge Dach","party":"","address":"516 W 600 N, American Fork, UT 84003","precinct":"25AF12","hd":"53","v_score":"1.193887297","decile":"4","lat":40.38893053933419,"lng":-111.81155769950588},{"vid":"2888292","name":"Simeon Bogisich-Becker","party":"","address":"465 N 520 W, Bsmt, American Fork, UT 84003","precinct":"25AF12","hd":"53","v_score":"1.193887297","decile":"4","lat":40.38645357907825,"lng":-111.81228416592282},{"vid":"2889289","name":"Ms. Suzy Grady","party":"","address":"667 N 350 W, American Fork, UT 84003","precinct":"25AF12","hd":"53","v_score":"1.193887297","decile":"4","lat":40.39011873003439,"lng":-111.80829787924316},{"vid":"2890860","name":"Markus Bergnaum","party":"","address":"369 N 450 W, American Fork, UT 84003","precinct":"25AF12","hd":"53","v_score":"0","decile":"2","lat":40.38455035462885,"lng":-111.81033062336003},{"vid":"2900256","name":"Mr. Elgie Hilll PhD","party":"Dem","address":"541 W 600 N, American Fork, UT 84003","precinct":"25AF12","hd":"53","v_score":"0","decile":"2","lat":40.38846563621879,"lng":-111.8122029021363},{"vid":"2903220","name":"Dr. Mahlon Walsh IV","party":"Dem","address":"825 W 700 N, American Fork, UT 84003","precinct":"25AF12","hd":"53","v_score":"0","decile":"2","lat":40.39021258739444,"lng":-111.81972214805363},{"vid":"2907554","name":"Shane Huel","party":"Dem","address":"554 W 600 N, American Fork, UT 84003","precinct":"25AF12","hd":"53","v_score":"7.090117576","decile":"8","lat":40.388826109708546,"lng":-111.81269328381629},{"vid":"2909404","name":"Mrs. Lexi Abshire PhD","party":"Rep","address":"595 W 480 N, American Fork, UT 84003","precinct":"25AF12","hd":"53","v_score":"7.090117576","decile":"8","lat":40.38645162788887,"lng":-111.81409842209997},{"vid":"2941125","name":"Miss Alexandra Casper","party":"Rep","address":"635 N 350 W, American Fork, UT 84003","precinct":"25AF12","hd":"53","v_score":"0","decile":"2","lat":40.38954132423869,"lng":-111.80829524897604},{"vid":"2942364","name":"Miss Lonna Leannon","party":"","address":"819 W 700 N, American Fork, UT 84003","precinct":"25AF12","hd":"53","v_score":"4.214075011","decile":"7","lat":40.39023340751199,"lng":-111.81944607256037},{"vid":"2973295","name":"Elvie Barrows","party":"Rep","address":"748 W 450 N, American Fork, UT 84003","precinct":"25AF12","hd":"53","v_score":"0","decile":"2","lat":40.38675202501785,"lng":-111.81823610110531},{"vid":"d7f69d999900cd4d37007f6344b7dc0f9d74c076a0a9da96ae5fcab997176885","name":"Mr. Lemuel Kulas MD","party":"Rep","address":"437 N 480 W, American Fork, UT 84003","precinct":"25AF12","hd":"53","v_score":"8.280646305","decile":"8","lat":40.38594849927016,"lng":-111.81133410872634},{"vid":"3083935","name":"Jacquline Pollich","party":"","address":"495 N 650 W, American Fork, UT 84003","precinct":"25AF12","hd":"53","v_score":"2.744440783","decile":"5","lat":40.387398219778234,"lng":-111.81579472799135},{"vid":"f7ca2952ad044f20b7c247bdb8502a4ab31b5c2c9328e5bde7d2590a7ba5ad55","name":"Norah Hessel PhD","party":"Dem","address":"536 W 550 N, American Fork, UT 84003","precinct":"25AF12","hd":"53","v_score":"11.86178988","decile":"9","lat":40.388018650753324,"lng":-111.81201947254678},{"vid":"3233343","name":"Miss Danica Hudson","party":"","address":"542 W 600 N, American Fork, UT 84003","precinct":"25AF12","hd":"53","v_score":"1.193887297","decile":"4","lat":40.388904808082486,"lng":-111.8122710914529},{"vid":"3301324","name":"Dr. Alex Christiansen","party":"Dem","address":"494 W 600 N, American Fork, UT 84003","precinct":"25AF12","hd":"53","v_score":"0","decile":"2","lat":40.38894137549562,"lng":-111.81125128107169},{"vid":"3321329","name":"Davin Stroman","party":"Rep","address":"485 N 680 W, American Fork, UT 84003","precinct":"25AF12","hd":"53","v_score":"11.37977487","decile":"9","lat":40.38707128288681,"lng":-111.81687359471938},{"vid":"3341675","name":"Dr. Jame Lebsack III","party":"","address":"464 N 520 W, American Fork, UT 84003","precinct":"25AF12","hd":"53","v_score":"2.315214949","decile":"5","lat":40.38645999553044,"lng":-111.81163572362263},{"vid":"3378790","name":"Annika Gleason","party":"","address":"372 N 480 W, American Fork, UT 84003","precinct":"25AF12","hd":"53","v_score":"20.44004036","decile":"10","lat":40.38448159797628,"lng":-111.81072947462752},{"vid":"3523651","name":"Savanna Deckow","party":"Rep","address":"373 N 480 W, American Fork, UT 84003","precinct":"25AF12","hd":"53","v_score":"0","decile":"2","lat":40.384558980801096,"lng":-111.81128792669693},{"vid":"3552365","name":"Mrs. Caryl Rau","party":"Dem","address":"369 N 450 W, American Fork, UT 84003","precinct":"25AF12","hd":"53","v_score":"15.00919004","decile":"9","lat":40.38455035462885,"lng":-111.81033062336003},{"vid":"4607989","name":"Sada Larkin","party":"Rep","address":"583 N 560 W, American Fork, UT 84003","precinct":"25AF12","hd":"53","v_score":"3.93832808","decile":"6","lat":40.3882865342109,"lng":-111.8131429445247},{"vid":"edf100a0ed8e2d089cd0906045b206aa4240430526c9cffde4cd6b9751447555","name":"Cristobal Cartwright","party":"","address":"624 W 460 N, American Fork, UT 84003","precinct":"25AF12","hd":"53","v_score":"3.781490609","decile":"6","lat":40.38660580505342,"lng":-111.81498294431756},{"vid":"5862116","name":"Lorin Hagenes","party":"Dem","address":"758 W 600 N, American Fork, UT 84003","precinct":"25AF12","hd":"53","v_score":"1.193887297","decile":"4","lat":40.389550736317375,"lng":-111.81835110209389},{"vid":"a1a2aabee18dfb824ae742f49000aac8e363baae215f8efe3746c4ce29096026","name":"Zaiden Kozey-Hermiston","party":"","address":"621 N 350 W, American Fork, UT 84003","precinct":"25AF12","hd":"53","v_score":"8.421194992","decile":"8","lat":40.389347054931584,"lng":-111.8082944004274},{"vid":"5937283","name":"Mrs. Aleen Kris DDS","party":"Dem","address":"692 W 410 N, American Fork, UT 84003","precinct":"25AF12","hd":"53","v_score":"2.315214949","decile":"5","lat":40.386041054974946,"lng":-111.81737027528197},{"vid":"5945644","name":"Avie Crist PhD","party":"Rep","address":"497 W 500 N, American Fork, UT 84003","precinct":"25AF12","hd":"53","v_score":"7.947838735","decile":"8","lat":40.386874880902084,"lng":-111.81106568583128},{"vid":"5951649","name":"Mr. Yandel Balistreri III","party":"Rep","address":"479 N 400 W, American Fork, UT 84003","precinct":"25AF12","hd":"53","v_score":"1.121327652","decile":"3","lat":40.38647305667227,"lng":-111.80925966768864},{"vid":"6043405","name":"Jenna Altenwerth","party":"Dem","address":"432 N 680 W, American Fork, UT 84003","precinct":"25AF12","hd":"53","v_score":"0","decile":"3","lat":40.38602977019699,"lng":-111.81638229692769},{"vid":"6072733","name":"Clearence Auer","party":"Rep","address":"727 W 600 N, American Fork, UT 84003","precinct":"25AF12","hd":"53","v_score":"34.43796862","decile":"10","lat":40.38891421028015,"lng":-111.81789603094494},{"vid":"6101422","name":"Mr. Ab Rath I","party":"","address":"476 N 520 W, American Fork, UT 84003","precinct":"25AF12","hd":"53","v_score":"5.40460374","decile":"7","lat":40.38669036930812,"lng":-111.8116311299377},{"vid":"6167928","name":"Mr. Fredrick Ziemann","party":"","address":"368 N 450 W, American Fork, UT 84003","precinct":"25AF12","hd":"53","v_score":"2.817000428","decile":"6","lat":40.38454007446566,"lng":-111.80970606229255},{"vid":"6184128","name":"Link Brakus PhD","party":"Dem","address":"356 N 480 W, American Fork, UT 84003","precinct":"25AF12","hd":"53","v_score":"0","decile":"3","lat":40.38423462895701,"lng":-111.81073402333679},{"vid":"c2f76f9f0ce9fd90a81bf4c0a5ade9aebc858c91d79df50e50352940a46ed853","name":"Gael Mertz","party":"","address":"380 N 450 W, American Fork, UT 84003","precinct":"25AF12","hd":"53","v_score":"32.96005954","decile":"10","lat":40.384745876823374,"lng":-111.80970244100398},{"vid":"6204232","name":"Ms. Devan Koch MD","party":"Dem","address":"416 W 600 N, American Fork, UT 84003","precinct":"25AF12","hd":"53","v_score":"22.70037759","decile":"10","lat":40.389066837026505,"lng":-111.8095837592925},{"vid":"6204233","name":"Elizbeth Bednar-Donnelly","party":"Rep","address":"416 W 600 N, American Fork, UT 84003","precinct":"25AF12","hd":"53","v_score":"19.74179771","decile":"10","lat":40.389066837026505,"lng":-111.8095837592925},{"vid":"6206297","name":"Mr. Derrell Stark","party":"Rep","address":"455 W 400 N, American Fork, UT 84003","precinct":"25AF12","hd":"53","v_score":"18.8876186","decile":"10","lat":40.38502139788262,"lng":-111.81026433571223},{"vid":"5e3e9f3e0d259929a40ced95c974e3ab9d32f71132434aa0a69f75ae0b2b3b3e","name":"Miss Dwan Spinka","party":"Rep","address":"581 N 420 W, American Fork, UT 84003","precinct":"25AF12","hd":"53","v_score":"0","decile":"3","lat":40.388493756894235,"lng":-111.8102658073371},{"vid":"6215850","name":"Erlene Smitham","party":"","address":"508 W 400 N, American Fork, UT 84003","precinct":"25AF12","hd":"53","v_score":"17.63496236","decile":"9","lat":40.38532524582128,"lng":-111.81177869337994},{"vid":"6218786","name":"Lizbeth Fisher","party":"","address":"380 N 450 W, American Fork, UT 84003","precinct":"25AF12","hd":"53","v_score":"32.96005954","decile":"10","lat":40.384745876823374,"lng":-111.80970244100398},{"vid":"6231602","name":"Masao Yost-Stehr","party":"","address":"751 W 600 N, American Fork, UT 84003","precinct":"25AF12","hd":"53","v_score":"18.21751068","decile":"10","lat":40.38902982535738,"lng":-111.81835561900579},{"vid":"6234421","name":"Dr. Tyrese Jacobson Jr.","party":"","address":"441 N 520 W, American Fork, UT 84003","precinct":"25AF12","hd":"53","v_score":"2.587603312","decile":"5","lat":40.38602656380934,"lng":-111.81228741378172},{"vid":"6234525","name":"Carry Haag DDS","party":"","address":"571 N 650 W, American Fork, UT 84003","precinct":"25AF12","hd":"53","v_score":"5.40460374","decile":"7","lat":40.38842702348348,"lng":-111.81571401792014},{"vid":"6235894","name":"Shavonne Orn","party":"","address":"682 N 690 W, American Fork, UT 84003","precinct":"25AF12","hd":"53","v_score":"29.24810706","decile":"10","lat":40.39009764152229,"lng":-111.81659977351904},{"vid":"6249432","name":"Olene McLaughlin DDS","party":"Rep","address":"471 W Pacific Court Cir, American Fork, UT 84003","precinct":"25AF12","hd":"53","v_score":"7.650280567","decile":"8","lat":40.38339151551436,"lng":-111.81151169409222},{"vid":"6249808","name":"Velda Nienow","party":"Dem","address":"511 N 780 W, American Fork, UT 84003","precinct":"25AF12","hd":"53","v_score":"15.09172736","decile":"9","lat":40.38808589058065,"lng":-111.819289490811},{"vid":"6252940","name":"Aliana Harvey","party":"Dem","address":"385 N 400 W, American Fork, UT 84003","precinct":"25AF12","hd":"53","v_score":"32.56038695","decile":"10","lat":40.384767591288806,"lng":-111.80929172892046},{"vid":"6256754","name":"King Cruickshank Sr.","party":"","address":"682 N 420 W, American Fork, UT 84003","precinct":"25AF12","hd":"53","v_score":"22.70037759","decile":"10","lat":40.39021727953035,"lng":-111.80951317531608},{"vid":"6256763","name":"Lurena Eichmann","party":"Dem","address":"682 N 420 W, American Fork, UT 84003","precinct":"25AF12","hd":"53","v_score":"22.70037759","decile":"10","lat":40.39021727953035,"lng":-111.80951317531608},{"vid":"6257105","name":"Queenie Senger","party":"Dem","address":"407 N 580 W, American Fork, UT 84003","precinct":"25AF12","hd":"53","v_score":"28.31867802","decile":"10","lat":40.38547639782989,"lng":-111.81458882742825},{"vid":"6257138","name":"Ms. Nanci Breitenberg DVM","party":"Rep","address":"654 N 420 W, American Fork, UT 84003","precinct":"25AF12","hd":"53","v_score":"5.40460374","decile":"7","lat":40.389772710728906,"lng":-111.80951213273137},{"vid":"6262122","name":"Velma Smitham","party":"","address":"681 W 410 N, American Fork, UT 84003","precinct":"25AF12","hd":"53","v_score":"5.40460374","decile":"7","lat":40.38549173734147,"lng":-111.81687351865011},{"vid":"6262455","name":"Sage Beier DVM","party":"","address":"531 N 420 W, American Fork, UT 84003","precinct":"25AF12","hd":"53","v_score":"4.210716443","decile":"7","lat":40.38752045111331,"lng":-111.81017328757025},{"vid":"6265028","name":"Adrien Kertzmann-Mohr","party":"Dem","address":"653 N 350 W, American Fork, UT 84003","precinct":"25AF12","hd":"53","v_score":"3.93832808","decile":"6","lat":40.3899189509936,"lng":-111.80829697859227},{"vid":"6265030","name":"Wellington VonRueden","party":"","address":"678 N 690 W, American Fork, UT 84003","precinct":"25AF12","hd":"53","v_score":"16.5882719","decile":"9","lat":40.389866155197694,"lng":-111.8166713072328},{"vid":"6266056","name":"Daphne Homenick","party":"","address":"455 N 400 W, American Fork, UT 84003","precinct":"25AF12","hd":"53","v_score":"1.193887297","decile":"4","lat":40.38604931250612,"lng":-111.80929914388432},{"vid":"6267804","name":"Mrs. Waneta Miller","party":"","address":"556 N 490 West Cir, American Fork, UT 84003","precinct":"25AF12","hd":"53","v_score":"2.315214949","decile":"5","lat":40.38785912038243,"lng":-111.8109129907841},{"vid":"6267809","name":"Deandre O'Connell","party":"Rep","address":"556 N 490 West Cir, American Fork, UT 84003","precinct":"25AF12","hd":"53","v_score":"3.93832808","decile":"6","lat":40.38785912038243,"lng":-111.8109129907841},{"vid":"6270850","name":"Kathern Franecki","party":"Rep","address":"383 N 400 W, American Fork, UT 84003","precinct":"25AF12","hd":"53","v_score":"21.60209591","decile":"10","lat":40.38456999640219,"lng":-111.80929315778074},{"vid":"a4a0fb06dba49084200db7fe8d649568300cda96c89ac6a2dc00fb2d5116b368","name":"Leamon Spencer PhD","party":"Rep","address":"681 N 350 W, American Fork, UT 84003","precinct":"25AF12","hd":"53","v_score":"16.5882719","decile":"9","lat":40.39033003410205,"lng":-111.80829883127768},{"vid":"6286268","name":"Bertram Beahan","party":"Rep","address":"372 N 480 W, American Fork, UT 84003","precinct":"25AF12","hd":"53","v_score":"21.56136802","decile":"10","lat":40.38448159797628,"lng":-111.81072947462752},{"vid":"6302758","name":"Claudius Luettgen","party":"Dem","address":"659 N 600 W, American Fork, UT 84003","precinct":"25AF12","hd":"53","v_score":"5.40460374","decile":"7","lat":40.389615778455095,"lng":-111.81469023798402},{"vid":"6303725","name":"Texie Kuhn","party":"","address":"511 N 780 W, American Fork, UT 84003","precinct":"25AF12","hd":"53","v_score":"15.09172736","decile":"9","lat":40.38808589058065,"lng":-111.819289490811},{"vid":"6311948","name":"Deneen Lubowitz","party":"","address":"428 N 680 W, American Fork, UT 84003","precinct":"25AF12","hd":"53","v_score":"14.25581744","decile":"9","lat":40.38581017545482,"lng":-111.81640001583733},{"vid":"6312846","name":"Erin Fritsch","party":"Dem","address":"573 W 480 N, American Fork, UT 84003","precinct":"25AF12","hd":"53","v_score":"3.781490609","decile":"6","lat":40.38644373219212,"lng":-111.81365626750997},{"vid":"6317003","name":"Harland Hackett","party":"Rep","address":"448 N 600 W, American Fork, UT 84003","precinct":"25AF12","hd":"53","v_score":"2.744440783","decile":"6","lat":40.38608838213226,"lng":-111.81418716743687},{"vid":"6317208","name":"Penelope Kohler","party":"Rep","address":"455 N 400 W, American Fork, UT 84003","precinct":"25AF12","hd":"53","v_score":"0","decile":"3","lat":40.38604931250612,"lng":-111.80929914388432},{"vid":"6347089","name":"Frazier Stiedemann","party":"","address":"613 N 600 W, American Fork, UT 84003","precinct":"25AF12","hd":"53","v_score":"5.40460374","decile":"7","lat":40.38892404040676,"lng":-111.81482037467346},{"vid":"6358859","name":"Harden Bartell","party":"Dem","address":"387 N 520 W, American Fork, UT 84003","precinct":"25AF12","hd":"53","v_score":"11.23922619","decile":"9","lat":40.38481245724993,"lng":-111.81230975443367},{"vid":"6360385","name":"Sarai Corwin-Goyette","party":"","address":"485 N 680 W, American Fork, UT 84003","precinct":"25AF12","hd":"53","v_score":"11.37977487","decile":"9","lat":40.38707128288681,"lng":-111.81687359471938},{"vid":"6360441","name":"Dr. Sydnee Howell","party":"Dem","address":"371 W 600 N, American Fork, UT 84003","precinct":"25AF12","hd":"53","v_score":"3.93832808","decile":"6","lat":40.38869912051727,"lng":-111.80865469384693},{"vid":"631ed69ef1bdd0294df41b3ddbce7b57258ead9a5a719bcb05da6c710effcf51","name":"Ezzard Collins","party":"Dem","address":"541 W 600 N, American Fork, UT 84003","precinct":"25AF12","hd":"53","v_score":"9.682978083","decile":"8","lat":40.38846563621879,"lng":-111.8122029021363},{"vid":"6366509","name":"Dr. Albina Runolfsson DVM","party":"Rep","address":"436 N 480 W, American Fork, UT 84003","precinct":"25AF12","hd":"53","v_score":"22.70037759","decile":"10","lat":40.385902392959835,"lng":-111.81077507131471},{"vid":"821ed70ac83b382e52bb6ba915eff1031f365972770a7dccfb1bc500d77100b8","name":"Dr. Tex Ziemann V","party":"","address":"436 N 480 W, American Fork, UT 84003","precinct":"25AF12","hd":"53","v_score":"25.80307694","decile":"10","lat":40.385902392959835,"lng":-111.81077507131471},{"vid":"6374217","name":"Thurston Dickinson","party":"Dem","address":"385 N 400 W, American Fork, UT 84003","precinct":"25AF12","hd":"53","v_score":"2.315214949","decile":"5","lat":40.384767591288806,"lng":-111.80929172892046},{"vid":"6375892","name":"Nealie Brakus","party":"Rep","address":"655 N 420 W, American Fork, UT 84003","precinct":"25AF12","hd":"53","v_score":"1.121327652","decile":"3","lat":40.389853361667676,"lng":-111.81019492421252},{"vid":"6380248","name":"Seymour Runolfsson","party":"Dem","address":"428 N 680 W, American Fork, UT 84003","precinct":"25AF12","hd":"53","v_score":"17.19872503","decile":"9","lat":40.38581017545482,"lng":-111.81640001583733},{"vid":"e58ac4a72806ea6399d3ee4979c7bcd2a9ec928135be8b5a6b2c8bae162867ab","name":"Cornell Watsica-Sanford","party":"Rep","address":"583 N 560 W, American Fork, UT 84003","precinct":"25AF12","hd":"53","v_score":"5.40460374","decile":"7","lat":40.3882865342109,"lng":-111.8131429445247},{"vid":"fee7d3ee1f23882c14254c8b2a44633a2a5fe012b4ca9c9837197988e9fd295f","name":"Adaline Hayes","party":"Rep","address":"587 W 580 N, American Fork, UT 84003","precinct":"25AF12","hd":"53","v_score":"19.05886091","decile":"10","lat":40.38788275460991,"lng":-111.81440412411688},{"vid":"6392080","name":"Latosha Durgan DDS","party":"Dem","address":"539 W 600 N, American Fork, UT 84003","precinct":"25AF12","hd":"53","v_score":"5.40460374","decile":"7","lat":40.3884376777599,"lng":-111.81186863821063},{"vid":"6395843","name":"Jaleel Lowe","party":"Rep","address":"502 N 650 W, American Fork, UT 84003","precinct":"25AF12","hd":"53","v_score":"1.193887297","decile":"4","lat":40.387653722621835,"lng":-111.81534817157463},{"vid":"6403310","name":"Ms. Santa Ziemann","party":"","address":"533 N 490 West Cir, American Fork, UT 84003","precinct":"25AF12","hd":"53","v_score":"3.781490609","decile":"6","lat":40.38760449742264,"lng":-111.81142199899543},{"vid":"6403822","name":"Kasie Mosciski","party":"","address":"589 W 630 N, American Fork, UT 84003","precinct":"25AF12","hd":"53","v_score":"5.191257514","decile":"7","lat":40.388995763766445,"lng":-111.81392718400855},{"vid":"6407614","name":"Eula Bernier","party":"Dem","address":"481 N 400 W, American Fork, UT 84003","precinct":"25AF12","hd":"53","v_score":"16.2066738","decile":"9","lat":40.38668909275044,"lng":-111.80929376028081},{"vid":"201eb62491851ad36e806d7bec7981d3a19475a3788b3ef6cb00066131c5ac05","name":"Edith Ruecker","party":"Rep","address":"369 N 450 W, American Fork, UT 84003","precinct":"25AF12","hd":"53","v_score":"15.00919004","decile":"9","lat":40.38455035462885,"lng":-111.81033062336003},{"vid":"6425952","name":"Dr. Mathews Jacobson DDS","party":"Rep","address":"566 N 780 W, American Fork, UT 84003","precinct":"25AF12","hd":"53","v_score":"21.23410193","decile":"10","lat":40.38884927105169,"lng":-111.81860062717311},{"vid":"6432298","name":"Kim Kuvalis-Wilkinson","party":"","address":"682 N 690 W, American Fork, UT 84003","precinct":"25AF12","hd":"53","v_score":"31.79134205","decile":"10","lat":40.39009764152229,"lng":-111.81659977351904},{"vid":"6432615","name":"Colon White","party":"","address":"529 N 780 W, American Fork, UT 84003","precinct":"25AF12","hd":"53","v_score":"37.38087621","decile":"10","lat":40.38840340225758,"lng":-111.81927434069924},{"vid":"6439089","name":"Joseluis Mohr","party":"Rep","address":"455 W 400 N, American Fork, UT 84003","precinct":"25AF12","hd":"53","v_score":"0","decile":"3","lat":40.38502139788262,"lng":-111.81026433571223},{"vid":"6439355","name":"Rosa Hills","party":"Dem","address":"394 N 580 W, American Fork, UT 84003","precinct":"25AF12","hd":"53","v_score":"8.280646305","decile":"8","lat":40.385073106090445,"lng":-111.81424871332693},{"vid":"6444085","name":"Gussie Beatty","party":"","address":"345 N 450 W, American Fork, UT 84003","precinct":"25AF12","hd":"53","v_score":"1.121327652","decile":"3","lat":40.38413874959527,"lng":-111.81033819382225},{"vid":"6446188","name":"Iyanna Gislason","party":"Dem","address":"477 N 520 W, American Fork, UT 84003","precinct":"25AF12","hd":"53","v_score":"3.781490609","decile":"6","lat":40.38665938375474,"lng":-111.81228005642984},{"vid":"6451450","name":"Whit Tremblay","party":"Dem","address":"593 W 630 N, American Fork, UT 84003","precinct":"25AF12","hd":"53","v_score":"11.30205234","decile":"9","lat":40.38908271282553,"lng":-111.81430794713125},{"vid":"6454911","name":"Georgianna Stracke-Gorczany","party":"Rep","address":"554 W 600 N, American Fork, UT 84003","precinct":"25AF12","hd":"53","v_score":"19.77056398","decile":"10","lat":40.388826109708546,"lng":-111.81269328381629},{"vid":"d4ff587471d5d67e761f7e6e9ed0bfc249e29af62bf5c0372b181e4907938849","name":"Ms. Alisha Kovacek","party":"Rep","address":"472 N 680 W, American Fork, UT 84003","precinct":"25AF12","hd":"53","v_score":"2.315214949","decile":"5","lat":40.38690817266004,"lng":-111.8163114236247},{"vid":"6455712","name":"Mrs. Shonda Leffler MD","party":"Rep","address":"751 W 600 N, American Fork, UT 84003","precinct":"25AF12","hd":"53","v_score":"18.21751068","decile":"10","lat":40.38902982535738,"lng":-111.81835561900579},{"vid":"6456014","name":"Birdella Legros-West","party":"Rep","address":"681 N 350 W, American Fork, UT 84003","precinct":"25AF12","hd":"53","v_score":"8.284004873","decile":"8","lat":40.39033003410205,"lng":-111.80829883127768},{"vid":"6457345","name":"Mr. Austen Heidenreich IV","party":"Dem","address":"388 N 520 W, American Fork, UT 84003","precinct":"25AF12","hd":"53","v_score":"1.623113131","decile":"5","lat":40.38479610944158,"lng":-111.81164247269528},{"vid":"6457674","name":"Rustin Hickle","party":"Dem","address":"624 W 460 N, American Fork, UT 84003","precinct":"25AF12","hd":"53","v_score":"3.93832808","decile":"6","lat":40.38660580505342,"lng":-111.81498294431756},{"vid":"6465261","name":"Zaniyah Harvey","party":"Rep","address":"354 N 520 W, American Fork, UT 84003","precinct":"25AF12","hd":"53","v_score":"3.781490609","decile":"6","lat":40.3843845230162,"lng":-111.81165003561166},{"vid":"6466743","name":"Florene Steuber","party":"","address":"595 W 500 N, American Fork, UT 84003","precinct":"25AF12","hd":"53","v_score":"1.121327652","decile":"3","lat":40.386951513393065,"lng":-111.8141095062373},{"vid":"6469784","name":"Maximiliano Nikolaus","party":"","address":"579 W 580 N, American Fork, UT 84003","precinct":"25AF12","hd":"53","v_score":"17.55242504","decile":"9","lat":40.38780696836517,"lng":-111.8140882141505},{"vid":"6473091","name":"Cherish Reinger PhD","party":"Rep","address":"344 N 450 W, American Fork, UT 84003","precinct":"25AF12","hd":"53","v_score":"1.121327652","decile":"3","lat":40.38411166620038,"lng":-111.80971372078967},{"vid":"79b8206a2b85d8b306ee79660eaebe64641c96ba69a03249b4775e20b59cd443","name":"Rossie Schaden","party":"Dem","address":"449 N 680 W, American Fork, UT 84003","precinct":"25AF12","hd":"53","v_score":"8.216702423","decile":"8","lat":40.386414544934865,"lng":-111.81695055045529},{"vid":"6474845","name":"Kathrine Kris","party":"Dem","address":"511 N 490 West Cir, American Fork, UT 84003","precinct":"25AF12","hd":"53","v_score":"15.09529814","decile":"9","lat":40.38725015661341,"lng":-111.81135218607682},{"vid":"6477313","name":"Agness Berge","party":"Dem","address":"485 W Hindley Dr, American Fork, UT 84003","precinct":"25AF12","hd":"53","v_score":"1.193887297","decile":"4","lat":40.383699891493066,"lng":-111.81109524227286},{"vid":"6483678","name":"Needham Crooks V","party":"Dem","address":"364 N 580 W, American Fork, UT 84003","precinct":"25AF12","hd":"53","v_score":"3.93832808","decile":"6","lat":40.38469205825042,"lng":-111.8145340673092},{"vid":"6484629","name":"Alex Mitchell II","party":"Rep","address":"822 W State Rd, American Fork, UT 84003","precinct":"25AF12","hd":"53","v_score":"27.98415776","decile":"10","lat":40.38701040546921,"lng":-111.81995771036175},{"vid":"6496496","name":"Jada Hagenes PhD","party":"Rep","address":"367 N 400 W, American Fork, UT 84003","precinct":"25AF12","hd":"53","v_score":"11.23922619","decile":"9","lat":40.38427413821463,"lng":-111.80930015925009},{"vid":"3819560d8dab7cd469b2a854e4b339861021de248cfa2d22134d2a24973f97fc","name":"Rolando Hayes DVM","party":"Dem","address":"757 W 700 N, American Fork, UT 84003","precinct":"25AF12","hd":"53","v_score":"5.40460374","decile":"7","lat":40.390257909009556,"lng":-111.8189659724184},{"vid":"6502392","name":"Belen Goyette PhD","party":"","address":"528 N 650 W, American Fork, UT 84003","precinct":"25AF12","hd":"53","v_score":"20.39377672","decile":"10","lat":40.387955961426755,"lng":-111.81528043022738},{"vid":"6507415","name":"Dr. River Wintheiser","party":"","address":"561 N 420 W, American Fork, UT 84003","precinct":"25AF12","hd":"53","v_score":"18.44119161","decile":"10","lat":40.38809674430988,"lng":-111.8101745741374},{"vid":"6507574","name":"Tashina Rutherford","party":"Dem","address":"495 W 400 N, American Fork, UT 84003","precinct":"25AF12","hd":"53","v_score":"3.93832808","decile":"6","lat":40.38503282240987,"lng":-111.81120915768975},{"vid":"6507636","name":"Gorge Tromp IV","party":"Dem","address":"367 N 400 W, American Fork, UT 84003","precinct":"25AF12","hd":"53","v_score":"8.280646305","decile":"8","lat":40.38427413821463,"lng":-111.80930015925009},{"vid":"6509880","name":"Kimora Macejkovic","party":"Rep","address":"437 N 480 W, American Fork, UT 84003","precinct":"25AF12","hd":"53","v_score":"19.1624148","decile":"10","lat":40.38594849927016,"lng":-111.81133410872634},{"vid":"6510063","name":"Mr. Evert Kuvalis","party":"Rep","address":"655 N 420 W, American Fork, UT 84003","precinct":"25AF12","hd":"53","v_score":"3.93832808","decile":"6","lat":40.389853361667676,"lng":-111.81019492421252},{"vid":"6510397","name":"Jennifer Block PhD","party":"Rep","address":"748 W 450 N, American Fork, UT 84003","precinct":"25AF12","hd":"53","v_score":"31.28847688","decile":"10","lat":40.38675202501785,"lng":-111.81823610110531},{"vid":"6516916","name":"Aliza Mayert","party":"Rep","address":"647 N 600 W, American Fork, UT 84003","precinct":"25AF12","hd":"53","v_score":"8.570402431","decile":"8","lat":40.38936408814466,"lng":-111.81468817569775},{"vid":"1f7276884db1f4ac8e6c45e6196f01deb54a1d5609b1f705a4bd1c513fb1bb26","name":"Dillan Kub","party":"Dem","address":"426 W 600 N, American Fork, UT 84003","precinct":"25AF12","hd":"53","v_score":"27.99141194","decile":"10","lat":40.3890700192393,"lng":-111.8100514929263},{"vid":"6522496","name":"Dr. Russ Ward","party":"Rep","address":"475 N 560 W, American Fork, UT 84003","precinct":"25AF12","hd":"53","v_score":"37.38087621","decile":"10","lat":40.38646609522497,"lng":-111.81317524183378},{"vid":"6522674","name":"Almer Dooley V","party":"","address":"562 W 630 N, American Fork, UT 84003","precinct":"25AF12","hd":"53","v_score":"6.814370645","decile":"8","lat":40.38938223566491,"lng":-111.81299622145404},{"vid":"6523736","name":"Evaline Breitenberg","party":"","address":"607 W 460 N, American Fork, UT 84003","precinct":"25AF12","hd":"53","v_score":"2.315214949","decile":"5","lat":40.386183034144175,"lng":-111.81466302142643},{"vid":"6524020","name":"Mrs. Bettylou Torp PhD","party":"Dem","address":"443 N 400 W, American Fork, UT 84003","precinct":"25AF12","hd":"53","v_score":"1.193887297","decile":"4","lat":40.385843514860746,"lng":-111.80930086894908},{"vid":"6526277","name":"Monte Predovic","party":"Dem","address":"387 N 520 W, American Fork, UT 84003","precinct":"25AF12","hd":"53","v_score":"11.23922619","decile":"9","lat":40.38481245724993,"lng":-111.81230975443367},{"vid":"6526845","name":"Mr. Dayton Conroy","party":"Rep","address":"531 W 400 N, American Fork, UT 84003","precinct":"25AF12","hd":"53","v_score":"19.74196003","decile":"10","lat":40.38504731562215,"lng":-111.81215531144716},{"vid":"6529072","name":"Kellie Nader","party":"Dem","address":"493 N 560 W, American Fork, UT 84003","precinct":"25AF12","hd":"53","v_score":"13.83018807","decile":"9","lat":40.38696102571557,"lng":-111.81309326588391},{"vid":"6532903","name":"Nola Wolff","party":"","address":"695 N 600 W, American Fork, UT 84003","precinct":"25AF12","hd":"53","v_score":"8.507303088","decile":"8","lat":40.3903330655995,"lng":-111.81443417865815}]