[{"vid":"828492","name":"Mateo Walker","party":"Rep","address":"438 E Adam Cir, Alpine, UT 84004","precinct":"25AL01","hd":"54","v_score":"2.817000428","decile":"6","lat":40.472123625106015,"lng":-111.7699491721695,"phone":"(495) 015-0294","sd":"19","ssbd":"11","lsbd":"School Board Aspen Peaks 4"},{"vid":"1250347","name":"Clovis Ruecker-Luettgen","party":"","address":"1192 Moyle Dr, Alpine, UT 84004","precinct":"25AL01","hd":"54","v_score":"32.46294531","decile":"10","lat":40.4692417649632,"lng":-111.7620060926007,"phone":"(836) 440-3001","sd":"19","ssbd":"11","lsbd":"School Board Aspen Peaks 4"},{"vid":"1253902","name":"Ms. Matilda Cormier","party":"","address":"602 W 600 N, Alpine, UT 84004","precinct":"25AL01","hd":"54","v_score":"27.12787969","decile":"10","lat":40.461729046005296,"lng":-111.789462426005,"phone":"(747) 901-6919","sd":"19","ssbd":"11","lsbd":"School Board Aspen Peaks 4"},{"vid":"1268463","name":"Blane Feil","party":"Dem","address":"1648 Rosanna Cir, Alpine, UT 84004","precinct":"25AL01","hd":"54","v_score":"4.224027","decile":"7","lat":40.474150164175725,"lng":-111.74859400064852,"phone":"(477) 558-2865","sd":"19","ssbd":"11","lsbd":"School Board Aspen Peaks 4"},{"vid":"1289929","name":"Mr. Walton Lebsack","party":"","address":"602 W 600 N, Alpine, UT 84004","precinct":"25AL01","hd":"54","v_score":"29.00546137","decile":"10","lat":40.461729046005296,"lng":-111.789462426005,"phone":"(993) 439-8769","sd":"19","ssbd":"11","lsbd":"School Board Aspen Peaks 4"},{"vid":"1333376","name":"Jacoby Gaylord","party":"Dem","address":"165 W Creekside Ct, Alpine, UT 84004","precinct":"25AL01","hd":"54","v_score":"5.273794831","decile":"7","lat":40.483467380681475,"lng":-111.78085466999948,"phone":"(806) 487-9000","sd":"19","ssbd":"11","lsbd":"School Board Aspen Peaks 4"},{"vid":"7223e549e7211209ce416be56e7b25ef2d7b305b423cbaac08bd43bc19484840","name":"Randolph Gerhold Jr.","party":"","address":"1638 E Box Elder Dr, Alpine, UT 84004","precinct":"25AL01","hd":"54","v_score":"2.315214949","decile":"5","lat":40.474881104536706,"lng":-111.74870243308685,"phone":"(691) 676-8967","sd":"19","ssbd":"11","lsbd":"School Board Aspen Peaks 4"},{"vid":"1391210","name":"Miss Tatyanna Quitzon","party":"","address":"13425 Bayberry Cir, Alpine, UT 84004","precinct":"25AL01","hd":"54","v_score":"28.43903951","decile":"10","lat":40.47649347199495,"lng":-111.76022692768633,"phone":"(476) 565-4147","sd":"19","ssbd":"11","lsbd":"School Board Aspen Peaks 4"},{"vid":"1395495","name":"Mardell Casper-Auer","party":"","address":"13422 Bayberry Cir, Alpine, UT 84004","precinct":"25AL01","hd":"54","v_score":"8.347511332","decile":"8","lat":40.47647870271284,"lng":-111.75970371643305,"phone":"(778) 030-9698","sd":"19","ssbd":"11","lsbd":"School Board Aspen Peaks 4"},{"vid":"1404868","name":"Gaetano Schneider","party":"","address":"1352 N Fort Canyon Rd, Alpine, UT 84004","precinct":"25AL01","hd":"54","v_score":"12.65668843","decile":"9","lat":40.47101002642641,"lng":-111.78065507228854,"phone":"(612) 072-9938","sd":"19","ssbd":"11","lsbd":"School Board Aspen Peaks 4"},{"vid":"1467804","name":"Sydnee Quigley","party":"","address":"1423 E Box Elder Dr, Alpine, UT 84004","precinct":"25AL01","hd":"54","v_score":"1.121327652","decile":"3","lat":40.47548143422255,"lng":-111.7523264275869,"phone":"(458) 630-4321","sd":"19","ssbd":"11","lsbd":"School Board Aspen Peaks 4"},{"vid":"1483689","name":"Dr. Jacques Kuhic","party":"Dem","address":"1192 Moyle Dr, Alpine, UT 84004","precinct":"25AL01","hd":"54","v_score":"19.74156721","decile":"10","lat":40.4692417649632,"lng":-111.7620060926007,"phone":"(191) 629-1743","sd":"19","ssbd":"11","lsbd":"School Board Aspen Peaks 4"},{"vid":"1500873","name":"Kathryne Hammes","party":"","address":"4084 W Alpine Cove Cir, Alpine, UT 84004","precinct":"25AL01","hd":"54","v_score":"8.173821515","decile":"8","lat":40.47912148603897,"lng":-111.75647529292235,"phone":"(933) 940-6631","sd":"19","ssbd":"11","lsbd":"School Board Aspen Peaks 4"},{"vid":"1561032","name":"Trayvon Kilback","party":"","address":"825 W Hog Hollow Rd, Alpine, UT 84004","precinct":"25AL01","hd":"54","v_score":"4.283276088","decile":"7","lat":40.46073337383983,"lng":-111.79393368818981,"phone":"(102) 251-5836","sd":"19","ssbd":"11","lsbd":"School Board Aspen Peaks 4"},{"vid":"1563180","name":"Kirby Stoltenberg","party":"Dem","address":"1270 Moyle Cir, Alpine, UT 84004","precinct":"25AL01","hd":"54","v_score":"0","decile":"1","lat":40.47008216075546,"lng":-111.7604453924257,"phone":"(331) 576-3324","sd":"19","ssbd":"11","lsbd":"School Board Aspen Peaks 4"},{"vid":"1593422","name":"Miss Jeanette Keeling","party":"Dem","address":"1450 N Fort Canyon Rd, Alpine, UT 84004","precinct":"25AL01","hd":"54","v_score":"0","decile":"1","lat":40.474326368465334,"lng":-111.78045197555464,"phone":"(846) 366-0887","sd":"19","ssbd":"11","lsbd":"School Board Aspen Peaks 4"},{"vid":"c168867edf006073dd754e7f14cd8ef55da2ca795b1d86eb590b44ea34249088","name":"Jeannie Gulgowski DDS","party":"Rep","address":"4256 W Alpine Cove Dr, Alpine, UT 84004","precinct":"25AL01","hd":"54","v_score":"3.93832808","decile":"6","lat":40.479288539340814,"lng":-111.76028137214355,"phone":"(940) 278-8438","sd":"19","ssbd":"11","lsbd":"School Board Aspen Peaks 4"},{"vid":"1641698","name":"Ms. Paulette Abbott","party":"","address":"498 E Savannah Cir, Alpine, UT 84004","precinct":"25AL01","hd":"54","v_score":"3.781490609","decile":"6","lat":40.47309794631019,"lng":-111.76917274445752,"phone":"(146) 616-9665","sd":"19","ssbd":"11","lsbd":"School Board Aspen Peaks 4"},{"vid":"1644076","name":"Loy Collier","party":"Rep","address":"906 N Fort Canyon Rd, Alpine, UT 84004","precinct":"25AL01","hd":"54","v_score":"1.121327652","decile":"3","lat":40.46525591121074,"lng":-111.7778990525583,"phone":"(511) 789-6452","sd":"19","ssbd":"11","lsbd":"School Board Aspen Peaks 4"},{"vid":"1669104","name":"Jackie Leannon","party":"","address":"153 E Deer Crest Ln, Alpine, UT 84004","precinct":"25AL01","hd":"54","v_score":"2.315214949","decile":"5","lat":40.46920970186412,"lng":-111.77483872753976,"phone":"(796) 257-9716","sd":"19","ssbd":"11","lsbd":"School Board Aspen Peaks 4"},{"vid":"b4b5f177a2b7ca68b59367bab8a83e82d6c44677682759f4b5872a7fec64a798","name":"Mahala Block","party":"Rep","address":"765 W 600 N, Alpine, UT 84004","precinct":"25AL01","hd":"54","v_score":"6.724398202","decile":"8","lat":40.349171846321696,"lng":-111.73392341372056,"phone":"(311) 975-8044","sd":"19","ssbd":"11","lsbd":"School Board Aspen Peaks 4"},{"vid":"1721864","name":"Jaeden Hartmann Jr.","party":"Rep","address":"703 N Main St, Alpine, UT 84004","precinct":"25AL01","hd":"54","v_score":"15.26393909","decile":"9","lat":40.46235617591305,"lng":-111.77815205521824,"phone":"(335) 785-6581","sd":"19","ssbd":"11","lsbd":"School Board Aspen Peaks 4"},{"vid":"1760051","name":"Miss Alana Bode DVM","party":"","address":"1612 Prospect Ln, Alpine, UT 84004","precinct":"25AL01","hd":"54","v_score":"15.09172736","decile":"9","lat":40.475006446813964,"lng":-111.75347419899032,"phone":"(984) 857-1386","sd":"19","ssbd":"11","lsbd":"School Board Aspen Peaks 4"},{"vid":"1760151","name":"Collins Kiehn","party":"","address":"13441 Grove Dr, Alpine, UT 84004","precinct":"25AL01","hd":"54","v_score":"19.16525368","decile":"10","lat":40.47675718376207,"lng":-111.7569326230169,"phone":"(774) 893-7465","sd":"19","ssbd":"11","lsbd":"School Board Aspen Peaks 4"},{"vid":"d2b05330f50103be4adc8814d168e7c697503a37d6f275e18d20cf67c4b673f7","name":"Miss Kylie Ziemann","party":"Dem","address":"1001 N Fort Canyon Rd, Alpine, UT 84004","precinct":"25AL01","hd":"54","v_score":"1.623113131","decile":"4","lat":40.466660295168225,"lng":-111.78127191562143,"phone":"(296) 673-0270","sd":"19","ssbd":"11","lsbd":"School Board Aspen Peaks 4"},{"vid":"1804455","name":"Toney Lang","party":"Rep","address":"938 N Deer Crest Ln, Alpine, UT 84004","precinct":"25AL01","hd":"54","v_score":"1.193887297","decile":"3","lat":40.46550531293731,"lng":-111.77661243802814,"phone":"(726) 519-4179","sd":"19","ssbd":"11","lsbd":"School Board Aspen Peaks 4"},{"vid":"1854518","name":"Needham Hamill","party":"","address":"1450 N Fort Canyon Rd, Alpine, UT 84004","precinct":"25AL01","hd":"54","v_score":"4.537744632","decile":"7","lat":40.474326368465334,"lng":-111.78045197555464,"phone":"(807) 802-1162","sd":"19","ssbd":"11","lsbd":"School Board Aspen Peaks 4"},{"vid":"1873869","name":"Mr. Bernie Crooks","party":"","address":"1681 E Box Elder Cir, Alpine, UT 84004","precinct":"25AL01","hd":"54","v_score":"18.91187591","decile":"10","lat":40.47283453256969,"lng":-111.74766593664953,"phone":"(809) 039-9569","sd":"19","ssbd":"11","lsbd":"School Board Aspen Peaks 4"},{"vid":"1874871","name":"Jayme Goyette","party":"Dem","address":"1247 Moyle Dr, Alpine, UT 84004","precinct":"25AL01","hd":"54","v_score":"20.7369877","decile":"10","lat":40.469625749638666,"lng":-111.76270945208482,"phone":"(851) 361-6289","sd":"19","ssbd":"11","lsbd":"School Board Aspen Peaks 4"},{"vid":"a83ce5a86e150690e3aa2883bcba75d96a4885c0725868454fed4bbb9349d3ad","name":"Charle Orn","party":"","address":"461 E Adam Cir, Alpine, UT 84004","precinct":"25AL01","hd":"54","v_score":"5.331806201","decile":"7","lat":40.47262282659895,"lng":-111.76974368021044,"phone":"(617) 494-6967","sd":"19","ssbd":"11","lsbd":"School Board Aspen Peaks 4"},{"vid":"1896537","name":"Franz Powlowski","party":"Dem","address":"1681 E Box Elder Cir, Alpine, UT 84004","precinct":"25AL01","hd":"54","v_score":"8.347511332","decile":"8","lat":40.47283453256969,"lng":-111.74766593664953,"phone":"(632) 700-0252","sd":"19","ssbd":"11","lsbd":"School Board Aspen Peaks 4"},{"vid":"1927110","name":"Zavier Quigley","party":"Rep","address":"1192 Moyle Dr, Alpine, UT 84004","precinct":"25AL01","hd":"54","v_score":"17.77840782","decile":"10","lat":40.4692417649632,"lng":-111.7620060926007,"phone":"(921) 305-0208","sd":"19","ssbd":"11","lsbd":"School Board Aspen Peaks 4"},{"vid":"1941487","name":"Kael Weissnat III","party":"","address":"1262 N Heritage Cir, Alpine, UT 84004","precinct":"25AL01","hd":"54","v_score":"5.40460374","decile":"7","lat":40.470026088568936,"lng":-111.77029327931027,"phone":"(467) 682-0358","sd":"19","ssbd":"11","lsbd":"School Board Aspen Peaks 4"},{"vid":"1942778","name":"Lilianna Koelpin","party":"Rep","address":"1612 Prospect Ln, Alpine, UT 84004","precinct":"25AL01","hd":"54","v_score":"15.09172736","decile":"9","lat":40.475006446813964,"lng":-111.75347419899032,"phone":"(198) 064-0787","sd":"19","ssbd":"11","lsbd":"School Board Aspen Peaks 4"},{"vid":"1972865","name":"Lisbeth Lind-Daniel","party":"Dem","address":"1582 N Elk Ridge Ln, Alpine, UT 84004","precinct":"25AL01","hd":"54","v_score":"11.72035151","decile":"9","lat":40.474289628753894,"lng":-111.76703279903376,"phone":"(529) 932-6000","sd":"19","ssbd":"11","lsbd":"School Board Aspen Peaks 4"},{"vid":"2001690","name":"Treyvon Klein","party":"","address":"165 W Creekside Ct, Alpine, UT 84004","precinct":"25AL01","hd":"54","v_score":"6.528952915","decile":"7","lat":40.483467380681475,"lng":-111.78085466999948,"phone":"(204) 315-6378","sd":"19","ssbd":"11","lsbd":"School Board Aspen Peaks 4"},{"vid":"2008398","name":"Dr. Deacon Hoeger DDS","party":"Rep","address":"952 N Fort Canyon Rd, Alpine, UT 84004","precinct":"25AL01","hd":"54","v_score":"5.191257514","decile":"7","lat":40.46664828500126,"lng":-111.77884053895345,"phone":"(821) 598-0332","sd":"19","ssbd":"11","lsbd":"School Board Aspen Peaks 4"},{"vid":"2016623","name":"Dolphus Schumm MD","party":"Rep","address":"1365 E Box Elder Dr, Alpine, UT 84004","precinct":"25AL01","hd":"54","v_score":"7.791860021","decile":"8","lat":40.4754496743473,"lng":-111.7541341318772,"phone":"(819) 996-2526","sd":"19","ssbd":"11","lsbd":"School Board Aspen Peaks 4"},{"vid":"2024717","name":"Ingeborg Auer-Schowalter","party":"Rep","address":"1648 Rosanna Cir, Alpine, UT 84004","precinct":"25AL01","hd":"54","v_score":"1.121327652","decile":"3","lat":40.474150164175725,"lng":-111.74859400064852,"phone":"(276) 918-5345","sd":"19","ssbd":"11","lsbd":"School Board Aspen Peaks 4"},{"vid":"2026898","name":"Achsah Luettgen-Walsh","party":"Dem","address":"574 W 600 N, Alpine, UT 84004","precinct":"25AL01","hd":"54","v_score":"17.13305948","decile":"9","lat":40.46173004057362,"lng":-111.7890256746959,"phone":"(756) 922-0422","sd":"19","ssbd":"11","lsbd":"School Board Aspen Peaks 4"},{"vid":"2036289","name":"Jadyn Windler PhD","party":"Rep","address":"1192 Moyle Dr, Alpine, UT 84004","precinct":"25AL01","hd":"54","v_score":"24.17894044","decile":"10","lat":40.4692417649632,"lng":-111.7620060926007,"phone":"(349) 332-0212","sd":"19","ssbd":"11","lsbd":"School Board Aspen Peaks 4"},{"vid":"2037599","name":"Quiana Kuhic","party":"Dem","address":"1192 Moyle Dr, Alpine, UT 84004","precinct":"25AL01","hd":"54","v_score":"27.89692459","decile":"10","lat":40.4692417649632,"lng":-111.7620060926007,"phone":"(656) 238-4037","sd":"19","ssbd":"11","lsbd":"School Board Aspen Peaks 4"},{"vid":"a4c611e52f728455e833bae4d17e2d74cdd8c18425d3e1687c45ad8c56a50fe9","name":"Merl Eichmann","party":"Dem","address":"168 E Deer Crest Ln, Alpine, UT 84004","precinct":"25AL01","hd":"54","v_score":"9.81714556","decile":"8","lat":40.470067813887646,"lng":-111.77488998568445,"phone":"(213) 963-7237","sd":"19","ssbd":"11","lsbd":"School Board Aspen Peaks 4"},{"vid":"fbbad83f1e7a014f5db01d733c8d4b0e66940d84795de70e3a1f4095487bbb00","name":"Zeno Collins","party":"","address":"13423 N Alpine Cove Dr, Alpine, UT 84004","precinct":"25AL01","hd":"54","v_score":"2.744440783","decile":"5","lat":40.476272311229025,"lng":-111.76352554442724,"phone":"(611) 809-0077","sd":"19","ssbd":"11","lsbd":"School Board Aspen Peaks 4"},{"vid":"edeccb323aa27528c544dabc385bd1fa88da940dc4a4b3008f03912221a2320b","name":"Willow Hilll","party":"","address":"1683 E Box Elder Dr, Alpine, UT 84004","precinct":"25AL01","hd":"54","v_score":"1.121327652","decile":"3","lat":40.47543017221912,"lng":-111.74755847661486,"phone":"(218) 035-8950","sd":"19","ssbd":"11","lsbd":"School Board Aspen Peaks 4"},{"vid":"9d290a51fb12a9d1bf3591d234f4ceb796cbc579ffe8dffc7d0f0d68c7e556d4","name":"Lucian Waters","party":"","address":"1828 N Fort Canyon Rd, Alpine, UT 84004","precinct":"25AL01","hd":"54","v_score":"11.36410258","decile":"9","lat":40.47687992303801,"lng":-111.78178790872624,"phone":"(221) 314-9851","sd":"19","ssbd":"11","lsbd":"School Board Aspen Peaks 4"},{"vid":"9c99afd85077a64d352fa52f8ddf12cd4e3de8afccc32ca0d1e9bb8a944b6282","name":"Kirstin Hane-Legros","party":"Dem","address":"1896 N Fort Canyon Rd, Alpine, UT 84004","precinct":"25AL01","hd":"54","v_score":"2.315214949","decile":"5","lat":40.478373134083924,"lng":-111.77922978042332,"phone":"(510) 812-3073","sd":"19","ssbd":"11","lsbd":"School Board Aspen Peaks 4"},{"vid":"e07f39efc1fc454d5c5c616612a7138905365589c9efeb47f9dc7b8ca0ae40d4","name":"Dr. Russell Legros DDS","party":"Dem","address":"130 W Brookside Ct, Alpine, UT 84004","precinct":"25AL01","hd":"54","v_score":"6.468038869","decile":"7","lat":40.479527101376604,"lng":-111.78031955109832,"phone":"(190) 524-4432","sd":"19","ssbd":"11","lsbd":"School Board Aspen Peaks 4"},{"vid":"2221133","name":"Dr. Annabella Balistreri","party":"","address":"165 W Creekside Ct, Alpine, UT 84004","precinct":"25AL01","hd":"54","v_score":"10.68177684","decile":"9","lat":40.483467380681475,"lng":-111.78085466999948,"phone":"(423) 792-5531","sd":"19","ssbd":"11","lsbd":"School Board Aspen Peaks 4"},{"vid":"2dab6efe8da761c236bd857600280aef1c6b7896f3dbb805e007706fcaa6dbdf","name":"Ms. Metha Ebert DDS","party":"Rep","address":"4301 Oakview Cir, Alpine, UT 84004","precinct":"25AL01","hd":"54","v_score":"1.121327652","decile":"3","lat":40.47695456322969,"lng":-111.76164301414147,"phone":"(857) 750-7834","sd":"19","ssbd":"11","lsbd":"School Board Aspen Peaks 4"},{"vid":"9195a09d8cad5d6766a4771968fc83086716a408b82a6f45ef1733866b76b7d1","name":"Maximo Klein-Hagenes","party":"","address":"1472 N Cherrypoint Ln, Alpine, UT 84004","precinct":"25AL01","hd":"54","v_score":"1.193887297","decile":"3","lat":40.473060250677186,"lng":-111.76183932877932,"phone":"(823) 937-2279","sd":"19","ssbd":"11","lsbd":"School Board Aspen Peaks 4"},{"vid":"2253270","name":"Josefa Frami","party":"","address":"465 W 600 N, Alpine, UT 84004","precinct":"25AL01","hd":"54","v_score":"7.234402762","decile":"8","lat":40.46092613297996,"lng":-111.7869825417125,"phone":"(429) 667-0554","sd":"19","ssbd":"11","lsbd":"School Board Aspen Peaks 4"},{"vid":"2261079","name":"Dr. Joy Bruen","party":"Dem","address":"2525 N Three Falls Dr, Alpine, UT 84004","precinct":"25AL01","hd":"54","v_score":"5.815909755","decile":"7","lat":40.4871711375975,"lng":-111.7782609909317,"phone":"(470) 177-9846","sd":"19","ssbd":"11","lsbd":"School Board Aspen Peaks 4"},{"vid":"d0af4fd5295ece1645e0cd9f9b01b68ee36fffda95c037e6e2e7b98c5f7c4e0b","name":"Canyon Lehner","party":"","address":"2590 N Three Falls Dr, Alpine, UT 84004","precinct":"25AL01","hd":"54","v_score":"4.064235245","decile":"6","lat":40.488307705749996,"lng":-111.77660343859313,"phone":"(932) 318-3456","sd":"19","ssbd":"11","lsbd":"School Board Aspen Peaks 4"},{"vid":"f640785f468e2b2cca4dc8dc926bdac326d3bf123456e879126b1f51d123118c","name":"Ms. Elfie Borer DVM","party":"Rep","address":"915 N Fort Canyon Rd, Alpine, UT 84004","precinct":"25AL01","hd":"54","v_score":"9.35760564","decile":"8","lat":40.46545266288971,"lng":-111.77881315236195,"phone":"(915) 983-2499","sd":"19","ssbd":"11","lsbd":"School Board Aspen Peaks 4"},{"vid":"bcf0c7de731761760cafe3aac3f6d710d2b9374f4b6469e53438597242e93963","name":"Latonia Purdy","party":"Rep","address":"725 W Hog Hollow Rd, Alpine, UT 84004","precinct":"25AL01","hd":"54","v_score":"1.623113131","decile":"5","lat":40.460696858389554,"lng":-111.7915786862842,"phone":"(259) 911-9211","sd":"19","ssbd":"11","lsbd":"School Board Aspen Peaks 4"},{"vid":"f8f9e3c9d206c26a3426529e11b5bb8f342be5de6777073041180da099de7bdf","name":"Jordyn Collier","party":"Rep","address":"1848 N Fort Canyon Rd, Alpine, UT 84004","precinct":"25AL01","hd":"54","v_score":"3.61989409","decile":"6","lat":40.47691933230171,"lng":-111.78100409608939,"phone":"(120) 037-0659","sd":"19","ssbd":"11","lsbd":"School Board Aspen Peaks 4"},{"vid":"2284922","name":"Mr. Lark Gutkowski","party":"Dem","address":"912 N Fort Canyon Rd, Alpine, UT 84004","precinct":"25AL01","hd":"54","v_score":"4.192796624","decile":"7","lat":40.46549505810153,"lng":-111.77824238261668,"phone":"(248) 525-8080","sd":"19","ssbd":"11","lsbd":"School Board Aspen Peaks 4"},{"vid":"2294409","name":"Artelia Swift","party":"Rep","address":"476 E Adam Cir, Alpine, UT 84004","precinct":"25AL01","hd":"54","v_score":"5.360235423","decile":"7","lat":40.472108513001245,"lng":-111.76931165594137,"phone":"(786) 817-3851","sd":"19","ssbd":"11","lsbd":"School Board Aspen Peaks 4"},{"vid":"3b84be46221f4ef650e2cbf0edf52e471aea8566a0a6a869a2611bbc059c277f","name":"Dr. Greta Jakubowski DVM","party":"","address":"13322 Grove Dr, Alpine, UT 84004","precinct":"25AL01","hd":"54","v_score":"5.759908021","decile":"7","lat":40.47354806282802,"lng":-111.76071905942078,"phone":"(382) 134-4619","sd":"19","ssbd":"11","lsbd":"School Board Aspen Peaks 4"},{"vid":"17107ae382a9639b3b3563494c1c8c6784e2301fee8cc2a27e38d23c078f7b62","name":"Rene Fay","party":"Rep","address":"1002 N Apple Creek Cir, Alpine, UT 84004","precinct":"25AL01","hd":"54","v_score":"1.193887297","decile":"3","lat":40.46700011517218,"lng":-111.76034635777695,"phone":"(613) 207-3859","sd":"19","ssbd":"11","lsbd":"School Board Aspen Peaks 4"},{"vid":"2314998","name":"Jordon Jerde","party":"Rep","address":"13425 Bayberry Cir, Alpine, UT 84004","precinct":"25AL01","hd":"54","v_score":"9.119914795","decile":"8","lat":40.47649347199495,"lng":-111.76022692768633,"phone":"(778) 196-5915","sd":"19","ssbd":"11","lsbd":"School Board Aspen Peaks 4"},{"vid":"2320777","name":"Maliah Ernser DDS","party":"Dem","address":"817 N Main St, Alpine, UT 84004","precinct":"25AL01","hd":"54","v_score":"3.737122292","decile":"6","lat":40.46397645431549,"lng":-111.7781857215598,"phone":"(419) 395-0405","sd":"19","ssbd":"11","lsbd":"School Board Aspen Peaks 4"},{"vid":"2331930","name":"Magdalene Hamill","party":"","address":"915 N Fort Canyon Rd, Alpine, UT 84004","precinct":"25AL01","hd":"54","v_score":"6.462591196","decile":"7","lat":40.46545266288971,"lng":-111.77881315236195,"phone":"(840) 438-3415","sd":"19","ssbd":"11","lsbd":"School Board Aspen Peaks 4"},{"vid":"2352179","name":"Nan Hilpert","party":"","address":"1430 N Fort Canyon Rd, Alpine, UT 84004","precinct":"25AL01","hd":"54","v_score":"9.40499548","decile":"8","lat":40.47225260140954,"lng":-111.7810437335108,"phone":"(217) 276-4688","sd":"19","ssbd":"11","lsbd":"School Board Aspen Peaks 4"},{"vid":"2366747","name":"Dorris Cassin","party":"","address":"432 E Adam Cir, Alpine, UT 84004","precinct":"25AL01","hd":"54","v_score":"2.315214949","decile":"5","lat":40.4725021965726,"lng":-111.77004017828419,"phone":"(760) 132-2078","sd":"19","ssbd":"11","lsbd":"School Board Aspen Peaks 4"},{"vid":"2392186","name":"Mr. Taft Metz V","party":"Rep","address":"4084 W Alpine Cove Cir, Alpine, UT 84004","precinct":"25AL01","hd":"54","v_score":"2.315214949","decile":"5","lat":40.47912148603897,"lng":-111.75647529292235,"phone":"(923) 849-1466","sd":"19","ssbd":"11","lsbd":"School Board Aspen Peaks 4"},{"vid":"2393249","name":"Dannie Kunde Sr.","party":"Dem","address":"13322 Grove Dr, Alpine, UT 84004","precinct":"25AL01","hd":"54","v_score":"1.121327652","decile":"3","lat":40.47354806282802,"lng":-111.76071905942078,"phone":"(336) 330-4861","sd":"19","ssbd":"11","lsbd":"School Board Aspen Peaks 4"},{"vid":"2400837","name":"Attie Kshlerin","party":"","address":"1584 N Eliza Cir, Alpine, UT 84004","precinct":"25AL01","hd":"54","v_score":"1.623113131","decile":"5","lat":40.474572802525586,"lng":-111.76524572493676,"phone":"(750) 930-0840","sd":"19","ssbd":"11","lsbd":"School Board Aspen Peaks 4"},{"vid":"2408018","name":"Cass Macejkovic I","party":"Rep","address":"1500 N Fort Canyon Rd, Alpine, UT 84004","precinct":"25AL01","hd":"54","v_score":"12.91898447","decile":"9","lat":40.47335867043004,"lng":-111.78144092141964,"phone":"(175) 898-2532","sd":"19","ssbd":"11","lsbd":"School Board Aspen Peaks 4"},{"vid":"2412710","name":"Sherlyn Murphy","party":"Dem","address":"1212 N Heritage Cir, Alpine, UT 84004","precinct":"25AL01","hd":"54","v_score":"2.315214949","decile":"5","lat":40.469357091285005,"lng":-111.77001707160595,"phone":"(597) 746-6098","sd":"19","ssbd":"11","lsbd":"School Board Aspen Peaks 4"},{"vid":"2422643","name":"Dr. Sandy Krajcik II","party":"Rep","address":"1073 N Heritage Hills Dr, Alpine, UT 84004","precinct":"25AL01","hd":"54","v_score":"1.193887297","decile":"3","lat":40.46763365276478,"lng":-111.77470203764032,"phone":"(669) 824-9447","sd":"19","ssbd":"11","lsbd":"School Board Aspen Peaks 4"},{"vid":"2422670","name":"Kendra Cartwright","party":"","address":"1073 N Heritage Hills Dr, Alpine, UT 84004","precinct":"25AL01","hd":"54","v_score":"1.193887297","decile":"3","lat":40.46763365276478,"lng":-111.77470203764032,"phone":"(429) 899-8220","sd":"19","ssbd":"11","lsbd":"School Board Aspen Peaks 4"},{"vid":"2426471","name":"Mr. Kareem Jacobs","party":"Rep","address":"2590 N Three Falls Dr, Alpine, UT 84004","precinct":"25AL01","hd":"54","v_score":"2.315214949","decile":"5","lat":40.488307705749996,"lng":-111.77660343859313,"phone":"(897) 812-3161","sd":"19","ssbd":"11","lsbd":"School Board Aspen Peaks 4"},{"vid":"2458813","name":"Mr. Laurance Lebsack","party":"","address":"1002 N Apple Creek Cir, Alpine, UT 84004","precinct":"25AL01","hd":"54","v_score":"1.121327652","decile":"3","lat":40.46700011517218,"lng":-111.76034635777695,"phone":"(361) 033-8379","sd":"19","ssbd":"11","lsbd":"School Board Aspen Peaks 4"},{"vid":"2471888","name":"Alijah Vandervort","party":"","address":"1331 E Box Elder Way, Alpine, UT 84004","precinct":"25AL01","hd":"54","v_score":"14.96482173","decile":"9","lat":40.472727856980605,"lng":-111.75428804792652,"phone":"(257) 706-9439","sd":"19","ssbd":"11","lsbd":"School Board Aspen Peaks 4"},{"vid":"2485990","name":"Dorris Pouros III","party":"Dem","address":"117 E Deer Crest Ln, Alpine, UT 84004","precinct":"25AL01","hd":"54","v_score":"1.193887297","decile":"3","lat":40.4688619243556,"lng":-111.77558647320257,"phone":"(870) 070-4816","sd":"19","ssbd":"11","lsbd":"School Board Aspen Peaks 4"},{"vid":"2495531","name":"Simmie Bernier","party":"Rep","address":"909 N Fort Canyon Rd, Alpine, UT 84004","precinct":"25AL01","hd":"54","v_score":"4.639704383","decile":"7","lat":40.465245228604765,"lng":-111.77895887542311,"phone":"(406) 920-3760","sd":"19","ssbd":"11","lsbd":"School Board Aspen Peaks 4"},{"vid":"2507323","name":"Trinidad Zieme-Breitenberg","party":"Dem","address":"1365 E Box Elder Dr, Alpine, UT 84004","precinct":"25AL01","hd":"54","v_score":"1.193887297","decile":"3","lat":40.4754496743473,"lng":-111.7541341318772,"phone":"(754) 694-9259","sd":"19","ssbd":"11","lsbd":"School Board Aspen Peaks 4"},{"vid":"2507618","name":"Abril Barrows DVM","party":"","address":"602 W 600 N, Alpine, UT 84004","precinct":"25AL01","hd":"54","v_score":"43.20259045","decile":"10","lat":40.461729046005296,"lng":-111.789462426005,"phone":"(521) 203-4296","sd":"19","ssbd":"11","lsbd":"School Board Aspen Peaks 4"},{"vid":"2518278","name":"Deliah Gusikowski","party":"Rep","address":"909 N Fort Canyon Rd, Alpine, UT 84004","precinct":"25AL01","hd":"54","v_score":"0","decile":"1","lat":40.465245228604765,"lng":-111.77895887542311,"phone":"(498) 780-2177","sd":"19","ssbd":"11","lsbd":"School Board Aspen Peaks 4"},{"vid":"2558869","name":"Dr. Clabe Streich DDS","party":"Rep","address":"2629 N Three Falls Dr, Alpine, UT 84004","precinct":"25AL01","hd":"54","v_score":"1.193887297","decile":"4","lat":40.48908713782637,"lng":-111.77601225991482,"phone":"(631) 420-6533","sd":"19","ssbd":"11","lsbd":"School Board Aspen Peaks 4"},{"vid":"2567285","name":"Monique Fisher","party":"Rep","address":"1002 N Apple Creek Cir, Alpine, UT 84004","precinct":"25AL01","hd":"54","v_score":"1.193887297","decile":"4","lat":40.46700011517218,"lng":-111.76034635777695,"phone":"(290) 009-2722","sd":"19","ssbd":"11","lsbd":"School Board Aspen Peaks 4"},{"vid":"2577719","name":"Nira Kozey","party":"","address":"817 N Main St, Alpine, UT 84004","precinct":"25AL01","hd":"54","v_score":"1.193887297","decile":"4","lat":40.46397645431549,"lng":-111.7781857215598,"phone":"(816) 278-8765","sd":"19","ssbd":"11","lsbd":"School Board Aspen Peaks 4"},{"vid":"2581023","name":"Christ Moen","party":"Rep","address":"1001 N Fort Canyon Rd, Alpine, UT 84004","precinct":"25AL01","hd":"54","v_score":"0","decile":"1","lat":40.466660295168225,"lng":-111.78127191562143,"phone":"(870) 180-2966","sd":"19","ssbd":"11","lsbd":"School Board Aspen Peaks 4"},{"vid":"2588032","name":"Johnpaul Johns-Collins","party":"Dem","address":"130 W Brookside Ct, Alpine, UT 84004","precinct":"25AL01","hd":"54","v_score":"0","decile":"1","lat":40.479527101376604,"lng":-111.78031955109832,"phone":"(482) 567-4549","sd":"19","ssbd":"11","lsbd":"School Board Aspen Peaks 4"},{"vid":"2594336","name":"Sherree Hahn","party":"Rep","address":"13334 N Alpine Cove Dr, Alpine, UT 84004","precinct":"25AL01","hd":"54","v_score":"1.193887297","decile":"4","lat":40.47461222995746,"lng":-111.76118168347423,"phone":"(455) 470-8731","sd":"19","ssbd":"11","lsbd":"School Board Aspen Peaks 4"},{"vid":"2600293","name":"Arkie Kassulke-Ward","party":"","address":"1681 E Box Elder Cir, Alpine, UT 84004","precinct":"25AL01","hd":"54","v_score":"3.711952487","decile":"6","lat":40.47283453256969,"lng":-111.74766593664953,"phone":"(768) 339-6286","sd":"19","ssbd":"11","lsbd":"School Board Aspen Peaks 4"},{"vid":"2612647","name":"Tamekia Beahan MD","party":"Dem","address":"706 W 600 N, Alpine, UT 84004","precinct":"25AL01","hd":"54","v_score":"1.193887297","decile":"4","lat":40.461689554123424,"lng":-111.79137522008818,"phone":"(350) 304-3946","sd":"19","ssbd":"11","lsbd":"School Board Aspen Peaks 4"},{"vid":"2616334","name":"Azaria Schneider","party":"","address":"1450 N Fort Canyon Rd, Alpine, UT 84004","precinct":"25AL01","hd":"54","v_score":"1.193887297","decile":"4","lat":40.474326368465334,"lng":-111.78045197555464,"phone":"(843) 597-7962","sd":"19","ssbd":"11","lsbd":"School Board Aspen Peaks 4"},{"vid":"2630392","name":"Jim Pouros","party":"Rep","address":"253 E Deer Crest Cir, Alpine, UT 84004","precinct":"25AL01","hd":"54","v_score":"1.193887297","decile":"4","lat":40.470680099188975,"lng":-111.77347994969836,"phone":"(592) 838-7231","sd":"19","ssbd":"11","lsbd":"School Board Aspen Peaks 4"},{"vid":"2634490","name":"Enid Mertz-Lockman","party":"","address":"1500 N Fort Canyon Rd, Alpine, UT 84004","precinct":"25AL01","hd":"54","v_score":"11.79765681","decile":"9","lat":40.47335867043004,"lng":-111.78144092141964,"phone":"(538) 219-8076","sd":"19","ssbd":"11","lsbd":"School Board Aspen Peaks 4"},{"vid":"2648108","name":"Arland McGlynn","party":"Dem","address":"574 W 600 N, Alpine, UT 84004","precinct":"25AL01","hd":"54","v_score":"0","decile":"1","lat":40.46173004057362,"lng":-111.7890256746959,"phone":"(969) 805-1925","sd":"19","ssbd":"11","lsbd":"School Board Aspen Peaks 4"},{"vid":"2649422","name":"Zavier Schmeler-Nienow","party":"Rep","address":"1413 E Box Elder Way, Alpine, UT 84004","precinct":"25AL01","hd":"54","v_score":"5.407962308","decile":"7","lat":40.47271402983408,"lng":-111.75278661364212,"phone":"(252) 173-3907","sd":"19","ssbd":"11","lsbd":"School Board Aspen Peaks 4"},{"vid":"2667310","name":"Doc Jones DDS","party":"Rep","address":"1571 E Box Elder Cir, Alpine, UT 84004","precinct":"25AL01","hd":"54","v_score":"0","decile":"1","lat":40.47280119711852,"lng":-111.74975738455025,"phone":"(957) 250-3467","sd":"19","ssbd":"11","lsbd":"School Board Aspen Peaks 4"},{"vid":"2669309","name":"Mikal Rowe","party":"Rep","address":"1430 N Fort Canyon Rd, Alpine, UT 84004","precinct":"25AL01","hd":"54","v_score":"2.876042565","decile":"6","lat":40.47225260140954,"lng":-111.7810437335108,"phone":"(592) 277-9751","sd":"19","ssbd":"11","lsbd":"School Board Aspen Peaks 4"},{"vid":"2674987","name":"Mr. Markell Olson MD","party":"Dem","address":"13506 Oakridge Dr, Alpine, UT 84004","precinct":"25AL01","hd":"54","v_score":"0","decile":"2","lat":40.4776080755346,"lng":-111.75761679928827,"phone":"(912) 626-9011","sd":"19","ssbd":"11","lsbd":"School Board Aspen Peaks 4"},{"vid":"2689915","name":"Malcom Keebler","party":"","address":"4184 W Alpine Cove Dr, Alpine, UT 84004","precinct":"25AL01","hd":"54","v_score":"4.905839784","decile":"7","lat":40.479095577775375,"lng":-111.75889997781388,"phone":"(242) 957-2029","sd":"19","ssbd":"11","lsbd":"School Board Aspen Peaks 4"},{"vid":"2689916","name":"Benjamen Doyle","party":"","address":"4184 W Alpine Cove Dr, Alpine, UT 84004","precinct":"25AL01","hd":"54","v_score":"0","decile":"2","lat":40.479095577775375,"lng":-111.75889997781388,"phone":"(643) 218-7441","sd":"19","ssbd":"11","lsbd":"School Board Aspen Peaks 4"},{"vid":"2693722","name":"Delbert Collier","party":"Rep","address":"516 E Savannah Cir, Alpine, UT 84004","precinct":"25AL01","hd":"54","v_score":"0","decile":"2","lat":40.4733600666441,"lng":-111.76871717313362,"phone":"(808) 696-1611","sd":"19","ssbd":"11","lsbd":"School Board Aspen Peaks 4"},{"vid":"2698205","name":"Ilo Nikolaus-Hettinger","party":"Dem","address":"13423 N Alpine Cove Dr, Alpine, UT 84004","precinct":"25AL01","hd":"54","v_score":"0","decile":"2","lat":40.476272311229025,"lng":-111.76352554442724,"phone":"(280) 846-8234","sd":"19","ssbd":"11","lsbd":"School Board Aspen Peaks 4"},{"vid":"2705341","name":"Miss Liz Oberbrunner PhD","party":"Rep","address":"706 W 600 N, Alpine, UT 84004","precinct":"25AL01","hd":"54","v_score":"1.193887297","decile":"4","lat":40.461689554123424,"lng":-111.79137522008818,"phone":"(985) 756-9852","sd":"19","ssbd":"11","lsbd":"School Board Aspen Peaks 4"},{"vid":"2706128","name":"Ellie VonRueden","party":"Rep","address":"4184 W Alpine Cove Dr, Alpine, UT 84004","precinct":"25AL01","hd":"54","v_score":"1.193887297","decile":"4","lat":40.479095577775375,"lng":-111.75889997781388,"phone":"(644) 603-3656","sd":"19","ssbd":"11","lsbd":"School Board Aspen Peaks 4"},{"vid":"2712574","name":"Marely Cormier","party":"Rep","address":"2590 N Three Falls Dr, Alpine, UT 84004","precinct":"25AL01","hd":"54","v_score":"0","decile":"2","lat":40.488307705749996,"lng":-111.77660343859313,"phone":"(502) 929-2150","sd":"19","ssbd":"11","lsbd":"School Board Aspen Peaks 4"},{"vid":"2713509","name":"Ms. Chloie Moen PhD","party":"Rep","address":"4256 W Alpine Cove Dr, Alpine, UT 84004","precinct":"25AL01","hd":"54","v_score":"1.193887297","decile":"4","lat":40.479288539340814,"lng":-111.76028137214355,"phone":"(123) 451-3971","sd":"19","ssbd":"11","lsbd":"School Board Aspen Peaks 4"},{"vid":"2730900","name":"Marla Simonis MD","party":"","address":"1443 E Box Elder Dr, Alpine, UT 84004","precinct":"25AL01","hd":"54","v_score":"7.781882349","decile":"8","lat":40.47480008368477,"lng":-111.75204187263688,"phone":"(510) 622-8380","sd":"19","ssbd":"11","lsbd":"School Board Aspen Peaks 4"},{"vid":"2741619","name":"Cris Ward","party":"Rep","address":"2525 N Three Falls Dr, Alpine, UT 84004","precinct":"25AL01","hd":"54","v_score":"7.090117576","decile":"8","lat":40.4871711375975,"lng":-111.7782609909317,"phone":"(649) 270-5486","sd":"19","ssbd":"11","lsbd":"School Board Aspen Peaks 4"},{"vid":"2752419","name":"Hallie Krajcik","party":"Dem","address":"13293 Grove Dr, Alpine, UT 84004","precinct":"25AL01","hd":"54","v_score":"1.193887297","decile":"4","lat":40.474181442687254,"lng":-111.76303227022214,"phone":"(953) 124-9666","sd":"19","ssbd":"11","lsbd":"School Board Aspen Peaks 4"},{"vid":"2771039","name":"Mr. Reason Daniel","party":"","address":"542 E Three Falls Dr, Alpine, UT 84004","precinct":"25AL01","hd":"54","v_score":"0","decile":"2","lat":40.48590606391113,"lng":-111.7684995233071,"phone":"(475) 068-6300","sd":"19","ssbd":"11","lsbd":"School Board Aspen Peaks 4"},{"vid":"2798365","name":"Samie Prosacco-Bogisich","party":"","address":"470 E Savannah Cir, Alpine, UT 84004","precinct":"25AL01","hd":"54","v_score":"1.193887297","decile":"4","lat":40.47331977336283,"lng":-111.76949474625927,"phone":"(164) 886-4810","sd":"19","ssbd":"11","lsbd":"School Board Aspen Peaks 4"},{"vid":"2799604","name":"Zhane Predovic-Abshire","party":"Dem","address":"557 N 400 W, Alpine, UT 84004","precinct":"25AL01","hd":"54","v_score":"0","decile":"2","lat":40.46044523065205,"lng":-111.78660887106085,"phone":"(688) 249-5399","sd":"19","ssbd":"11","lsbd":"School Board Aspen Peaks 4"},{"vid":"2802873","name":"Rustin Hodkiewicz","party":"","address":"13506 Oakridge Dr, Alpine, UT 84004","precinct":"25AL01","hd":"54","v_score":"0","decile":"2","lat":40.4776080755346,"lng":-111.75761679928827,"phone":"(360) 370-9091","sd":"19","ssbd":"11","lsbd":"School Board Aspen Peaks 4"},{"vid":"2806084","name":"Mr. Zed Kihn V","party":"Rep","address":"168 E Deer Crest Ln, Alpine, UT 84004","precinct":"25AL01","hd":"54","v_score":"0","decile":"2","lat":40.470067813887646,"lng":-111.77488998568445,"phone":"(795) 089-3983","sd":"19","ssbd":"11","lsbd":"School Board Aspen Peaks 4"},{"vid":"2820677","name":"Tavares Mertz","party":"","address":"1551 E Box Elder Cir, Alpine, UT 84004","precinct":"25AL01","hd":"54","v_score":"8.284004873","decile":"8","lat":40.47283844714853,"lng":-111.75037934448596,"phone":"(720) 974-7318","sd":"19","ssbd":"11","lsbd":"School Board Aspen Peaks 4"},{"vid":"2839067","name":"Merrily Kuhic","party":"Dem","address":"989 N Apple Creek Cir, Alpine, UT 84004","precinct":"25AL01","hd":"54","v_score":"1.193887297","decile":"4","lat":40.46654845681446,"lng":-111.76126010375191,"phone":"(739) 390-4930","sd":"19","ssbd":"11","lsbd":"School Board Aspen Peaks 4"},{"vid":"2843876","name":"Erick Corkery","party":"Rep","address":"117 E Deer Crest Ln, Alpine, UT 84004","precinct":"25AL01","hd":"54","v_score":"1.193887297","decile":"4","lat":40.4688619243556,"lng":-111.77558647320257,"phone":"(876) 565-0676","sd":"19","ssbd":"11","lsbd":"School Board Aspen Peaks 4"},{"vid":"2848728","name":"Treyton Senger-Berge","party":"Rep","address":"4256 W Alpine Cove Dr, Alpine, UT 84004","precinct":"25AL01","hd":"54","v_score":"1.193887297","decile":"4","lat":40.479288539340814,"lng":-111.76028137214355,"phone":"(126) 716-3743","sd":"19","ssbd":"11","lsbd":"School Board Aspen Peaks 4"},{"vid":"2848781","name":"Dr. Buford Anderson","party":"","address":"1368 N Fort Canyon Rd, Alpine, UT 84004","precinct":"25AL01","hd":"54","v_score":"1.193887297","decile":"4","lat":40.47166450533031,"lng":-111.78021509819581,"phone":"(625) 635-6202","sd":"19","ssbd":"11","lsbd":"School Board Aspen Peaks 4"},{"vid":"2857436","name":"Dr. Yaritza Kessler MD","party":"","address":"989 N Apple Creek Cir, Alpine, UT 84004","precinct":"25AL01","hd":"54","v_score":"1.193887297","decile":"4","lat":40.46654845681446,"lng":-111.76126010375191,"phone":"(411) 580-9604","sd":"19","ssbd":"11","lsbd":"School Board Aspen Peaks 4"},{"vid":"2863796","name":"Ibrahim Hoppe","party":"","address":"1212 N Heritage Cir, Alpine, UT 84004","precinct":"25AL01","hd":"54","v_score":"1.193887297","decile":"4","lat":40.469357091285005,"lng":-111.77001707160595,"phone":"(580) 784-0619","sd":"19","ssbd":"11","lsbd":"School Board Aspen Peaks 4"},{"vid":"2875634","name":"Miss Kris Krajcik","party":"","address":"2304 N Three Falls Dr, Alpine, UT 84004","precinct":"25AL01","hd":"54","v_score":"1.193887297","decile":"4","lat":40.48437013111631,"lng":-111.77955821883067,"phone":"(329) 927-5059","sd":"19","ssbd":"11","lsbd":"School Board Aspen Peaks 4"},{"vid":"2880869","name":"Lissette Zemlak","party":"","address":"1473 E Box Elder Way, Alpine, UT 84004","precinct":"25AL01","hd":"54","v_score":"1.193887297","decile":"4","lat":40.4725659076086,"lng":-111.75155491274818,"phone":"(824) 331-5729","sd":"19","ssbd":"11","lsbd":"School Board Aspen Peaks 4"},{"vid":"2883363","name":"Mr. Dimitrios Lesch PhD","party":"","address":"4084 W Alpine Cove Cir, Alpine, UT 84004","precinct":"25AL01","hd":"54","v_score":"1.193887297","decile":"4","lat":40.47912148603897,"lng":-111.75647529292235,"phone":"(498) 704-0561","sd":"19","ssbd":"11","lsbd":"School Board Aspen Peaks 4"},{"vid":"2895169","name":"Mr. Mikal McKenzie DDS","party":"Rep","address":"1584 N Eliza Cir, Alpine, UT 84004","precinct":"25AL01","hd":"54","v_score":"0","decile":"2","lat":40.474572802525586,"lng":-111.76524572493676,"phone":"(776) 655-9402","sd":"19","ssbd":"11","lsbd":"School Board Aspen Peaks 4"},{"vid":"2900147","name":"Maribel Kautzer-Romaguera","party":"Dem","address":"1517 N Grove Dr, Alpine, UT 84004","precinct":"25AL01","hd":"54","v_score":"0","decile":"2","lat":40.473241313209876,"lng":-111.76435544970866,"phone":"(160) 550-4782","sd":"19","ssbd":"11","lsbd":"School Board Aspen Peaks 4"},{"vid":"2925245","name":"Sariah Reichel","party":"","address":"1413 E Box Elder Way, Alpine, UT 84004","precinct":"25AL01","hd":"54","v_score":"7.090117576","decile":"8","lat":40.47271402983408,"lng":-111.75278661364212,"phone":"(739) 499-6851","sd":"19","ssbd":"11","lsbd":"School Board Aspen Peaks 4"},{"vid":"2926017","name":"Susie Parker","party":"","address":"4251 W Alpine Cove Dr, Alpine, UT 84004","precinct":"25AL01","hd":"54","v_score":"7.090117576","decile":"8","lat":40.47862105491988,"lng":-111.76047737822468,"phone":"(835) 520-9885","sd":"19","ssbd":"11","lsbd":"School Board Aspen Peaks 4"},{"vid":"2957467","name":"Almira Rowe","party":"Dem","address":"615 W 600 N, Alpine, UT 84004","precinct":"25AL01","hd":"54","v_score":"0","decile":"2","lat":40.461021333271766,"lng":-111.78934552320503,"phone":"(293) 280-0378","sd":"19","ssbd":"11","lsbd":"School Board Aspen Peaks 4"},{"vid":"2973280","name":"Fount Lakin","party":"Rep","address":"825 W 600 N, Alpine, UT 84004","precinct":"25AL01","hd":"54","v_score":"0","decile":"2","lat":40.34924839852565,"lng":-111.73759236885618,"phone":"(301) 432-0132","sd":"19","ssbd":"11","lsbd":"School Board Aspen Peaks 4"},{"vid":"2974224","name":"Angelo Herzog","party":"Rep","address":"162 W Creekside Ct, Alpine, UT 84004","precinct":"25AL01","hd":"54","v_score":"0","decile":"2","lat":40.48394196566699,"lng":-111.7808651996273,"phone":"(704) 262-5428","sd":"19","ssbd":"11","lsbd":"School Board Aspen Peaks 4"},{"vid":"3011243","name":"Ingeborg Conroy","party":"","address":"13293 Grove Dr, Alpine, UT 84004","precinct":"25AL01","hd":"54","v_score":"15.23584683","decile":"9","lat":40.474181442687254,"lng":-111.76303227022214,"phone":"(797) 368-3863","sd":"19","ssbd":"11","lsbd":"School Board Aspen Peaks 4"},{"vid":"3044504","name":"Kathaleen Hickle","party":"Dem","address":"1627 N Elk Ridge Ln, Alpine, UT 84004","precinct":"25AL01","hd":"54","v_score":"2.315214949","decile":"5","lat":40.475220634653766,"lng":-111.767197660333,"phone":"(499) 982-0104","sd":"19","ssbd":"11","lsbd":"School Board Aspen Peaks 4"},{"vid":"3056168","name":"Cicero O'Reilly-Sanford","party":"","address":"1692 N Dean Ct, Alpine, UT 84004","precinct":"25AL01","hd":"54","v_score":"4.214075011","decile":"7","lat":40.4763536793198,"lng":-111.76453990601021,"phone":"(888) 179-6458","sd":"19","ssbd":"11","lsbd":"School Board Aspen Peaks 4"},{"vid":"3116274","name":"Mr. Ladarius Glover III","party":"Rep","address":"13334 N Alpine Cove Dr, Alpine, UT 84004","precinct":"25AL01","hd":"54","v_score":"2.315214949","decile":"5","lat":40.47461222995746,"lng":-111.76118168347423,"phone":"(100) 127-2148","sd":"19","ssbd":"11","lsbd":"School Board Aspen Peaks 4"},{"vid":"3148297","name":"Ms. Julianna Hand DDS","party":"Rep","address":"724 E Zachary Way, Alpine, UT 84004","precinct":"25AL01","hd":"54","v_score":"1.623113131","decile":"5","lat":40.472176733444414,"lng":-111.76517230909943,"phone":"(185) 430-4281","sd":"19","ssbd":"11","lsbd":"School Board Aspen Peaks 4"},{"vid":"3148307","name":"Coralie Hessel","party":"Dem","address":"253 E Deer Crest Cir, Alpine, UT 84004","precinct":"25AL01","hd":"54","v_score":"6.192088139","decile":"7","lat":40.470680099188975,"lng":-111.77347994969836,"phone":"(831) 739-1694","sd":"19","ssbd":"11","lsbd":"School Board Aspen Peaks 4"},{"vid":"3210019","name":"Verne Torphy","party":"","address":"1430 N Fort Canyon Rd, Alpine, UT 84004","precinct":"25AL01","hd":"54","v_score":"22.20326336","decile":"10","lat":40.47225260140954,"lng":-111.7810437335108,"phone":"(914) 926-9904","sd":"19","ssbd":"11","lsbd":"School Board Aspen Peaks 4"},{"vid":"3210129","name":"Celestine Koepp","party":"","address":"1430 N Fort Canyon Rd, Alpine, UT 84004","precinct":"25AL01","hd":"54","v_score":"25.14617095","decile":"10","lat":40.47225260140954,"lng":-111.7810437335108,"phone":"(915) 555-2694","sd":"19","ssbd":"11","lsbd":"School Board Aspen Peaks 4"},{"vid":"3250408","name":"Almon Boehm","party":"Dem","address":"799 E Alpine Blvd, Alpine, UT 84004","precinct":"25AL01","hd":"54","v_score":"7.995565619","decile":"8","lat":40.46600132432996,"lng":-111.76377447908334,"phone":"(493) 309-3405","sd":"19","ssbd":"11","lsbd":"School Board Aspen Peaks 4"},{"vid":"3339571","name":"Theresa Cole PhD","party":"","address":"2629 N Three Falls Dr, Alpine, UT 84004","precinct":"25AL01","hd":"54","v_score":"9.050194508","decile":"8","lat":40.48908713782637,"lng":-111.77601225991482,"phone":"(685) 737-6329","sd":"19","ssbd":"11","lsbd":"School Board Aspen Peaks 4"},{"vid":"3339594","name":"Lex Cormier","party":"","address":"2629 N Three Falls Dr, Alpine, UT 84004","precinct":"25AL01","hd":"54","v_score":"10.92777618","decile":"9","lat":40.48908713782637,"lng":-111.77601225991482,"phone":"(772) 110-9876","sd":"19","ssbd":"11","lsbd":"School Board Aspen Peaks 4"},{"vid":"3566708","name":"Vernon Effertz-Kuphal","party":"","address":"2590 N Three Falls Dr, Alpine, UT 84004","precinct":"25AL01","hd":"54","v_score":"18.57741897","decile":"10","lat":40.488307705749996,"lng":-111.77660343859313,"phone":"(767) 007-8442","sd":"19","ssbd":"11","lsbd":"School Board Aspen Peaks 4"},{"vid":"4201571","name":"Mrs. Madelyn Williamson PhD","party":"","address":"703 N Main St, Alpine, UT 84004","precinct":"25AL01","hd":"54","v_score":"11.02844566","decile":"9","lat":40.46235617591305,"lng":-111.77815205521824,"phone":"(105) 698-9151","sd":"19","ssbd":"11","lsbd":"School Board Aspen Peaks 4"},{"vid":"5868474","name":"Luster Cronin-O'Hara","party":"","address":"837 N Main St, Alpine, UT 84004","precinct":"25AL01","hd":"54","v_score":"10.66687182","decile":"9","lat":40.46429217634733,"lng":-111.77809201416025,"phone":"(314) 263-6092","sd":"19","ssbd":"11","lsbd":"School Board Aspen Peaks 4"},{"vid":"5946892","name":"Dr. Cecilia Bechtelar","party":"Dem","address":"671 N Main St, Alpine, UT 84004","precinct":"25AL01","hd":"54","v_score":"11.02844566","decile":"9","lat":40.46195714482809,"lng":-111.7781590433925,"phone":"(506) 762-0264","sd":"19","ssbd":"11","lsbd":"School Board Aspen Peaks 4"},{"vid":"d4f6e25dc74ac5d81ce943d8985fbd97b92d4eb39bb1eb64e70d99882e2b32c7","name":"Shelva Kemmer-Cruickshank","party":"Dem","address":"1118 N Moyle Dr, Alpine, UT 84004","precinct":"25AL01","hd":"54","v_score":"1.121327652","decile":"3","lat":40.4681521294462,"lng":-111.76226218824709,"phone":"(366) 475-8974","sd":"19","ssbd":"11","lsbd":"School Board Aspen Peaks 4"},{"vid":"6215423","name":"Lexis Stehr","party":"","address":"1450 N Fort Canyon Rd, Alpine, UT 84004","precinct":"25AL01","hd":"54","v_score":"19.23609846","decile":"10","lat":40.474326368465334,"lng":-111.78045197555464,"phone":"(837) 676-8290","sd":"19","ssbd":"11","lsbd":"School Board Aspen Peaks 4"},{"vid":"6221492","name":"Latricia Conn","party":"","address":"4218 W Alpine Cove Dr, Alpine, UT 84004","precinct":"25AL01","hd":"54","v_score":"11.37977487","decile":"9","lat":40.47919588204038,"lng":-111.75957233883679,"phone":"(605) 291-5702","sd":"19","ssbd":"11","lsbd":"School Board Aspen Peaks 4"},{"vid":"6221493","name":"Hamza Schowalter","party":"Rep","address":"4218 W Alpine Cove Dr, Alpine, UT 84004","precinct":"25AL01","hd":"54","v_score":"11.37977487","decile":"9","lat":40.47919588204038,"lng":-111.75957233883679,"phone":"(881) 609-0687","sd":"19","ssbd":"11","lsbd":"School Board Aspen Peaks 4"},{"vid":"9ce6ed7ae54b91f3493c7151e10b3f8e431c0dd38346b3148f4368bb4dcebe6a","name":"Mrs. Shania Gislason","party":"","address":"889 N Fort Canyon Rd, Alpine, UT 84004","precinct":"25AL01","hd":"54","v_score":"6.724398202","decile":"8","lat":40.46486110274719,"lng":-111.7781603436065,"phone":"(768) 813-3710","sd":"19","ssbd":"11","lsbd":"School Board Aspen Peaks 4"},{"vid":"6246832","name":"Reino Halvorson","party":"Rep","address":"1584 N Eliza Cir, Alpine, UT 84004","precinct":"25AL01","hd":"54","v_score":"10.38488476","decile":"9","lat":40.474572802525586,"lng":-111.76524572493676,"phone":"(134) 848-0823","sd":"19","ssbd":"11","lsbd":"School Board Aspen Peaks 4"},{"vid":"8bf282244f001ac0173d6be0d8443450fed9b5ffa75a573ca55f54bd1981cc00","name":"Santos Luettgen","party":"","address":"476 E Three Falls Dr, Alpine, UT 84004","precinct":"25AL01","hd":"54","v_score":"6.724398202","decile":"8","lat":40.485801596688354,"lng":-111.76930181788912,"phone":"(560) 253-9841","sd":"19","ssbd":"11","lsbd":"School Board Aspen Peaks 4"},{"vid":"6250694","name":"Rachael Kohler DDS","party":"Dem","address":"476 E Three Falls Dr, Alpine, UT 84004","precinct":"25AL01","hd":"54","v_score":"17.83029024","decile":"10","lat":40.485801596688354,"lng":-111.76930181788912,"phone":"(403) 722-1823","sd":"19","ssbd":"11","lsbd":"School Board Aspen Peaks 4"},{"vid":"154af11674e3fd868dd12ea874c22d9072b4aaa7753632532bf252d70881f3fc","name":"Woody Collier","party":"Dem","address":"717 N Main St, Alpine, UT 84004","precinct":"25AL01","hd":"54","v_score":"24.81118803","decile":"10","lat":40.462803125047444,"lng":-111.77869317000996,"phone":"(971) 266-2156","sd":"19","ssbd":"11","lsbd":"School Board Aspen Peaks 4"},{"vid":"6277727","name":"Adrianne Simonis","party":"","address":"13423 N Alpine Cove Dr, Alpine, UT 84004","precinct":"25AL01","hd":"54","v_score":"3.93832808","decile":"6","lat":40.476272311229025,"lng":-111.76352554442724,"phone":"(998) 855-5505","sd":"19","ssbd":"11","lsbd":"School Board Aspen Peaks 4"},{"vid":"6288904","name":"Gasper Walter Sr.","party":"","address":"1522 N Elk Ridge Ln, Alpine, UT 84004","precinct":"25AL01","hd":"54","v_score":"3.93832808","decile":"6","lat":40.473603521703204,"lng":-111.76743548528536,"phone":"(455) 237-0255","sd":"19","ssbd":"11","lsbd":"School Board Aspen Peaks 4"},{"vid":"6289355","name":"Miss Keely Mills DVM","party":"Rep","address":"13422 Bayberry Cir, Alpine, UT 84004","precinct":"25AL01","hd":"54","v_score":"19.74196003","decile":"10","lat":40.47647870271284,"lng":-111.75970371643305,"phone":"(743) 045-4730","sd":"19","ssbd":"11","lsbd":"School Board Aspen Peaks 4"},{"vid":"662385b7306a429456c9451c9b5868fcf3df66f39f453c5e523f2db9811082b7","name":"Margene Stokes-Senger","party":"Rep","address":"1638 E Box Elder Dr, Alpine, UT 84004","precinct":"25AL01","hd":"54","v_score":"36.20706943","decile":"10","lat":40.474881104536706,"lng":-111.74870243308685,"phone":"(232) 258-6476","sd":"19","ssbd":"11","lsbd":"School Board Aspen Peaks 4"},{"vid":"6299584","name":"Odalys Balistreri","party":"Rep","address":"13293 Grove Dr, Alpine, UT 84004","precinct":"25AL01","hd":"54","v_score":"15.23584683","decile":"9","lat":40.474181442687254,"lng":-111.76303227022214,"phone":"(769) 812-1838","sd":"19","ssbd":"11","lsbd":"School Board Aspen Peaks 4"},{"vid":"6300158","name":"Dr. Nallely Kuhic","party":"Rep","address":"889 N Fort Canyon Rd, Alpine, UT 84004","precinct":"25AL01","hd":"54","v_score":"8.347511332","decile":"8","lat":40.46486110274719,"lng":-111.7781603436065,"phone":"(346) 313-1549","sd":"19","ssbd":"11","lsbd":"School Board Aspen Peaks 4"},{"vid":"6312160","name":"Sebastian Dietrich","party":"Rep","address":"942 N Apple Creek Cir, Alpine, UT 84004","precinct":"25AL01","hd":"54","v_score":"19.36103683","decile":"10","lat":40.465638171825404,"lng":-111.76105466507302,"phone":"(649) 109-4633","sd":"19","ssbd":"11","lsbd":"School Board Aspen Peaks 4"},{"vid":"6313447","name":"Kelcie Kemmer DVM","party":"","address":"13478 Oakridge Dr, Alpine, UT 84004","precinct":"25AL01","hd":"54","v_score":"11.52389434","decile":"9","lat":40.47724837985465,"lng":-111.758345892513,"phone":"(755) 694-1756","sd":"19","ssbd":"11","lsbd":"School Board Aspen Peaks 4"},{"vid":"6313525","name":"Lyndsay Rippin","party":"Rep","address":"13506 Oakridge Dr, Alpine, UT 84004","precinct":"25AL01","hd":"54","v_score":"10.66687182","decile":"9","lat":40.4776080755346,"lng":-111.75761679928827,"phone":"(382) 651-9116","sd":"19","ssbd":"11","lsbd":"School Board Aspen Peaks 4"},{"vid":"e98dbf3747e8dd9243251f49a0cb47e792b94781024621c90f43970df4ad78fb","name":"Myah Rutherford-Medhurst","party":"","address":"1001 N Fort Canyon Rd, Alpine, UT 84004","precinct":"25AL01","hd":"54","v_score":"1.121327652","decile":"3","lat":40.466660295168225,"lng":-111.78127191562143,"phone":"(169) 635-8145","sd":"19","ssbd":"11","lsbd":"School Board Aspen Peaks 4"},{"vid":"6326965","name":"Unique Haley","party":"","address":"2525 N Three Falls Dr, Alpine, UT 84004","precinct":"25AL01","hd":"54","v_score":"26.74678107","decile":"10","lat":40.4871711375975,"lng":-111.7782609909317,"phone":"(278) 994-2081","sd":"19","ssbd":"11","lsbd":"School Board Aspen Peaks 4"},{"vid":"6344136","name":"Falon Hammes","party":"Dem","address":"1612 Prospect Ln, Alpine, UT 84004","precinct":"25AL01","hd":"54","v_score":"23.54129581","decile":"10","lat":40.475006446813964,"lng":-111.75347419899032,"phone":"(724) 120-0776","sd":"19","ssbd":"11","lsbd":"School Board Aspen Peaks 4"},{"vid":"6354634","name":"Dr. Anjanette Osinski","party":"Rep","address":"706 W 600 N, Alpine, UT 84004","precinct":"25AL01","hd":"54","v_score":"2.817000428","decile":"6","lat":40.461689554123424,"lng":-111.79137522008818,"phone":"(474) 179-5559","sd":"19","ssbd":"11","lsbd":"School Board Aspen Peaks 4"},{"vid":"6359000","name":"Steward Larson-Adams","party":"Rep","address":"1241 N Fort Canyon Rd, Alpine, UT 84004","precinct":"25AL01","hd":"54","v_score":"17.85535651","decile":"10","lat":40.470923808187834,"lng":-111.78254004668382,"phone":"(947) 154-2350","sd":"19","ssbd":"11","lsbd":"School Board Aspen Peaks 4"},{"vid":"6372096","name":"Maebell Rodriguez","party":"","address":"165 W Creekside Ct, Alpine, UT 84004","precinct":"25AL01","hd":"54","v_score":"23.05611481","decile":"10","lat":40.483467380681475,"lng":-111.78085466999948,"phone":"(712) 274-5244","sd":"19","ssbd":"11","lsbd":"School Board Aspen Peaks 4"},{"vid":"6375691","name":"Ms. Athena Herzog PhD","party":"Dem","address":"683 N Main St, Alpine, UT 84004","precinct":"25AL01","hd":"54","v_score":"3.781490609","decile":"6","lat":40.46216304553601,"lng":-111.7780602792864,"phone":"(948) 549-8337","sd":"19","ssbd":"11","lsbd":"School Board Aspen Peaks 4"},{"vid":"6379207","name":"Jedediah Kirlin","party":"Dem","address":"1522 N Elk Ridge Ln, Alpine, UT 84004","precinct":"25AL01","hd":"54","v_score":"3.93832808","decile":"6","lat":40.473603521703204,"lng":-111.76743548528536,"phone":"(786) 382-0050","sd":"19","ssbd":"11","lsbd":"School Board Aspen Peaks 4"},{"vid":"6383272","name":"Sandi Morissette","party":"Dem","address":"1285 N Heritage Cir, Alpine, UT 84004","precinct":"25AL01","hd":"54","v_score":"2.587603312","decile":"5","lat":40.470372145463834,"lng":-111.77075059641112,"phone":"(966) 502-6101","sd":"19","ssbd":"11","lsbd":"School Board Aspen Peaks 4"},{"vid":"6432410","name":"Velda McKenzie","party":"","address":"4301 Oakview Cir, Alpine, UT 84004","precinct":"25AL01","hd":"54","v_score":"2.315214949","decile":"5","lat":40.47695456322969,"lng":-111.76164301414147,"phone":"(217) 437-7102","sd":"19","ssbd":"11","lsbd":"School Board Aspen Peaks 4"},{"vid":"6438607","name":"Hassan Jast","party":"Rep","address":"4301 Oakview Cir, Alpine, UT 84004","precinct":"25AL01","hd":"54","v_score":"12.13314748","decile":"9","lat":40.47695456322969,"lng":-111.76164301414147,"phone":"(276) 198-0536","sd":"19","ssbd":"11","lsbd":"School Board Aspen Peaks 4"},{"vid":"6441484","name":"Rhiannon Watsica-Welch","party":"Dem","address":"1513 Rosanna Ln, Alpine, UT 84004","precinct":"25AL01","hd":"54","v_score":"26.64399515","decile":"10","lat":40.47551860227193,"lng":-111.75112561936199,"phone":"(429) 089-5539","sd":"19","ssbd":"11","lsbd":"School Board Aspen Peaks 4"},{"vid":"6447986","name":"Van Rohan","party":"","address":"799 N Main St, Alpine, UT 84004","precinct":"25AL01","hd":"54","v_score":"1.193887297","decile":"4","lat":40.46369188509457,"lng":-111.77818489762501,"phone":"(377) 179-4109","sd":"19","ssbd":"11","lsbd":"School Board Aspen Peaks 4"},{"vid":"6448035","name":"Rhys Waelchi","party":"","address":"13422 Bayberry Cir, Alpine, UT 84004","precinct":"25AL01","hd":"54","v_score":"22.18759107","decile":"10","lat":40.47647870271284,"lng":-111.75970371643305,"phone":"(727) 953-4143","sd":"19","ssbd":"11","lsbd":"School Board Aspen Peaks 4"},{"vid":"6451431","name":"Manning Heidenreich","party":"Dem","address":"542 E Three Falls Dr, Alpine, UT 84004","precinct":"25AL01","hd":"54","v_score":"1.193887297","decile":"4","lat":40.48590606391113,"lng":-111.7684995233071,"phone":"(335) 221-4516","sd":"19","ssbd":"11","lsbd":"School Board Aspen Peaks 4"},{"vid":"6464499","name":"Mace Pagac I","party":"","address":"4338 Stoney Brook Cir, Alpine, UT 84004","precinct":"25AL01","hd":"54","v_score":"6.896907962","decile":"8","lat":40.478149552552075,"lng":-111.76258624050666,"phone":"(548) 658-6455","sd":"19","ssbd":"11","lsbd":"School Board Aspen Peaks 4"},{"vid":"6466052","name":"Melany Ernser-Heathcote","party":"Dem","address":"1001 N Fort Canyon Rd, Alpine, UT 84004","precinct":"25AL01","hd":"54","v_score":"1.121327652","decile":"3","lat":40.466660295168225,"lng":-111.78127191562143,"phone":"(708) 222-2856","sd":"19","ssbd":"11","lsbd":"School Board Aspen Peaks 4"},{"vid":"6466588","name":"Nigel Volkman","party":"","address":"1241 N Fort Canyon Rd, Alpine, UT 84004","precinct":"25AL01","hd":"54","v_score":"0","decile":"3","lat":40.470923808187834,"lng":-111.78254004668382,"phone":"(281) 128-0040","sd":"19","ssbd":"11","lsbd":"School Board Aspen Peaks 4"},{"vid":"6467714","name":"Ms. Neha Leannon","party":"Rep","address":"1873 N Fort Canyon Rd, Alpine, UT 84004","precinct":"25AL01","hd":"54","v_score":"37.73164921","decile":"10","lat":40.477608427282924,"lng":-111.77982025742931,"phone":"(847) 456-6671","sd":"19","ssbd":"11","lsbd":"School Board Aspen Peaks 4"},{"vid":"6482781","name":"Isaiah Rau DVM","party":"Dem","address":"989 N Apple Creek Cir, Alpine, UT 84004","precinct":"25AL01","hd":"54","v_score":"1.193887297","decile":"4","lat":40.46654845681446,"lng":-111.76126010375191,"phone":"(699) 416-3017","sd":"19","ssbd":"11","lsbd":"School Board Aspen Peaks 4"},{"vid":"6487279","name":"Miss Angel Bauch DVM","party":"","address":"162 W Creekside Ct, Alpine, UT 84004","precinct":"25AL01","hd":"54","v_score":"2.315214949","decile":"5","lat":40.48394196566699,"lng":-111.7808651996273,"phone":"(630) 476-5742","sd":"19","ssbd":"11","lsbd":"School Board Aspen Peaks 4"},{"vid":"6494609","name":"Kelsea Ullrich-Toy","party":"","address":"162 W Creekside Ct, Alpine, UT 84004","precinct":"25AL01","hd":"54","v_score":"1.121327652","decile":"3","lat":40.48394196566699,"lng":-111.7808651996273,"phone":"(214) 946-6217","sd":"19","ssbd":"11","lsbd":"School Board Aspen Peaks 4"},{"vid":"6494650","name":"Madge Volkman","party":"Dem","address":"1444 N Elk Ridge Ln, Alpine, UT 84004","precinct":"25AL01","hd":"54","v_score":"7.650280567","decile":"8","lat":40.47242469339857,"lng":-111.76861957192087,"phone":"(398) 627-1648","sd":"19","ssbd":"11","lsbd":"School Board Aspen Peaks 4"},{"vid":"6504056","name":"Elwood Feil DVM","party":"Rep","address":"13441 Grove Dr, Alpine, UT 84004","precinct":"25AL01","hd":"54","v_score":"29.36024596","decile":"10","lat":40.47675718376207,"lng":-111.7569326230169,"phone":"(206) 850-1053","sd":"19","ssbd":"11","lsbd":"School Board Aspen Peaks 4"},{"vid":"6505101","name":"Mr. Demarcus Rodriguez","party":"Rep","address":"996 N Fort Canyon Rd, Alpine, UT 84004","precinct":"25AL01","hd":"54","v_score":"29.52003772","decile":"10","lat":40.46653883518221,"lng":-111.78024763709769,"phone":"(350) 797-0453","sd":"19","ssbd":"11","lsbd":"School Board Aspen Peaks 4"},{"vid":"6519866","name":"Andrew Hoppe","party":"Dem","address":"1873 N Fort Canyon Rd, Alpine, UT 84004","precinct":"25AL01","hd":"54","v_score":"37.73164921","decile":"10","lat":40.477608427282924,"lng":-111.77982025742931,"phone":"(938) 927-7341","sd":"19","ssbd":"11","lsbd":"School Board Aspen Peaks 4"},{"vid":"6521249","name":"Buena Frami","party":"","address":"989 N Apple Creek Cir, Alpine, UT 84004","precinct":"25AL01","hd":"54","v_score":"1.193887297","decile":"4","lat":40.46654845681446,"lng":-111.76126010375191,"phone":"(983) 440-7670","sd":"19","ssbd":"11","lsbd":"School Board Aspen Peaks 4"},{"vid":"6526068","name":"Yasmeen Boyle","party":"Rep","address":"117 E Deer Crest Ln, Alpine, UT 84004","precinct":"25AL01","hd":"54","v_score":"3.93832808","decile":"6","lat":40.4688619243556,"lng":-111.77558647320257,"phone":"(805) 781-9279","sd":"19","ssbd":"11","lsbd":"School Board Aspen Peaks 4"},{"vid":"6529524","name":"Elvie Grant PhD","party":"","address":"1212 N Heritage Cir, Alpine, UT 84004","precinct":"25AL01","hd":"54","v_score":"2.315214949","decile":"5","lat":40.469357091285005,"lng":-111.77001707160595,"phone":"(473) 183-0922","sd":"19","ssbd":"11","lsbd":"School Board Aspen Peaks 4"}]