[{"id":"424","name":"Aracely Pfannerstill","party":"","address":"13398 Bayberry Cir, Alpine, UT 84004","precinct":"25AL01","hd":"54","v_score":"1.121327652","decile":"3","lat":40.476110932528,"lng":-111.75982495471},{"id":"487","name":"Mr. Myrtle Jones","party":"Rep","address":"13398 Bayberry Cir, Alpine, UT 84004","precinct":"25AL01","hd":"54","v_score":"13.64082596","decile":"9","lat":40.476110932528,"lng":-111.75982495471},{"id":"1328","name":"Clovis Ruecker-Luettgen","party":"","address":"1192 Moyle Dr, Alpine, UT 84004","precinct":"25AL01","hd":"54","v_score":"32.46294531","decile":"10","lat":40.469984094405,"lng":-111.761829078107},{"id":"1458","name":"Ms. Matilda Cormier","party":"","address":"602 W 600 N, Alpine, UT 84004","precinct":"25AL01","hd":"54","v_score":"27.12787969","decile":"10","lat":40.461261284236,"lng":-111.789212821886},{"id":"1865","name":"Blane Feil","party":"Dem","address":"1648 Rosanna Cir, Alpine, UT 84004","precinct":"25AL01","hd":"54","v_score":"4.224027","decile":"7","lat":40.474442963612,"lng":-111.74889549315},{"id":"2245","name":"Adolph Boyle-McGlynn","party":"","address":"13323 N Alpine Cove Dr, Alpine, UT 84004","precinct":"25AL01","hd":"54","v_score":"5.356821087","decile":"7","lat":40.477225710412,"lng":-111.762739292819},{"id":"2656","name":"Mr. Walton Lebsack","party":"","address":"602 W 600 N, Alpine, UT 84004","precinct":"25AL01","hd":"54","v_score":"29.00546137","decile":"10","lat":40.461261284236,"lng":-111.789212821886},{"id":"2755","name":"Dorris Satterfield","party":"Rep","address":"163 Meadowlark Dr, Alpine, UT 84004","precinct":"25AL01","hd":"54","v_score":"2.315214949","decile":"5","lat":40.465748944578,"lng":-111.780970871294},{"id":"2885","name":"Robley Cormier-Raynor","party":"","address":"353 International Way, Alpine, UT 84004","precinct":"25AL01","hd":"54","v_score":"1.121327652","decile":"3","lat":40.463684005113,"lng":-111.784872374432},{"id":"4580","name":"Randolph Gerhold Jr.","party":"","address":"1638 E Box Elder Dr, Alpine, UT 84004","precinct":"25AL01","hd":"54","v_score":"2.315214949","decile":"5","lat":40.474895791711,"lng":-111.748859034601},{"id":"6750","name":"Miss Tatyanna Quitzon","party":"","address":"13425 Bayberry Cir, Alpine, UT 84004","precinct":"25AL01","hd":"54","v_score":"28.43903951","decile":"10","lat":40.476142816846,"lng":-111.759989759482},{"id":"6957","name":"Kasandra Gerhold-Haley","party":"","address":"254 International Way, Alpine, UT 84004","precinct":"25AL01","hd":"54","v_score":"8.761771632","decile":"8","lat":40.464405514706,"lng":-111.782812743862},{"id":"7146","name":"Jonathon Raynor-Hagenes","party":"Rep","address":"934 Moyle Cir, Alpine, UT 84004","precinct":"25AL01","hd":"54","v_score":"30.59699705","decile":"10","lat":40.47010532446,"lng":-111.761660521913},{"id":"7149","name":"Mardell Casper-Auer","party":"","address":"13422 Bayberry Cir, Alpine, UT 84004","precinct":"25AL01","hd":"54","v_score":"8.347511332","decile":"8","lat":40.476164827001,"lng":-111.759841796724},{"id":"7578","name":"Gaetano Schneider","party":"","address":"1352 N Fort Canyon Rd, Alpine, UT 84004","precinct":"25AL01","hd":"54","v_score":"12.65668843","decile":"9","lat":40.471170682849,"lng":-111.781812008983},{"id":"7631","name":"Ryan Turcotte","party":"","address":"4221 Juniper Cir, Alpine, UT 84004","precinct":"25AL01","hd":"54","v_score":"10.97556393","decile":"9","lat":40.477471283823,"lng":-111.759409078216},{"id":"8102","name":"Bethel Schmidt","party":"Dem","address":"1324 Eastview Ln, Alpine, UT 84004","precinct":"25AL01","hd":"54","v_score":"0","decile":"1","lat":40.470502042789,"lng":-111.771837585461},{"id":"9673","name":"Jadon O'Connell-Kuhn","party":"","address":"721 Lakeview Dr, Alpine, UT 84004","precinct":"25AL01","hd":"54","v_score":"16.88516053","decile":"9","lat":40.462865347466,"lng":-111.791098808957},{"id":"10377","name":"Sydnee Quigley","party":"","address":"1423 E Box Elder Dr, Alpine, UT 84004","precinct":"25AL01","hd":"54","v_score":"1.121327652","decile":"3","lat":40.475067406442,"lng":-111.75272786454},{"id":"11013","name":"Dr. Jacques Kuhic","party":"Dem","address":"1192 Moyle Dr, Alpine, UT 84004","precinct":"25AL01","hd":"54","v_score":"19.74156721","decile":"10","lat":40.469984094405,"lng":-111.761829078107},{"id":"11419","name":"Dr. Bunk Fadel","party":"","address":"257 International Way, Alpine, UT 84004","precinct":"25AL01","hd":"54","v_score":"17.56355898","decile":"9","lat":40.464364417765,"lng":-111.782671616671},{"id":"11727","name":"Miss Brynlee Emard DVM","party":"Dem","address":"612 Lakeview Dr, Alpine, UT 84004","precinct":"25AL01","hd":"54","v_score":"12.45673421","decile":"9","lat":40.464256752811,"lng":-111.789246914735},{"id":"11961","name":"Kathryne Hammes","party":"","address":"4084 W Alpine Cove Cir, Alpine, UT 84004","precinct":"25AL01","hd":"54","v_score":"8.173821515","decile":"8","lat":40.478794991809,"lng":-111.757245208046},{"id":"12919","name":"Paul Auer-Littel","party":"","address":"4221 Juniper Cir, Alpine, UT 84004","precinct":"25AL01","hd":"54","v_score":"2.315214949","decile":"5","lat":40.477471283823,"lng":-111.759409078216},{"id":"15019","name":"Kirby Stoltenberg","party":"Dem","address":"1270 Moyle Cir, Alpine, UT 84004","precinct":"25AL01","hd":"54","v_score":"0","decile":"1","lat":40.469916203465,"lng":-111.761291145084},{"id":"18670","name":"Jeannie Gulgowski DDS","party":"Rep","address":"4256 W Alpine Cove Dr, Alpine, UT 84004","precinct":"25AL01","hd":"54","v_score":"3.93832808","decile":"6","lat":40.478980365476,"lng":-111.760593014611},{"id":"19204","name":"Loy Collier","party":"Rep","address":"906 N Fort Canyon Rd, Alpine, UT 84004","precinct":"25AL01","hd":"54","v_score":"1.121327652","decile":"3","lat":40.466473471663,"lng":-111.780500090635},{"id":"19229","name":"Cher Flatley-Schuster","party":"","address":"147 Meadowlark Dr, Alpine, UT 84004","precinct":"25AL01","hd":"54","v_score":"12.07513611","decile":"9","lat":40.465868737617,"lng":-111.780792421851},{"id":"19586","name":"Cornell Grimes-Schultz","party":"Rep","address":"4175 W Alpine Cove Dr, Alpine, UT 84004","precinct":"25AL01","hd":"54","v_score":"2.587603312","decile":"5","lat":40.478704845678,"lng":-111.758848588703},{"id":"20838","name":"Jackie Leannon","party":"","address":"153 E Deer Crest Ln, Alpine, UT 84004","precinct":"25AL01","hd":"54","v_score":"2.315214949","decile":"5","lat":40.46951556914,"lng":-111.774995381631},{"id":"21253","name":"Irene Krajcik","party":"Dem","address":"587 Treeline Dr, Alpine, UT 84004","precinct":"25AL01","hd":"54","v_score":"2.660162957","decile":"5","lat":40.463255452947,"lng":-111.788973138339},{"id":"22265","name":"Mahala Block","party":"Rep","address":"765 W 600 N, Alpine, UT 84004","precinct":"25AL01","hd":"54","v_score":"6.724398202","decile":"8","lat":40.461146693081,"lng":-111.792189243176},{"id":"23502","name":"Jaeden Hartmann Jr.","party":"Rep","address":"703 N Main St, Alpine, UT 84004","precinct":"25AL01","hd":"54","v_score":"15.26393909","decile":"9","lat":40.462442067163,"lng":-111.777859830169},{"id":"23510","name":"Lafe Littel","party":"Rep","address":"301 Meadowlark Dr, Alpine, UT 84004","precinct":"25AL01","hd":"54","v_score":"6.954919332","decile":"8","lat":40.465450178819,"lng":-111.782971524977},{"id":"25417","name":"Miss Alana Bode DVM","party":"","address":"1612 Prospect Ln, Alpine, UT 84004","precinct":"25AL01","hd":"54","v_score":"15.09172736","decile":"9","lat":40.474645897457,"lng":-111.753630376766},{"id":"25429","name":"Collins Kiehn","party":"","address":"13441 Grove Dr, Alpine, UT 84004","precinct":"25AL01","hd":"54","v_score":"19.16525368","decile":"10","lat":40.476235319821,"lng":-111.758511713068},{"id":"25443","name":"Dr. Clell Morar","party":"","address":"13524 Oakridge Dr, Alpine, UT 84004","precinct":"25AL01","hd":"54","v_score":"10.22509301","decile":"9","lat":40.477669178859,"lng":-111.758240056033},{"id":"25444","name":"Rylan Gottlieb","party":"","address":"13524 Oakridge Dr, Alpine, UT 84004","precinct":"25AL01","hd":"54","v_score":"2.942907593","decile":"6","lat":40.477669178859,"lng":-111.758240056033},{"id":"25492","name":"Mattie Dare","party":"","address":"612 Lakeview Dr, Alpine, UT 84004","precinct":"25AL01","hd":"54","v_score":"12.45673421","decile":"9","lat":40.464256752811,"lng":-111.789246914735},{"id":"25498","name":"Matt O'Keefe-Zboncak","party":"Dem","address":"13403 N Alpine Cove Dr, Alpine, UT 84004","precinct":"25AL01","hd":"54","v_score":"21.41280004","decile":"10","lat":40.476292013494,"lng":-111.763022150355},{"id":"26255","name":"Luetta Erdman","party":"Dem","address":"1294 Grove Dr, Alpine, UT 84004","precinct":"25AL01","hd":"54","v_score":"2.315214949","decile":"5","lat":40.4704403662,"lng":-111.765216011652},{"id":"27740","name":"Miss Kylie Ziemann","party":"Dem","address":"1001 N Fort Canyon Rd, Alpine, UT 84004","precinct":"25AL01","hd":"54","v_score":"1.623113131","decile":"4","lat":40.466350760733,"lng":-111.780562340762},{"id":"30314","name":"Tomie Satterfield","party":"","address":"734 Summit Way, Alpine, UT 84004","precinct":"25AL01","hd":"54","v_score":"19.38398265","decile":"10","lat":40.46249236987,"lng":-111.789364019816},{"id":"32445","name":"Mr. Bernie Crooks","party":"","address":"1681 E Box Elder Cir, Alpine, UT 84004","precinct":"25AL01","hd":"54","v_score":"18.91187591","decile":"10","lat":40.472365332155,"lng":-111.748146679507},{"id":"32487","name":"Nathalia Rohan","party":"Dem","address":"381 International Way, Alpine, UT 84004","precinct":"25AL01","hd":"54","v_score":"1.46627566","decile":"4","lat":40.464064957563,"lng":-111.785322367145},{"id":"32595","name":"Jayme Goyette","party":"Dem","address":"1247 Moyle Dr, Alpine, UT 84004","precinct":"25AL01","hd":"54","v_score":"20.7369877","decile":"10","lat":40.46971922875,"lng":-111.762257278759},{"id":"34254","name":"Franz Powlowski","party":"Dem","address":"1681 E Box Elder Cir, Alpine, UT 84004","precinct":"25AL01","hd":"54","v_score":"8.347511332","decile":"8","lat":40.472365332155,"lng":-111.748146679507},{"id":"35506","name":"Mr. Cassie Hintz","party":"","address":"1296 Eastview Ln, Alpine, UT 84004","precinct":"25AL01","hd":"54","v_score":"2.315214949","decile":"5","lat":40.470189365553,"lng":-111.77195723988},{"id":"36534","name":"Zavier Quigley","party":"Rep","address":"1192 Moyle Dr, Alpine, UT 84004","precinct":"25AL01","hd":"54","v_score":"17.77840782","decile":"10","lat":40.469984094405,"lng":-111.761829078107},{"id":"37313","name":"Kael Weissnat III","party":"","address":"1262 N Heritage Cir, Alpine, UT 84004","precinct":"25AL01","hd":"54","v_score":"5.40460374","decile":"7","lat":40.469743160204,"lng":-111.770441670715},{"id":"37440","name":"Lilianna Koelpin","party":"Rep","address":"1612 Prospect Ln, Alpine, UT 84004","precinct":"25AL01","hd":"54","v_score":"15.09172736","decile":"9","lat":40.474645897457,"lng":-111.753630376766},{"id":"37966","name":"Mr. Gerald Jakubowski II","party":"Dem","address":"1310 N Fort Canyon Rd, Alpine, UT 84004","precinct":"25AL01","hd":"54","v_score":"3.781490609","decile":"6","lat":40.470709993151,"lng":-111.781804392781},{"id":"41735","name":"Nichole Littel","party":"","address":"1360 Elkridge Ln, Alpine, UT 84004","precinct":"25AL01","hd":"54","v_score":"2.315214949","decile":"5","lat":40.471567493609,"lng":-111.768906782041},{"id":"42311","name":"Dr. Deacon Hoeger DDS","party":"Rep","address":"952 N Fort Canyon Rd, Alpine, UT 84004","precinct":"25AL01","hd":"54","v_score":"5.191257514","decile":"7","lat":40.466898175184,"lng":-111.780783158996},{"id":"42983","name":"Dolphus Schumm MD","party":"Rep","address":"1365 E Box Elder Dr, Alpine, UT 84004","precinct":"25AL01","hd":"54","v_score":"7.791860021","decile":"8","lat":40.475292279953,"lng":-111.754253941692},{"id":"43543","name":"Ingeborg Auer-Schowalter","party":"Rep","address":"1648 Rosanna Cir, Alpine, UT 84004","precinct":"25AL01","hd":"54","v_score":"1.121327652","decile":"3","lat":40.474442963612,"lng":-111.74889549315},{"id":"43610","name":"Achsah Luettgen-Walsh","party":"Dem","address":"574 W 600 N, Alpine, UT 84004","precinct":"25AL01","hd":"54","v_score":"17.13305948","decile":"9","lat":40.461263791316,"lng":-111.788672617119},{"id":"44428","name":"Jadyn Windler PhD","party":"Rep","address":"1192 Moyle Dr, Alpine, UT 84004","precinct":"25AL01","hd":"54","v_score":"24.17894044","decile":"10","lat":40.469984094405,"lng":-111.761829078107},{"id":"44566","name":"Quiana Kuhic","party":"Dem","address":"1192 Moyle Dr, Alpine, UT 84004","precinct":"25AL01","hd":"54","v_score":"27.89692459","decile":"10","lat":40.469984094405,"lng":-111.761829078107},{"id":"45078","name":"Merl Eichmann","party":"Dem","address":"168 E Deer Crest Ln, Alpine, UT 84004","precinct":"25AL01","hd":"54","v_score":"9.81714556","decile":"8","lat":40.469709388903,"lng":-111.774949927597},{"id":"46291","name":"Brandin Emard","party":"","address":"242 International Way, Alpine, UT 84004","precinct":"25AL01","hd":"54","v_score":"2.744440783","decile":"5","lat":40.464641885427,"lng":-111.782803610598},{"id":"46335","name":"Mr. Nels Terry PhD","party":"Dem","address":"437 Lakeview Dr, Alpine, UT 84004","precinct":"25AL01","hd":"54","v_score":"1.193887297","decile":"3","lat":40.46675565681,"lng":-111.792849735305},{"id":"46772","name":"Jed Champlin-Heller","party":"Rep","address":"1333 Eastview Ln, Alpine, UT 84004","precinct":"25AL01","hd":"54","v_score":"1.193887297","decile":"3","lat":40.470952751751,"lng":-111.771620981469},{"id":"46951","name":"Zeno Collins","party":"","address":"13423 N Alpine Cove Dr, Alpine, UT 84004","precinct":"25AL01","hd":"54","v_score":"2.744440783","decile":"5","lat":40.476053158934,"lng":-111.763018733729},{"id":"47824","name":"Lynnette O'Conner","party":"Rep","address":"4175 W Alpine Cove Dr, Alpine, UT 84004","precinct":"25AL01","hd":"54","v_score":"3.781490609","decile":"6","lat":40.478704845678,"lng":-111.758848588703},{"id":"49225","name":"Willow Hilll","party":"","address":"1683 E Box Elder Dr, Alpine, UT 84004","precinct":"25AL01","hd":"54","v_score":"1.121327652","decile":"3","lat":40.475157421543,"lng":-111.748505872682},{"id":"49770","name":"Mrs. Cristen Wehner PhD","party":"Dem","address":"721 Lakeview Dr, Alpine, UT 84004","precinct":"25AL01","hd":"54","v_score":"10.8238813","decile":"9","lat":40.462865347466,"lng":-111.791098808957},{"id":"51131","name":"Lucian Waters","party":"","address":"1828 N Fort Canyon Rd, Alpine, UT 84004","precinct":"25AL01","hd":"54","v_score":"11.36410258","decile":"9","lat":40.478079132735,"lng":-111.781511823749},{"id":"51534","name":"Devonta Crooks-Dare","party":"Rep","address":"13323 N Alpine Cove Dr, Alpine, UT 84004","precinct":"25AL01","hd":"54","v_score":"6.027167436","decile":"7","lat":40.477225710412,"lng":-111.762739292819},{"id":"53001","name":"Simpson Brakus","party":"","address":"301 Meadowlark Dr, Alpine, UT 84004","precinct":"25AL01","hd":"54","v_score":"2.315214949","decile":"5","lat":40.465450178819,"lng":-111.782971524977},{"id":"54281","name":"Reggie Fahey","party":"","address":"795 Eagle View Dr, Alpine, UT 84004","precinct":"25AL01","hd":"54","v_score":"13.90733758","decile":"9","lat":40.46367212937,"lng":-111.78733876473},{"id":"55479","name":"Woody Jast","party":"Rep","address":"13469 N Alpine Cove Dr, Alpine, UT 84004","precinct":"25AL01","hd":"54","v_score":"3.781490609","decile":"6","lat":40.475503821828,"lng":-111.762859460193},{"id":"56181","name":"Sydnee Krajcik DDS","party":"Rep","address":"1137 Moyle Dr, Alpine, UT 84004","precinct":"25AL01","hd":"54","v_score":"2.315214949","decile":"5","lat":40.468230373504,"lng":-111.763185372179},{"id":"56616","name":"Tavian Bailey DDS","party":"","address":"407 International Way, Alpine, UT 84004","precinct":"25AL01","hd":"54","v_score":"1.121327652","decile":"3","lat":40.464139347009,"lng":-111.785821166159},{"id":"56698","name":"Kirstin Hane-Legros","party":"Dem","address":"1896 N Fort Canyon Rd, Alpine, UT 84004","precinct":"25AL01","hd":"54","v_score":"2.315214949","decile":"5","lat":40.477736213824,"lng":-111.779309209088},{"id":"58022","name":"Alejandro Hermann","party":"","address":"4175 W Alpine Cove Dr, Alpine, UT 84004","precinct":"25AL01","hd":"54","v_score":"0","decile":"1","lat":40.478704845678,"lng":-111.758848588703},{"id":"59133","name":"Thalia Wyman-Goldner","party":"","address":"1020 Sunbrook Cir, Alpine, UT 84004","precinct":"25AL01","hd":"54","v_score":"5.761032035","decile":"7","lat":40.466191519044,"lng":-111.758993187312},{"id":"59876","name":"Ms. Metha Ebert DDS","party":"Rep","address":"4301 Oakview Cir, Alpine, UT 84004","precinct":"25AL01","hd":"54","v_score":"1.121327652","decile":"3","lat":40.477088530215,"lng":-111.76180267955},{"id":"60229","name":"Orland Rau","party":"Dem","address":"795 Eagle View Dr, Alpine, UT 84004","precinct":"25AL01","hd":"54","v_score":"1.121327652","decile":"3","lat":40.46367212937,"lng":-111.78733876473},{"id":"61901","name":"Josefa Frami","party":"","address":"465 W 600 N, Alpine, UT 84004","precinct":"25AL01","hd":"54","v_score":"7.234402762","decile":"8","lat":40.461158723552,"lng":-111.787010153305},{"id":"63317","name":"Ms. Elfie Borer DVM","party":"Rep","address":"915 N Fort Canyon Rd, Alpine, UT 84004","precinct":"25AL01","hd":"54","v_score":"9.35760564","decile":"8","lat":40.465646249482,"lng":-111.779577349354},{"id":"63753","name":"Ms. January Runolfsson PhD","party":"","address":"497 Treeline Dr, Alpine, UT 84004","precinct":"25AL01","hd":"54","v_score":"21.22343794","decile":"10","lat":40.46303347881,"lng":-111.7878159467},{"id":"64739","name":"Jordyn Collier","party":"Rep","address":"1848 N Fort Canyon Rd, Alpine, UT 84004","precinct":"25AL01","hd":"54","v_score":"3.61989409","decile":"6","lat":40.477781711861,"lng":-111.780993071194},{"id":"64751","name":"Mr. Lark Gutkowski","party":"Dem","address":"912 N Fort Canyon Rd, Alpine, UT 84004","precinct":"25AL01","hd":"54","v_score":"4.192796624","decile":"7","lat":40.466521434276,"lng":-111.780544495223},{"id":"66044","name":"Dr. Greta Jakubowski DVM","party":"","address":"13322 Grove Dr, Alpine, UT 84004","precinct":"25AL01","hd":"54","v_score":"5.759908021","decile":"7","lat":40.474208018829,"lng":-111.761015355826},{"id":"67456","name":"Jordon Jerde","party":"Rep","address":"13425 Bayberry Cir, Alpine, UT 84004","precinct":"25AL01","hd":"54","v_score":"9.119914795","decile":"8","lat":40.476142816846,"lng":-111.759989759482},{"id":"67912","name":"Ms. Margarett Funk MD","party":"Rep","address":"1294 Grove Dr, Alpine, UT 84004","precinct":"25AL01","hd":"54","v_score":"2.315214949","decile":"5","lat":40.4704403662,"lng":-111.765216011652},{"id":"68004","name":"Maliah Ernser DDS","party":"Dem","address":"817 N Main St, Alpine, UT 84004","precinct":"25AL01","hd":"54","v_score":"3.737122292","decile":"6","lat":40.463982342047,"lng":-111.777836977224},{"id":"68887","name":"Magdalene Hamill","party":"","address":"915 N Fort Canyon Rd, Alpine, UT 84004","precinct":"25AL01","hd":"54","v_score":"6.462591196","decile":"7","lat":40.465646249482,"lng":-111.779577349354},{"id":"68908","name":"Rosemary Hills","party":"Rep","address":"1100 Orchard Ln, Alpine, UT 84004","precinct":"25AL01","hd":"54","v_score":"8.173821515","decile":"8","lat":40.467451516637,"lng":-111.762070400385},{"id":"69599","name":"Hurley Hauck","party":"","address":"720 W Lupine Dr, Alpine, UT 84004","precinct":"25AL01","hd":"54","v_score":"11.19041277","decile":"9","lat":40.459480678734,"lng":-111.791664399372},{"id":"69879","name":"Dr. Ansel Kshlerin","party":"Dem","address":"412 Eastview Ln, Alpine, UT 84004","precinct":"25AL01","hd":"54","v_score":"2.315214949","decile":"5","lat":40.469223342562,"lng":-111.77196351936},{"id":"70521","name":"Annabell Conn-Jakubowski","party":"","address":"184 Fairview Cir, Alpine, UT 84004","precinct":"25AL01","hd":"54","v_score":"5.693042993","decile":"7","lat":40.464738709928,"lng":-111.781541208036},{"id":"70765","name":"Nan Hilpert","party":"","address":"1430 N Fort Canyon Rd, Alpine, UT 84004","precinct":"25AL01","hd":"54","v_score":"9.40499548","decile":"8","lat":40.472023892663,"lng":-111.781947237749},{"id":"72993","name":"Dr. Luka Lemke","party":"","address":"1030 Orchard Ln, Alpine, UT 84004","precinct":"25AL01","hd":"54","v_score":"2.315214949","decile":"5","lat":40.466734473885,"lng":-111.762481273185},{"id":"73407","name":"Ballard Ortiz-Terry","party":"","address":"1136 Birch Cir, Alpine, UT 84004","precinct":"25AL01","hd":"54","v_score":"13.70847796","decile":"9","lat":40.467999953588,"lng":-111.765819563728},{"id":"73641","name":"Zaiden Lemke","party":"Dem","address":"1360 Elkridge Ln, Alpine, UT 84004","precinct":"25AL01","hd":"54","v_score":"1.121327652","decile":"3","lat":40.471567493609,"lng":-111.768906782041},{"id":"74015","name":"Mr. Taft Metz V","party":"Rep","address":"4084 W Alpine Cove Cir, Alpine, UT 84004","precinct":"25AL01","hd":"54","v_score":"2.315214949","decile":"5","lat":40.478794991809,"lng":-111.757245208046},{"id":"74131","name":"Dannie Kunde Sr.","party":"Dem","address":"13322 Grove Dr, Alpine, UT 84004","precinct":"25AL01","hd":"54","v_score":"1.121327652","decile":"3","lat":40.474208018829,"lng":-111.761015355826},{"id":"75464","name":"Cass Macejkovic I","party":"Rep","address":"1500 N Fort Canyon Rd, Alpine, UT 84004","precinct":"25AL01","hd":"54","v_score":"12.91898447","decile":"9","lat":40.472334990979,"lng":-111.7819792205},{"id":"75904","name":"Sherlyn Murphy","party":"Dem","address":"1212 N Heritage Cir, Alpine, UT 84004","precinct":"25AL01","hd":"54","v_score":"2.315214949","decile":"5","lat":40.469344144553,"lng":-111.770455779088},{"id":"77119","name":"Nathen Ferry","party":"Rep","address":"1270 Moyle Dr, Alpine, UT 84004","precinct":"25AL01","hd":"54","v_score":"0","decile":"1","lat":40.470807197925,"lng":-111.761063747112},{"id":"77520","name":"Brittney Von","party":"","address":"795 Eagle View Dr, Alpine, UT 84004","precinct":"25AL01","hd":"54","v_score":"0","decile":"1","lat":40.46367212937,"lng":-111.78733876473},{"id":"77761","name":"Lynn Hintz","party":"Dem","address":"942 Sunbrook Cir, Alpine, UT 84004","precinct":"25AL01","hd":"54","v_score":"6.550708384","decile":"7","lat":40.465592669585,"lng":-111.75902027006},{"id":"78399","name":"Aliza Wyman MD","party":"","address":"301 Meadowlark Dr, Alpine, UT 84004","precinct":"25AL01","hd":"54","v_score":"0","decile":"1","lat":40.465450178819,"lng":-111.782971524977},{"id":"78607","name":"Evia Stehr-Sporer","party":"Rep","address":"562 Lupine Dr, Alpine, UT 84004","precinct":"25AL01","hd":"54","v_score":"13.2578337","decile":"9","lat":40.45955576074,"lng":-111.788461147534},{"id":"78635","name":"Luann Mayer","party":"Rep","address":"446 Eastview Ln, Alpine, UT 84004","precinct":"25AL01","hd":"54","v_score":"2.315214949","decile":"5","lat":40.469567602809,"lng":-111.77197599251},{"id":"79359","name":"Elzy Bruen","party":"","address":"760 Lupine Dr, Alpine, UT 84004","precinct":"25AL01","hd":"54","v_score":"1.121327652","decile":"3","lat":40.459444951611,"lng":-111.792814546889},{"id":"82180","name":"Alijah Vandervort","party":"","address":"1331 E Box Elder Way, Alpine, UT 84004","precinct":"25AL01","hd":"54","v_score":"14.96482173","decile":"9","lat":40.475363607099,"lng":-111.75484342449},{"id":"82381","name":"Dr. Lary Gorczany","party":"","address":"707 Lakeview Dr, Alpine, UT 84004","precinct":"25AL01","hd":"54","v_score":"8.376826675","decile":"8","lat":40.462891236138,"lng":-111.791042943922},{"id":"83576","name":"Dorris Pouros III","party":"Dem","address":"117 E Deer Crest Ln, Alpine, UT 84004","precinct":"25AL01","hd":"54","v_score":"1.193887297","decile":"3","lat":40.469259319906,"lng":-111.775332398295},{"id":"84542","name":"Simmie Bernier","party":"Rep","address":"909 N Fort Canyon Rd, Alpine, UT 84004","precinct":"25AL01","hd":"54","v_score":"4.639704383","decile":"7","lat":40.465629062887,"lng":-111.779470607325},{"id":"85821","name":"Trinidad Zieme-Breitenberg","party":"Dem","address":"1365 E Box Elder Dr, Alpine, UT 84004","precinct":"25AL01","hd":"54","v_score":"1.193887297","decile":"3","lat":40.475292279953,"lng":-111.754253941692},{"id":"85852","name":"Abril Barrows DVM","party":"","address":"602 W 600 N, Alpine, UT 84004","precinct":"25AL01","hd":"54","v_score":"43.20259045","decile":"10","lat":40.461261284236,"lng":-111.789212821886},{"id":"85891","name":"Pete Rodriguez","party":"Rep","address":"4175 W Alpine Cove Dr, Alpine, UT 84004","precinct":"25AL01","hd":"54","v_score":"3.711952487","decile":"6","lat":40.478704845678,"lng":-111.758848588703},{"id":"86264","name":"Miss Helyn Watsica","party":"Dem","address":"1118 Moyle Dr, Alpine, UT 84004","precinct":"25AL01","hd":"54","v_score":"0","decile":"1","lat":40.468677396781,"lng":-111.76281497089},{"id":"86313","name":"Cael Jacobi","party":"Rep","address":"640 Lupine Dr, Alpine, UT 84004","precinct":"25AL01","hd":"54","v_score":"1.193887297","decile":"4","lat":40.4595110058,"lng":-111.789970405508},{"id":"86651","name":"Mikalah Renner DVM","party":"Rep","address":"476 Lakeview Dr, Alpine, UT 84004","precinct":"25AL01","hd":"54","v_score":"0","decile":"1","lat":40.467909059141,"lng":-111.794495751392},{"id":"86939","name":"Deliah Gusikowski","party":"Rep","address":"909 N Fort Canyon Rd, Alpine, UT 84004","precinct":"25AL01","hd":"54","v_score":"0","decile":"1","lat":40.465629062887,"lng":-111.779470607325},{"id":"87307","name":"Eldora Larson-Rohan","party":"Rep","address":"584 Treeline Dr, Alpine, UT 84004","precinct":"25AL01","hd":"54","v_score":"8.709634245","decile":"8","lat":40.4638213896,"lng":-111.78953603282},{"id":"87911","name":"Demond Simonis-Anderson","party":"Rep","address":"994 Moyle Dr, Alpine, UT 84004","precinct":"25AL01","hd":"54","v_score":"0","decile":"1","lat":40.46720094471,"lng":-111.763509931089},{"id":"88118","name":"Gina Rutherford","party":"","address":"1118 Moyle Dr, Alpine, UT 84004","precinct":"25AL01","hd":"54","v_score":"2.817000428","decile":"6","lat":40.468677396781,"lng":-111.76281497089},{"id":"88221","name":"Gerhard Kuvalis","party":"Dem","address":"1017 N Fort Canyon Rd, Alpine, UT 84004","precinct":"25AL01","hd":"54","v_score":"1.623113131","decile":"5","lat":40.466458475288,"lng":-111.780670349936},{"id":"88749","name":"Luanne Stamm","party":"Rep","address":"942 Sunbrook Cir, Alpine, UT 84004","precinct":"25AL01","hd":"54","v_score":"1.193887297","decile":"4","lat":40.465592669585,"lng":-111.75902027006},{"id":"88776","name":"Dr. Alexandro Reichel","party":"Dem","address":"327 International Way, Alpine, UT 84004","precinct":"25AL01","hd":"54","v_score":"3.711952487","decile":"6","lat":40.4634855829,"lng":-111.784257846871},{"id":"89671","name":"Mr. Collins Simonis","party":"","address":"304 Meadowlark Dr, Alpine, UT 84004","precinct":"25AL01","hd":"54","v_score":"0","decile":"1","lat":40.465570575625,"lng":-111.782973929433},{"id":"90997","name":"Starla Denesik","party":"Rep","address":"1309 Moyle Dr, Alpine, UT 84004","precinct":"25AL01","hd":"54","v_score":"0","decile":"1","lat":40.470420009519,"lng":-111.761609302057},{"id":"91882","name":"Jase Watsica DDS","party":"","address":"4278 Oakview Cir, Alpine, UT 84004","precinct":"25AL01","hd":"54","v_score":"1.193887297","decile":"4","lat":40.477178753545,"lng":-111.761630273271},{"id":"92524","name":"Nira Kozey","party":"","address":"817 N Main St, Alpine, UT 84004","precinct":"25AL01","hd":"54","v_score":"1.193887297","decile":"4","lat":40.463982342047,"lng":-111.777836977224},{"id":"92746","name":"Christ Moen","party":"Rep","address":"1001 N Fort Canyon Rd, Alpine, UT 84004","precinct":"25AL01","hd":"54","v_score":"0","decile":"1","lat":40.466350760733,"lng":-111.780562340762},{"id":"93489","name":"Sherree Hahn","party":"Rep","address":"13334 N Alpine Cove Dr, Alpine, UT 84004","precinct":"25AL01","hd":"54","v_score":"1.193887297","decile":"4","lat":40.477155602987,"lng":-111.762619774424},{"id":"93664","name":"Burr Conroy-Larkin","party":"","address":"13418 N Alpine Cove Dr, Alpine, UT 84004","precinct":"25AL01","hd":"54","v_score":"2.817000428","decile":"6","lat":40.476567426022,"lng":-111.76287120873},{"id":"93899","name":"Arkie Kassulke-Ward","party":"","address":"1681 E Box Elder Cir, Alpine, UT 84004","precinct":"25AL01","hd":"54","v_score":"3.711952487","decile":"6","lat":40.472365332155,"lng":-111.748146679507},{"id":"94257","name":"Milburn Paucek","party":"","address":"795 W 600 N, Alpine, UT 84004","precinct":"25AL01","hd":"54","v_score":"0","decile":"1","lat":40.461147954606,"lng":-111.792622103929},{"id":"94612","name":"Luverne Veum","party":"Rep","address":"725 W 600 N, Alpine, UT 84004","precinct":"25AL01","hd":"54","v_score":"1.193887297","decile":"4","lat":40.461146693035,"lng":-111.791590597898},{"id":"94890","name":"Mr. Rylan Braun V","party":"","address":"527 Treeline Dr, Alpine, UT 84004","precinct":"25AL01","hd":"54","v_score":"3.711952487","decile":"6","lat":40.463004765594,"lng":-111.788270374674},{"id":"95087","name":"Tamekia Beahan MD","party":"Dem","address":"706 W 600 N, Alpine, UT 84004","precinct":"25AL01","hd":"54","v_score":"1.193887297","decile":"4","lat":40.461261284358,"lng":-111.790798753446},{"id":"95429","name":"Shatara Powlowski-Beahan","party":"","address":"707 Lakeview Dr, Alpine, UT 84004","precinct":"25AL01","hd":"54","v_score":"2.817000428","decile":"6","lat":40.462891236138,"lng":-111.791042943922},{"id":"95536","name":"Dimitri Brakus","party":"","address":"317 Heritage Hills Dr, Alpine, UT 84004","precinct":"25AL01","hd":"54","v_score":"1.193887297","decile":"4","lat":40.46907666548,"lng":-111.77291052107},{"id":"96412","name":"Dr. Humphrey Will DDS","party":"Rep","address":"1309 Moyle Dr, Alpine, UT 84004","precinct":"25AL01","hd":"54","v_score":"9.40499548","decile":"8","lat":40.470420009519,"lng":-111.761609302057},{"id":"96588","name":"Jim Pouros","party":"Rep","address":"253 E Deer Crest Cir, Alpine, UT 84004","precinct":"25AL01","hd":"54","v_score":"1.193887297","decile":"4","lat":40.470515848493,"lng":-111.774368703014},{"id":"97075","name":"Enid Mertz-Lockman","party":"","address":"1500 N Fort Canyon Rd, Alpine, UT 84004","precinct":"25AL01","hd":"54","v_score":"11.79765681","decile":"9","lat":40.472334990979,"lng":-111.7819792205},{"id":"97480","name":"Diana Maggio","party":"Rep","address":"709 Summit Way, Alpine, UT 84004","precinct":"25AL01","hd":"54","v_score":"8.284004873","decile":"8","lat":40.462617721092,"lng":-111.789390077569},{"id":"97498","name":"Duwayne Sawayn","party":"","address":"1270 Grove Dr, Alpine, UT 84004","precinct":"25AL01","hd":"54","v_score":"1.193887297","decile":"4","lat":40.470182707748,"lng":-111.765409850045},{"id":"97730","name":"Somer Jones","party":"","address":"1303 Eastview Ln, Alpine, UT 84004","precinct":"25AL01","hd":"54","v_score":"0","decile":"1","lat":40.471154950096,"lng":-111.771195730988},{"id":"98532","name":"Arland McGlynn","party":"Dem","address":"574 W 600 N, Alpine, UT 84004","precinct":"25AL01","hd":"54","v_score":"0","decile":"1","lat":40.461263791316,"lng":-111.788672617119},{"id":"98679","name":"Zavier Schmeler-Nienow","party":"Rep","address":"1413 E Box Elder Way, Alpine, UT 84004","precinct":"25AL01","hd":"54","v_score":"5.407962308","decile":"7","lat":40.475153052085,"lng":-111.752996434131},{"id":"99871","name":"Avie Nitzsche","party":"Rep","address":"1270 Grove Dr, Alpine, UT 84004","precinct":"25AL01","hd":"54","v_score":"0","decile":"1","lat":40.470182707748,"lng":-111.765409850045},{"id":"99920","name":"Dr. Adrian Torphy DVM","party":"Dem","address":"1309 Moyle Dr, Alpine, UT 84004","precinct":"25AL01","hd":"54","v_score":"4.905839784","decile":"7","lat":40.470420009519,"lng":-111.761609302057},{"id":"100543","name":"Doc Jones DDS","party":"Rep","address":"1571 E Box Elder Cir, Alpine, UT 84004","precinct":"25AL01","hd":"54","v_score":"0","decile":"1","lat":40.472355753357,"lng":-111.750050494568},{"id":"100787","name":"Mikal Rowe","party":"Rep","address":"1430 N Fort Canyon Rd, Alpine, UT 84004","precinct":"25AL01","hd":"54","v_score":"2.876042565","decile":"6","lat":40.472023892663,"lng":-111.781947237749},{"id":"101378","name":"Mr. Markell Olson MD","party":"Dem","address":"13506 Oakridge Dr, Alpine, UT 84004","precinct":"25AL01","hd":"54","v_score":"0","decile":"2","lat":40.477453225964,"lng":-111.758453427878},{"id":"101563","name":"Mrs. Dorla Wiegand","party":"","address":"1017 N Fort Canyon Rd, Alpine, UT 84004","precinct":"25AL01","hd":"54","v_score":"0","decile":"2","lat":40.466458475288,"lng":-111.780670349936},{"id":"103103","name":"Malcom Keebler","party":"","address":"4184 W Alpine Cove Dr, Alpine, UT 84004","precinct":"25AL01","hd":"54","v_score":"4.905839784","decile":"7","lat":40.478832264391,"lng":-111.759052048698},{"id":"103104","name":"Benjamen Doyle","party":"","address":"4184 W Alpine Cove Dr, Alpine, UT 84004","precinct":"25AL01","hd":"54","v_score":"0","decile":"2","lat":40.478832264391,"lng":-111.759052048698},{"id":"103603","name":"Halbert Stamm","party":"Rep","address":"312 Meadowlark Dr, Alpine, UT 84004","precinct":"25AL01","hd":"54","v_score":"0","decile":"2","lat":40.465592285223,"lng":-111.783067280658},{"id":"104112","name":"Ilo Nikolaus-Hettinger","party":"Dem","address":"13423 N Alpine Cove Dr, Alpine, UT 84004","precinct":"25AL01","hd":"54","v_score":"0","decile":"2","lat":40.476053158934,"lng":-111.763018733729},{"id":"104965","name":"Giovanni Mraz III","party":"Dem","address":"317 Heritage Hills Dr, Alpine, UT 84004","precinct":"25AL01","hd":"54","v_score":"0","decile":"2","lat":40.46907666548,"lng":-111.77291052107},{"id":"104990","name":"Miss Liz Oberbrunner PhD","party":"Rep","address":"706 W 600 N, Alpine, UT 84004","precinct":"25AL01","hd":"54","v_score":"1.193887297","decile":"4","lat":40.461261284358,"lng":-111.790798753446},{"id":"105136","name":"Ellie VonRueden","party":"Rep","address":"4184 W Alpine Cove Dr, Alpine, UT 84004","precinct":"25AL01","hd":"54","v_score":"1.193887297","decile":"4","lat":40.478832264391,"lng":-111.759052048698},{"id":"105285","name":"Burton Hyatt","party":"Dem","address":"1034 Moyle Dr, Alpine, UT 84004","precinct":"25AL01","hd":"54","v_score":"0","decile":"2","lat":40.467677219572,"lng":-111.763285750379},{"id":"105681","name":"Mickey Reichert","party":"Rep","address":"1030 Orchard Ln, Alpine, UT 84004","precinct":"25AL01","hd":"54","v_score":"0","decile":"2","lat":40.466734473885,"lng":-111.762481273185},{"id":"106130","name":"Ms. Chloie Moen PhD","party":"Rep","address":"4256 W Alpine Cove Dr, Alpine, UT 84004","precinct":"25AL01","hd":"54","v_score":"1.193887297","decile":"4","lat":40.478980365476,"lng":-111.760593014611},{"id":"106150","name":"Harvey Romaguera","party":"","address":"670 Lupine Dr, Alpine, UT 84004","precinct":"25AL01","hd":"54","v_score":"2.876042565","decile":"6","lat":40.459500524608,"lng":-111.790605948513},{"id":"107593","name":"Marla Simonis MD","party":"","address":"1443 E Box Elder Dr, Alpine, UT 84004","precinct":"25AL01","hd":"54","v_score":"7.781882349","decile":"8","lat":40.474830917237,"lng":-111.752223664882},{"id":"108146","name":"Hortencia Hilll","party":"","address":"942 Sunbrook Cir, Alpine, UT 84004","precinct":"25AL01","hd":"54","v_score":"1.193887297","decile":"4","lat":40.465592669585,"lng":-111.75902027006},{"id":"109941","name":"Hallie Krajcik","party":"Dem","address":"13293 Grove Dr, Alpine, UT 84004","precinct":"25AL01","hd":"54","v_score":"1.193887297","decile":"4","lat":40.474184562683,"lng":-111.761366378504},{"id":"110869","name":"Irven Lebsack","party":"","address":"320 Meadowlark Dr, Alpine, UT 84004","precinct":"25AL01","hd":"54","v_score":"0","decile":"2","lat":40.465613022597,"lng":-111.783167000204},{"id":"111636","name":"Dr. Makayla O'Conner DDS","party":"Rep","address":"327 International Way, Alpine, UT 84004","precinct":"25AL01","hd":"54","v_score":"0","decile":"2","lat":40.4634855829,"lng":-111.784257846871},{"id":"111890","name":"Ceylon Windler Jr.","party":"","address":"381 International Way, Alpine, UT 84004","precinct":"25AL01","hd":"54","v_score":"2.876042565","decile":"6","lat":40.464064957563,"lng":-111.785322367145},{"id":"115034","name":"Zhane Predovic-Abshire","party":"Dem","address":"557 N 400 W, Alpine, UT 84004","precinct":"25AL01","hd":"54","v_score":"0","decile":"2","lat":40.460385496987,"lng":-111.786088769693},{"id":"115072","name":"Mrs. May Towne","party":"Dem","address":"1030 Orchard Ln, Alpine, UT 84004","precinct":"25AL01","hd":"54","v_score":"1.193887297","decile":"4","lat":40.466734473885,"lng":-111.762481273185},{"id":"115144","name":"Dr. Izayah Graham PhD","party":"","address":"1084 Moyle Dr, Alpine, UT 84004","precinct":"25AL01","hd":"54","v_score":"0","decile":"2","lat":40.468272563149,"lng":-111.763005524493},{"id":"115347","name":"Rustin Hodkiewicz","party":"","address":"13506 Oakridge Dr, Alpine, UT 84004","precinct":"25AL01","hd":"54","v_score":"0","decile":"2","lat":40.477453225964,"lng":-111.758453427878},{"id":"115356","name":"Tye Hintz","party":"Dem","address":"709 Summit Way, Alpine, UT 84004","precinct":"25AL01","hd":"54","v_score":"0","decile":"2","lat":40.462617721092,"lng":-111.789390077569},{"id":"115666","name":"Mr. Zed Kihn V","party":"Rep","address":"168 E Deer Crest Ln, Alpine, UT 84004","precinct":"25AL01","hd":"54","v_score":"0","decile":"2","lat":40.469709388903,"lng":-111.774949927597},{"id":"116261","name":"Mr. Willian Bauch","party":"Rep","address":"412 Eastview Ln, Alpine, UT 84004","precinct":"25AL01","hd":"54","v_score":"1.193887297","decile":"4","lat":40.469223342562,"lng":-111.77196351936},{"id":"116378","name":"Aubrie Hudson","party":"Dem","address":"1017 N Fort Canyon Rd, Alpine, UT 84004","precinct":"25AL01","hd":"54","v_score":"0","decile":"2","lat":40.466458475288,"lng":-111.780670349936},{"id":"116509","name":"Jerome Gerlach","party":"","address":"446 Lupine Dr, Alpine, UT 84004","precinct":"25AL01","hd":"54","v_score":"0","decile":"2","lat":40.459662728531,"lng":-111.786796459421},{"id":"116977","name":"Mr. Oakley Abbott","party":"Rep","address":"707 Lakeview Dr, Alpine, UT 84004","precinct":"25AL01","hd":"54","v_score":"1.193887297","decile":"4","lat":40.462891236138,"lng":-111.791042943922},{"id":"117102","name":"Tavares Mertz","party":"","address":"1551 E Box Elder Cir, Alpine, UT 84004","precinct":"25AL01","hd":"54","v_score":"8.284004873","decile":"8","lat":40.472354011757,"lng":-111.750396642761},{"id":"117548","name":"Khalid Treutel","party":"Rep","address":"702 Summit Way, Alpine, UT 84004","precinct":"25AL01","hd":"54","v_score":"8.284004873","decile":"8","lat":40.462269415957,"lng":-111.789828604661},{"id":"118886","name":"Pearlie Hand DVM","party":"Dem","address":"13453 Oakridge Dr, Alpine, UT 84004","precinct":"25AL01","hd":"54","v_score":"1.193887297","decile":"4","lat":40.47681439096,"lng":-111.758328171287},{"id":"118958","name":"Merrily Kuhic","party":"Dem","address":"989 N Apple Creek Cir, Alpine, UT 84004","precinct":"25AL01","hd":"54","v_score":"1.193887297","decile":"4","lat":40.466479143853,"lng":-111.761058821509},{"id":"119014","name":"Francesca Hoeger PhD","party":"Dem","address":"709 Summit Way, Alpine, UT 84004","precinct":"25AL01","hd":"54","v_score":"0","decile":"2","lat":40.462617721092,"lng":-111.789390077569},{"id":"119516","name":"Erick Corkery","party":"Rep","address":"117 E Deer Crest Ln, Alpine, UT 84004","precinct":"25AL01","hd":"54","v_score":"1.193887297","decile":"4","lat":40.469259319906,"lng":-111.775332398295},{"id":"119841","name":"Treyton Senger-Berge","party":"Rep","address":"4256 W Alpine Cove Dr, Alpine, UT 84004","precinct":"25AL01","hd":"54","v_score":"1.193887297","decile":"4","lat":40.478980365476,"lng":-111.760593014611},{"id":"119844","name":"Dr. Buford Anderson","party":"","address":"1368 N Fort Canyon Rd, Alpine, UT 84004","precinct":"25AL01","hd":"54","v_score":"1.193887297","decile":"4","lat":40.471350699112,"lng":-111.781810938807},{"id":"120317","name":"Worth Langworth","party":"","address":"384 International Way, Alpine, UT 84004","precinct":"25AL01","hd":"54","v_score":"4.069929862","decile":"7","lat":40.463181260232,"lng":-111.7864676037},{"id":"120570","name":"Dr. Yaritza Kessler MD","party":"","address":"989 N Apple Creek Cir, Alpine, UT 84004","precinct":"25AL01","hd":"54","v_score":"1.193887297","decile":"4","lat":40.466479143853,"lng":-111.761058821509},{"id":"121297","name":"Ibrahim Hoppe","party":"","address":"1212 N Heritage Cir, Alpine, UT 84004","precinct":"25AL01","hd":"54","v_score":"1.193887297","decile":"4","lat":40.469344144553,"lng":-111.770455779088},{"id":"122479","name":"Lissette Zemlak","party":"","address":"1473 E Box Elder Way, Alpine, UT 84004","precinct":"25AL01","hd":"54","v_score":"1.193887297","decile":"4","lat":40.474437930765,"lng":-111.751646337173},{"id":"122709","name":"Mr. Dimitrios Lesch PhD","party":"","address":"4084 W Alpine Cove Cir, Alpine, UT 84004","precinct":"25AL01","hd":"54","v_score":"1.193887297","decile":"4","lat":40.478794991809,"lng":-111.757245208046},{"id":"124371","name":"Jayce Macejkovic","party":"","address":"709 Summit Way, Alpine, UT 84004","precinct":"25AL01","hd":"54","v_score":"1.193887297","decile":"4","lat":40.462617721092,"lng":-111.789390077569},{"id":"125449","name":"Maribel Kautzer-Romaguera","party":"Dem","address":"1517 N Grove Dr, Alpine, UT 84004","precinct":"25AL01","hd":"54","v_score":"0","decile":"2","lat":40.473026126652,"lng":-111.764083118672},{"id":"128087","name":"Sariah Reichel","party":"","address":"1413 E Box Elder Way, Alpine, UT 84004","precinct":"25AL01","hd":"54","v_score":"7.090117576","decile":"8","lat":40.475153052085,"lng":-111.752996434131},{"id":"128134","name":"Susie Parker","party":"","address":"4251 W Alpine Cove Dr, Alpine, UT 84004","precinct":"25AL01","hd":"54","v_score":"7.090117576","decile":"8","lat":40.478854063897,"lng":-111.760483659542},{"id":"131497","name":"Almira Rowe","party":"Dem","address":"615 W 600 N, Alpine, UT 84004","precinct":"25AL01","hd":"54","v_score":"0","decile":"2","lat":40.461146692873,"lng":-111.789491524604},{"id":"133374","name":"Fount Lakin","party":"Rep","address":"825 W 600 N, Alpine, UT 84004","precinct":"25AL01","hd":"54","v_score":"0","decile":"2","lat":40.461057912878,"lng":-111.79304796729},{"id":"133616","name":"Delta Crist","party":"","address":"4345 Stoney Brook Cir, Alpine, UT 84004","precinct":"25AL01","hd":"54","v_score":"0","decile":"2","lat":40.477968506542,"lng":-111.762952060954},{"id":"133750","name":"Irvin Trantow II","party":"Dem","address":"4345 Stoney Brook Cir, Alpine, UT 84004","precinct":"25AL01","hd":"54","v_score":"0","decile":"2","lat":40.477968506542,"lng":-111.762952060954},{"id":"134677","name":"Ingeborg Conroy","party":"","address":"13293 Grove Dr, Alpine, UT 84004","precinct":"25AL01","hd":"54","v_score":"15.23584683","decile":"9","lat":40.474184562683,"lng":-111.761366378504},{"id":"135919","name":"Mr. Ladarius Glover III","party":"Rep","address":"13334 N Alpine Cove Dr, Alpine, UT 84004","precinct":"25AL01","hd":"54","v_score":"2.315214949","decile":"5","lat":40.477155602987,"lng":-111.762619774424},{"id":"136273","name":"Coralie Hessel","party":"Dem","address":"253 E Deer Crest Cir, Alpine, UT 84004","precinct":"25AL01","hd":"54","v_score":"6.192088139","decile":"7","lat":40.470515848493,"lng":-111.774368703014},{"id":"136543","name":"Mr. Lorin Gottlieb DVM","party":"","address":"238 International Way, Alpine, UT 84004","precinct":"25AL01","hd":"54","v_score":"18.46989245","decile":"10","lat":40.464778274328,"lng":-111.782816341216},{"id":"136988","name":"Verne Torphy","party":"","address":"1430 N Fort Canyon Rd, Alpine, UT 84004","precinct":"25AL01","hd":"54","v_score":"22.20326336","decile":"10","lat":40.472023892663,"lng":-111.781947237749},{"id":"136989","name":"Celestine Koepp","party":"","address":"1430 N Fort Canyon Rd, Alpine, UT 84004","precinct":"25AL01","hd":"54","v_score":"25.14617095","decile":"10","lat":40.472023892663,"lng":-111.781947237749},{"id":"137169","name":"Egbert Kulas","party":"Rep","address":"1118 Moyle Dr, Alpine, UT 84004","precinct":"25AL01","hd":"54","v_score":"20.14338692","decile":"10","lat":40.468677396781,"lng":-111.76281497089},{"id":"137435","name":"Almon Boehm","party":"Dem","address":"799 E Alpine Blvd, Alpine, UT 84004","precinct":"25AL01","hd":"54","v_score":"7.995565619","decile":"8","lat":40.4654126113,"lng":-111.763301371582},{"id":"138052","name":"Denita Thompson","party":"Rep","address":"613 Treeline Dr, Alpine, UT 84004","precinct":"25AL01","hd":"54","v_score":"3.93832808","decile":"6","lat":40.463359661023,"lng":-111.789198174447},{"id":"138709","name":"Christ West IV","party":"Rep","address":"254 International Way, Alpine, UT 84004","precinct":"25AL01","hd":"54","v_score":"6.884189957","decile":"8","lat":40.464405514706,"lng":-111.782812743862},{"id":"138845","name":"Keira Schowalter DVM","party":"Dem","address":"1876 N Fort Canyon Rd, Alpine, UT 84004","precinct":"25AL01","hd":"54","v_score":"11.23922619","decile":"9","lat":40.477252908451,"lng":-111.779970121208},{"id":"141047","name":"Dr. Celie Leuschke PhD","party":"Rep","address":"289 International Way, Alpine, UT 84004","precinct":"25AL01","hd":"54","v_score":"5.407962308","decile":"7","lat":40.463822083176,"lng":-111.783275270061},{"id":"141519","name":"Mrs. Madelyn Williamson PhD","party":"","address":"703 N Main St, Alpine, UT 84004","precinct":"25AL01","hd":"54","v_score":"11.02844566","decile":"9","lat":40.462442067163,"lng":-111.777859830169},{"id":"142948","name":"Kimberely McCullough","party":"Rep","address":"362 International Way, Alpine, UT 84004","precinct":"25AL01","hd":"54","v_score":"36.28419167","decile":"10","lat":40.463956360754,"lng":-111.786223694513},{"id":"142950","name":"Miss Nova Bosco","party":"Rep","address":"942 Sunbrook Cir, Alpine, UT 84004","precinct":"25AL01","hd":"54","v_score":"11.885774","decile":"9","lat":40.465592669585,"lng":-111.75902027006},{"id":"143117","name":"Ms. Delphine Durgan DVM","party":"Dem","address":"942 Sunbrook Cir, Alpine, UT 84004","precinct":"25AL01","hd":"54","v_score":"16.09984901","decile":"9","lat":40.465592669585,"lng":-111.75902027006},{"id":"143691","name":"Luster Cronin-O'Hara","party":"","address":"837 N Main St, Alpine, UT 84004","precinct":"25AL01","hd":"54","v_score":"10.66687182","decile":"9","lat":40.464347066348,"lng":-111.777828167169},{"id":"144278","name":"Dr. Cecilia Bechtelar","party":"Dem","address":"671 N Main St, Alpine, UT 84004","precinct":"25AL01","hd":"54","v_score":"11.02844566","decile":"9","lat":40.462009709301,"lng":-111.77786624503},{"id":"144288","name":"Mr. Fitzgerald Hammes V","party":"","address":"945 Sunbrook Cir, Alpine, UT 84004","precinct":"25AL01","hd":"54","v_score":"20.30022439","decile":"10","lat":40.465641306234,"lng":-111.759158073343},{"id":"144893","name":"Mrs. Shanda Jacobi DDS","party":"","address":"974 Moyle Cir, Alpine, UT 84004","precinct":"25AL01","hd":"54","v_score":"1.121327652","decile":"3","lat":40.470082810056,"lng":-111.761616548481},{"id":"146907","name":"Shelva Kemmer-Cruickshank","party":"Dem","address":"1118 N Moyle Dr, Alpine, UT 84004","precinct":"25AL01","hd":"54","v_score":"1.121327652","decile":"3","lat":40.468677396781,"lng":-111.76281497089},{"id":"148742","name":"Mrs. Alejandra McLaughlin DDS","party":"","address":"308 Meadowlark Dr, Alpine, UT 84004","precinct":"25AL01","hd":"54","v_score":"19.99832472","decile":"10","lat":40.465581430424,"lng":-111.783020605045},{"id":"149265","name":"Mrs. Melina Lynch DVM","party":"Dem","address":"679 Summit Way, Alpine, UT 84004","precinct":"25AL01","hd":"54","v_score":"36.36686118","decile":"10","lat":40.462478317237,"lng":-111.789672559254},{"id":"149445","name":"Latricia Conn","party":"","address":"4218 W Alpine Cove Dr, Alpine, UT 84004","precinct":"25AL01","hd":"54","v_score":"11.37977487","decile":"9","lat":40.478900207116,"lng":-111.759778072004},{"id":"149446","name":"Hamza Schowalter","party":"Rep","address":"4218 W Alpine Cove Dr, Alpine, UT 84004","precinct":"25AL01","hd":"54","v_score":"11.37977487","decile":"9","lat":40.478900207116,"lng":-111.759778072004},{"id":"150131","name":"Jeannette O'Keefe","party":"Dem","address":"1360 Grove Dr, Alpine, UT 84004","precinct":"25AL01","hd":"54","v_score":"20.7369877","decile":"10","lat":40.471148875951,"lng":-111.764683456233},{"id":"150687","name":"Mrs. Shania Gislason","party":"","address":"889 N Fort Canyon Rd, Alpine, UT 84004","precinct":"25AL01","hd":"54","v_score":"6.724398202","decile":"8","lat":40.46565718958,"lng":-111.779200696765},{"id":"152675","name":"Woody Collier","party":"Dem","address":"717 N Main St, Alpine, UT 84004","precinct":"25AL01","hd":"54","v_score":"24.81118803","decile":"10","lat":40.462631223728,"lng":-111.777857023667},{"id":"153137","name":"Devon Denesik","party":"","address":"584 Treeline Dr, Alpine, UT 84004","precinct":"25AL01","hd":"54","v_score":"16.88677172","decile":"9","lat":40.4638213896,"lng":-111.78953603282},{"id":"153371","name":"Jo Prohaska","party":"Dem","address":"693 Lakeview Dr, Alpine, UT 84004","precinct":"25AL01","hd":"54","v_score":"32.06327271","decile":"10","lat":40.468135787929,"lng":-111.795202798493},{"id":"153372","name":"Shara Adams","party":"Rep","address":"693 Lakeview Dr, Alpine, UT 84004","precinct":"25AL01","hd":"54","v_score":"28.96057337","decile":"10","lat":40.468135787929,"lng":-111.795202798493},{"id":"153394","name":"Mellie Schiller","party":"Rep","address":"1136 Birch Cir, Alpine, UT 84004","precinct":"25AL01","hd":"54","v_score":"30.98227451","decile":"10","lat":40.467999953588,"lng":-111.765819563728},{"id":"154114","name":"Sammy Mitchell","party":"Dem","address":"1330 Moyle Dr, Alpine, UT 84004","precinct":"25AL01","hd":"54","v_score":"24.53571782","decile":"10","lat":40.471114686434,"lng":-111.760431662952},{"id":"154270","name":"Vertie Olson","party":"","address":"233 Fairview Cir, Alpine, UT 84004","precinct":"25AL01","hd":"54","v_score":"42.15246588","decile":"10","lat":40.464721213421,"lng":-111.78205196573},{"id":"154342","name":"Adrianne Simonis","party":"","address":"13423 N Alpine Cove Dr, Alpine, UT 84004","precinct":"25AL01","hd":"54","v_score":"3.93832808","decile":"6","lat":40.476053158934,"lng":-111.763018733729},{"id":"154532","name":"Dr. Laurette Hudson DDS","party":"Rep","address":"1279 Elkridge Ln, Alpine, UT 84004","precinct":"25AL01","hd":"54","v_score":"19.53943529","decile":"10","lat":40.469952783461,"lng":-111.769025887141},{"id":"154604","name":"Miss Martika Zieme DDS","party":"Dem","address":"1294 Grove Dr, Alpine, UT 84004","precinct":"25AL01","hd":"54","v_score":"17.37718547","decile":"9","lat":40.4704403662,"lng":-111.765216011652},{"id":"155250","name":"Miss Keely Mills DVM","party":"Rep","address":"13422 Bayberry Cir, Alpine, UT 84004","precinct":"25AL01","hd":"54","v_score":"19.74196003","decile":"10","lat":40.476164827001,"lng":-111.759841796724},{"id":"155547","name":"Margene Stokes-Senger","party":"Rep","address":"1638 E Box Elder Dr, Alpine, UT 84004","precinct":"25AL01","hd":"54","v_score":"36.20706943","decile":"10","lat":40.474895791711,"lng":-111.748859034601},{"id":"156169","name":"Odalys Balistreri","party":"Rep","address":"13293 Grove Dr, Alpine, UT 84004","precinct":"25AL01","hd":"54","v_score":"15.23584683","decile":"9","lat":40.474184562683,"lng":-111.761366378504},{"id":"156213","name":"Dr. Nallely Kuhic","party":"Rep","address":"889 N Fort Canyon Rd, Alpine, UT 84004","precinct":"25AL01","hd":"54","v_score":"8.347511332","decile":"8","lat":40.46565718958,"lng":-111.779200696765},{"id":"157238","name":"Sebastian Dietrich","party":"Rep","address":"942 N Apple Creek Cir, Alpine, UT 84004","precinct":"25AL01","hd":"54","v_score":"19.36103683","decile":"10","lat":40.465886646419,"lng":-111.761222545688},{"id":"157350","name":"Kelcie Kemmer DVM","party":"","address":"13478 Oakridge Dr, Alpine, UT 84004","precinct":"25AL01","hd":"54","v_score":"11.52389434","decile":"9","lat":40.477162250404,"lng":-111.758482559943},{"id":"157357","name":"Lyndsay Rippin","party":"Rep","address":"13506 Oakridge Dr, Alpine, UT 84004","precinct":"25AL01","hd":"54","v_score":"10.66687182","decile":"9","lat":40.477453225964,"lng":-111.758453427878},{"id":"157377","name":"Dwayne Boyer-Kihn","party":"Dem","address":"289 International Way, Alpine, UT 84004","precinct":"25AL01","hd":"54","v_score":"25.87495026","decile":"10","lat":40.463822083176,"lng":-111.783275270061},{"id":"157455","name":"Bobby Schulist","party":"","address":"4273 Oakview Cir, Alpine, UT 84004","precinct":"25AL01","hd":"54","v_score":"19.3272208","decile":"10","lat":40.477062870451,"lng":-111.761599062304},{"id":"157456","name":"Liz Schimmel","party":"","address":"4273 Oakview Cir, Alpine, UT 84004","precinct":"25AL01","hd":"54","v_score":"16.36864091","decile":"9","lat":40.477062870451,"lng":-111.761599062304},{"id":"157549","name":"Reubin Tromp Jr.","party":"","address":"1137 Moyle Dr, Alpine, UT 84004","precinct":"25AL01","hd":"54","v_score":"5.356821087","decile":"7","lat":40.468230373504,"lng":-111.763185372179},{"id":"158351","name":"Myah Rutherford-Medhurst","party":"","address":"1001 N Fort Canyon Rd, Alpine, UT 84004","precinct":"25AL01","hd":"54","v_score":"1.121327652","decile":"3","lat":40.466350760733,"lng":-111.780562340762},{"id":"159800","name":"Falon Hammes","party":"Dem","address":"1612 Prospect Ln, Alpine, UT 84004","precinct":"25AL01","hd":"54","v_score":"23.54129581","decile":"10","lat":40.474645897457,"lng":-111.753630376766},{"id":"160469","name":"Meta Lueilwitz","party":"Dem","address":"257 International Way, Alpine, UT 84004","precinct":"25AL01","hd":"54","v_score":"28.96057337","decile":"10","lat":40.464364417765,"lng":-111.782671616671},{"id":"160721","name":"Dr. Anjanette Osinski","party":"Rep","address":"706 W 600 N, Alpine, UT 84004","precinct":"25AL01","hd":"54","v_score":"2.817000428","decile":"6","lat":40.461261284358,"lng":-111.790798753446},{"id":"161149","name":"Steward Larson-Adams","party":"Rep","address":"1241 N Fort Canyon Rd, Alpine, UT 84004","precinct":"25AL01","hd":"54","v_score":"17.85535651","decile":"10","lat":40.468142840691,"lng":-111.781604402542},{"id":"162805","name":"Ms. Athena Herzog PhD","party":"Dem","address":"683 N Main St, Alpine, UT 84004","precinct":"25AL01","hd":"54","v_score":"3.781490609","decile":"6","lat":40.462171843499,"lng":-111.777863839457},{"id":"162946","name":"Dr. Jarvis Daniel","party":"Dem","address":"320 Meadowlark Dr, Alpine, UT 84004","precinct":"25AL01","hd":"54","v_score":"2.315214949","decile":"5","lat":40.465613022597,"lng":-111.783167000204},{"id":"163648","name":"Sandi Morissette","party":"Dem","address":"1285 N Heritage Cir, Alpine, UT 84004","precinct":"25AL01","hd":"54","v_score":"2.587603312","decile":"5","lat":40.469944293103,"lng":-111.770605602853},{"id":"163889","name":"Justice Mann-Kemmer","party":"","address":"553 Blue Spruce Rd, Alpine, UT 84004","precinct":"25AL01","hd":"54","v_score":"5.258122542","decile":"7","lat":40.460381427837,"lng":-111.789150698361},{"id":"164482","name":"Mr. Kim Kshlerin Jr.","party":"Rep","address":"1010 N Fort Canyon Rd, Alpine, UT 84004","precinct":"25AL01","hd":"54","v_score":"0","decile":"3","lat":40.46747516332,"lng":-111.78111154678},{"id":"166585","name":"Dr. Floy Dietrich DVM","party":"","address":"242 International Way, Alpine, UT 84004","precinct":"25AL01","hd":"54","v_score":"23.06510067","decile":"10","lat":40.464641885427,"lng":-111.782803610598},{"id":"166997","name":"Cornel Runolfsdottir","party":"Dem","address":"645 W 600 N, Alpine, UT 84004","precinct":"25AL01","hd":"54","v_score":"31.90348096","decile":"10","lat":40.461146692923,"lng":-111.790148083856},{"id":"167058","name":"Dave Mohr","party":"","address":"381 International Way, Alpine, UT 84004","precinct":"25AL01","hd":"54","v_score":"0","decile":"3","lat":40.464064957563,"lng":-111.785322367145},{"id":"169177","name":"Velda McKenzie","party":"","address":"4301 Oakview Cir, Alpine, UT 84004","precinct":"25AL01","hd":"54","v_score":"2.315214949","decile":"5","lat":40.477088530215,"lng":-111.76180267955},{"id":"169362","name":"Lashonda Ondricka","party":"","address":"1856 N Fort Canyon Rd, Alpine, UT 84004","precinct":"25AL01","hd":"54","v_score":"22.42280448","decile":"10","lat":40.477549490994,"lng":-111.780761423593},{"id":"169864","name":"Hassan Jast","party":"Rep","address":"4301 Oakview Cir, Alpine, UT 84004","precinct":"25AL01","hd":"54","v_score":"12.13314748","decile":"9","lat":40.477088530215,"lng":-111.76180267955},{"id":"170243","name":"Rhiannon Watsica-Welch","party":"Dem","address":"1513 Rosanna Ln, Alpine, UT 84004","precinct":"25AL01","hd":"54","v_score":"26.64399515","decile":"10","lat":40.474792501194,"lng":-111.751515108118},{"id":"170537","name":"Lorenza Huels PhD","party":"","address":"337 International Way, Alpine, UT 84004","precinct":"25AL01","hd":"54","v_score":"17.96776993","decile":"10","lat":40.463500700442,"lng":-111.784534336702},{"id":"171056","name":"Miss Holly Bauch","party":"Rep","address":"740 Lupine Dr, Alpine, UT 84004","precinct":"25AL01","hd":"54","v_score":"32.06327271","decile":"10","lat":40.459468405104,"lng":-111.79228550727},{"id":"171089","name":"Van Rohan","party":"","address":"799 N Main St, Alpine, UT 84004","precinct":"25AL01","hd":"54","v_score":"1.193887297","decile":"4","lat":40.46373914075,"lng":-111.777840585584},{"id":"171095","name":"Rhys Waelchi","party":"","address":"13422 Bayberry Cir, Alpine, UT 84004","precinct":"25AL01","hd":"54","v_score":"22.18759107","decile":"10","lat":40.476164827001,"lng":-111.759841796724},{"id":"171716","name":"Shara Reichel","party":"Rep","address":"257 International Way, Alpine, UT 84004","precinct":"25AL01","hd":"54","v_score":"40.27488421","decile":"10","lat":40.464364417765,"lng":-111.782671616671},{"id":"171950","name":"Dimitrios Goyette","party":"Rep","address":"1061 Moyle Dr, Alpine, UT 84004","precinct":"25AL01","hd":"54","v_score":"21.83564536","decile":"10","lat":40.467051232407,"lng":-111.763740389268},{"id":"172448","name":"Hill Boehm DDS","party":"Dem","address":"640 Lupine Dr, Alpine, UT 84004","precinct":"25AL01","hd":"54","v_score":"16.37872458","decile":"9","lat":40.4595110058,"lng":-111.789970405508},{"id":"173110","name":"Mace Pagac I","party":"","address":"4338 Stoney Brook Cir, Alpine, UT 84004","precinct":"25AL01","hd":"54","v_score":"6.896907962","decile":"8","lat":40.478070295896,"lng":-111.762881570306},{"id":"173239","name":"Melany Ernser-Heathcote","party":"Dem","address":"1001 N Fort Canyon Rd, Alpine, UT 84004","precinct":"25AL01","hd":"54","v_score":"1.121327652","decile":"3","lat":40.466350760733,"lng":-111.780562340762},{"id":"173256","name":"Netta Kirlin","party":"Dem","address":"625 N Main St, Alpine, UT 84004","precinct":"25AL01","hd":"54","v_score":"6.874237967","decile":"8","lat":40.461388194874,"lng":-111.777875466394},{"id":"173309","name":"Nigel Volkman","party":"","address":"1241 N Fort Canyon Rd, Alpine, UT 84004","precinct":"25AL01","hd":"54","v_score":"0","decile":"3","lat":40.468142840691,"lng":-111.781604402542},{"id":"173314","name":"Pandora Kunde","party":"Rep","address":"311 International Way, Alpine, UT 84004","precinct":"25AL01","hd":"54","v_score":"2.315214949","decile":"5","lat":40.463600297032,"lng":-111.783883838742},{"id":"173478","name":"Ms. Neha Leannon","party":"Rep","address":"1873 N Fort Canyon Rd, Alpine, UT 84004","precinct":"25AL01","hd":"54","v_score":"37.73164921","decile":"10","lat":40.477399563357,"lng":-111.780117834483},{"id":"174738","name":"Earline Bernhard","party":"Dem","address":"707 Lakeview Dr, Alpine, UT 84004","precinct":"25AL01","hd":"54","v_score":"8.421194992","decile":"8","lat":40.462891236138,"lng":-111.791042943922},{"id":"175172","name":"Isaiah Rau DVM","party":"Dem","address":"989 N Apple Creek Cir, Alpine, UT 84004","precinct":"25AL01","hd":"54","v_score":"1.193887297","decile":"4","lat":40.466479143853,"lng":-111.761058821509},{"id":"176481","name":"Gerda Leannon PhD","party":"Rep","address":"745 W 600 N, Alpine, UT 84004","precinct":"25AL01","hd":"54","v_score":"3.93832808","decile":"6","lat":40.461146693058,"lng":-111.791889920537},{"id":"176738","name":"Madge Volkman","party":"Dem","address":"1444 N Elk Ridge Ln, Alpine, UT 84004","precinct":"25AL01","hd":"54","v_score":"7.650280567","decile":"8","lat":40.472595961775,"lng":-111.769078840804},{"id":"176951","name":"Henretta Spencer MD","party":"","address":"337 International Way, Alpine, UT 84004","precinct":"25AL01","hd":"54","v_score":"17.96776993","decile":"10","lat":40.463500700442,"lng":-111.784534336702},{"id":"176976","name":"Daryn Harris","party":"","address":"584 Treeline Dr, Alpine, UT 84004","precinct":"25AL01","hd":"54","v_score":"15.00919004","decile":"9","lat":40.4638213896,"lng":-111.78953603282},{"id":"178054","name":"Elwood Feil DVM","party":"Rep","address":"13441 Grove Dr, Alpine, UT 84004","precinct":"25AL01","hd":"54","v_score":"29.36024596","decile":"10","lat":40.476235319821,"lng":-111.758511713068},{"id":"178161","name":"Mr. Demarcus Rodriguez","party":"Rep","address":"996 N Fort Canyon Rd, Alpine, UT 84004","precinct":"25AL01","hd":"54","v_score":"29.52003772","decile":"10","lat":40.467336072505,"lng":-111.78102005418},{"id":"178959","name":"Dr. Winnifred Hahn","party":"Dem","address":"1303 Eastview Ln, Alpine, UT 84004","precinct":"25AL01","hd":"54","v_score":"2.315214949","decile":"5","lat":40.471154950096,"lng":-111.771195730988},{"id":"179249","name":"Biddie Jenkins","party":"Rep","address":"510 Lakeview Dr, Alpine, UT 84004","precinct":"25AL01","hd":"54","v_score":"8.709634245","decile":"8","lat":40.465575997594,"lng":-111.786839629396},{"id":"179321","name":"Ms. Verla Romaguera","party":"Dem","address":"436 Lakeview Dr, Alpine, UT 84004","precinct":"25AL01","hd":"54","v_score":"17.70410766","decile":"10","lat":40.467176558672,"lng":-111.793542661231},{"id":"179430","name":"Aliza Gutkowski","party":"Rep","address":"640 Lupine Dr, Alpine, UT 84004","precinct":"25AL01","hd":"54","v_score":"12.07513611","decile":"9","lat":40.4595110058,"lng":-111.789970405508},{"id":"179616","name":"Andrew Hoppe","party":"Dem","address":"1873 N Fort Canyon Rd, Alpine, UT 84004","precinct":"25AL01","hd":"54","v_score":"37.73164921","decile":"10","lat":40.477399563357,"lng":-111.780117834483},{"id":"179756","name":"Buena Frami","party":"","address":"989 N Apple Creek Cir, Alpine, UT 84004","precinct":"25AL01","hd":"54","v_score":"1.193887297","decile":"4","lat":40.466479143853,"lng":-111.761058821509},{"id":"179799","name":"Loren Hagenes","party":"Rep","address":"13377 N Alpine Cove Dr, Alpine, UT 84004","precinct":"25AL01","hd":"54","v_score":"28.96057337","decile":"10","lat":40.476605158367,"lng":-111.763018310497},{"id":"179938","name":"Makai Collier","party":"","address":"238 International Way, Alpine, UT 84004","precinct":"25AL01","hd":"54","v_score":"21.41280004","decile":"10","lat":40.464778274328,"lng":-111.782816341216},{"id":"180388","name":"Yasmeen Boyle","party":"Rep","address":"117 E Deer Crest Ln, Alpine, UT 84004","precinct":"25AL01","hd":"54","v_score":"3.93832808","decile":"6","lat":40.469259319906,"lng":-111.775332398295},{"id":"180885","name":"Elvie Grant PhD","party":"","address":"1212 N Heritage Cir, Alpine, UT 84004","precinct":"25AL01","hd":"54","v_score":"2.315214949","decile":"5","lat":40.469344144553,"lng":-111.770455779088},{"id":"181341","name":"Lenard Cronin","party":"Rep","address":"234 International Way, Alpine, UT 84004","precinct":"25AL01","hd":"54","v_score":"7.817029826","decile":"8","lat":40.464846136977,"lng":-111.782829451035}]