[{"id":"3006","name":"Lourdes Erdman-Johns","party":"Rep","address":"95 N 100 E, Cedar Fort, UT 84013","precinct":"25CF01","hd":"50","v_score":"2.315214949","decile":"5","lat":40.328818580794,"lng":-112.104604082845},{"id":"17014","name":"Evander Rowe","party":"Rep","address":"290 N 100 W, Cedar Fort, UT 84013","precinct":"25CF01","hd":"50","v_score":"5.191257514","decile":"7","lat":40.331085160979,"lng":-112.109215179763},{"id":"17033","name":"Ms. Ardelia Hermiston PhD","party":"Rep","address":"127 N Church St, Cedar Fort, UT 84013","precinct":"25CF01","hd":"50","v_score":"1.193887297","decile":"3","lat":40.329416871911,"lng":-112.106796181144},{"id":"20660","name":"Dr. Roslyn Heller DDS","party":"","address":"295 S 100 E, Cedar Fort, UT 84013","precinct":"25CF01","hd":"50","v_score":"6.814370645","decile":"8","lat":40.322047606942,"lng":-112.104120497645},{"id":"22292","name":"Aurelia Cummerata DDS","party":"Rep","address":"91 N 200 W, Cedar Fort, UT 84013","precinct":"25CF01","hd":"50","v_score":"0","decile":"1","lat":40.328773848782,"lng":-112.110968786391},{"id":"22624","name":"Winford Purdy","party":"Dem","address":"370 S 100 E, Cedar Fort, UT 84013","precinct":"25CF01","hd":"50","v_score":"1.121327652","decile":"3","lat":40.320718798011,"lng":-112.103987262202},{"id":"23319","name":"Halle Jenkins","party":"Dem","address":"91 N 200 W, # 290, Cedar Fort, UT 84013","precinct":"25CF01","hd":"50","v_score":"0","decile":"1","lat":40.328773848782,"lng":-112.110968786391},{"id":"24221","name":"Renae Nikolaus","party":"Rep","address":"268 N 100 W, Cedar Fort, UT 84013","precinct":"25CF01","hd":"50","v_score":"3.93832808","decile":"6","lat":40.330915345196,"lng":-112.109109562666},{"id":"26977","name":"Dr. Illya Jacobi III","party":"Rep","address":"650 S Church St, Cedar Fort, UT 84013","precinct":"25CF01","hd":"50","v_score":"4.210716443","decile":"7","lat":40.320528742682,"lng":-112.106541301988},{"id":"35724","name":"Donat Schinner-Abbott","party":"Rep","address":"59 E Center St, Cedar Fort, UT 84013","precinct":"25CF01","hd":"50","v_score":"8.347511332","decile":"8","lat":40.327294126518,"lng":-112.105450453757},{"id":"37074","name":"Noreta Stark","party":"Rep","address":"62 W Center St, Cedar Fort, UT 84013","precinct":"25CF01","hd":"50","v_score":"0","decile":"1","lat":40.327180373809,"lng":-112.108147886107},{"id":"37438","name":"Aaliyah Kutch","party":"Rep","address":"79 E Center St, Cedar Fort, UT 84013","precinct":"25CF01","hd":"50","v_score":"2.315214949","decile":"5","lat":40.327299260348,"lng":-112.105032044001},{"id":"43579","name":"Bryson Renner","party":"","address":"91 N 200 W, # 290, Cedar Fort, UT 84013","precinct":"25CF01","hd":"50","v_score":"1.121327652","decile":"3","lat":40.328773848782,"lng":-112.110968786391},{"id":"44631","name":"Cale Homenick","party":"Rep","address":"175 N 200 W, Cedar Fort, UT 84013","precinct":"25CF01","hd":"50","v_score":"6.798081861","decile":"8","lat":40.330694560631,"lng":-112.110924603478},{"id":"44632","name":"Josiah Windler-Volkman","party":"Rep","address":"260 S 200 E, Cedar Fort, UT 84013","precinct":"25CF01","hd":"50","v_score":"14.04503691","decile":"9","lat":40.321950913737,"lng":-112.102454278097},{"id":"44938","name":"Cedrick Bauch","party":"Dem","address":"127 N Church St, Cedar Fort, UT 84013","precinct":"25CF01","hd":"50","v_score":"5.331806201","decile":"7","lat":40.329416871911,"lng":-112.106796181144},{"id":"47528","name":"Beecher Cummerata","party":"Rep","address":"265 S 100 E, Cedar Fort, UT 84013","precinct":"25CF01","hd":"50","v_score":"6.814370645","decile":"8","lat":40.322713659667,"lng":-112.104273010274},{"id":"53309","name":"Vincent Littel","party":"","address":"68 W 200 N, Cedar Fort, UT 84013","precinct":"25CF01","hd":"50","v_score":"2.587603312","decile":"5","lat":40.330696459354,"lng":-112.108182020484},{"id":"53814","name":"Almeda Rogahn","party":"","address":"194 W Center St, Cedar Fort, UT 84013","precinct":"25CF01","hd":"50","v_score":"3.089388791","decile":"6","lat":40.364584365021,"lng":-111.744086511074},{"id":"54558","name":"River Reinger","party":"","address":"55 S 100 E, Cedar Fort, UT 84013","precinct":"25CF01","hd":"50","v_score":"2.315214949","decile":"5","lat":40.326316242042,"lng":-112.104469517172},{"id":"55947","name":"Maxine Hegmann","party":"","address":"81 S Church St, Cedar Fort, UT 84013","precinct":"25CF01","hd":"50","v_score":"3.016591252","decile":"6","lat":40.325919652424,"lng":-112.106676921255},{"id":"56943","name":"Delma McKenzie","party":"","address":"105 N 100 W, Cedar Fort, UT 84013","precinct":"25CF01","hd":"50","v_score":"1.121327652","decile":"3","lat":40.329086871051,"lng":-112.109031437171},{"id":"59910","name":"Dr. Alonza Rowe Jr.","party":"Rep","address":"25 S 100 E, Cedar Fort, UT 84013","precinct":"25CF01","hd":"50","v_score":"1.121327652","decile":"3","lat":40.326801877915,"lng":-112.104465662856},{"id":"60937","name":"Marion Rohan-Parker","party":"","address":"350 S 200 E, Cedar Fort, UT 84013","precinct":"25CF01","hd":"50","v_score":"9.830961897","decile":"8","lat":40.320967388117,"lng":-112.102465928825},{"id":"62994","name":"Mr. Dickie Kuvalis II","party":"","address":"178 N Church St, Cedar Fort, UT 84013","precinct":"25CF01","hd":"50","v_score":"0","decile":"1","lat":40.329940848866,"lng":-112.106662308707},{"id":"68401","name":"Leatha Maggio","party":"Dem","address":"25 S 100 E, Cedar Fort, UT 84013","precinct":"25CF01","hd":"50","v_score":"2.315214949","decile":"5","lat":40.326801877915,"lng":-112.104465662856},{"id":"74643","name":"Nathalia Klein PhD","party":"Rep","address":"249 S 100 E, Cedar Fort, UT 84013","precinct":"25CF01","hd":"50","v_score":"6.954919332","decile":"8","lat":40.322992755942,"lng":-112.104339707567},{"id":"75844","name":"Patti Cummings-Emard","party":"","address":"311 S 100 E, Cedar Fort, UT 84013","precinct":"25CF01","hd":"50","v_score":"3.997370217","decile":"6","lat":40.32109804161,"lng":-112.103915760477},{"id":"77845","name":"Alexandrea Goldner-Wiegand","party":"Rep","address":"140 N 200 W, Cedar Fort, UT 84013","precinct":"25CF01","hd":"50","v_score":"4.210478549","decile":"7","lat":40.329917317595,"lng":-112.110783871836},{"id":"78947","name":"Columbia Simonis","party":"","address":"110 N 200 W, Cedar Fort, UT 84013","precinct":"25CF01","hd":"50","v_score":"4.137918904","decile":"7","lat":40.329242998692,"lng":-112.110817547263},{"id":"79112","name":"Ms. Sherie Lowe DVM","party":"Dem","address":"260 S 100 E, Cedar Fort, UT 84013","precinct":"25CF01","hd":"50","v_score":"5.191257514","decile":"7","lat":40.323764187625,"lng":-112.104632355187},{"id":"79638","name":"Immanuel Swaniawski","party":"","address":"251 W 300 S, Cedar Fort, UT 84013","precinct":"25CF01","hd":"50","v_score":"1.121327652","decile":"3","lat":40.321901902141,"lng":-112.10988163592},{"id":"80196","name":"Dr. Vinson Becker PhD","party":"Dem","address":"251 W 300 S, Cedar Fort, UT 84013","precinct":"25CF01","hd":"50","v_score":"1.121327652","decile":"3","lat":40.321901902141,"lng":-112.10988163592},{"id":"80972","name":"Dr. Val Russel I","party":"Dem","address":"268 N 100 W, Cedar Fort, UT 84013","precinct":"25CF01","hd":"50","v_score":"1.193887297","decile":"3","lat":40.330915345196,"lng":-112.109109562666},{"id":"82127","name":"Kaiden Hahn","party":"","address":"62 W Center St, Cedar Fort, UT 84013","precinct":"25CF01","hd":"50","v_score":"3.016591252","decile":"6","lat":40.327180373809,"lng":-112.108147886107},{"id":"84787","name":"Fanny Hauck","party":"Rep","address":"260 S 100 E, Cedar Fort, UT 84013","precinct":"25CF01","hd":"50","v_score":"4.069929862","decile":"6","lat":40.323764187625,"lng":-112.104632355187},{"id":"86664","name":"Nathanael Wyman","party":"","address":"117 N 200 W, Cedar Fort, UT 84013","precinct":"25CF01","hd":"50","v_score":"12.92370926","decile":"9","lat":40.329377242269,"lng":-112.110970678003},{"id":"86858","name":"Ms. Paris Schulist DVM","party":"Rep","address":"18 E 100 S, Cedar Fort, UT 84013","precinct":"25CF01","hd":"50","v_score":"0","decile":"1","lat":40.325518927894,"lng":-112.10633979683},{"id":"87319","name":"Ceylon Deckow","party":"Dem","address":"48 S 100 E, Cedar Fort, UT 84013","precinct":"25CF01","hd":"50","v_score":"3.016591252","decile":"6","lat":40.326430924905,"lng":-112.10461892098},{"id":"89735","name":"Valentino Mertz","party":"Dem","address":"18 E 100 S, Cedar Fort, UT 84013","precinct":"25CF01","hd":"50","v_score":"0","decile":"1","lat":40.325518927894,"lng":-112.10633979683},{"id":"107735","name":"Wright Haag","party":"","address":"40 N 100 E, Cedar Fort, UT 84013","precinct":"25CF01","hd":"50","v_score":"1.193887297","decile":"4","lat":40.327929482014,"lng":-112.104458495953},{"id":"111968","name":"Jermey Pollich","party":"Rep","address":"268 N 100 W, Cedar Fort, UT 84013","precinct":"25CF01","hd":"50","v_score":"8.284004873","decile":"8","lat":40.330915345196,"lng":-112.109109562666},{"id":"117708","name":"Socorro Marks PhD","party":"Rep","address":"105 N 100 W, Cedar Fort, UT 84013","precinct":"25CF01","hd":"50","v_score":"0","decile":"2","lat":40.329086871051,"lng":-112.109031437171},{"id":"117782","name":"Kem Schaefer","party":"","address":"370 S 100 E, Cedar Fort, UT 84013","precinct":"25CF01","hd":"50","v_score":"0","decile":"2","lat":40.320718798011,"lng":-112.103987262202},{"id":"125526","name":"Joan Larkin","party":"","address":"209 N 100 W, Cedar Fort, UT 84013","precinct":"25CF01","hd":"50","v_score":"0","decile":"2","lat":40.330645875721,"lng":-112.109073768507},{"id":"126491","name":"Almina Ullrich","party":"","address":"40 N 100 E, Cedar Fort, UT 84013","precinct":"25CF01","hd":"50","v_score":"0","decile":"2","lat":40.327929482014,"lng":-112.104458495953},{"id":"133139","name":"Marquita Batz","party":"Rep","address":"90 N Church St, Cedar Fort, UT 84013","precinct":"25CF01","hd":"50","v_score":"0","decile":"2","lat":40.328756489957,"lng":-112.106634623321},{"id":"134899","name":"Tosha Morar-Turner","party":"Dem","address":"350 S 200 E, Cedar Fort, UT 84013","precinct":"25CF01","hd":"50","v_score":"6.954919332","decile":"8","lat":40.320967388117,"lng":-112.102465928825},{"id":"135977","name":"Chelsi Smitham-Kihn","party":"","address":"96 W Center St, Cedar Fort, UT 84013","precinct":"25CF01","hd":"50","v_score":"4.137918904","decile":"7","lat":40.327189251026,"lng":-112.108837345822},{"id":"137565","name":"Mr. Collier Hilpert MD","party":"Dem","address":"115 S 200 E, Cedar Fort, UT 84013","precinct":"25CF01","hd":"50","v_score":"5.40460374","decile":"7","lat":40.325356272919,"lng":-112.102268706075},{"id":"138033","name":"Dora Haag","party":"Rep","address":"138 S 100 E, Unit 118, Cedar Fort, UT 84013","precinct":"25CF01","hd":"50","v_score":"4.409183253","decile":"7","lat":40.324909021311,"lng":-112.104643477103},{"id":"139295","name":"Miss Helena Bogisich","party":"","address":"55 S 100 E, Cedar Fort, UT 84013","precinct":"25CF01","hd":"50","v_score":"2.315214949","decile":"5","lat":40.326316242042,"lng":-112.104469517172},{"id":"140557","name":"Cyndi Rau-Emmerich","party":"Rep","address":"209 N 100 W, Cedar Fort, UT 84013","precinct":"25CF01","hd":"50","v_score":"3.781490609","decile":"6","lat":40.330645875721,"lng":-112.109073768507},{"id":"140558","name":"Miss Lottie Howe","party":"","address":"209 N 100 W, Cedar Fort, UT 84013","precinct":"25CF01","hd":"50","v_score":"3.781490609","decile":"6","lat":40.330645875721,"lng":-112.109073768507},{"id":"146506","name":"Mr. Ridge Predovic MD","party":"Dem","address":"315 N 100 W, Cedar Fort, UT 84013","precinct":"25CF01","hd":"50","v_score":"0","decile":"3","lat":40.333229531392,"lng":-112.111081290631},{"id":"147024","name":"Deondre O'Keefe DVM","party":"","address":"78 E 100 N, Cedar Fort, UT 84013","precinct":"25CF01","hd":"50","v_score":"15.51131257","decile":"9","lat":40.328884789086,"lng":-112.105026277243},{"id":"147787","name":"Osborne Moore","party":"Rep","address":"290 N 100 W, Cedar Fort, UT 84013","precinct":"25CF01","hd":"50","v_score":"11.29723756","decile":"9","lat":40.331085160979,"lng":-112.109215179763},{"id":"147800","name":"Monika Russel","party":"","address":"154 N 100 E, Cedar Fort, UT 84013","precinct":"25CF01","hd":"50","v_score":"9.830961897","decile":"8","lat":40.329996709516,"lng":-112.104447437477},{"id":"147858","name":"Lela Stokes","party":"","address":"42 W 100 N, Cedar Fort, UT 84013","precinct":"25CF01","hd":"50","v_score":"15.60082602","decile":"9","lat":40.32901708903,"lng":-112.108109400913},{"id":"149832","name":"Kelsey Cormier-Howe","party":"Rep","address":"145 E 100 N, Cedar Fort, UT 84013","precinct":"25CF01","hd":"50","v_score":"8.421194992","decile":"8","lat":40.328985100916,"lng":-112.103517295843},{"id":"150552","name":"Issac Senger","party":"Dem","address":"315 N 100 W, Cedar Fort, UT 84013","precinct":"25CF01","hd":"50","v_score":"15.51131257","decile":"9","lat":40.333229531392,"lng":-112.111081290631},{"id":"152969","name":"Nallely Spencer","party":"Rep","address":"42 W 100 N, Cedar Fort, UT 84013","precinct":"25CF01","hd":"50","v_score":"8.421194992","decile":"8","lat":40.32901708903,"lng":-112.108109400913},{"id":"153348","name":"Trayvon Kris-Grady","party":"Dem","address":"194 W Center St, Cedar Fort, UT 84013","precinct":"25CF01","hd":"50","v_score":"5.40460374","decile":"7","lat":40.364584365021,"lng":-111.744086511074},{"id":"153498","name":"Collin Torp","party":"Rep","address":"194 W Center St, Cedar Fort, UT 84013","precinct":"25CF01","hd":"50","v_score":"5.40460374","decile":"7","lat":40.364584365021,"lng":-111.744086511074},{"id":"154967","name":"Nikia Collins","party":"","address":"96 W Center St, Cedar Fort, UT 84013","precinct":"25CF01","hd":"50","v_score":"3.016591252","decile":"6","lat":40.327189251026,"lng":-112.108837345822},{"id":"155153","name":"Kendall Marvin","party":"","address":"82 W 200 N, Cedar Fort, UT 84013","precinct":"25CF01","hd":"50","v_score":"22.16617265","decile":"10","lat":40.330674544441,"lng":-112.108510744525},{"id":"155295","name":"Jennifer Jerde","party":"Dem","address":"93 E 100 S, Cedar Fort, UT 84013","precinct":"25CF01","hd":"50","v_score":"7.227307695","decile":"8","lat":40.325607591264,"lng":-112.10475010618},{"id":"155333","name":"Tiera Dach","party":"Dem","address":"289 N 100 W, Cedar Fort, UT 84013","precinct":"25CF01","hd":"50","v_score":"13.38607691","decile":"9","lat":40.331641652095,"lng":-112.109727650964},{"id":"160705","name":"Rusty Carroll Sr.","party":"Rep","address":"25 S 100 E, Cedar Fort, UT 84013","precinct":"25CF01","hd":"50","v_score":"8.207848766","decile":"8","lat":40.326801877915,"lng":-112.104465662856},{"id":"160902","name":"Mrs. River Kemmer DDS","party":"Dem","address":"260 S 100 E, Cedar Fort, UT 84013","precinct":"25CF01","hd":"50","v_score":"5.191257514","decile":"7","lat":40.323764187625,"lng":-112.104632355187},{"id":"162195","name":"Delsie Bednar","party":"","address":"310 N 100 W, Cedar Fort, UT 84013","precinct":"25CF01","hd":"50","v_score":"10.51003435","decile":"9","lat":40.331239538963,"lng":-112.109311195305},{"id":"162793","name":"Hezzie Friesen","party":"Dem","address":"127 N Church St, Cedar Fort, UT 84013","precinct":"25CF01","hd":"50","v_score":"5.331806201","decile":"7","lat":40.329416871911,"lng":-112.106796181144},{"id":"163155","name":"Noemi Padberg-Kerluke","party":"Dem","address":"177 N Church St, Cedar Fort, UT 84013","precinct":"25CF01","hd":"50","v_score":"17.75698939","decile":"10","lat":40.330292298851,"lng":-112.106823257907},{"id":"163949","name":"Estelle Harber-Pouros","party":"Rep","address":"311 S 100 E, Cedar Fort, UT 84013","precinct":"25CF01","hd":"50","v_score":"12.49472132","decile":"9","lat":40.32109804161,"lng":-112.103915760477},{"id":"169680","name":"Dr. Alisa Zulauf MD","party":"","address":"311 S 100 E, Cedar Fort, UT 84013","precinct":"25CF01","hd":"50","v_score":"12.49472132","decile":"9","lat":40.32109804161,"lng":-112.103915760477},{"id":"171012","name":"Steven Parisian","party":"","address":"185 S 100 E, Cedar Fort, UT 84013","precinct":"25CF01","hd":"50","v_score":"0","decile":"3","lat":40.323999729803,"lng":-112.10449801061},{"id":"171320","name":"Mariel Jacobson-Rutherford","party":"Dem","address":"165 E 200 N, Cedar Fort, UT 84013","precinct":"25CF01","hd":"50","v_score":"12.22362323","decile":"9","lat":40.330662230059,"lng":-112.103047098122},{"id":"171822","name":"Cary Upton-Boyle","party":"Rep","address":"147 N Church St, Cedar Fort, UT 84013","precinct":"25CF01","hd":"50","v_score":"5.331806201","decile":"7","lat":40.329733747974,"lng":-112.106806152726},{"id":"174822","name":"Tatianna Ward","party":"","address":"135 N 100 W, Cedar Fort, UT 84013","precinct":"25CF01","hd":"50","v_score":"7.013961469","decile":"8","lat":40.329555975673,"lng":-112.109031437109},{"id":"175695","name":"Desirae Rohan","party":"Rep","address":"81 S Church St, Cedar Fort, UT 84013","precinct":"25CF01","hd":"50","v_score":"5.331806201","decile":"7","lat":40.325919652424,"lng":-112.106676921255},{"id":"175962","name":"Kaye Ledner","party":"","address":"42 W 100 N, Cedar Fort, UT 84013","precinct":"25CF01","hd":"50","v_score":"9.207031979","decile":"8","lat":40.32901708903,"lng":-112.108109400913},{"id":"175994","name":"Gianni Champlin","party":"Rep","address":"47 S 100 E, Cedar Fort, UT 84013","precinct":"25CF01","hd":"50","v_score":"8.421194992","decile":"8","lat":40.326445744941,"lng":-112.104468489355},{"id":"177783","name":"Dr. Leva Murphy","party":"Dem","address":"290 N 100 W, Cedar Fort, UT 84013","precinct":"25CF01","hd":"50","v_score":"11.29723756","decile":"9","lat":40.331085160979,"lng":-112.109215179763},{"id":"179588","name":"Cynthia Buckridge","party":"Dem","address":"650 S Church St, Cedar Fort, UT 84013","precinct":"25CF01","hd":"50","v_score":"19.22326505","decile":"10","lat":40.320528742682,"lng":-112.106541301988},{"id":"179692","name":"Mr. Quinten Mante II","party":"Rep","address":"81 S Church St, Cedar Fort, UT 84013","precinct":"25CF01","hd":"50","v_score":"5.331806201","decile":"7","lat":40.325919652424,"lng":-112.106676921255},{"id":"181197","name":"Julie Weimann","party":"Dem","address":"165 E 200 N, Cedar Fort, UT 84013","precinct":"25CF01","hd":"50","v_score":"12.22362323","decile":"9","lat":40.330662230059,"lng":-112.103047098122}]