[{"vid":"1251130","name":"Chastity Reilly","party":"","address":"92 W 200 S, Cedar Fort, UT 84013","precinct":"25CF01","hd":"50","v_score":"5.191257514","decile":"7","lat":40.324284923491234,"lng":-112.10852339448618,"phone":"(320) 902-6238","sd":"11","ssbd":"10","lsbd":"School Board Lake Mountain 1"},{"vid":"1251200","name":"Cailyn Leannon","party":"","address":"92 W 200 S, Cedar Fort, UT 84013","precinct":"25CF01","hd":"50","v_score":"18.46989245","decile":"10","lat":40.324284923491234,"lng":-112.10852339448618,"phone":"(756) 591-7395","sd":"11","ssbd":"10","lsbd":"School Board Lake Mountain 1"},{"vid":"1287674","name":"Alexzander Reilly","party":"","address":"1080 E 100 N, Cedar Fort, UT 84013","precinct":"25CF01","hd":"50","v_score":"4.210478549","decile":"7","lat":40.32608550327566,"lng":-112.08275106606263,"phone":"(508) 975-4033","sd":"11","ssbd":"10","lsbd":"School Board Lake Mountain 1"},{"vid":"e17ef6a7937e868553b1616193b8126c20f67c95c2a7316d79be7ba1c58ffc88","name":"Lourdes Erdman-Johns","party":"Rep","address":"95 N 100 E, Cedar Fort, UT 84013","precinct":"25CF01","hd":"50","v_score":"2.315214949","decile":"5","lat":40.32854463803268,"lng":-112.10499092432126,"phone":"(710) 698-7988","sd":"11","ssbd":"10","lsbd":"School Board Lake Mountain 1"},{"vid":"1500858","name":"Dr. Illya Reinger Sr.","party":"Dem","address":"1545 N 1300 E, Cedar Fort, UT 84013","precinct":"25CF01","hd":"50","v_score":"5.331806201","decile":"7","lat":40.352689919113416,"lng":-112.07998841487603,"phone":"(486) 452-0539","sd":"11","ssbd":"10","lsbd":"School Board Lake Mountain 1"},{"vid":"861fd1ddfbef46d83473a1eb47789b32a888fe92f541e83dad80cef10ae3f4d9","name":"Evander Rowe","party":"Rep","address":"290 N 100 W, Cedar Fort, UT 84013","precinct":"25CF01","hd":"50","v_score":"5.191257514","decile":"7","lat":40.17070571132183,"lng":-111.6121940224573,"phone":"(507) 192-4202","sd":"11","ssbd":"10","lsbd":"School Board Lake Mountain 1"},{"vid":"1601538","name":"Ms. Ardelia Hermiston PhD","party":"Rep","address":"127 N Church St, Cedar Fort, UT 84013","precinct":"25CF01","hd":"50","v_score":"1.193887297","decile":"3","lat":40.32914206982593,"lng":-112.10713695794303,"phone":"(419) 107-6860","sd":"11","ssbd":"10","lsbd":"School Board Lake Mountain 1"},{"vid":"1664247","name":"Dr. Roslyn Heller DDS","party":"","address":"295 S 100 E, Cedar Fort, UT 84013","precinct":"25CF01","hd":"50","v_score":"6.814370645","decile":"8","lat":40.32209244290243,"lng":-112.10320006093716,"phone":"(892) 765-1022","sd":"11","ssbd":"10","lsbd":"School Board Lake Mountain 1"},{"vid":"1697647","name":"Aurelia Cummerata DDS","party":"Rep","address":"91 N 200 W, Cedar Fort, UT 84013","precinct":"25CF01","hd":"50","v_score":"0","decile":"1","lat":40.32857860407706,"lng":-112.11144060078749,"phone":"(276) 570-4888","sd":"11","ssbd":"10","lsbd":"School Board Lake Mountain 1"},{"vid":"1704720","name":"Winford Purdy","party":"Dem","address":"370 S 100 E, Cedar Fort, UT 84013","precinct":"25CF01","hd":"50","v_score":"1.121327652","decile":"3","lat":40.320724060052434,"lng":-112.10506305885893,"phone":"(711) 530-8178","sd":"11","ssbd":"10","lsbd":"School Board Lake Mountain 1"},{"vid":"1718084","name":"Halle Jenkins","party":"Dem","address":"91 N 200 W, # 290, Cedar Fort, UT 84013","precinct":"25CF01","hd":"50","v_score":"0","decile":"1","lat":40.32857860407706,"lng":-112.11144060078749,"phone":"(608) 775-1542","sd":"11","ssbd":"10","lsbd":"School Board Lake Mountain 1"},{"vid":"1737336","name":"Renae Nikolaus","party":"Rep","address":"268 N 100 W, Cedar Fort, UT 84013","precinct":"25CF01","hd":"50","v_score":"3.93832808","decile":"6","lat":40.33175500044849,"lng":-112.10899979097904,"phone":"(751) 365-7596","sd":"11","ssbd":"10","lsbd":"School Board Lake Mountain 1"},{"vid":"1772636","name":"Zander Hamill","party":"Rep","address":"85 W 200 S, Cedar Fort, UT 84013","precinct":"25CF01","hd":"50","v_score":"3.781490609","decile":"6","lat":40.32320860680268,"lng":-112.1073894043008,"phone":"(215) 861-8852","sd":"11","ssbd":"10","lsbd":"School Board Lake Mountain 1"},{"vid":"1785269","name":"Dr. Illya Jacobi III","party":"Rep","address":"650 S Church St, Cedar Fort, UT 84013","precinct":"25CF01","hd":"50","v_score":"4.210716443","decile":"7","lat":40.32036329369784,"lng":-112.10691536557115,"phone":"(333) 086-4805","sd":"11","ssbd":"10","lsbd":"School Board Lake Mountain 1"},{"vid":"1936724","name":"Noreta Stark","party":"Rep","address":"62 W Center St, Cedar Fort, UT 84013","precinct":"25CF01","hd":"50","v_score":"0","decile":"1","lat":40.32750419375126,"lng":-112.10762277933526,"phone":"(514) 714-5650","sd":"11","ssbd":"10","lsbd":"School Board Lake Mountain 1"},{"vid":"1942747","name":"Aaliyah Kutch","party":"Rep","address":"79 E Center St, Cedar Fort, UT 84013","precinct":"25CF01","hd":"50","v_score":"2.315214949","decile":"5","lat":40.327463478263724,"lng":-112.1053710043926,"phone":"(407) 166-0392","sd":"11","ssbd":"10","lsbd":"School Board Lake Mountain 1"},{"vid":"1948799","name":"Lesley Hansen","party":"Rep","address":"173 N 100 E, Cedar Fort, UT 84013","precinct":"25CF01","hd":"50","v_score":"3.781490609","decile":"6","lat":40.33037219505668,"lng":-112.10499135060184,"phone":"(928) 417-2572","sd":"11","ssbd":"10","lsbd":"School Board Lake Mountain 1"},{"vid":"607a8a4793f28d3dfe172e2e5787ee784eb1b092b294570514bdf475c58ca621","name":"Ninnie Nikolaus DVM","party":"","address":"255 W 200 S, Cedar Fort, UT 84013","precinct":"25CF01","hd":"50","v_score":"11.01215687","decile":"9","lat":40.23074278335194,"lng":-111.66318230545747,"phone":"(256) 080-6795","sd":"11","ssbd":"10","lsbd":"School Board Lake Mountain 1"},{"vid":"1969661","name":"Omari Wintheiser","party":"","address":"2075 N 1300 E, Cedar Fort, UT 84013","precinct":"25CF01","hd":"50","v_score":"5.191257514","decile":"7","lat":40.36189188416009,"lng":-112.08082932961011,"phone":"(767) 664-5584","sd":"11","ssbd":"10","lsbd":"School Board Lake Mountain 1"},{"vid":"1992379","name":"Rae Nikolaus","party":"Dem","address":"85 W 200 S, Cedar Fort, UT 84013","precinct":"25CF01","hd":"50","v_score":"5.40460374","decile":"7","lat":40.32320860680268,"lng":-112.1073894043008,"phone":"(190) 518-3264","sd":"11","ssbd":"10","lsbd":"School Board Lake Mountain 1"},{"vid":"8efda5e6d0762e21d1432eb263e98b68db02de7c88dd3e1f08f433ed56882bbf","name":"Jaylin Lindgren","party":"Dem","address":"1060 E 800 N, Cedar Fort, UT 84013","precinct":"25CF01","hd":"50","v_score":"1.193887297","decile":"3","lat":40.338307288864215,"lng":-112.0835821797877,"phone":"(202) 640-7349","sd":"11","ssbd":"10","lsbd":"School Board Lake Mountain 1"},{"vid":"2026627","name":"Bryson Renner","party":"","address":"91 N 200 W, # 290, Cedar Fort, UT 84013","precinct":"25CF01","hd":"50","v_score":"1.121327652","decile":"3","lat":40.32857860407706,"lng":-112.11144060078749,"phone":"(678) 183-5838","sd":"11","ssbd":"10","lsbd":"School Board Lake Mountain 1"},{"vid":"2039633","name":"Cale Homenick","party":"Rep","address":"175 N 200 W, Cedar Fort, UT 84013","precinct":"25CF01","hd":"50","v_score":"6.798081861","decile":"8","lat":40.331109712736676,"lng":-112.11151179078512,"phone":"(863) 505-0410","sd":"11","ssbd":"10","lsbd":"School Board Lake Mountain 1"},{"vid":"2039641","name":"Josiah Windler-Volkman","party":"Rep","address":"260 S 200 E, Cedar Fort, UT 84013","precinct":"25CF01","hd":"50","v_score":"14.04503691","decile":"9","lat":40.32274078714121,"lng":-112.10304279198205,"phone":"(974) 998-6401","sd":"11","ssbd":"10","lsbd":"School Board Lake Mountain 1"},{"vid":"2045066","name":"Cedrick Bauch","party":"Dem","address":"127 N Church St, Cedar Fort, UT 84013","precinct":"25CF01","hd":"50","v_score":"5.331806201","decile":"7","lat":40.32914206982593,"lng":-112.10713695794303,"phone":"(534) 680-4382","sd":"11","ssbd":"10","lsbd":"School Board Lake Mountain 1"},{"vid":"99cc6c7ac4c99c0038c8b677c89478d32f1decd554baf11f7a8a8220a925369a","name":"Beecher Cummerata","party":"Rep","address":"265 S 100 E, Cedar Fort, UT 84013","precinct":"25CF01","hd":"50","v_score":"6.814370645","decile":"8","lat":40.322579947647064,"lng":-112.10338771186483,"phone":"(140) 765-2515","sd":"11","ssbd":"10","lsbd":"School Board Lake Mountain 1"},{"vid":"2113564","name":"Destiney Romaguera","party":"","address":"173 N 100 E, Cedar Fort, UT 84013","precinct":"25CF01","hd":"50","v_score":"5.40460374","decile":"7","lat":40.33037219505668,"lng":-112.10499135060184,"phone":"(343) 494-2621","sd":"11","ssbd":"10","lsbd":"School Board Lake Mountain 1"},{"vid":"2155684","name":"Vincent Littel","party":"","address":"68 W 200 N, Cedar Fort, UT 84013","precinct":"25CF01","hd":"50","v_score":"2.587603312","decile":"5","lat":40.33121163843576,"lng":-112.1078713587851,"phone":"(923) 452-2867","sd":"11","ssbd":"10","lsbd":"School Board Lake Mountain 1"},{"vid":"e78d80172299ed60b7ca379f8bab1031cd35345e823441ae313332af2577429f","name":"River Reinger","party":"","address":"55 S 100 E, Cedar Fort, UT 84013","precinct":"25CF01","hd":"50","v_score":"2.315214949","decile":"5","lat":40.32611236622554,"lng":-112.10395595156692,"phone":"(214) 809-7745","sd":"11","ssbd":"10","lsbd":"School Board Lake Mountain 1"},{"vid":"2188038","name":"Maxine Hegmann","party":"","address":"81 S Church St, Cedar Fort, UT 84013","precinct":"25CF01","hd":"50","v_score":"3.016591252","decile":"6","lat":40.326186636576104,"lng":-112.10646706168794,"phone":"(904) 139-3770","sd":"11","ssbd":"10","lsbd":"School Board Lake Mountain 1"},{"vid":"2ceceeec5e44bc20ea153c534e62e66a3b1bddb57f148136afdee0d26fc4c0cb","name":"Delma McKenzie","party":"","address":"105 N 100 W, Cedar Fort, UT 84013","precinct":"25CF01","hd":"50","v_score":"1.121327652","decile":"3","lat":40.37953020815878,"lng":-111.80146767166153,"phone":"(460) 635-6286","sd":"11","ssbd":"10","lsbd":"School Board Lake Mountain 1"},{"vid":"2227453","name":"Ms. Linnie Ondricka PhD","party":"","address":"17 E 200 N, Cedar Fort, UT 84013","precinct":"25CF01","hd":"50","v_score":"1.121327652","decile":"3","lat":40.3313676813226,"lng":-112.10620025515604,"phone":"(533) 465-4119","sd":"11","ssbd":"10","lsbd":"School Board Lake Mountain 1"},{"vid":"2230844","name":"Dr. Alonza Rowe Jr.","party":"Rep","address":"25 S 100 E, Cedar Fort, UT 84013","precinct":"25CF01","hd":"50","v_score":"1.121327652","decile":"3","lat":40.327014198869534,"lng":-112.10389023369534,"phone":"(274) 679-7359","sd":"11","ssbd":"10","lsbd":"School Board Lake Mountain 1"},{"vid":"2241687","name":"Marion Rohan-Parker","party":"","address":"350 S 200 E, Cedar Fort, UT 84013","precinct":"25CF01","hd":"50","v_score":"9.830961897","decile":"8","lat":40.32112400038032,"lng":-112.10281620039581,"phone":"(689) 103-1385","sd":"11","ssbd":"10","lsbd":"School Board Lake Mountain 1"},{"vid":"0b0f4a47ae9e891be846b92e7d10f0ee2a8e24052daaa5e41b72442e3edd5579","name":"Miss Monica Metz","party":"Dem","address":"610 E 100 N, Cedar Fort, UT 84013","precinct":"25CF01","hd":"50","v_score":"1.121327652","decile":"3","lat":40.327012756750804,"lng":-112.0943836826042,"phone":"(500) 153-2002","sd":"11","ssbd":"10","lsbd":"School Board Lake Mountain 1"},{"vid":"2326618","name":"Leatha Maggio","party":"Dem","address":"25 S 100 E, Cedar Fort, UT 84013","precinct":"25CF01","hd":"50","v_score":"2.315214949","decile":"5","lat":40.327014198869534,"lng":-112.10389023369534,"phone":"(131) 513-2618","sd":"11","ssbd":"10","lsbd":"School Board Lake Mountain 1"},{"vid":"2398960","name":"Nathalia Klein PhD","party":"Rep","address":"249 S 100 E, Cedar Fort, UT 84013","precinct":"25CF01","hd":"50","v_score":"6.954919332","decile":"8","lat":40.3233880056494,"lng":-112.10403619393901,"phone":"(921) 004-3438","sd":"11","ssbd":"10","lsbd":"School Board Lake Mountain 1"},{"vid":"2401764","name":"Velda Sporer","party":"Dem","address":"1255 N 1100 E, Cedar Fort, UT 84013","precinct":"25CF01","hd":"50","v_score":"1.193887297","decile":"3","lat":40.34862017627168,"lng":-112.08449728512349,"phone":"(424) 086-1224","sd":"11","ssbd":"10","lsbd":"School Board Lake Mountain 1"},{"vid":"2412169","name":"Patti Cummings-Emard","party":"","address":"311 S 100 E, Cedar Fort, UT 84013","precinct":"25CF01","hd":"50","v_score":"3.997370217","decile":"6","lat":40.32125748127985,"lng":-112.10347781068054,"phone":"(126) 613-0371","sd":"11","ssbd":"10","lsbd":"School Board Lake Mountain 1"},{"vid":"2435483","name":"Alexandrea Goldner-Wiegand","party":"Rep","address":"140 N 200 W, Cedar Fort, UT 84013","precinct":"25CF01","hd":"50","v_score":"4.210478549","decile":"7","lat":40.329532265257924,"lng":-112.11047222589436,"phone":"(770) 458-1216","sd":"11","ssbd":"10","lsbd":"School Board Lake Mountain 1"},{"vid":"2443537","name":"Devontae Collier-DuBuque","party":"Dem","address":"775 E 100 N, Cedar Fort, UT 84013","precinct":"25CF01","hd":"50","v_score":"1.121327652","decile":"3","lat":40.329735124837285,"lng":-112.09223178121694,"phone":"(703) 018-6742","sd":"11","ssbd":"10","lsbd":"School Board Lake Mountain 1"},{"vid":"2444463","name":"Ms. Sherie Lowe DVM","party":"Dem","address":"260 S 100 E, Cedar Fort, UT 84013","precinct":"25CF01","hd":"50","v_score":"5.191257514","decile":"7","lat":40.32267840098773,"lng":-112.10616054456541,"phone":"(461) 810-7325","sd":"11","ssbd":"10","lsbd":"School Board Lake Mountain 1"},{"vid":"2447850","name":"Immanuel Swaniawski","party":"","address":"251 W 300 S, Cedar Fort, UT 84013","precinct":"25CF01","hd":"50","v_score":"1.121327652","decile":"3","lat":40.32119234579318,"lng":-112.1104289211688,"phone":"(173) 217-4226","sd":"11","ssbd":"10","lsbd":"School Board Lake Mountain 1"},{"vid":"2454177","name":"Dr. Vinson Becker PhD","party":"Dem","address":"251 W 300 S, Cedar Fort, UT 84013","precinct":"25CF01","hd":"50","v_score":"1.121327652","decile":"3","lat":40.32119234579318,"lng":-112.1104289211688,"phone":"(863) 962-9706","sd":"11","ssbd":"10","lsbd":"School Board Lake Mountain 1"},{"vid":"2459697","name":"Dr. Val Russel I","party":"Dem","address":"268 N 100 W, Cedar Fort, UT 84013","precinct":"25CF01","hd":"50","v_score":"1.193887297","decile":"3","lat":40.33175500044849,"lng":-112.10899979097904,"phone":"(102) 357-4126","sd":"11","ssbd":"10","lsbd":"School Board Lake Mountain 1"},{"vid":"2471053","name":"Kaiden Hahn","party":"","address":"62 W Center St, Cedar Fort, UT 84013","precinct":"25CF01","hd":"50","v_score":"3.016591252","decile":"6","lat":40.32750419375126,"lng":-112.10762277933526,"phone":"(514) 468-8555","sd":"11","ssbd":"10","lsbd":"School Board Lake Mountain 1"},{"vid":"2497736","name":"Fanny Hauck","party":"Rep","address":"260 S 100 E, Cedar Fort, UT 84013","precinct":"25CF01","hd":"50","v_score":"4.069929862","decile":"6","lat":40.32267840098773,"lng":-112.10616054456541,"phone":"(764) 292-0816","sd":"11","ssbd":"10","lsbd":"School Board Lake Mountain 1"},{"vid":"2515100","name":"Nathanael Wyman","party":"","address":"117 N 200 W, Cedar Fort, UT 84013","precinct":"25CF01","hd":"50","v_score":"12.92370926","decile":"9","lat":40.32951010048528,"lng":-112.11157761766083,"phone":"(839) 119-8549","sd":"11","ssbd":"10","lsbd":"School Board Lake Mountain 1"},{"vid":"2517175","name":"Ms. Paris Schulist DVM","party":"Rep","address":"18 E 100 S, Cedar Fort, UT 84013","precinct":"25CF01","hd":"50","v_score":"0","decile":"1","lat":40.325371580533954,"lng":-112.10661294094352,"phone":"(268) 782-2428","sd":"11","ssbd":"10","lsbd":"School Board Lake Mountain 1"},{"vid":"2522157","name":"Ceylon Deckow","party":"Dem","address":"48 S 100 E, Cedar Fort, UT 84013","precinct":"25CF01","hd":"50","v_score":"3.016591252","decile":"6","lat":40.326617935726254,"lng":-112.10492237963116,"phone":"(692) 525-0918","sd":"11","ssbd":"10","lsbd":"School Board Lake Mountain 1"},{"vid":"2522470","name":"Kylie Bartell","party":"","address":"11 W 100 S, Cedar Fort, UT 84013","precinct":"25CF01","hd":"50","v_score":"3.016591252","decile":"6","lat":40.32531264763811,"lng":-112.10710913433391,"phone":"(330) 566-1015","sd":"11","ssbd":"10","lsbd":"School Board Lake Mountain 1"},{"vid":"2538746","name":"Kacey Brown","party":"","address":"408 S 100 W, Cedar Fort, UT 84013","precinct":"25CF01","hd":"50","v_score":"1.623113131","decile":"5","lat":40.320807486518376,"lng":-112.10754708673048,"phone":"(971) 686-7826","sd":"11","ssbd":"10","lsbd":"School Board Lake Mountain 1"},{"vid":"2545453","name":"Valentino Mertz","party":"Dem","address":"18 E 100 S, Cedar Fort, UT 84013","precinct":"25CF01","hd":"50","v_score":"0","decile":"1","lat":40.325371580533954,"lng":-112.10661294094352,"phone":"(250) 474-2463","sd":"11","ssbd":"10","lsbd":"School Board Lake Mountain 1"},{"vid":"2640303","name":"Marlena Aufderhar-Hermiston","party":"Rep","address":"107 N 100 E, Cedar Fort, UT 84013","precinct":"25CF01","hd":"50","v_score":"1.193887297","decile":"4","lat":40.329186340016484,"lng":-112.10425007977953,"phone":"(512) 358-2755","sd":"11","ssbd":"10","lsbd":"School Board Lake Mountain 1"},{"vid":"2668163","name":"Dustyn Gutmann","party":"","address":"92 W 200 S, Cedar Fort, UT 84013","precinct":"25CF01","hd":"50","v_score":"8.284004873","decile":"8","lat":40.324284923491234,"lng":-112.10852339448618,"phone":"(680) 641-6475","sd":"11","ssbd":"10","lsbd":"School Board Lake Mountain 1"},{"vid":"2694650","name":"Breana Nader","party":"Dem","address":"408 S 100 W, Cedar Fort, UT 84013","precinct":"25CF01","hd":"50","v_score":"0","decile":"2","lat":40.320807486518376,"lng":-112.10754708673048,"phone":"(984) 728-1779","sd":"11","ssbd":"10","lsbd":"School Board Lake Mountain 1"},{"vid":"2732457","name":"Wright Haag","party":"","address":"40 N 100 E, Cedar Fort, UT 84013","precinct":"25CF01","hd":"50","v_score":"1.193887297","decile":"4","lat":40.327837118210795,"lng":-112.1040862754524,"phone":"(901) 863-9931","sd":"11","ssbd":"10","lsbd":"School Board Lake Mountain 1"},{"vid":"2774975","name":"Jermey Pollich","party":"Rep","address":"268 N 100 W, Cedar Fort, UT 84013","precinct":"25CF01","hd":"50","v_score":"8.284004873","decile":"8","lat":40.33175500044849,"lng":-112.10899979097904,"phone":"(425) 994-9065","sd":"11","ssbd":"10","lsbd":"School Board Lake Mountain 1"},{"vid":"2825687","name":"Socorro Marks PhD","party":"Rep","address":"105 N 100 W, Cedar Fort, UT 84013","precinct":"25CF01","hd":"50","v_score":"0","decile":"2","lat":40.37953020815878,"lng":-111.80146767166153,"phone":"(259) 657-6675","sd":"11","ssbd":"10","lsbd":"School Board Lake Mountain 1"},{"vid":"2826112","name":"Kem Schaefer","party":"","address":"370 S 100 E, Cedar Fort, UT 84013","precinct":"25CF01","hd":"50","v_score":"0","decile":"2","lat":40.320724060052434,"lng":-112.10506305885893,"phone":"(820) 882-9443","sd":"11","ssbd":"10","lsbd":"School Board Lake Mountain 1"},{"vid":"2889473","name":"Dr. Nathan Brakus","party":"Rep","address":"233 S 100 W, Cedar Fort, UT 84013","precinct":"25CF01","hd":"50","v_score":"0","decile":"2","lat":40.32309192164113,"lng":-112.10980929885909,"phone":"(832) 966-6101","sd":"11","ssbd":"10","lsbd":"School Board Lake Mountain 1"},{"vid":"2889828","name":"Hanson Mohr","party":"Rep","address":"127 S 100 W, Cedar Fort, UT 84013","precinct":"25CF01","hd":"50","v_score":"0","decile":"2","lat":40.32536349815058,"lng":-112.1087636932857,"phone":"(669) 785-6503","sd":"11","ssbd":"10","lsbd":"School Board Lake Mountain 1"},{"vid":"2892571","name":"Jaylen Huels PhD","party":"Dem","address":"17 E 200 N, Cedar Fort, UT 84013","precinct":"25CF01","hd":"50","v_score":"0","decile":"2","lat":40.3313676813226,"lng":-112.10620025515604,"phone":"(129) 486-5337","sd":"11","ssbd":"10","lsbd":"School Board Lake Mountain 1"},{"vid":"2900637","name":"Joan Larkin","party":"","address":"209 N 100 W, Cedar Fort, UT 84013","precinct":"25CF01","hd":"50","v_score":"0","decile":"2","lat":40.330804435568396,"lng":-112.10984655918043,"phone":"(332) 796-9236","sd":"11","ssbd":"10","lsbd":"School Board Lake Mountain 1"},{"vid":"2910663","name":"Almina Ullrich","party":"","address":"40 N 100 E, Cedar Fort, UT 84013","precinct":"25CF01","hd":"50","v_score":"0","decile":"2","lat":40.327837118210795,"lng":-112.1040862754524,"phone":"(720) 859-3156","sd":"11","ssbd":"10","lsbd":"School Board Lake Mountain 1"},{"vid":"2971811","name":"Marquita Batz","party":"Rep","address":"90 N Church St, Cedar Fort, UT 84013","precinct":"25CF01","hd":"50","v_score":"0","decile":"2","lat":40.32863918505459,"lng":-112.10608364804563,"phone":"(411) 256-3422","sd":"11","ssbd":"10","lsbd":"School Board Lake Mountain 1"},{"vid":"63ab89b816a9a18dd6361ec711d977ecdda95f5257e493fed768e10a4222451e","name":"Tosha Morar-Turner","party":"Dem","address":"350 S 200 E, Cedar Fort, UT 84013","precinct":"25CF01","hd":"50","v_score":"6.954919332","decile":"8","lat":40.32112400038032,"lng":-112.10281620039581,"phone":"(324) 480-6706","sd":"11","ssbd":"10","lsbd":"School Board Lake Mountain 1"},{"vid":"ba85dadeacd8b96987c1401e84c9a45f14b9a6c6bbaf4759211e5ada3f5018c4","name":"Mr. Collier Hilpert MD","party":"Dem","address":"115 S 200 E, Cedar Fort, UT 84013","precinct":"25CF01","hd":"50","v_score":"5.40460374","decile":"7","lat":40.325451432337466,"lng":-112.10151553745138,"phone":"(488) 668-0388","sd":"11","ssbd":"10","lsbd":"School Board Lake Mountain 1"},{"vid":"3302306","name":"Dora Haag","party":"Rep","address":"138 S 100 E, Unit 118, Cedar Fort, UT 84013","precinct":"25CF01","hd":"50","v_score":"4.409183253","decile":"7","lat":40.325145858402806,"lng":-112.10526623092942,"phone":"(478) 571-9581","sd":"11","ssbd":"10","lsbd":"School Board Lake Mountain 1"},{"vid":"5e96a3137d9cca620ea4dbab3b4c2087ec9fcbd8757aaa6a4bb71408a171d3ca","name":"Miss Helena Bogisich","party":"","address":"55 S 100 E, Cedar Fort, UT 84013","precinct":"25CF01","hd":"50","v_score":"2.315214949","decile":"5","lat":40.32611236622554,"lng":-112.10395595156692,"phone":"(777) 601-0809","sd":"11","ssbd":"10","lsbd":"School Board Lake Mountain 1"},{"vid":"3531502","name":"Cyndi Rau-Emmerich","party":"Rep","address":"209 N 100 W, Cedar Fort, UT 84013","precinct":"25CF01","hd":"50","v_score":"3.781490609","decile":"6","lat":40.330804435568396,"lng":-112.10984655918043,"phone":"(506) 940-7058","sd":"11","ssbd":"10","lsbd":"School Board Lake Mountain 1"},{"vid":"3531546","name":"Miss Lottie Howe","party":"","address":"209 N 100 W, Cedar Fort, UT 84013","precinct":"25CF01","hd":"50","v_score":"3.781490609","decile":"6","lat":40.330804435568396,"lng":-112.10984655918043,"phone":"(717) 293-6480","sd":"11","ssbd":"10","lsbd":"School Board Lake Mountain 1"},{"vid":"6102809","name":"Mr. Luciano Aufderhar","party":"","address":"127 S 100 W, Cedar Fort, UT 84013","precinct":"25CF01","hd":"50","v_score":"1.121327652","decile":"3","lat":40.32536349815058,"lng":-112.1087636932857,"phone":"(526) 385-1170","sd":"11","ssbd":"10","lsbd":"School Board Lake Mountain 1"},{"vid":"6171780","name":"Mr. Ridge Predovic MD","party":"Dem","address":"315 N 100 W, Cedar Fort, UT 84013","precinct":"25CF01","hd":"50","v_score":"0","decile":"3","lat":40.33310835916015,"lng":-112.11127683868972,"phone":"(105) 950-6667","sd":"11","ssbd":"10","lsbd":"School Board Lake Mountain 1"},{"vid":"6185969","name":"Deondre O'Keefe DVM","party":"","address":"78 E 100 N, Cedar Fort, UT 84013","precinct":"25CF01","hd":"50","v_score":"15.51131257","decile":"9","lat":40.32838673891429,"lng":-112.1053966870469,"phone":"(245) 145-3256","sd":"11","ssbd":"10","lsbd":"School Board Lake Mountain 1"},{"vid":"6204681","name":"Osborne Moore","party":"Rep","address":"290 N 100 W, Cedar Fort, UT 84013","precinct":"25CF01","hd":"50","v_score":"11.29723756","decile":"9","lat":40.17070571132183,"lng":-111.6121940224573,"phone":"(292) 229-4649","sd":"11","ssbd":"10","lsbd":"School Board Lake Mountain 1"},{"vid":"6205379","name":"Lela Stokes","party":"","address":"42 W 100 N, Cedar Fort, UT 84013","precinct":"25CF01","hd":"50","v_score":"15.60082602","decile":"9","lat":40.329342611484385,"lng":-112.10758248342691,"phone":"(575) 868-9520","sd":"11","ssbd":"10","lsbd":"School Board Lake Mountain 1"},{"vid":"6215978","name":"Trae Denesik-Kiehn","party":"Dem","address":"40 E 200 S, Cedar Fort, UT 84013","precinct":"25CF01","hd":"50","v_score":"15.00919004","decile":"9","lat":40.323318980684164,"lng":-112.10627168628832,"phone":"(838) 486-7092","sd":"11","ssbd":"10","lsbd":"School Board Lake Mountain 1"},{"vid":"6225433","name":"Kelsey Cormier-Howe","party":"Rep","address":"145 E 100 N, Cedar Fort, UT 84013","precinct":"25CF01","hd":"50","v_score":"8.421194992","decile":"8","lat":40.329353615763424,"lng":-112.1036594664402,"phone":"(192) 888-1324","sd":"11","ssbd":"10","lsbd":"School Board Lake Mountain 1"},{"vid":"6233440","name":"Issac Senger","party":"Dem","address":"315 N 100 W, Cedar Fort, UT 84013","precinct":"25CF01","hd":"50","v_score":"15.51131257","decile":"9","lat":40.33310835916015,"lng":-112.11127683868972,"phone":"(358) 198-5996","sd":"11","ssbd":"10","lsbd":"School Board Lake Mountain 1"},{"vid":"9e5a3244ec3d1c337f671018657cc2fdd4d70be2dcdcb85d696939f22d3a25f2","name":"Nallely Spencer","party":"Rep","address":"42 W 100 N, Cedar Fort, UT 84013","precinct":"25CF01","hd":"50","v_score":"8.421194992","decile":"8","lat":40.329342611484385,"lng":-112.10758248342691,"phone":"(144) 780-4236","sd":"11","ssbd":"10","lsbd":"School Board Lake Mountain 1"},{"vid":"6288135","name":"Kendall Marvin","party":"","address":"82 W 200 N, Cedar Fort, UT 84013","precinct":"25CF01","hd":"50","v_score":"22.16617265","decile":"10","lat":40.33141657846474,"lng":-112.10865487112717,"phone":"(414) 957-9912","sd":"11","ssbd":"10","lsbd":"School Board Lake Mountain 1"},{"vid":"6289988","name":"Jennifer Jerde","party":"Dem","address":"93 E 100 S, Cedar Fort, UT 84013","precinct":"25CF01","hd":"50","v_score":"7.227307695","decile":"8","lat":40.32605538575992,"lng":-112.10496356930335,"phone":"(440) 046-2872","sd":"11","ssbd":"10","lsbd":"School Board Lake Mountain 1"},{"vid":"6290494","name":"Tiera Dach","party":"Dem","address":"289 N 100 W, Cedar Fort, UT 84013","precinct":"25CF01","hd":"50","v_score":"13.38607691","decile":"9","lat":40.3317536706974,"lng":-112.1103176849431,"phone":"(968) 008-5145","sd":"11","ssbd":"10","lsbd":"School Board Lake Mountain 1"},{"vid":"d4da0f1169b46e7e9ce464d9446e6d444f9cb8474674a9f64a2e0f74beff968d","name":"Rusty Carroll Sr.","party":"Rep","address":"25 S 100 E, Cedar Fort, UT 84013","precinct":"25CF01","hd":"50","v_score":"8.207848766","decile":"8","lat":40.327014198869534,"lng":-112.10389023369534,"phone":"(538) 980-2632","sd":"11","ssbd":"10","lsbd":"School Board Lake Mountain 1"},{"vid":"6356373","name":"Mrs. River Kemmer DDS","party":"Dem","address":"260 S 100 E, Cedar Fort, UT 84013","precinct":"25CF01","hd":"50","v_score":"5.191257514","decile":"7","lat":40.32267840098773,"lng":-112.10616054456541,"phone":"(953) 962-8120","sd":"11","ssbd":"10","lsbd":"School Board Lake Mountain 1"},{"vid":"6369364","name":"Delsie Bednar","party":"","address":"310 N 100 W, Cedar Fort, UT 84013","precinct":"25CF01","hd":"50","v_score":"10.51003435","decile":"9","lat":40.33334284119037,"lng":-112.11067031667153,"phone":"(484) 192-6261","sd":"11","ssbd":"10","lsbd":"School Board Lake Mountain 1"},{"vid":"6375560","name":"Hezzie Friesen","party":"Dem","address":"127 N Church St, Cedar Fort, UT 84013","precinct":"25CF01","hd":"50","v_score":"5.331806201","decile":"7","lat":40.32914206982593,"lng":-112.10713695794303,"phone":"(391) 006-0757","sd":"11","ssbd":"10","lsbd":"School Board Lake Mountain 1"},{"vid":"125a0872c49efbdef65d26a59ba3ca72d5a0e64410c02bebf9d98d829caa1ec3","name":"Noemi Padberg-Kerluke","party":"Dem","address":"177 N Church St, Cedar Fort, UT 84013","precinct":"25CF01","hd":"50","v_score":"17.75698939","decile":"10","lat":40.33031605956656,"lng":-112.10702896185076,"phone":"(410) 078-4915","sd":"11","ssbd":"10","lsbd":"School Board Lake Mountain 1"},{"vid":"6386322","name":"Estelle Harber-Pouros","party":"Rep","address":"311 S 100 E, Cedar Fort, UT 84013","precinct":"25CF01","hd":"50","v_score":"12.49472132","decile":"9","lat":40.32125748127985,"lng":-112.10347781068054,"phone":"(124) 680-2603","sd":"11","ssbd":"10","lsbd":"School Board Lake Mountain 1"},{"vid":"6396219","name":"Thor Gibson","party":"","address":"675 E 100 N, Cedar Fort, UT 84013","precinct":"25CF01","hd":"50","v_score":"8.421194992","decile":"8","lat":40.33017931645456,"lng":-112.09521505551889,"phone":"(786) 795-8844","sd":"11","ssbd":"10","lsbd":"School Board Lake Mountain 1"},{"vid":"6436831","name":"Dr. Alisa Zulauf MD","party":"","address":"311 S 100 E, Cedar Fort, UT 84013","precinct":"25CF01","hd":"50","v_score":"12.49472132","decile":"9","lat":40.32125748127985,"lng":-112.10347781068054,"phone":"(649) 252-5455","sd":"11","ssbd":"10","lsbd":"School Board Lake Mountain 1"},{"vid":"6447373","name":"Steven Parisian","party":"","address":"185 S 100 E, Cedar Fort, UT 84013","precinct":"25CF01","hd":"50","v_score":"0","decile":"3","lat":40.32433917642816,"lng":-112.10409972225689,"phone":"(778) 066-6906","sd":"11","ssbd":"10","lsbd":"School Board Lake Mountain 1"},{"vid":"6450128","name":"Mariel Jacobson-Rutherford","party":"Dem","address":"165 E 200 N, Cedar Fort, UT 84013","precinct":"25CF01","hd":"50","v_score":"12.22362323","decile":"9","lat":40.331014693543814,"lng":-112.10245824749674,"phone":"(577) 622-8853","sd":"11","ssbd":"10","lsbd":"School Board Lake Mountain 1"},{"vid":"6456279","name":"Mrs. Theresa Volkman","party":"Dem","address":"1357 N 1100 E, Cedar Fort, UT 84013","precinct":"25CF01","hd":"50","v_score":"5.331806201","decile":"7","lat":40.3495511200983,"lng":-112.08448566451698,"phone":"(372) 207-8537","sd":"11","ssbd":"10","lsbd":"School Board Lake Mountain 1"},{"vid":"6478691","name":"Tatianna Ward","party":"","address":"135 N 100 W, Cedar Fort, UT 84013","precinct":"25CF01","hd":"50","v_score":"7.013961469","decile":"8","lat":40.32914844119482,"lng":-112.10923446008157,"phone":"(201) 987-2836","sd":"11","ssbd":"10","lsbd":"School Board Lake Mountain 1"},{"vid":"6482678","name":"Bryn Cremin-Homenick","party":"","address":"408 S 100 W, Apt 415, Cedar Fort, UT 84013","precinct":"25CF01","hd":"50","v_score":"5.604194564","decile":"7","lat":40.320807486518376,"lng":-112.10754708673048,"phone":"(438) 224-4278","sd":"11","ssbd":"10","lsbd":"School Board Lake Mountain 1"},{"vid":"e78f344f7a5c2d2c27452ed9c7e431c9c0a033e7cfc4e59251e5726225c7722c","name":"Desirae Rohan","party":"Rep","address":"81 S Church St, Cedar Fort, UT 84013","precinct":"25CF01","hd":"50","v_score":"5.331806201","decile":"7","lat":40.326186636576104,"lng":-112.10646706168794,"phone":"(379) 377-5844","sd":"11","ssbd":"10","lsbd":"School Board Lake Mountain 1"},{"vid":"6489229","name":"Kaye Ledner","party":"","address":"42 W 100 N, Cedar Fort, UT 84013","precinct":"25CF01","hd":"50","v_score":"9.207031979","decile":"8","lat":40.329342611484385,"lng":-112.10758248342691,"phone":"(991) 598-8974","sd":"11","ssbd":"10","lsbd":"School Board Lake Mountain 1"},{"vid":"6489493","name":"Gianni Champlin","party":"Rep","address":"47 S 100 E, Cedar Fort, UT 84013","precinct":"25CF01","hd":"50","v_score":"8.421194992","decile":"8","lat":40.32672756143235,"lng":-112.10415194159386,"phone":"(332) 509-4132","sd":"11","ssbd":"10","lsbd":"School Board Lake Mountain 1"},{"vid":"6501818","name":"Dr. Leva Murphy","party":"Dem","address":"290 N 100 W, Cedar Fort, UT 84013","precinct":"25CF01","hd":"50","v_score":"11.29723756","decile":"9","lat":40.17070571132183,"lng":-111.6121940224573,"phone":"(103) 191-1848","sd":"11","ssbd":"10","lsbd":"School Board Lake Mountain 1"},{"vid":"6514833","name":"Devan Rogahn PhD","party":"","address":"305 S 100 W, Cedar Fort, UT 84013","precinct":"25CF01","hd":"50","v_score":"8.562774445","decile":"8","lat":40.32148054246422,"lng":-112.10836556136343,"phone":"(383) 218-9471","sd":"11","ssbd":"10","lsbd":"School Board Lake Mountain 1"},{"vid":"6519553","name":"Cynthia Buckridge","party":"Dem","address":"650 S Church St, Cedar Fort, UT 84013","precinct":"25CF01","hd":"50","v_score":"19.22326505","decile":"10","lat":40.32036329369784,"lng":-112.10691536557115,"phone":"(518) 353-5615","sd":"11","ssbd":"10","lsbd":"School Board Lake Mountain 1"},{"vid":"6520679","name":"Mr. Quinten Mante II","party":"Rep","address":"81 S Church St, Cedar Fort, UT 84013","precinct":"25CF01","hd":"50","v_score":"5.331806201","decile":"7","lat":40.326186636576104,"lng":-112.10646706168794,"phone":"(206) 792-4631","sd":"11","ssbd":"10","lsbd":"School Board Lake Mountain 1"},{"vid":"6532015","name":"Julie Weimann","party":"Dem","address":"165 E 200 N, Cedar Fort, UT 84013","precinct":"25CF01","hd":"50","v_score":"12.22362323","decile":"9","lat":40.331014693543814,"lng":-112.10245824749674,"phone":"(846) 634-0418","sd":"11","ssbd":"10","lsbd":"School Board Lake Mountain 1"}]