[{"vid":"1225930","name":"Ozell Auer","party":"","address":"10158 N Maple Ct, Cedar Hills, UT 84062","precinct":"25CH03","hd":"54","v_score":"9.600440767","decile":"8","lat":40.41666048910362,"lng":-111.75983322658601},{"vid":"1239853","name":"Craig Lang","party":"","address":"4064 W Cedar Hills Dr, Cedar Hills, UT 84062","precinct":"25CH03","hd":"54","v_score":"18.45422016","decile":"10","lat":40.41407336902193,"lng":-111.75543892632513},{"vid":"a6bcf83cb461e2ec162e3e64c3f01991f4a0f927ed3996dbd00e7eca4409e75a","name":"Buddy Deckow","party":"Dem","address":"4146 W Joshua Ln, Cedar Hills, UT 84062","precinct":"25CH03","hd":"54","v_score":"29.10469283","decile":"10","lat":40.419598388219235,"lng":-111.75737534052507},{"vid":"1269095","name":"Dewitt Krajcik","party":"Dem","address":"10197 N Pinion Dr, Cedar Hills, UT 84062","precinct":"25CH03","hd":"54","v_score":"1.193887297","decile":"3","lat":40.417292551259195,"lng":-111.7641078548494},{"vid":"1277345","name":"Dr. Governor Raynor","party":"Dem","address":"10259 N Pinion Dr, Cedar Hills, UT 84062","precinct":"25CH03","hd":"54","v_score":"24.93553151","decile":"10","lat":40.4183848694663,"lng":-111.7643195688146},{"vid":"1281144","name":"Orla Fadel","party":"Dem","address":"10162 N Oak Ct, Cedar Hills, UT 84062","precinct":"25CH03","hd":"54","v_score":"39.15900423","decile":"10","lat":40.41675216706597,"lng":-111.76089492173244},{"vid":"1282209","name":"Zeno Toy","party":"","address":"4228 W Mesquite Way, Cedar Hills, UT 84062","precinct":"25CH03","hd":"54","v_score":"14.74039814","decile":"9","lat":40.41952104486462,"lng":-111.75902243169206},{"vid":"e7846192e930063c9b4abcd4771a40b2322231c8b14adb7d15ee327deab84913","name":"Mitchell Wisozk","party":"","address":"10242 N Pinion Dr, Cedar Hills, UT 84062","precinct":"25CH03","hd":"54","v_score":"7.650280567","decile":"8","lat":40.41805443194932,"lng":-111.76378212821267},{"vid":"1297499","name":"Lota Nicolas","party":"Dem","address":"4262 W Sumac Ct, Cedar Hills, UT 84062","precinct":"25CH03","hd":"54","v_score":"29.19420629","decile":"10","lat":40.41589169608909,"lng":-111.76058394887582},{"vid":"1360217","name":"Solon Runolfsdottir","party":"Rep","address":"4012 W Sandalwood Dr, Cedar Hills, UT 84062","precinct":"25CH03","hd":"54","v_score":"1.121327652","decile":"3","lat":40.41689498709554,"lng":-111.75478194894336},{"vid":"1375270","name":"Hiroshi Thompson","party":"Rep","address":"4249 W Joshua Ln, Cedar Hills, UT 84062","precinct":"25CH03","hd":"54","v_score":"10.8238813","decile":"9","lat":40.420271487741374,"lng":-111.75963150315329},{"vid":"1382336","name":"Clemie Graham-Marks","party":"","address":"4133 W Cedar Hills Dr, Cedar Hills, UT 84062","precinct":"25CH03","hd":"54","v_score":"8.284004873","decile":"8","lat":40.41358038727794,"lng":-111.75738678621677},{"vid":"1387581","name":"Rolanda Pacocha","party":"Rep","address":"4322 W Cedar Hills Dr, Cedar Hills, UT 84062","precinct":"25CH03","hd":"54","v_score":"3.93832808","decile":"6","lat":40.41541121734682,"lng":-111.76196773332248},{"vid":"1388930","name":"Mr. Abdullah Hodkiewicz","party":"","address":"10161 N Oak Rd W, Cedar Hills, UT 84062","precinct":"25CH03","hd":"54","v_score":"5.40460374","decile":"7","lat":40.41660325680168,"lng":-111.76146950064701},{"vid":"1394152","name":"Kaylyn Kuvalis PhD","party":"Rep","address":"10167 N Cottonwood Dr, Cedar Hills, UT 84062","precinct":"25CH03","hd":"54","v_score":"1.623113131","decile":"4","lat":40.41676388888723,"lng":-111.76275827190331},{"vid":"1428594","name":"Gerri Goldner-Champlin","party":"","address":"10209 N Oak Ct, Cedar Hills, UT 84062","precinct":"25CH03","hd":"54","v_score":"8.363540363","decile":"8","lat":40.41756053899425,"lng":-111.76117066432212},{"vid":"1429431","name":"Emilee Eichmann MD","party":"Rep","address":"4258 W Sandalwood Dr, Cedar Hills, UT 84062","precinct":"25CH03","hd":"54","v_score":"7.947838735","decile":"8","lat":40.419020418594684,"lng":-111.76013116448559},{"vid":"1458217","name":"Imanol Lockman","party":"","address":"10146 N Maple Ct, Cedar Hills, UT 84062","precinct":"25CH03","hd":"54","v_score":"2.744440783","decile":"5","lat":40.416508136807224,"lng":-111.75973985323567},{"vid":"ad9cfd3965a0e8948a7cfc27c29e0d5f06dbe0c089e655f53a91a3521e56a26c","name":"Gerhard Collier","party":"","address":"10090 N Willow Ct, Cedar Hills, UT 84062","precinct":"25CH03","hd":"54","v_score":"15.19992342","decile":"9","lat":40.41548710054845,"lng":-111.7579638201191},{"vid":"1497968","name":"Shannon Legros","party":"Dem","address":"4256 W Cedar Hills Dr, Cedar Hills, UT 84062","precinct":"25CH03","hd":"54","v_score":"17.47500234","decile":"9","lat":40.414437853343834,"lng":-111.76050587902374},{"vid":"1510856","name":"Jesica Kutch","party":"","address":"10448 N Cottonwood Dr, Cedar Hills, UT 84062","precinct":"25CH03","hd":"54","v_score":"13.32779236","decile":"9","lat":40.42174127495599,"lng":-111.76284636141254},{"vid":"1515409","name":"Mrs. Adda Hammes PhD","party":"","address":"10364 N Mesquite Way, Cedar Hills, UT 84062","precinct":"25CH03","hd":"54","v_score":"5.40460374","decile":"7","lat":40.420362424682864,"lng":-111.76008748509949},{"vid":"1516538","name":"Kade Rice-Walker","party":"Rep","address":"10067 N Willow Ct, Cedar Hills, UT 84062","precinct":"25CH03","hd":"54","v_score":"3.93832808","decile":"6","lat":40.41496714954928,"lng":-111.75794229869784},{"vid":"1532115","name":"Altie Rau","party":"Dem","address":"10179 N Cottonwood Dr, Cedar Hills, UT 84062","precinct":"25CH03","hd":"54","v_score":"8.955296752","decile":"8","lat":40.41704232829855,"lng":-111.76300055364398},{"vid":"1541113","name":"Dr. Alison Jones PhD","party":"","address":"10107 N Pinion Dr, Cedar Hills, UT 84062","precinct":"25CH03","hd":"54","v_score":"3.93832808","decile":"6","lat":40.415614684867684,"lng":-111.76358398183659},{"vid":"1544378","name":"Hildegarde Hickle","party":"Dem","address":"10108 N Pinion Dr, Cedar Hills, UT 84062","precinct":"25CH03","hd":"54","v_score":"6.881235673","decile":"8","lat":40.41562040006201,"lng":-111.76325051282853},{"vid":"1560937","name":"Olivine Kub","party":"Dem","address":"10030 N Pine Ct, Cedar Hills, UT 84062","precinct":"25CH03","hd":"54","v_score":"0","decile":"1","lat":40.41442961872171,"lng":-111.75506065814156},{"vid":"1563837","name":"Zayden Friesen DDS","party":"","address":"10448 N Cottonwood Dr, Cedar Hills, UT 84062","precinct":"25CH03","hd":"54","v_score":"5.40460374","decile":"7","lat":40.42174127495599,"lng":-111.76284636141254},{"vid":"1593260","name":"Shantel Christiansen","party":"","address":"10311 N Ironwood Dr, Cedar Hills, UT 84062","precinct":"25CH03","hd":"54","v_score":"2.998909327","decile":"6","lat":40.419459777058925,"lng":-111.75638764601295},{"vid":"1618020","name":"Nello Johns I","party":"","address":"4322 W Cedar Hills Dr, Cedar Hills, UT 84062","precinct":"25CH03","hd":"54","v_score":"5.40460374","decile":"7","lat":40.41541121734682,"lng":-111.76196773332248},{"vid":"1618762","name":"Goebel Lebsack","party":"","address":"10453 N Cottonwood Dr, Cedar Hills, UT 84062","precinct":"25CH03","hd":"54","v_score":"6.724398202","decile":"8","lat":40.422127006071264,"lng":-111.76325310680006},{"vid":"1623430","name":"Rutherford Howe","party":"Dem","address":"10343 N Sandalwood Dr, Cedar Hills, UT 84062","precinct":"25CH03","hd":"54","v_score":"20.10652079","decile":"10","lat":40.419965569153206,"lng":-111.76163231392879},{"vid":"1633387","name":"Marlys Schamberger","party":"Dem","address":"10052 N Poplar Ct, Cedar Hills, UT 84062","precinct":"25CH03","hd":"54","v_score":"2.817000428","decile":"6","lat":40.41477768275249,"lng":-111.7600906647651},{"vid":"1634982","name":"Antonio Tremblay","party":"","address":"10223 N Cottonwood Dr, Cedar Hills, UT 84062","precinct":"25CH03","hd":"54","v_score":"1.121327652","decile":"3","lat":40.41789281173253,"lng":-111.7632065077858},{"vid":"1640149","name":"Margarite Hartmann","party":"Rep","address":"4133 W Cedar Hills Dr, Cedar Hills, UT 84062","precinct":"25CH03","hd":"54","v_score":"8.284004873","decile":"8","lat":40.41358038727794,"lng":-111.75738678621677},{"vid":"1647473","name":"Virgle O'Reilly","party":"","address":"4353 W Cedar Cv, Cedar Hills, UT 84062","precinct":"25CH03","hd":"54","v_score":"2.587603312","decile":"5","lat":40.41953752348093,"lng":-111.76273773905524},{"vid":"1650710","name":"Dellar Wyman","party":"Dem","address":"10217 N Oak Ct, Cedar Hills, UT 84062","precinct":"25CH03","hd":"54","v_score":"10.8238813","decile":"9","lat":40.41768926985951,"lng":-111.7610051377242},{"vid":"1652232","name":"Lindy Oberbrunner-Altenwerth","party":"Rep","address":"10166 N Pinion Dr, Cedar Hills, UT 84062","precinct":"25CH03","hd":"54","v_score":"0","decile":"1","lat":40.41679417663345,"lng":-111.76343061651669},{"vid":"9f8b6234fe4df8711bccd692ca1ad771d30b838d23d737dbc6ec1e7f4b8a94f5","name":"Cara Feest","party":"Dem","address":"10229 N Pinion Dr, Cedar Hills, UT 84062","precinct":"25CH03","hd":"54","v_score":"19.75417451","decile":"10","lat":40.4178343340239,"lng":-111.7642770213654},{"vid":"dc85fb981b1ef743dbb63098602b1a791ae1f9d0667b17a4561e56ca55c24bd0","name":"Belva Windler","party":"","address":"4141 W Mesquite Way, Cedar Hills, UT 84062","precinct":"25CH03","hd":"54","v_score":"3.93832808","decile":"6","lat":40.41861361029803,"lng":-111.75768967314836},{"vid":"1751043","name":"Madison Hyatt","party":"Dem","address":"4045 W Juniper Rd, Cedar Hills, UT 84062","precinct":"25CH03","hd":"54","v_score":"4.833280139","decile":"7","lat":40.41520096842842,"lng":-111.7553564820269},{"vid":"1769951","name":"Louvenia McGlynn","party":"Rep","address":"10259 N Pinion Dr, Cedar Hills, UT 84062","precinct":"25CH03","hd":"54","v_score":"21.99262391","decile":"10","lat":40.4183848694663,"lng":-111.7643195688146},{"vid":"1824893","name":"Lockie Greenfelder-Feest","party":"Rep","address":"10341 N Cottonwood Dr, Cedar Hills, UT 84062","precinct":"25CH03","hd":"54","v_score":"12.51613974","decile":"9","lat":40.419915714274694,"lng":-111.76368033726924},{"vid":"1835419","name":"Desean Hickle-Boyle","party":"Rep","address":"4225 W Mesquite Way, Cedar Hills, UT 84062","precinct":"25CH03","hd":"54","v_score":"6.468038869","decile":"7","lat":40.418915718370705,"lng":-111.75917891671736},{"vid":"b827f538955b22fe1c7b5c533a89972a782d37a5ea07ff214e24f47f93749fcc","name":"Dr. Eli Fay","party":"Dem","address":"10209 N Oak Ct, Cedar Hills, UT 84062","precinct":"25CH03","hd":"54","v_score":"9.55742766","decile":"8","lat":40.41756053899425,"lng":-111.76117066432212},{"vid":"1858698","name":"Suzy Kling","party":"","address":"10053 N Pine Ct, Cedar Hills, UT 84062","precinct":"25CH03","hd":"54","v_score":"3.93832808","decile":"6","lat":40.41476988283281,"lng":-111.75534802247262},{"vid":"60c7c5de6f8c421f7920d8cdfc420dccf90abedd7c7426a5213220f3ffffa0bc","name":"Mr. Jaheim Weimann DDS","party":"","address":"10052 N Pine Ct, Cedar Hills, UT 84062","precinct":"25CH03","hd":"54","v_score":"9.750280533","decile":"8","lat":40.4148303808732,"lng":-111.75507448263559},{"vid":"45def7fd5671f64dd9d1a1528e1fea11ad1a561bdaa1f88ea12d925e6db909f9","name":"Mrs. Taryn Howe","party":"Rep","address":"4209 W Mesquite Way, Cedar Hills, UT 84062","precinct":"25CH03","hd":"54","v_score":"6.324725604","decile":"7","lat":40.41876990039081,"lng":-111.75883111395692},{"vid":"1892997","name":"Dr. Bernard Altenwerth II","party":"Dem","address":"4419 W Redwood Dr, Cedar Hills, UT 84062","precinct":"25CH03","hd":"54","v_score":"13.57681029","decile":"9","lat":40.42036567156605,"lng":-111.7642540529398},{"vid":"1921576","name":"Evaline Emmerich","party":"Dem","address":"10168 N Cottonwood Dr, Cedar Hills, UT 84062","precinct":"25CH03","hd":"54","v_score":"3.93832808","decile":"6","lat":40.416873171690675,"lng":-111.76217506082733},{"vid":"1924393","name":"Ace Graham","party":"Dem","address":"10168 N Cottonwood Dr, Cedar Hills, UT 84062","precinct":"25CH03","hd":"54","v_score":"3.93832808","decile":"6","lat":40.416873171690675,"lng":-111.76217506082733},{"vid":"1932934","name":"Tari Yundt","party":"Dem","address":"4213 W Sandalwood Dr, Cedar Hills, UT 84062","precinct":"25CH03","hd":"54","v_score":"1.121327652","decile":"3","lat":40.41801299724234,"lng":-111.75931991897929},{"vid":"1934099","name":"Tamiko Treutel","party":"","address":"10117 N Maple Ct, Cedar Hills, UT 84062","precinct":"25CH03","hd":"54","v_score":"0","decile":"1","lat":40.41576928373567,"lng":-111.75951284286056},{"vid":"1956751","name":"Madyson Greenholt-Yundt","party":"Rep","address":"10108 N Pinion Dr, Cedar Hills, UT 84062","precinct":"25CH03","hd":"54","v_score":"3.93832808","decile":"6","lat":40.41562040006201,"lng":-111.76325051282853},{"vid":"5356348639e251296e356c92f9f46ef6450d93115066b904d9e3288c7cd4b53a","name":"Shantel Williamson","party":"Dem","address":"4021 W Ironwood Dr, Cedar Hills, UT 84062","precinct":"25CH03","hd":"54","v_score":"2.315214949","decile":"5","lat":40.417073858057684,"lng":-111.75500807073149},{"vid":"1972149","name":"Dr. Delfina Lebsack","party":"Rep","address":"4141 W Mesquite Way, Cedar Hills, UT 84062","precinct":"25CH03","hd":"54","v_score":"1.121327652","decile":"3","lat":40.41861361029803,"lng":-111.75768967314836},{"vid":"1972813","name":"Kurtis Bahringer V","party":"Dem","address":"4095 W Cedar Hills Dr, Cedar Hills, UT 84062","precinct":"25CH03","hd":"54","v_score":"5.40460374","decile":"7","lat":40.41352644328841,"lng":-111.75692205546115},{"vid":"1973235","name":"Corine Bernhard","party":"Rep","address":"10259 N Pinion Dr, Cedar Hills, UT 84062","precinct":"25CH03","hd":"54","v_score":"1.121327652","decile":"3","lat":40.4183848694663,"lng":-111.7643195688146},{"vid":"1982189","name":"Byron Beatty-Langworth","party":"Dem","address":"10181 N Pinion Dr, Cedar Hills, UT 84062","precinct":"25CH03","hd":"54","v_score":"9.03120571","decile":"8","lat":40.41698831371791,"lng":-111.76403591553374},{"vid":"97a3a79e1e390b085606d27795838d8329462ccf8c7314d57d712cf1f149abf5","name":"Symone Rippin","party":"Dem","address":"4176 W Sandalwood Dr, Cedar Hills, UT 84062","precinct":"25CH03","hd":"54","v_score":"24.8691994","decile":"10","lat":40.418215692371355,"lng":-111.75863873740109},{"vid":"1990002","name":"Mrs. Yetta Green","party":"","address":"9969 N 4000 W, Cedar Hills, UT 84062","precinct":"25CH03","hd":"54","v_score":"1.46627566","decile":"4","lat":40.413253710419376,"lng":-111.75496094248855},{"vid":"2017753","name":"Jimmie McDermott I","party":"","address":"4229 W Sandalwood Dr, Cedar Hills, UT 84062","precinct":"25CH03","hd":"54","v_score":"1.193887297","decile":"3","lat":40.41816541262257,"lng":-111.75968517196759},{"vid":"2020112","name":"Jarod Cronin","party":"","address":"4064 W Cedar Hills Dr, Cedar Hills, UT 84062","precinct":"25CH03","hd":"54","v_score":"18.45422016","decile":"10","lat":40.41407336902193,"lng":-111.75543892632513},{"vid":"2021591","name":"Mrs. Deasia Hirthe","party":"","address":"4438 W Redwood Dr, Cedar Hills, UT 84062","precinct":"25CH03","hd":"54","v_score":"6.52928996","decile":"7","lat":40.420816348978015,"lng":-111.76479892704701},{"vid":"2029988","name":"Francine Hills","party":"","address":"10063 N Poplar Ct, Cedar Hills, UT 84062","precinct":"25CH03","hd":"54","v_score":"0","decile":"1","lat":40.414825529207455,"lng":-111.76063301699216},{"vid":"2037616","name":"Bette Schuster MD","party":"Dem","address":"10063 N Poplar Ct, Cedar Hills, UT 84062","precinct":"25CH03","hd":"54","v_score":"8.507303088","decile":"8","lat":40.414825529207455,"lng":-111.76063301699216},{"vid":"2066594","name":"Terri Kuhlman MD","party":"Rep","address":"10323 N Mesquite Way, Cedar Hills, UT 84062","precinct":"25CH03","hd":"54","v_score":"3.93832808","decile":"6","lat":40.419696271225384,"lng":-111.76034178839873},{"vid":"2073760","name":"Dell Schiller","party":"Dem","address":"10166 N Pinion Dr, Cedar Hills, UT 84062","precinct":"25CH03","hd":"54","v_score":"3.93832808","decile":"6","lat":40.41679417663345,"lng":-111.76343061651669},{"vid":"2074297","name":"Dr. Arnold Goldner","party":"","address":"10212 N Pinion Dr, Cedar Hills, UT 84062","precinct":"25CH03","hd":"54","v_score":"9.424470668","decile":"8","lat":40.417581589831556,"lng":-111.76360005564376},{"vid":"2089599","name":"Opha Altenwerth MD","party":"Dem","address":"10239 N Cottonwood Dr, Cedar Hills, UT 84062","precinct":"25CH03","hd":"54","v_score":"0","decile":"1","lat":40.41812885645766,"lng":-111.76327014216305},{"vid":"2093498","name":"Dr. Tatsuo Frami","party":"Rep","address":"4021 W Ironwood Dr, Cedar Hills, UT 84062","precinct":"25CH03","hd":"54","v_score":"3.781490609","decile":"6","lat":40.417073858057684,"lng":-111.75500807073149},{"vid":"2096709","name":"Marius Streich","party":"Dem","address":"4012 W Cedar Hills Dr, Cedar Hills, UT 84062","precinct":"25CH03","hd":"54","v_score":"0","decile":"1","lat":40.414086085021495,"lng":-111.75451783314051},{"vid":"23c9ccb08099af08e4b57124aa69046f9cc6607a00b5a079fb7dfdba03d4c911","name":"Rey Ondricka-Pollich","party":"Dem","address":"10467 N Cottonwood Dr, Cedar Hills, UT 84062","precinct":"25CH03","hd":"54","v_score":"2.660162957","decile":"5","lat":40.422380777039,"lng":-111.76298326688024},{"vid":"97b856e428cc5b736dbdeacab39562a8bf9bc24223e8982de6454e0042665ee7","name":"Dr. Dessie Breitenberg Jr.","party":"Rep","address":"10058 N Willow Ct, Cedar Hills, UT 84062","precinct":"25CH03","hd":"54","v_score":"2.315214949","decile":"5","lat":40.41491548469155,"lng":-111.75728554742338},{"vid":"2107988","name":"Mr. Wilber Beahan IV","party":"","address":"10325 N Sandalwood Dr, Cedar Hills, UT 84062","precinct":"25CH03","hd":"54","v_score":"3.781490609","decile":"6","lat":40.41958747565078,"lng":-111.76159107240083},{"vid":"971a6a6788a0592e797906b1243e2f69d6cacfed41425e5f4b8e2b47acf01497","name":"Jami Rohan","party":"Rep","address":"10061 N Poplar Ct, Cedar Hills, UT 84062","precinct":"25CH03","hd":"54","v_score":"1.121327652","decile":"3","lat":40.41494393466458,"lng":-111.76025898377218},{"vid":"05b83cbb29f8a12827dc6595a6ed4b7847672b756d3019376643e957bd44a3da","name":"Isiah Champlin","party":"","address":"4176 W Sandalwood Dr, Cedar Hills, UT 84062","precinct":"25CH03","hd":"54","v_score":"27.47862542","decile":"10","lat":40.418215692371355,"lng":-111.75863873740109},{"vid":"2132526","name":"Brook Kemmer","party":"Dem","address":"4322 W Cedar Hills Dr, Cedar Hills, UT 84062","precinct":"25CH03","hd":"54","v_score":"8.347511332","decile":"8","lat":40.41541121734682,"lng":-111.76196773332248},{"vid":"7b4e954fbd2d8e0d48189ccd7ea036a35c4bb17d7bd99154f8afb0cae40fa145","name":"Amey Rice","party":"Rep","address":"4250 W Sumac Ct, Cedar Hills, UT 84062","precinct":"25CH03","hd":"54","v_score":"9.141333219","decile":"8","lat":40.415646140918255,"lng":-111.7602620454925},{"vid":"6ec125798512aefc79881256372426f7391330f85a26fa82fc52b68da2b778dd","name":"Tari Hills","party":"Dem","address":"4021 W Ironwood Dr, Cedar Hills, UT 84062","precinct":"25CH03","hd":"54","v_score":"1.193887297","decile":"3","lat":40.417073858057684,"lng":-111.75500807073149},{"vid":"83511e18056c77e4e7001d8fea4ecbb8d07444d258ef528436546f122e3e2a9a","name":"Tonda Swaniawski","party":"Rep","address":"10268 N Pinion Dr, Cedar Hills, UT 84062","precinct":"25CH03","hd":"54","v_score":"9.35760564","decile":"8","lat":40.41856988670513,"lng":-111.76387985627916},{"vid":"afab9185d494f468084113b94491858e6b1ee59af4396a1d55e1a7d4e86a9d66","name":"Miss Orilla Howe DVM","party":"Dem","address":"10242 N Pinion Dr, Cedar Hills, UT 84062","precinct":"25CH03","hd":"54","v_score":"1.121327652","decile":"3","lat":40.41805443194932,"lng":-111.76378212821267},{"vid":"8dad10ac0082f7e9fe874062bf39c06132859c22f8de7730228cd65dbe0530f0","name":"Cohen Abernathy","party":"Dem","address":"10126 N Cottonwood Dr, Cedar Hills, UT 84062","precinct":"25CH03","hd":"54","v_score":"3.93832808","decile":"6","lat":40.41609495191486,"lng":-111.76169619959673},{"vid":"2228157","name":"Wilson Spencer V","party":"","address":"4249 W Mesquite Way, Cedar Hills, UT 84062","precinct":"25CH03","hd":"54","v_score":"3.93832808","decile":"6","lat":40.41926425665725,"lng":-111.75985666820061},{"vid":"f7290a2c65e1a0191be30f32f186be389bf2747ccf1d3d6e15d0593e5f8fd3f2","name":"Miss Teresa Effertz PhD","party":"","address":"10357 N Mesquite Way, Cedar Hills, UT 84062","precinct":"25CH03","hd":"54","v_score":"7.617264307","decile":"8","lat":40.42036544912857,"lng":-111.76047553367411},{"vid":"9e1558c0d1b77c15e64acbfe6de8ecfccd219c20d94a11fdbba0f2b1dffd39e0","name":"Braelyn Abshire DVM","party":"","address":"10292 N Cottonwood Dr, Cedar Hills, UT 84062","precinct":"25CH03","hd":"54","v_score":"0","decile":"1","lat":40.41921310556843,"lng":-111.76310499303129},{"vid":"7a47027314e43f80786de30f2b552e957a671d647237c85f834725c1e0a4f42f","name":"Dr. Jarrad Hoppe MD","party":"Rep","address":"10167 N Cottonwood Dr, Cedar Hills, UT 84062","precinct":"25CH03","hd":"54","v_score":"8.875197818","decile":"8","lat":40.41676388888723,"lng":-111.76275827190331},{"vid":"ba2798b4d282e2f0036a13eab681c512aa84ba13bd79da126482d8d556f50086","name":"Raphael Prohaska","party":"","address":"10229 N Pinion Dr, Cedar Hills, UT 84062","precinct":"25CH03","hd":"54","v_score":"3.016591252","decile":"6","lat":40.4178343340239,"lng":-111.7642770213654},{"vid":"3d89cf720ec9d4fcd4562602621cbfa56f49a94227d851bd1cbd07a4bd14edcc","name":"Patience Padberg-Wolf","party":"","address":"10269 N Sycamore Ln, Cedar Hills, UT 84062","precinct":"25CH03","hd":"54","v_score":"1.623113131","decile":"5","lat":40.41863249909289,"lng":-111.75641114359249},{"vid":"2288011","name":"Tamra Berge PhD","party":"Dem","address":"10346 N Sandalwood Dr, Cedar Hills, UT 84062","precinct":"25CH03","hd":"54","v_score":"22.70134701","decile":"10","lat":40.41989394549111,"lng":-111.76104880459118},{"vid":"ccfe747a8638bd2efa3b0ac6cd0922ae32a736e7aec94d188ac0a3e03a1c5a6c","name":"Mildred Cummerata","party":"Rep","address":"10145 N Maple Ct, Cedar Hills, UT 84062","precinct":"25CH03","hd":"54","v_score":"3.93832808","decile":"6","lat":40.41636125608169,"lng":-111.76017492594465},{"vid":"2297884","name":"Ms. Dulcie Schuppe","party":"Rep","address":"10153 N Pinion Dr, Cedar Hills, UT 84062","precinct":"25CH03","hd":"54","v_score":"8.230583371","decile":"8","lat":40.41649607186893,"lng":-111.7640649918583},{"vid":"c21304abe65e8817ae1e79d589bc9870e81cffd238c98f878ba1e99631dbb5e5","name":"Damion Berge","party":"Rep","address":"10167 N Pinion Dr, Cedar Hills, UT 84062","precinct":"25CH03","hd":"54","v_score":"0","decile":"1","lat":40.41673755935764,"lng":-111.76399658637709},{"vid":"2317863","name":"Barton Bins","party":"Dem","address":"10364 N Mesquite Way, Cedar Hills, UT 84062","precinct":"25CH03","hd":"54","v_score":"1.193887297","decile":"3","lat":40.420362424682864,"lng":-111.76008748509949},{"vid":"2329299","name":"Kiley Maggio-Cruickshank","party":"Rep","address":"4037 W Ironwood Dr, Cedar Hills, UT 84062","precinct":"25CH03","hd":"54","v_score":"8.570402431","decile":"8","lat":40.4173323397918,"lng":-111.75531155853882},{"vid":"2335524","name":"Joette Watsica-Torphy","party":"Rep","address":"10042 N Pine Ct, Cedar Hills, UT 84062","precinct":"25CH03","hd":"54","v_score":"12.22362323","decile":"9","lat":40.41461670273976,"lng":-111.75497975568994},{"vid":"2337296","name":"Jon Lockman","party":"Dem","address":"10030 N Pine Ct, Cedar Hills, UT 84062","precinct":"25CH03","hd":"54","v_score":"0","decile":"1","lat":40.41442961872171,"lng":-111.75506065814156},{"vid":"2347632","name":"Bobby Hilll","party":"Dem","address":"10218 N Sycamore Ln, Cedar Hills, UT 84062","precinct":"25CH03","hd":"54","v_score":"5.287675778","decile":"7","lat":40.41783983967764,"lng":-111.75672550636719},{"vid":"2354520","name":"Thomasina Nikolaus","party":"","address":"10255 N Sycamore Ln, Cedar Hills, UT 84062","precinct":"25CH03","hd":"54","v_score":"2.744440783","decile":"5","lat":40.418356285737765,"lng":-111.7568220798773},{"vid":"2358885","name":"Vito Crist","party":"Rep","address":"10030 N Pine Ct, Cedar Hills, UT 84062","precinct":"25CH03","hd":"54","v_score":"2.315214949","decile":"5","lat":40.41442961872171,"lng":-111.75506065814156},{"vid":"2359927","name":"Mrs. Cristin Heaney","party":"Rep","address":"10481 N Cottonwood Dr, Cedar Hills, UT 84062","precinct":"25CH03","hd":"54","v_score":"9.591057611","decile":"8","lat":40.42257014616645,"lng":-111.76262819789031},{"vid":"2400624","name":"Mr. Ted Cummings","party":"","address":"4253 W Sumac Ct, Cedar Hills, UT 84062","precinct":"25CH03","hd":"54","v_score":"3.93832808","decile":"6","lat":40.41546597811032,"lng":-111.7603450778211},{"vid":"2401891","name":"Bronson Runolfsson","party":"Dem","address":"10138 N Cottonwood Dr, Cedar Hills, UT 84062","precinct":"25CH03","hd":"54","v_score":"3.93832808","decile":"6","lat":40.416338464327346,"lng":-111.7619702812007},{"vid":"2403728","name":"Brody McKenzie","party":"","address":"4095 W Cedar Hills Dr, Cedar Hills, UT 84062","precinct":"25CH03","hd":"54","v_score":"2.744440783","decile":"5","lat":40.41352644328841,"lng":-111.75692205546115},{"vid":"2405776","name":"Rosario Hansen-Walker","party":"","address":"4381 W Dogwood Ln, Cedar Hills, UT 84062","precinct":"25CH03","hd":"54","v_score":"3.93832808","decile":"6","lat":40.41875588729885,"lng":-111.76325926536458},{"vid":"2406054","name":"Michaela Rohan","party":"Dem","address":"4236 W Cedar Hills Dr, Cedar Hills, UT 84062","precinct":"25CH03","hd":"54","v_score":"1.121327652","decile":"3","lat":40.414177682405544,"lng":-111.75982797026755},{"vid":"2410509","name":"Ms. Rosy Stiedemann","party":"Dem","address":"10018 N Pine Ct, Cedar Hills, UT 84062","precinct":"25CH03","hd":"54","v_score":"2.315214949","decile":"5","lat":40.4140768969057,"lng":-111.75504706337283},{"vid":"2419601","name":"Miss Dee Ondricka PhD","party":"Rep","address":"10167 N Cottonwood Dr, Cedar Hills, UT 84062","precinct":"25CH03","hd":"54","v_score":"8.875197818","decile":"8","lat":40.41676388888723,"lng":-111.76275827190331},{"vid":"2427060","name":"Ms. Miriah Jacobson DVM","party":"Dem","address":"4068 W Cedar Hills Dr, Cedar Hills, UT 84062","precinct":"25CH03","hd":"54","v_score":"1.121327652","decile":"3","lat":40.41406779636469,"lng":-111.7560610483882},{"vid":"2440786","name":"Elberta Prosacco PhD","party":"","address":"4001 W Ironwood Dr, Cedar Hills, UT 84062","precinct":"25CH03","hd":"54","v_score":"12.08877916","decile":"9","lat":40.417249525996716,"lng":-111.75446718864079},{"vid":"2444969","name":"Claud Goyette","party":"Rep","address":"10130 N Maple Ct, Cedar Hills, UT 84062","precinct":"25CH03","hd":"54","v_score":"1.121327652","decile":"3","lat":40.41626640478146,"lng":-111.75925445634905},{"vid":"2445632","name":"Cambria Haag-Trantow","party":"Rep","address":"9992 N 4000 W, Cedar Hills, UT 84062","precinct":"25CH03","hd":"54","v_score":"2.315214949","decile":"5","lat":40.41366028395583,"lng":-111.75381216253017},{"vid":"2460634","name":"Theta Cronin","party":"Rep","address":"4416 W Redwood Dr, Cedar Hills, UT 84062","precinct":"25CH03","hd":"54","v_score":"0","decile":"1","lat":40.4207238016334,"lng":-111.7642880629152},{"vid":"2487608","name":"Launa Bogisich-Pacocha","party":"Rep","address":"10407 N Mesquite Way, Cedar Hills, UT 84062","precinct":"25CH03","hd":"54","v_score":"1.193887297","decile":"3","lat":40.42116146243437,"lng":-111.76082948463217},{"vid":"2501380","name":"Golden Emard","party":"","address":"4261 W Sumac Ct, Cedar Hills, UT 84062","precinct":"25CH03","hd":"54","v_score":"0","decile":"1","lat":40.415512093772236,"lng":-111.76060070782302},{"vid":"2501496","name":"Mr. Archibald Gulgowski","party":"Dem","address":"4186 W Cedar Hills Dr, Cedar Hills, UT 84062","precinct":"25CH03","hd":"54","v_score":"7.781882349","decile":"8","lat":40.41414843398714,"lng":-111.75858480053704},{"vid":"2502078","name":"Rohan Harvey","party":"Rep","address":"10393 N Birch Cv, Cedar Hills, UT 84062","precinct":"25CH03","hd":"54","v_score":"5.360235423","decile":"7","lat":40.420737175331226,"lng":-111.75863448313915},{"vid":"2503239","name":"Karma Lockman","party":"","address":"10361 N Sandalwood Dr, Cedar Hills, UT 84062","precinct":"25CH03","hd":"54","v_score":"2.817000428","decile":"6","lat":40.42033639846667,"lng":-111.76157936929135},{"vid":"2509098","name":"Harmony Batz","party":"","address":"4285 W Sandalwood Dr, Cedar Hills, UT 84062","precinct":"25CH03","hd":"54","v_score":"0","decile":"1","lat":40.41898787066376,"lng":-111.76123442903918},{"vid":"2510960","name":"Alonza Crona DVM","party":"Rep","address":"10178 N Pinion Dr, Cedar Hills, UT 84062","precinct":"25CH03","hd":"54","v_score":"1.193887297","decile":"4","lat":40.41701821893908,"lng":-111.7635872885497},{"vid":"2514715","name":"Miss Berneice Abernathy DVM","party":"Dem","address":"10052 N Pine Ct, Cedar Hills, UT 84062","precinct":"25CH03","hd":"54","v_score":"9.907118004","decile":"8","lat":40.4148303808732,"lng":-111.75507448263559},{"vid":"2520522","name":"Valentina Hagenes","party":"Dem","address":"4129 W Mesquite Way, Cedar Hills, UT 84062","precinct":"25CH03","hd":"54","v_score":"4.639704383","decile":"7","lat":40.419055667725075,"lng":-111.75703270152971},{"vid":"2524622","name":"Agnes Gislason","party":"","address":"10364 N Mesquite Way, Cedar Hills, UT 84062","precinct":"25CH03","hd":"54","v_score":"1.193887297","decile":"4","lat":40.420362424682864,"lng":-111.76008748509949},{"vid":"2526718","name":"Tilden Watsica","party":"Dem","address":"10052 N Poplar Ct, Cedar Hills, UT 84062","precinct":"25CH03","hd":"54","v_score":"2.817000428","decile":"6","lat":40.41477768275249,"lng":-111.7600906647651},{"vid":"2536552","name":"Layton VonRueden","party":"Dem","address":"4021 W Ironwood Dr, Cedar Hills, UT 84062","precinct":"25CH03","hd":"54","v_score":"0","decile":"1","lat":40.417073858057684,"lng":-111.75500807073149},{"vid":"2541678","name":"Oneida Steuber DVM","party":"","address":"9992 N 4160 W, Cedar Hills, UT 84062","precinct":"25CH03","hd":"54","v_score":"6.462591196","decile":"7","lat":40.41368041598368,"lng":-111.75777321334756},{"vid":"2545699","name":"Jessie Pfannerstill","party":"","address":"10167 N Pinion Dr, Cedar Hills, UT 84062","precinct":"25CH03","hd":"54","v_score":"5.407962308","decile":"7","lat":40.41673755935764,"lng":-111.76399658637709},{"vid":"2552095","name":"Kalel Blick","party":"Dem","address":"10167 N Cottonwood Dr, Cedar Hills, UT 84062","precinct":"25CH03","hd":"54","v_score":"2.817000428","decile":"6","lat":40.41676388888723,"lng":-111.76275827190331},{"vid":"2558793","name":"Evelena Douglas","party":"","address":"10236 N Sycamore Ln, Cedar Hills, UT 84062","precinct":"25CH03","hd":"54","v_score":"0","decile":"1","lat":40.41826950445363,"lng":-111.75633004685963},{"vid":"2560610","name":"Mr. Aedan Kling","party":"","address":"4254 W Joshua Ln, Cedar Hills, UT 84062","precinct":"25CH03","hd":"54","v_score":"1.193887297","decile":"4","lat":40.42067643811381,"lng":-111.75960505332523},{"vid":"2560635","name":"Darrius O'Reilly","party":"Dem","address":"4197 W Sandalwood Dr, Cedar Hills, UT 84062","precinct":"25CH03","hd":"54","v_score":"1.193887297","decile":"4","lat":40.41790182664749,"lng":-111.75904073745819},{"vid":"2567284","name":"Gay Weber","party":"Dem","address":"4137 W Mesquite Way, Cedar Hills, UT 84062","precinct":"25CH03","hd":"54","v_score":"5.693042993","decile":"7","lat":40.4188086804956,"lng":-111.75737557036649},{"vid":"2576051","name":"Shaneka Stamm","party":"","address":"4183 W Mesquite Way, Cedar Hills, UT 84062","precinct":"25CH03","hd":"54","v_score":"1.193887297","decile":"4","lat":40.418708735539205,"lng":-111.75848239897884},{"vid":"2577200","name":"Dr. Aaron Tromp","party":"","address":"10472 N Cottonwood Dr, Cedar Hills, UT 84062","precinct":"25CH03","hd":"54","v_score":"0","decile":"1","lat":40.42226865036963,"lng":-111.7623378065415},{"vid":"2580314","name":"Dorathea Heaney-McKenzie","party":"","address":"4259 W Mesquite Way, Cedar Hills, UT 84062","precinct":"25CH03","hd":"54","v_score":"5.360235423","decile":"7","lat":40.41950903385614,"lng":-111.76011674664859},{"vid":"2590023","name":"Rondal Johns","party":"","address":"4252 W Mesquite Way, Cedar Hills, UT 84062","precinct":"25CH03","hd":"54","v_score":"0","decile":"1","lat":40.419772705500456,"lng":-111.75972802839932},{"vid":"2594498","name":"Buell Mertz","party":"","address":"4064 W Cedar Hills Dr, Cedar Hills, UT 84062","precinct":"25CH03","hd":"54","v_score":"5.407962308","decile":"7","lat":40.41407336902193,"lng":-111.75543892632513},{"vid":"2598594","name":"Kevon Kozey","party":"","address":"4198 W Sandalwood Dr, Cedar Hills, UT 84062","precinct":"25CH03","hd":"54","v_score":"1.193887297","decile":"4","lat":40.41833401826957,"lng":-111.75894822131562},{"vid":"2602542","name":"Caitlin McCullough","party":"","address":"4230 W Sandalwood Dr, Cedar Hills, UT 84062","precinct":"25CH03","hd":"54","v_score":"2.817000428","decile":"6","lat":40.41872964031259,"lng":-111.75951219153806},{"vid":"2612652","name":"Pamala Goldner","party":"","address":"4419 W Redwood Dr, Cedar Hills, UT 84062","precinct":"25CH03","hd":"54","v_score":"13.61907049","decile":"9","lat":40.42036567156605,"lng":-111.7642540529398},{"vid":"2624553","name":"Ronaldo Bayer","party":"","address":"4163 W Sandalwood Dr, Cedar Hills, UT 84062","precinct":"25CH03","hd":"54","v_score":"0","decile":"1","lat":40.41771146714551,"lng":-111.75833131812828},{"vid":"2629160","name":"Jonna Jaskolski-Schamberger","party":"","address":"10152 N Pinion Dr, Cedar Hills, UT 84062","precinct":"25CH03","hd":"54","v_score":"1.193887297","decile":"4","lat":40.41654609285686,"lng":-111.76332567550487},{"vid":"2638888","name":"Elliana O'Keefe DDS","party":"Dem","address":"4163 W Sandalwood Dr, Cedar Hills, UT 84062","precinct":"25CH03","hd":"54","v_score":"1.193887297","decile":"4","lat":40.41771146714551,"lng":-111.75833131812828},{"vid":"2645813","name":"Maymie Simonis PhD","party":"","address":"4249 W Mesquite Way, Cedar Hills, UT 84062","precinct":"25CH03","hd":"54","v_score":"7.031075439","decile":"8","lat":40.41926425665725,"lng":-111.75985666820061},{"vid":"2652600","name":"Drema Emmerich","party":"Dem","address":"10153 N Maple Ct, Cedar Hills, UT 84062","precinct":"25CH03","hd":"54","v_score":"0","decile":"1","lat":40.41658346138419,"lng":-111.76025108355122},{"vid":"2657750","name":"Angelo Braun","party":"Rep","address":"10255 N Sycamore Ln, Cedar Hills, UT 84062","precinct":"25CH03","hd":"54","v_score":"1.193887297","decile":"4","lat":40.418356285737765,"lng":-111.7568220798773},{"vid":"2659473","name":"Ms. Evie Boyle","party":"Rep","address":"10239 N Cottonwood Dr, Cedar Hills, UT 84062","precinct":"25CH03","hd":"54","v_score":"0","decile":"1","lat":40.41812885645766,"lng":-111.76327014216305},{"vid":"2660492","name":"Mathew Ullrich V","party":"","address":"4239 W Joshua Ln, Cedar Hills, UT 84062","precinct":"25CH03","hd":"54","v_score":"0","decile":"1","lat":40.42002891178085,"lng":-111.75931473749677},{"vid":"2661891","name":"Bronson Metz","party":"","address":"4259 W Mesquite Way, Cedar Hills, UT 84062","precinct":"25CH03","hd":"54","v_score":"2.876042565","decile":"6","lat":40.41950903385614,"lng":-111.76011674664859},{"vid":"2667835","name":"Terrence Reinger MD","party":"Dem","address":"10393 N Birch Cv, Cedar Hills, UT 84062","precinct":"25CH03","hd":"54","v_score":"0","decile":"1","lat":40.420737175331226,"lng":-111.75863448313915},{"vid":"2678275","name":"Mr. Nicholaus Gutkowski","party":"","address":"4260 W Joshua Ln, Cedar Hills, UT 84062","precinct":"25CH03","hd":"54","v_score":"0","decile":"2","lat":40.42071330457355,"lng":-111.76011369663675},{"vid":"2685326","name":"Kaylynn Lebsack","party":"Dem","address":"10126 N Cottonwood Dr, Cedar Hills, UT 84062","precinct":"25CH03","hd":"54","v_score":"0","decile":"2","lat":40.41609495191486,"lng":-111.76169619959673},{"vid":"2704910","name":"Hideo Beer-Schinner","party":"Dem","address":"9992 N 4160 W, Cedar Hills, UT 84062","precinct":"25CH03","hd":"54","v_score":"2.876042565","decile":"6","lat":40.41368041598368,"lng":-111.75777321334756},{"vid":"2707194","name":"Luka Gottlieb","party":"Rep","address":"4040 W Juniper Rd, Cedar Hills, UT 84062","precinct":"25CH03","hd":"54","v_score":"4.905839784","decile":"7","lat":40.415704591198846,"lng":-111.75545333335026},{"vid":"2711568","name":"Mr. Orvis Bayer","party":"Rep","address":"10051 N Poplar Ct, Cedar Hills, UT 84062","precinct":"25CH03","hd":"54","v_score":"0","decile":"2","lat":40.414652519196295,"lng":-111.76085046856342},{"vid":"2722746","name":"Miss Lizbeth Corwin","party":"Dem","address":"10153 N Pinion Dr, Cedar Hills, UT 84062","precinct":"25CH03","hd":"54","v_score":"0","decile":"2","lat":40.41649607186893,"lng":-111.7640649918583},{"vid":"2722977","name":"Mila Stiedemann","party":"","address":"4028 W Juniper Rd, Cedar Hills, UT 84062","precinct":"25CH03","hd":"54","v_score":"0","decile":"2","lat":40.41581702780009,"lng":-111.75497839228751},{"vid":"2730149","name":"Jonah Towne V","party":"Rep","address":"10218 N Sycamore Ln, Cedar Hills, UT 84062","precinct":"25CH03","hd":"54","v_score":"0","decile":"2","lat":40.41783983967764,"lng":-111.75672550636719},{"vid":"2731915","name":"Mr. Diamond Torphy","party":"Rep","address":"4054 W Juniper Rd, Cedar Hills, UT 84062","precinct":"25CH03","hd":"54","v_score":"1.193887297","decile":"4","lat":40.4155808111446,"lng":-111.75577377732415},{"vid":"2735191","name":"Diane Bartoletti","party":"Rep","address":"10467 N Cottonwood Dr, Cedar Hills, UT 84062","precinct":"25CH03","hd":"54","v_score":"1.193887297","decile":"4","lat":40.422380777039,"lng":-111.76298326688024},{"vid":"2735862","name":"Lannie Labadie","party":"Rep","address":"4285 W Sandalwood Dr, Cedar Hills, UT 84062","precinct":"25CH03","hd":"54","v_score":"0","decile":"2","lat":40.41898787066376,"lng":-111.76123442903918},{"vid":"2739704","name":"Manuel Gottlieb","party":"Rep","address":"10053 N Pine Ct, Cedar Hills, UT 84062","precinct":"25CH03","hd":"54","v_score":"0","decile":"2","lat":40.41476988283281,"lng":-111.75534802247262},{"vid":"2741408","name":"Miss Danelle Dooley DDS","party":"","address":"4021 W Ironwood Dr, Cedar Hills, UT 84062","precinct":"25CH03","hd":"54","v_score":"0","decile":"2","lat":40.417073858057684,"lng":-111.75500807073149},{"vid":"2741892","name":"Seth Oberbrunner","party":"Rep","address":"4431 W Redwood Dr, Cedar Hills, UT 84062","precinct":"25CH03","hd":"54","v_score":"0","decile":"2","lat":40.42036923647479,"lng":-111.76469570982658},{"vid":"2745898","name":"Kevin Reinger PhD","party":"","address":"4285 W Sandalwood Dr, Cedar Hills, UT 84062","precinct":"25CH03","hd":"54","v_score":"1.193887297","decile":"4","lat":40.41898787066376,"lng":-111.76123442903918},{"vid":"2748922","name":"Mr. Gorden Hartmann V","party":"Rep","address":"4202 W Cedar Hills Dr, Cedar Hills, UT 84062","precinct":"25CH03","hd":"54","v_score":"5.407962308","decile":"7","lat":40.414091869154525,"lng":-111.75926236458186},{"vid":"2755205","name":"Siddie Kirlin PhD","party":"","address":"4040 W Juniper Rd, Cedar Hills, UT 84062","precinct":"25CH03","hd":"54","v_score":"1.193887297","decile":"4","lat":40.415704591198846,"lng":-111.75545333335026},{"vid":"2761405","name":"Ms. Eboni Emmerich MD","party":"","address":"4158 W Sandalwood Dr, Cedar Hills, UT 84062","precinct":"25CH03","hd":"54","v_score":"0","decile":"2","lat":40.41821924868127,"lng":-111.75789100339921},{"vid":"2763197","name":"Chadrick Renner","party":"Dem","address":"4416 W Redwood Dr, Cedar Hills, UT 84062","precinct":"25CH03","hd":"54","v_score":"0","decile":"2","lat":40.4207238016334,"lng":-111.7642880629152},{"vid":"2769707","name":"Stephan Thompson","party":"","address":"10038 N Willow Ct, Cedar Hills, UT 84062","precinct":"25CH03","hd":"54","v_score":"0","decile":"2","lat":40.414518991561415,"lng":-111.75716731389059},{"vid":"2777263","name":"Mr. Math Frami DDS","party":"Rep","address":"4252 W Sumac Ct, Cedar Hills, UT 84062","precinct":"25CH03","hd":"54","v_score":"0","decile":"2","lat":40.415823908741395,"lng":-111.76029486646596},{"vid":"2785674","name":"Kaylene Simonis MD","party":"Dem","address":"4140 W Sandalwood Dr, Cedar Hills, UT 84062","precinct":"25CH03","hd":"54","v_score":"0","decile":"2","lat":40.41811435011528,"lng":-111.75760024019438},{"vid":"2790006","name":"Aida Nolan","party":"Dem","address":"10167 N Pinion Dr, Cedar Hills, UT 84062","precinct":"25CH03","hd":"54","v_score":"0","decile":"2","lat":40.41673755935764,"lng":-111.76399658637709},{"vid":"2790039","name":"Lena McKenzie-Ferry","party":"Rep","address":"10167 N Pinion Dr, Cedar Hills, UT 84062","precinct":"25CH03","hd":"54","v_score":"0","decile":"2","lat":40.41673755935764,"lng":-111.76399658637709},{"vid":"2801617","name":"Adrianne Lindgren","party":"","address":"10360 N Sandalwood Dr, Cedar Hills, UT 84062","precinct":"25CH03","hd":"54","v_score":"0","decile":"2","lat":40.42034761818559,"lng":-111.76106076687057},{"vid":"2818912","name":"Casen Gusikowski","party":"Rep","address":"10166 N Pinion Dr, Cedar Hills, UT 84062","precinct":"25CH03","hd":"54","v_score":"0","decile":"2","lat":40.41679417663345,"lng":-111.76343061651669},{"vid":"2820671","name":"Delcie Rodriguez","party":"Dem","address":"10038 N Willow Ct, Cedar Hills, UT 84062","precinct":"25CH03","hd":"54","v_score":"1.193887297","decile":"4","lat":40.414518991561415,"lng":-111.75716731389059},{"vid":"2832258","name":"Jaxton Leffler-Jacobs","party":"Rep","address":"4129 W Mesquite Way, Cedar Hills, UT 84062","precinct":"25CH03","hd":"54","v_score":"0","decile":"2","lat":40.419055667725075,"lng":-111.75703270152971},{"vid":"2846880","name":"Curley Buckridge","party":"Rep","address":"10328 N Cottonwood Dr, Cedar Hills, UT 84062","precinct":"25CH03","hd":"54","v_score":"1.193887297","decile":"4","lat":40.41961017605593,"lng":-111.76324097139488},{"vid":"2847006","name":"Dr. Fletcher Bruen","party":"Rep","address":"4045 W Juniper Rd, Cedar Hills, UT 84062","precinct":"25CH03","hd":"54","v_score":"1.193887297","decile":"4","lat":40.41520096842842,"lng":-111.7553564820269},{"vid":"2847835","name":"Bonny DuBuque","party":"","address":"4063 W Ironwood Dr, Cedar Hills, UT 84062","precinct":"25CH03","hd":"54","v_score":"1.193887297","decile":"4","lat":40.41761090570314,"lng":-111.75585473621037},{"vid":"2848966","name":"Pranav Tremblay","party":"Dem","address":"4259 W Mesquite Way, Cedar Hills, UT 84062","precinct":"25CH03","hd":"54","v_score":"1.193887297","decile":"4","lat":40.41950903385614,"lng":-111.76011674664859},{"vid":"2857902","name":"Mr. Gauge Gorczany PhD","party":"Rep","address":"10181 N Pinion Dr, Cedar Hills, UT 84062","precinct":"25CH03","hd":"54","v_score":"0","decile":"2","lat":40.41698831371791,"lng":-111.76403591553374},{"vid":"2872027","name":"Mrs. Lu McCullough","party":"Dem","address":"4181 W Joshua Ln, Cedar Hills, UT 84062","precinct":"25CH03","hd":"54","v_score":"4.069929862","decile":"7","lat":40.419532056501446,"lng":-111.75834566506181},{"vid":"2885079","name":"Aarav Ruecker-Schroeder","party":"Dem","address":"10407 N Mesquite Way, Cedar Hills, UT 84062","precinct":"25CH03","hd":"54","v_score":"1.193887297","decile":"4","lat":40.42116146243437,"lng":-111.76082948463217},{"vid":"2944414","name":"Dr. Bayard Quigley DVM","party":"Rep","address":"4054 W Juniper Rd, Cedar Hills, UT 84062","precinct":"25CH03","hd":"54","v_score":"0","decile":"2","lat":40.4155808111446,"lng":-111.75577377732415},{"vid":"2963987","name":"Adah Hilll","party":"","address":"10197 N Pinion Dr, Cedar Hills, UT 84062","precinct":"25CH03","hd":"54","v_score":"0","decile":"2","lat":40.417292551259195,"lng":-111.7641078548494},{"vid":"2971316","name":"Mr. Randal Kutch Sr.","party":"","address":"10472 N Cottonwood Dr, Cedar Hills, UT 84062","precinct":"25CH03","hd":"54","v_score":"0","decile":"2","lat":40.42226865036963,"lng":-111.7623378065415},{"vid":"2971718","name":"Amos Altenwerth-Kilback","party":"Dem","address":"10146 N Maple Ct, Cedar Hills, UT 84062","precinct":"25CH03","hd":"54","v_score":"0","decile":"2","lat":40.416508136807224,"lng":-111.75973985323567},{"vid":"2978355","name":"Shannan Reinger","party":"","address":"4336 W Cedar Hills Dr, Cedar Hills, UT 84062","precinct":"25CH03","hd":"54","v_score":"0","decile":"2","lat":40.41551229048657,"lng":-111.76235988576511},{"vid":"2984753","name":"Cathern Russel","party":"Dem","address":"4381 W Dogwood Ln, Cedar Hills, UT 84062","precinct":"25CH03","hd":"54","v_score":"0","decile":"2","lat":40.41875588729885,"lng":-111.76325926536458},{"vid":"3086676","name":"Ilona McCullough-Konopelski","party":"","address":"10462 N Cottonwood Dr, Cedar Hills, UT 84062","precinct":"25CH03","hd":"54","v_score":"5.40460374","decile":"7","lat":40.42198735612434,"lng":-111.76261951657115},{"vid":"3086696","name":"Kaila Murphy","party":"Rep","address":"10462 N Cottonwood Dr, Cedar Hills, UT 84062","precinct":"25CH03","hd":"54","v_score":"5.40460374","decile":"7","lat":40.42198735612434,"lng":-111.76261951657115},{"vid":"3105091","name":"Wendi Rutherford","party":"Rep","address":"9978 N 4160 W, Cedar Hills, UT 84062","precinct":"25CH03","hd":"54","v_score":"9.116556227","decile":"8","lat":40.41338568715653,"lng":-111.7577792342159},{"vid":"3134898","name":"Hailey Crist","party":"","address":"10389 N Ironwood Dr, Cedar Hills, UT 84062","precinct":"25CH03","hd":"54","v_score":"2.315214949","decile":"5","lat":40.42086203393464,"lng":-111.75767466965807},{"vid":"3168100","name":"Mr. Arne Wolff IV","party":"","address":"10130 N Maple Ct, Cedar Hills, UT 84062","precinct":"25CH03","hd":"54","v_score":"1.121327652","decile":"3","lat":40.41626640478146,"lng":-111.75925445634905},{"vid":"3169802","name":"Mr. Linus Lehner","party":"Rep","address":"10145 N Maple Ct, Cedar Hills, UT 84062","precinct":"25CH03","hd":"54","v_score":"11.9931021","decile":"9","lat":40.41636125608169,"lng":-111.76017492594465},{"vid":"3209187","name":"Breann Lesch","party":"Dem","address":"4212 W Mesquite Way, Cedar Hills, UT 84062","precinct":"25CH03","hd":"54","v_score":"1.193887297","decile":"4","lat":40.41936307947751,"lng":-111.75871431778418},{"vid":"3212176","name":"Dr. Stevie Thiel PhD","party":"","address":"10343 N Ironwood Dr, Cedar Hills, UT 84062","precinct":"25CH03","hd":"54","v_score":"2.587603312","decile":"5","lat":40.4199955227584,"lng":-111.7571667930386},{"vid":"3214124","name":"Carrie Harris","party":"Rep","address":"4037 W Ironwood Dr, Cedar Hills, UT 84062","precinct":"25CH03","hd":"54","v_score":"33.08081089","decile":"10","lat":40.4173323397918,"lng":-111.75531155853882},{"vid":"3276721","name":"Captain Crona-D'Amore","party":"","address":"10364 N Mesquite Way, Cedar Hills, UT 84062","precinct":"25CH03","hd":"54","v_score":"5.40460374","decile":"7","lat":40.420362424682864,"lng":-111.76008748509949},{"vid":"3330318","name":"Ceil Rempel","party":"Rep","address":"4322 W Cedar Hills Dr, Cedar Hills, UT 84062","precinct":"25CH03","hd":"54","v_score":"0","decile":"2","lat":40.41541121734682,"lng":-111.76196773332248},{"vid":"3330323","name":"Margarita Abshire-Reynolds","party":"Dem","address":"4322 W Cedar Hills Dr, Cedar Hills, UT 84062","precinct":"25CH03","hd":"54","v_score":"8.347511332","decile":"8","lat":40.41541121734682,"lng":-111.76196773332248},{"vid":"3341865","name":"Dr. Gorge Konopelski MD","party":"Rep","address":"10212 N Pinion Dr, Cedar Hills, UT 84062","precinct":"25CH03","hd":"54","v_score":"33.24848954","decile":"10","lat":40.417581589831556,"lng":-111.76360005564376},{"vid":"cc5a27419eb76029a6c62c5d174a82f1d30c1b811295b68102ac8f880c58bf5e","name":"Mamie Lueilwitz","party":"Rep","address":"4252 W Sumac Ct, Cedar Hills, UT 84062","precinct":"25CH03","hd":"54","v_score":"29.90463221","decile":"10","lat":40.415823908741395,"lng":-111.76029486646596},{"vid":"3428381","name":"Ms. Mickie Powlowski PhD","party":"Dem","address":"4033 W Juniper Rd, Cedar Hills, UT 84062","precinct":"25CH03","hd":"54","v_score":"3.781490609","decile":"6","lat":40.41531212778211,"lng":-111.7550687268479},{"vid":"3583835","name":"Camila Lueilwitz DVM","party":"","address":"9992 N 4160 W, Cedar Hills, UT 84062","precinct":"25CH03","hd":"54","v_score":"29.99952997","decile":"10","lat":40.41368041598368,"lng":-111.75777321334756},{"vid":"0f092b4c1929d8e459c06843520d3f373bdf3ae85d0ab79e18d14931c79eda96","name":"Mr. Jimmie Legros DDS","party":"","address":"4438 W Redwood Dr, Cedar Hills, UT 84062","precinct":"25CH03","hd":"54","v_score":"12.49472132","decile":"9","lat":40.420816348978015,"lng":-111.76479892704701},{"vid":"5208651","name":"Hakeem Marvin","party":"","address":"4261 W Sumac Ct, Cedar Hills, UT 84062","precinct":"25CH03","hd":"54","v_score":"5.40460374","decile":"7","lat":40.415512093772236,"lng":-111.76060070782302},{"vid":"5224869","name":"Mr. Nat Goodwin IV","party":"","address":"10152 N Pinion Dr, Cedar Hills, UT 84062","precinct":"25CH03","hd":"54","v_score":"3.93832808","decile":"6","lat":40.41654609285686,"lng":-111.76332567550487},{"vid":"e82caa10b6f663e693b8da23561d5b1156aa8753539d64859f48588e483e4adb","name":"Amon Witting","party":"","address":"10038 N Willow Ct, Cedar Hills, UT 84062","precinct":"25CH03","hd":"54","v_score":"5.40460374","decile":"7","lat":40.414518991561415,"lng":-111.75716731389059},{"vid":"8eb97e6e8e64f593dd1c0720145a02895eb9be6a5d6e5abdeec111f118e712b5","name":"Winton Thiel","party":"Rep","address":"10483 N Mesquite Way, Cedar Hills, UT 84062","precinct":"25CH03","hd":"54","v_score":"12.65668843","decile":"9","lat":40.422544746981906,"lng":-111.76017060789302},{"vid":"5532682","name":"Dr. Ansel Koss","party":"","address":"10483 N Mesquite Way, Cedar Hills, UT 84062","precinct":"25CH03","hd":"54","v_score":"15.19992342","decile":"9","lat":40.422544746981906,"lng":-111.76017060789302},{"vid":"7f6a38384591c23769f854caf4b2b12f79463d2575df947687f315660e44d0dc","name":"Tyler Quitzon III","party":"","address":"4219 W Joshua Ln, Cedar Hills, UT 84062","precinct":"25CH03","hd":"54","v_score":"1.121327652","decile":"3","lat":40.4198632760567,"lng":-111.75899171110598},{"vid":"6063705","name":"Mr. Wardell Boyle III","party":"Dem","address":"10125 N Cottonwood Dr, Cedar Hills, UT 84062","precinct":"25CH03","hd":"54","v_score":"15.00919004","decile":"9","lat":40.41605275970321,"lng":-111.76230214088905},{"vid":"6088811","name":"Dr. Abram Shanahan IV","party":"","address":"10197 N Pinion Dr, Cedar Hills, UT 84062","precinct":"25CH03","hd":"54","v_score":"1.193887297","decile":"4","lat":40.417292551259195,"lng":-111.7641078548494},{"vid":"6151481","name":"Dr. Martell Ferry","party":"Rep","address":"4183 W Mesquite Way, Cedar Hills, UT 84062","precinct":"25CH03","hd":"54","v_score":"1.193887297","decile":"4","lat":40.418708735539205,"lng":-111.75848239897884},{"vid":"6202571","name":"Bernard Hamill","party":"Rep","address":"10069 N Poplar Ct, Cedar Hills, UT 84062","precinct":"25CH03","hd":"54","v_score":"24.8691994","decile":"10","lat":40.41499154426592,"lng":-111.76048482516275},{"vid":"6203743","name":"Mrs. Ethyl Barton MD","party":"Dem","address":"4196 W Mesquite Way, Cedar Hills, UT 84062","precinct":"25CH03","hd":"54","v_score":"22.89645525","decile":"10","lat":40.41910015344218,"lng":-111.75841447607739},{"vid":"b1df8c201efc6fa75d02937b36d571b4c5e489b914b8243d3d75b9cf9c680049","name":"Mr. Caleb Ortiz","party":"","address":"10292 N Cottonwood Dr, Cedar Hills, UT 84062","precinct":"25CH03","hd":"54","v_score":"21.85601351","decile":"10","lat":40.41921310556843,"lng":-111.76310499303129},{"vid":"6215207","name":"Macel Fritsch DDS","party":"Dem","address":"4292 W Cedar Hills Dr, Cedar Hills, UT 84062","precinct":"25CH03","hd":"54","v_score":"12.65668843","decile":"9","lat":40.41500518697835,"lng":-111.76127047642524},{"vid":"6222060","name":"Mara Considine MD","party":"","address":"10030 N Pine Ct, Cedar Hills, UT 84062","precinct":"25CH03","hd":"54","v_score":"10.66687182","decile":"9","lat":40.41442961872171,"lng":-111.75506065814156},{"vid":"6231203","name":"Mrs. Bird Marks DDS","party":"Rep","address":"10285 N Pinion Dr, Cedar Hills, UT 84062","precinct":"25CH03","hd":"54","v_score":"28.94490108","decile":"10","lat":40.41884124180109,"lng":-111.76430377596223},{"vid":"6236488","name":"Dr. Kevin Roberts Jr.","party":"Rep","address":"10285 N Pinion Dr, Cedar Hills, UT 84062","precinct":"25CH03","hd":"54","v_score":"28.94490108","decile":"10","lat":40.41884124180109,"lng":-111.76430377596223},{"vid":"6236691","name":"Mr. Scott Purdy DDS","party":"","address":"10481 N Cottonwood Dr, Cedar Hills, UT 84062","precinct":"25CH03","hd":"54","v_score":"14.76249057","decile":"9","lat":40.42257014616645,"lng":-111.76262819789031},{"vid":"6241541","name":"Harriet Heaney","party":"Rep","address":"4260 W Joshua Ln, Cedar Hills, UT 84062","precinct":"25CH03","hd":"54","v_score":"17.56612467","decile":"9","lat":40.42071330457355,"lng":-111.76011369663675},{"vid":"6243074","name":"Miss Brittany Cronin DDS","party":"Rep","address":"10089 N Sage Rd E, Cedar Hills, UT 84062","precinct":"25CH03","hd":"54","v_score":"29.10469283","decile":"10","lat":40.4153625448518,"lng":-111.75697203456951},{"vid":"6243909","name":"Mrs. Raelyn Sporer PhD","party":"Dem","address":"4285 W Sandalwood Dr, Cedar Hills, UT 84062","precinct":"25CH03","hd":"54","v_score":"5.40460374","decile":"7","lat":40.41898787066376,"lng":-111.76123442903918},{"vid":"6247813","name":"Yessenia Goyette DVM","party":"","address":"4278 W Sandalwood Dr, Cedar Hills, UT 84062","precinct":"25CH03","hd":"54","v_score":"18.91187591","decile":"10","lat":40.41934504284567,"lng":-111.760767877006},{"vid":"6250628","name":"Maebell Williamson","party":"Dem","address":"10369 N Ironwood Dr, Cedar Hills, UT 84062","precinct":"25CH03","hd":"54","v_score":"5.40460374","decile":"7","lat":40.42056335868977,"lng":-111.75748649387681},{"vid":"6250818","name":"Demond Kihn I","party":"Dem","address":"10042 N Pine Ct, Cedar Hills, UT 84062","precinct":"25CH03","hd":"54","v_score":"10.17021529","decile":"9","lat":40.41461670273976,"lng":-111.75497975568994},{"vid":"6251018","name":"Mr. Odin Upton DDS","party":"","address":"4065 W Cedar Hills Dr, Cedar Hills, UT 84062","precinct":"25CH03","hd":"54","v_score":"29.10469283","decile":"10","lat":40.41367904498111,"lng":-111.75603529601831},{"vid":"6255404","name":"Willene Vandervort","party":"Dem","address":"10069 N Poplar Ct, Cedar Hills, UT 84062","precinct":"25CH03","hd":"54","v_score":"20.30022439","decile":"10","lat":40.41499154426592,"lng":-111.76048482516275},{"vid":"6261505","name":"Dr. Mima Dickens PhD","party":"Dem","address":"10153 N Cottonwood Dr, Cedar Hills, UT 84062","precinct":"25CH03","hd":"54","v_score":"5.40460374","decile":"7","lat":40.41650591287836,"lng":-111.76276946569028},{"vid":"6264071","name":"Marlen Kohler","party":"Dem","address":"10048 N Willow Ct, Cedar Hills, UT 84062","precinct":"25CH03","hd":"54","v_score":"5.40460374","decile":"7","lat":40.41472421171267,"lng":-111.7572694695186},{"vid":"6267779","name":"Freddie Toy","party":"Dem","address":"10223 N Cottonwood Dr, Cedar Hills, UT 84062","precinct":"25CH03","hd":"54","v_score":"3.93832808","decile":"6","lat":40.41789281173253,"lng":-111.7632065077858},{"vid":"6291217","name":"Hosteen Wisoky","party":"Rep","address":"4054 W Juniper Rd, Cedar Hills, UT 84062","precinct":"25CH03","hd":"54","v_score":"19.89079327","decile":"10","lat":40.4155808111446,"lng":-111.75577377732415},{"vid":"955cacad49352cec1ff87309e1084455bd1fb12143d42d9fc69fce1b817cec30","name":"Mrs. Marlee Casper DVM","party":"","address":"10369 N Ironwood Dr, Cedar Hills, UT 84062","precinct":"25CH03","hd":"54","v_score":"5.40460374","decile":"7","lat":40.42056335868977,"lng":-111.75748649387681},{"vid":"6313686","name":"Marc Deckow","party":"","address":"9992 N 4160 W, Cedar Hills, UT 84062","precinct":"25CH03","hd":"54","v_score":"16.36864091","decile":"9","lat":40.41368041598368,"lng":-111.75777321334756},{"vid":"6330296","name":"Dawn Lind","party":"","address":"10469 N Mesquite Way, Cedar Hills, UT 84062","precinct":"25CH03","hd":"54","v_score":"18.91187591","decile":"10","lat":40.42217971733634,"lng":-111.76025486526129},{"vid":"6330297","name":"Rocio Turcotte PhD","party":"Dem","address":"10469 N Mesquite Way, Cedar Hills, UT 84062","precinct":"25CH03","hd":"54","v_score":"18.91187591","decile":"10","lat":40.42217971733634,"lng":-111.76025486526129},{"vid":"6346390","name":"Laurance Wuckert","party":"Rep","address":"10107 N Pinion Dr, Cedar Hills, UT 84062","precinct":"25CH03","hd":"54","v_score":"5.40460374","decile":"7","lat":40.415614684867684,"lng":-111.76358398183659},{"vid":"6346616","name":"Sid Spinka-Balistreri","party":"","address":"10107 N Pinion Dr, Cedar Hills, UT 84062","precinct":"25CH03","hd":"54","v_score":"5.40460374","decile":"7","lat":40.415614684867684,"lng":-111.76358398183659},{"vid":"6356124","name":"Dr. Lissa Conn","party":"Rep","address":"10137 N Maple Ct, Cedar Hills, UT 84062","precinct":"25CH03","hd":"54","v_score":"5.40460374","decile":"7","lat":40.41613829292575,"lng":-111.76004624671182},{"vid":"6358150","name":"Leoma Kirlin DDS","party":"Rep","address":"10153 N Cottonwood Dr, Cedar Hills, UT 84062","precinct":"25CH03","hd":"54","v_score":"5.40460374","decile":"7","lat":40.41650591287836,"lng":-111.76276946569028},{"vid":"6358599","name":"Bryn Bins","party":"","address":"4431 W Redwood Dr, Cedar Hills, UT 84062","precinct":"25CH03","hd":"54","v_score":"1.193887297","decile":"4","lat":40.42036923647479,"lng":-111.76469570982658},{"vid":"6363912","name":"Lora Stark","party":"Dem","address":"4292 W Cedar Hills Dr, Cedar Hills, UT 84062","precinct":"25CH03","hd":"54","v_score":"12.65668843","decile":"9","lat":40.41500518697835,"lng":-111.76127047642524},{"vid":"6365901","name":"Dimitri Homenick","party":"Rep","address":"10137 N Maple Ct, Cedar Hills, UT 84062","precinct":"25CH03","hd":"54","v_score":"34.77306933","decile":"10","lat":40.41613829292575,"lng":-111.76004624671182},{"vid":"eb7415a9175a2a6de035fb773512c633b77a40ad50041c9f3f2dabdb5eb28c09","name":"Parker Hane-Yost","party":"Dem","address":"4176 W Sandalwood Dr, Cedar Hills, UT 84062","precinct":"25CH03","hd":"54","v_score":"32.04760043","decile":"10","lat":40.418215692371355,"lng":-111.75863873740109},{"vid":"96eaec7a50ab8f9c3c879b1e0678dbd1f77dc6a5f5dc0a6b485fc226c1e51723","name":"Mrs. Inez Hyatt MD","party":"Rep","address":"10030 N Pine Ct, Cedar Hills, UT 84062","precinct":"25CH03","hd":"54","v_score":"3.93832808","decile":"6","lat":40.41442961872171,"lng":-111.75506065814156},{"vid":"01fd60d09126a2f1142c5abf95c68065cae1f64db7c04d45f26f2ca00d6b9046","name":"Dr. Jermain Reilly III","party":"","address":"4069 W Juniper Rd, Cedar Hills, UT 84062","precinct":"25CH03","hd":"54","v_score":"14.67638247","decile":"9","lat":40.414966672624594,"lng":-111.75586210118006},{"vid":"26b37106516bfa02c6e7f730f2d5f381854ad11ae627afa508dbc46acee5ec79","name":"Krish Torp","party":"Dem","address":"10328 N Cottonwood Dr, Cedar Hills, UT 84062","precinct":"25CH03","hd":"54","v_score":"5.40460374","decile":"7","lat":40.41961017605593,"lng":-111.76324097139488},{"vid":"6386561","name":"Mr. Tallie Haag II","party":"Dem","address":"10081 N Sage Rd W, Cedar Hills, UT 84062","precinct":"25CH03","hd":"54","v_score":"5.40460374","decile":"7","lat":40.415215126663746,"lng":-111.7596733144873},{"vid":"6386680","name":"Mr. Clare Kshlerin","party":"Dem","address":"4162 W Joshua Ln, Cedar Hills, UT 84062","precinct":"25CH03","hd":"54","v_score":"19.07850777","decile":"10","lat":40.419817147763986,"lng":-111.75769559836803},{"vid":"6386835","name":"Maryellen Trantow","party":"Dem","address":"10107 N Sage Rd E, Cedar Hills, UT 84062","precinct":"25CH03","hd":"54","v_score":"5.69030266","decile":"7","lat":40.41566404273402,"lng":-111.75747563128806},{"vid":"6391060","name":"French Lueilwitz","party":"Dem","address":"4021 W Ironwood Dr, Cedar Hills, UT 84062","precinct":"25CH03","hd":"54","v_score":"2.998909327","decile":"6","lat":40.417073858057684,"lng":-111.75500807073149},{"vid":"6405491","name":"Zavier Bahringer","party":"Rep","address":"9980 N 4000 W, Cedar Hills, UT 84062","precinct":"25CH03","hd":"54","v_score":"3.102699348","decile":"6","lat":40.41316688228228,"lng":-111.75354972546911},{"vid":"81e82b0c3b7c764fcbce66f1011c31782774e755b8d4435f16f327a0a344f430","name":"Wayne Hickle-Davis","party":"","address":"10172 N Oak Ct, Cedar Hills, UT 84062","precinct":"25CH03","hd":"54","v_score":"2.315214949","decile":"5","lat":40.416871873218994,"lng":-111.76055938289801},{"vid":"6416860","name":"Gussie Donnelly DVM","party":"Rep","address":"4216 W Sandalwood Dr, Cedar Hills, UT 84062","precinct":"25CH03","hd":"54","v_score":"8.347511332","decile":"8","lat":40.418575635429654,"lng":-111.75921372987818},{"vid":"6417771","name":"Mrs. Barbie Smith MD","party":"Dem","address":"4431 W Redwood Dr, Cedar Hills, UT 84062","precinct":"25CH03","hd":"54","v_score":"1.193887297","decile":"4","lat":40.42036923647479,"lng":-111.76469570982658},{"vid":"d45f22306e62bcc2e72af6d76a1fcebf42a44315218bf051ef3a59259e87650e","name":"Kaela Hintz DDS","party":"Rep","address":"10393 N Birch Cv, Cedar Hills, UT 84062","precinct":"25CH03","hd":"54","v_score":"18.05454756","decile":"10","lat":40.420737175331226,"lng":-111.75863448313915},{"vid":"6447501","name":"Chandler Nienow DVM","party":"Rep","address":"4119 W Sandalwood Dr, Cedar Hills, UT 84062","precinct":"25CH03","hd":"54","v_score":"13.71222934","decile":"9","lat":40.4175368496827,"lng":-111.7571667575914},{"vid":"6458882","name":"Elgin Von","party":"Rep","address":"10194 N Pinion Dr, Cedar Hills, UT 84062","precinct":"25CH03","hd":"54","v_score":"25.47561365","decile":"10","lat":40.41726717192556,"lng":-111.76358737749537},{"vid":"6463547","name":"Killian Dickinson Jr.","party":"Rep","address":"4225 W Mesquite Way, Cedar Hills, UT 84062","precinct":"25CH03","hd":"54","v_score":"2.315214949","decile":"5","lat":40.418915718370705,"lng":-111.75917891671736},{"vid":"6467222","name":"Zigmund Dicki","party":"Rep","address":"4252 W Sumac Ct, Cedar Hills, UT 84062","precinct":"25CH03","hd":"54","v_score":"15.43762891","decile":"9","lat":40.415823908741395,"lng":-111.76029486646596},{"vid":"a441461d4af22ed2deb3654d222da113315d0768a91771cb1a75e36b94f5dd37","name":"Maximiliano White","party":"Dem","address":"10341 N Cottonwood Dr, Cedar Hills, UT 84062","precinct":"25CH03","hd":"54","v_score":"21.17866534","decile":"10","lat":40.419915714274694,"lng":-111.76368033726924},{"vid":"92b2ab83a952f6db68a8abfad0b9590e61f64602cbedae060a76514879995fcb","name":"Male Heidenreich MD","party":"Dem","address":"10181 N Pinion Dr, Cedar Hills, UT 84062","precinct":"25CH03","hd":"54","v_score":"1.121327652","decile":"3","lat":40.41698831371791,"lng":-111.76403591553374},{"vid":"6480566","name":"Samson Bergnaum IV","party":"","address":"4163 W Sandalwood Dr, Cedar Hills, UT 84062","precinct":"25CH03","hd":"54","v_score":"15.75938778","decile":"9","lat":40.41771146714551,"lng":-111.75833131812828},{"vid":"5087c2bb6ddc2cc643f2082ad5e2cf59b0873bc1020ffc5dc0ec48b062982407","name":"Georgeann Lakin","party":"","address":"4209 W Mesquite Way, Cedar Hills, UT 84062","precinct":"25CH03","hd":"54","v_score":"6.324725604","decile":"7","lat":40.41876990039081,"lng":-111.75883111395692},{"vid":"6489120","name":"Joye Heaney","party":"Dem","address":"10236 N Sycamore Ln, Cedar Hills, UT 84062","precinct":"25CH03","hd":"54","v_score":"6.324725604","decile":"7","lat":40.41826950445363,"lng":-111.75633004685963},{"vid":"6490733","name":"Ms. Miriah Williamson","party":"Dem","address":"4019 W Sandalwood Dr, Cedar Hills, UT 84062","precinct":"25CH03","hd":"54","v_score":"26.74678107","decile":"10","lat":40.41669472057429,"lng":-111.7548973250876},{"vid":"6491699","name":"Pierce Harvey","party":"","address":"10167 N Pinion Dr, Cedar Hills, UT 84062","precinct":"25CH03","hd":"54","v_score":"18.7499088","decile":"10","lat":40.41673755935764,"lng":-111.76399658637709},{"vid":"6492629","name":"Nickolas Lockman","party":"Rep","address":"4012 W Sandalwood Dr, Cedar Hills, UT 84062","precinct":"25CH03","hd":"54","v_score":"6.954919332","decile":"8","lat":40.41689498709554,"lng":-111.75478194894336},{"vid":"02e4a541fbde57132550e4743d98b8fab8d6cfd9ee3f62007eac2f90307244fe","name":"Hayleigh Kihn","party":"Rep","address":"10343 N Ironwood Dr, Cedar Hills, UT 84062","precinct":"25CH03","hd":"54","v_score":"1.121327652","decile":"3","lat":40.4199955227584,"lng":-111.7571667930386},{"vid":"6513834","name":"Taurus Williamson-Marquardt","party":"Dem","address":"4222 W Cedar Hills Dr, Cedar Hills, UT 84062","precinct":"25CH03","hd":"54","v_score":"2.315214949","decile":"5","lat":40.4144239517653,"lng":-111.75967708856437},{"vid":"6521905","name":"Rosalinda Quigley MD","party":"Dem","address":"4037 W Ironwood Dr, Cedar Hills, UT 84062","precinct":"25CH03","hd":"54","v_score":"32.04760043","decile":"10","lat":40.4173323397918,"lng":-111.75531155853882},{"vid":"6526008","name":"Lafe Hauck","party":"","address":"10153 N Maple Ct, Cedar Hills, UT 84062","precinct":"25CH03","hd":"54","v_score":"1.121327652","decile":"3","lat":40.41658346138419,"lng":-111.76025108355122},{"vid":"6527529","name":"Jaheim Franecki","party":"","address":"10472 N Cottonwood Dr, Cedar Hills, UT 84062","precinct":"25CH03","hd":"54","v_score":"17.28363314","decile":"9","lat":40.42226865036963,"lng":-111.7623378065415},{"vid":"9491e33e8e72b7211fc4711378e12ce8f9d191ef498b8825d3049502316fc169","name":"Charle Beahan","party":"","address":"10080 N Willow Ct, Cedar Hills, UT 84062","precinct":"25CH03","hd":"54","v_score":"3.781490609","decile":"6","lat":40.41529008287333,"lng":-111.75777697254165},{"vid":"9b1123a1920dd8569f27b70eb6dcd0c4133559632a2db932769b11ebcc62f324","name":"Jeana Kunze-Bosco","party":"Dem","address":"10341 N Cottonwood Dr, Cedar Hills, UT 84062","precinct":"25CH03","hd":"54","v_score":"20.58808088","decile":"10","lat":40.419915714274694,"lng":-111.76368033726924},{"vid":"f75389a0f4f9582a0032484de4c811165c045200615344eac49fe5f0f2a41aa2","name":"Frona McDermott DDS","party":"","address":"10042 N Pine Ct, Cedar Hills, UT 84062","precinct":"25CH03","hd":"54","v_score":"15.16653082","decile":"9","lat":40.41461670273976,"lng":-111.75497975568994},{"vid":"0b94bd7314c9e1df78b058b502c29529b151a78a7b81ad4aeae06a400b2c63f8","name":"Jeramy Stark-Romaguera","party":"","address":"4162 W Joshua Ln, Cedar Hills, UT 84062","precinct":"25CH03","hd":"54","v_score":"17.14152077","decile":"9","lat":40.419817147763986,"lng":-111.75769559836803}]