[{"id":"524","name":"Izayah Larson","party":"Dem","address":"10029 N Sage E Rd, Cedar Hills, UT 84062","precinct":"25CH03","hd":"54","v_score":"28.94490108","decile":"10","lat":40.415428254494,"lng":-111.759509238205},{"id":"615","name":"Ozell Auer","party":"","address":"10158 N Maple Ct, Cedar Hills, UT 84062","precinct":"25CH03","hd":"54","v_score":"9.600440767","decile":"8","lat":40.41622834424,"lng":-111.759651567724},{"id":"1020","name":"Ayla Hermann-Swaniawski","party":"Rep","address":"10134 N Oak W Rd, Cedar Hills, UT 84062","precinct":"25CH03","hd":"54","v_score":"1.46627566","decile":"4","lat":40.416175831807,"lng":-111.760742797664},{"id":"1088","name":"Craig Lang","party":"","address":"4064 W Cedar Hills Dr, Cedar Hills, UT 84062","precinct":"25CH03","hd":"54","v_score":"18.45422016","decile":"10","lat":40.413955957792,"lng":-111.755306296563},{"id":"1199","name":"Buddy Deckow","party":"Dem","address":"4146 W Joshua Ln, Cedar Hills, UT 84062","precinct":"25CH03","hd":"54","v_score":"29.10469283","decile":"10","lat":40.419435358831,"lng":-111.757409640093},{"id":"1875","name":"Dewitt Krajcik","party":"Dem","address":"10197 N Pinion Dr, Cedar Hills, UT 84062","precinct":"25CH03","hd":"54","v_score":"1.193887297","decile":"3","lat":40.416954162817,"lng":-111.763894567849},{"id":"2168","name":"Dr. Governor Raynor","party":"Dem","address":"10259 N Pinion Dr, Cedar Hills, UT 84062","precinct":"25CH03","hd":"54","v_score":"24.93553151","decile":"10","lat":40.417939669715,"lng":-111.764123140184},{"id":"2348","name":"Orla Fadel","party":"Dem","address":"10162 N Oak Ct, Cedar Hills, UT 84062","precinct":"25CH03","hd":"54","v_score":"39.15900423","decile":"10","lat":40.417067724432,"lng":-111.76062503771},{"id":"2396","name":"Zeno Toy","party":"","address":"4228 W Mesquite Way, Cedar Hills, UT 84062","precinct":"25CH03","hd":"54","v_score":"14.74039814","decile":"9","lat":40.419501720686,"lng":-111.759582127721},{"id":"2473","name":"Mitchell Wisozk","party":"","address":"10242 N Pinion Dr, Cedar Hills, UT 84062","precinct":"25CH03","hd":"54","v_score":"7.650280567","decile":"8","lat":40.417710382062,"lng":-111.763899506212},{"id":"2486","name":"Dr. Toma Collier","party":"Dem","address":"10082 N Oak W Rd, Cedar Hills, UT 84062","precinct":"25CH03","hd":"54","v_score":"1.193887297","decile":"3","lat":40.415425906226,"lng":-111.76111852217},{"id":"2997","name":"Lota Nicolas","party":"Dem","address":"4262 W Sumac Ct, Cedar Hills, UT 84062","precinct":"25CH03","hd":"54","v_score":"29.19420629","decile":"10","lat":40.415765921683,"lng":-111.760712273455},{"id":"3541","name":"Mr. Ewell Rippin IV","party":"","address":"10030 N Sage E Rd, Cedar Hills, UT 84062","precinct":"25CH03","hd":"54","v_score":"12.49472132","decile":"9","lat":40.415829600912,"lng":-111.757177038681},{"id":"5492","name":"Solon Runolfsdottir","party":"Rep","address":"4012 W Sandalwood Dr, Cedar Hills, UT 84062","precinct":"25CH03","hd":"54","v_score":"1.121327652","decile":"3","lat":40.417018623855,"lng":-111.755155944375},{"id":"5880","name":"Hiroshi Thompson","party":"Rep","address":"4249 W Joshua Ln, Cedar Hills, UT 84062","precinct":"25CH03","hd":"54","v_score":"10.8238813","decile":"9","lat":40.420214530479,"lng":-111.75916081963},{"id":"6057","name":"Pattie Goldner-Smitham","party":"Dem","address":"10061 N Sage W Rd, Cedar Hills, UT 84062","precinct":"25CH03","hd":"54","v_score":"2.315214949","decile":"5","lat":40.415437642553,"lng":-111.75950663041},{"id":"6212","name":"Clemie Graham-Marks","party":"","address":"4133 W Cedar Hills Dr, Cedar Hills, UT 84062","precinct":"25CH03","hd":"54","v_score":"8.284004873","decile":"8","lat":40.413815695774,"lng":-111.757621407515},{"id":"6515","name":"Rolanda Pacocha","party":"Rep","address":"4322 W Cedar Hills Dr, Cedar Hills, UT 84062","precinct":"25CH03","hd":"54","v_score":"3.93832808","decile":"6","lat":40.415069063911,"lng":-111.761658589813},{"id":"6580","name":"Mr. Abdullah Hodkiewicz","party":"","address":"10161 N Oak Rd W, Cedar Hills, UT 84062","precinct":"25CH03","hd":"54","v_score":"5.40460374","decile":"7","lat":40.41659481589,"lng":-111.761119018665},{"id":"7016","name":"Kaylyn Kuvalis PhD","party":"Rep","address":"10167 N Cottonwood Dr, Cedar Hills, UT 84062","precinct":"25CH03","hd":"54","v_score":"1.623113131","decile":"4","lat":40.417336062609,"lng":-111.762842988109},{"id":"8765","name":"Gerri Goldner-Champlin","party":"","address":"10209 N Oak Ct, Cedar Hills, UT 84062","precinct":"25CH03","hd":"54","v_score":"8.363540363","decile":"8","lat":40.417185165247,"lng":-111.760799440883},{"id":"8802","name":"Emilee Eichmann MD","party":"Rep","address":"4258 W Sandalwood Dr, Cedar Hills, UT 84062","precinct":"25CH03","hd":"54","v_score":"7.947838735","decile":"8","lat":40.419534632412,"lng":-111.76110288044},{"id":"9423","name":"Dr. Paris Walter Jr.","party":"Dem","address":"4365 W Redwood Cir, Cedar Hills, UT 84062","precinct":"25CH03","hd":"54","v_score":"12.37419689","decile":"9","lat":40.420427090744,"lng":-111.763404906821},{"id":"9853","name":"Imanol Lockman","party":"","address":"10146 N Maple Ct, Cedar Hills, UT 84062","precinct":"25CH03","hd":"54","v_score":"2.744440783","decile":"5","lat":40.416146839536,"lng":-111.759568122456},{"id":"10816","name":"Gerhard Collier","party":"","address":"10090 N Willow Ct, Cedar Hills, UT 84062","precinct":"25CH03","hd":"54","v_score":"15.19992342","decile":"9","lat":40.41515776566,"lng":-111.757809137029},{"id":"11808","name":"Shannon Legros","party":"Dem","address":"4256 W Cedar Hills Dr, Cedar Hills, UT 84062","precinct":"25CH03","hd":"54","v_score":"17.47500234","decile":"9","lat":40.414169776937,"lng":-111.760335509402},{"id":"12438","name":"Jesica Kutch","party":"","address":"10448 N Cottonwood Dr, Cedar Hills, UT 84062","precinct":"25CH03","hd":"54","v_score":"13.32779236","decile":"9","lat":40.420128306703,"lng":-111.763438134111},{"id":"12670","name":"Mrs. Adda Hammes PhD","party":"","address":"10364 N Mesquite Way, Cedar Hills, UT 84062","precinct":"25CH03","hd":"54","v_score":"5.40460374","decile":"7","lat":40.419513976408,"lng":-111.759605570514},{"id":"12731","name":"Kade Rice-Walker","party":"Rep","address":"10067 N Willow Ct, Cedar Hills, UT 84062","precinct":"25CH03","hd":"54","v_score":"3.93832808","decile":"6","lat":40.414818401383,"lng":-111.757666725372},{"id":"13391","name":"Altie Rau","party":"Dem","address":"10179 N Cottonwood Dr, Cedar Hills, UT 84062","precinct":"25CH03","hd":"54","v_score":"8.955296752","decile":"8","lat":40.417489691916,"lng":-111.762905545179},{"id":"13773","name":"Dr. Alison Jones PhD","party":"","address":"10107 N Pinion Dr, Cedar Hills, UT 84062","precinct":"25CH03","hd":"54","v_score":"3.93832808","decile":"6","lat":40.415566498619,"lng":-111.763470547353},{"id":"13993","name":"Hildegarde Hickle","party":"Dem","address":"10108 N Pinion Dr, Cedar Hills, UT 84062","precinct":"25CH03","hd":"54","v_score":"6.881235673","decile":"8","lat":40.415597885052,"lng":-111.763319721096},{"id":"14866","name":"Olivine Kub","party":"Dem","address":"10030 N Pine Ct, Cedar Hills, UT 84062","precinct":"25CH03","hd":"54","v_score":"0","decile":"1","lat":40.414132454094,"lng":-111.755158665336},{"id":"15083","name":"Zayden Friesen DDS","party":"","address":"10448 N Cottonwood Dr, Cedar Hills, UT 84062","precinct":"25CH03","hd":"54","v_score":"5.40460374","decile":"7","lat":40.420128306703,"lng":-111.763438134111},{"id":"16636","name":"Shantel Christiansen","party":"","address":"10311 N Ironwood Dr, Cedar Hills, UT 84062","precinct":"25CH03","hd":"54","v_score":"2.998909327","decile":"6","lat":40.419509188278,"lng":-111.756323398105},{"id":"17705","name":"Nello Johns I","party":"","address":"4322 W Cedar Hills Dr, Cedar Hills, UT 84062","precinct":"25CH03","hd":"54","v_score":"5.40460374","decile":"7","lat":40.415069063911,"lng":-111.761658589813},{"id":"17736","name":"Goebel Lebsack","party":"","address":"10453 N Cottonwood Dr, Cedar Hills, UT 84062","precinct":"25CH03","hd":"54","v_score":"6.724398202","decile":"8","lat":40.420693563878,"lng":-111.763629863162},{"id":"17936","name":"Rutherford Howe","party":"Dem","address":"10343 N Sandalwood Dr, Cedar Hills, UT 84062","precinct":"25CH03","hd":"54","v_score":"20.10652079","decile":"10","lat":40.418319927266,"lng":-111.759556526782},{"id":"18693","name":"Marlys Schamberger","party":"Dem","address":"10052 N Poplar Ct, Cedar Hills, UT 84062","precinct":"25CH03","hd":"54","v_score":"2.817000428","decile":"6","lat":40.414528728537,"lng":-111.760581714704},{"id":"18782","name":"Antonio Tremblay","party":"","address":"10223 N Cottonwood Dr, Cedar Hills, UT 84062","precinct":"25CH03","hd":"54","v_score":"1.121327652","decile":"3","lat":40.418045939294,"lng":-111.763031280048},{"id":"18854","name":"Dawne Senger","party":"Dem","address":"10205 N Oak W Rd, Cedar Hills, UT 84062","precinct":"25CH03","hd":"54","v_score":"2.315214949","decile":"5","lat":40.41762943882,"lng":-111.761647399171},{"id":"19051","name":"Margarite Hartmann","party":"Rep","address":"4133 W Cedar Hills Dr, Cedar Hills, UT 84062","precinct":"25CH03","hd":"54","v_score":"8.284004873","decile":"8","lat":40.413815695774,"lng":-111.757621407515},{"id":"19360","name":"Virgle O'Reilly","party":"","address":"4353 W Cedar Cv, Cedar Hills, UT 84062","precinct":"25CH03","hd":"54","v_score":"2.587603312","decile":"5","lat":40.41935994338,"lng":-111.763102466893},{"id":"19600","name":"Dellar Wyman","party":"Dem","address":"10217 N Oak Ct, Cedar Hills, UT 84062","precinct":"25CH03","hd":"54","v_score":"10.8238813","decile":"9","lat":40.417205182835,"lng":-111.760807543237},{"id":"19822","name":"Jaheem Wolff","party":"Dem","address":"4152 W Sage N Rd, Cedar Hills, UT 84062","precinct":"25CH03","hd":"54","v_score":"25.99640486","decile":"10","lat":40.413980636711,"lng":-111.758352087697},{"id":"19851","name":"Lindy Oberbrunner-Altenwerth","party":"Rep","address":"10166 N Pinion Dr, Cedar Hills, UT 84062","precinct":"25CH03","hd":"54","v_score":"0","decile":"1","lat":40.416522554816,"lng":-111.763570165112},{"id":"19943","name":"Severt Kunze","party":"","address":"10087 N Sage W Rd, Cedar Hills, UT 84062","precinct":"25CH03","hd":"54","v_score":"0","decile":"1","lat":40.41544527035,"lng":-111.759504511576},{"id":"22827","name":"Cara Feest","party":"Dem","address":"10229 N Pinion Dr, Cedar Hills, UT 84062","precinct":"25CH03","hd":"54","v_score":"19.75417451","decile":"10","lat":40.417470344969,"lng":-111.764005462401},{"id":"23678","name":"Annamarie Yundt-Stoltenberg","party":"","address":"10219 N Oak W Rd, Cedar Hills, UT 84062","precinct":"25CH03","hd":"54","v_score":"5.40460374","decile":"7","lat":40.416939573094,"lng":-111.761295329902},{"id":"24540","name":"Belva Windler","party":"","address":"4141 W Mesquite Way, Cedar Hills, UT 84062","precinct":"25CH03","hd":"54","v_score":"3.93832808","decile":"6","lat":40.418749585697,"lng":-111.757832334553},{"id":"24914","name":"Madison Hyatt","party":"Dem","address":"4045 W Juniper Rd, Cedar Hills, UT 84062","precinct":"25CH03","hd":"54","v_score":"4.833280139","decile":"7","lat":40.415321158464,"lng":-111.755438121746},{"id":"25472","name":"Miss Myrta Erdman DDS","party":"Dem","address":"10030 N Sage E Rd, Cedar Hills, UT 84062","precinct":"25CH03","hd":"54","v_score":"0","decile":"1","lat":40.415829600912,"lng":-111.757177038681},{"id":"26055","name":"Louvenia McGlynn","party":"Rep","address":"10259 N Pinion Dr, Cedar Hills, UT 84062","precinct":"25CH03","hd":"54","v_score":"21.99262391","decile":"10","lat":40.417939669715,"lng":-111.764123140184},{"id":"28085","name":"Dr. Isabella Satterfield","party":"Rep","address":"10040 N Sage E Rd, Cedar Hills, UT 84062","precinct":"25CH03","hd":"54","v_score":"1.193887297","decile":"3","lat":40.416050880862,"lng":-111.757480255453},{"id":"28694","name":"Reynaldo Toy","party":"Rep","address":"10040 N Sage E Rd, Cedar Hills, UT 84062","precinct":"25CH03","hd":"54","v_score":"1.193887297","decile":"3","lat":40.416050880862,"lng":-111.757480255453},{"id":"29246","name":"Lockie Greenfelder-Feest","party":"Rep","address":"10341 N Cottonwood Dr, Cedar Hills, UT 84062","precinct":"25CH03","hd":"54","v_score":"12.51613974","decile":"9","lat":40.420169344359,"lng":-111.763595787385},{"id":"29826","name":"Desean Hickle-Boyle","party":"Rep","address":"4225 W Mesquite Way, Cedar Hills, UT 84062","precinct":"25CH03","hd":"54","v_score":"6.468038869","decile":"7","lat":40.419367586893,"lng":-111.759590125455},{"id":"29871","name":"Jovanni Oberbrunner","party":"","address":"4149 W Sage N Rd, Cedar Hills, UT 84062","precinct":"25CH03","hd":"54","v_score":"9.405332525","decile":"8","lat":40.414661479746,"lng":-111.758870063705},{"id":"29981","name":"Deshawn Shanahan","party":"Dem","address":"4152 W Oak N Rd, Cedar Hills, UT 84062","precinct":"25CH03","hd":"54","v_score":"5.40460374","decile":"7","lat":40.418172759225,"lng":-111.760290573248},{"id":"31181","name":"Brook Watsica","party":"Rep","address":"10089 N Sage E Rd, Cedar Hills, UT 84062","precinct":"25CH03","hd":"54","v_score":"4.296586645","decile":"7","lat":40.415445857104,"lng":-111.759504348589},{"id":"31393","name":"Dr. Eli Fay","party":"Dem","address":"10209 N Oak Ct, Cedar Hills, UT 84062","precinct":"25CH03","hd":"54","v_score":"9.55742766","decile":"8","lat":40.417185165247,"lng":-111.760799440883},{"id":"31592","name":"Suzy Kling","party":"","address":"10053 N Pine Ct, Cedar Hills, UT 84062","precinct":"25CH03","hd":"54","v_score":"3.93832808","decile":"6","lat":40.414258561617,"lng":-111.75531167592},{"id":"32761","name":"Mr. Jaheim Weimann DDS","party":"","address":"10052 N Pine Ct, Cedar Hills, UT 84062","precinct":"25CH03","hd":"54","v_score":"9.750280533","decile":"8","lat":40.414260283405,"lng":-111.755161188266},{"id":"33180","name":"Dr. Gray Schowalter II","party":"","address":"10047 N Sage E Rd, Cedar Hills, UT 84062","precinct":"25CH03","hd":"54","v_score":"2.315214949","decile":"5","lat":40.415433535277,"lng":-111.75950777132},{"id":"33398","name":"Jabari Rath","party":"","address":"4135 W Sage N Rd, Cedar Hills, UT 84062","precinct":"25CH03","hd":"54","v_score":"1.46627566","decile":"4","lat":40.414476639833,"lng":-111.758643990338},{"id":"33476","name":"Mrs. Taryn Howe","party":"Rep","address":"4209 W Mesquite Way, Cedar Hills, UT 84062","precinct":"25CH03","hd":"54","v_score":"6.324725604","decile":"7","lat":40.419210996545,"lng":-111.75928533362},{"id":"34013","name":"Dr. Bernard Altenwerth II","party":"Dem","address":"4419 W Redwood Dr, Cedar Hills, UT 84062","precinct":"25CH03","hd":"54","v_score":"13.57681029","decile":"9","lat":40.420536812416,"lng":-111.764867455744},{"id":"36125","name":"Evaline Emmerich","party":"Dem","address":"10168 N Cottonwood Dr, Cedar Hills, UT 84062","precinct":"25CH03","hd":"54","v_score":"3.93832808","decile":"6","lat":40.417392017508,"lng":-111.762710898282},{"id":"36302","name":"Ace Graham","party":"Dem","address":"10168 N Cottonwood Dr, Cedar Hills, UT 84062","precinct":"25CH03","hd":"54","v_score":"3.93832808","decile":"6","lat":40.417392017508,"lng":-111.762710898282},{"id":"36868","name":"Tari Yundt","party":"Dem","address":"4213 W Sandalwood Dr, Cedar Hills, UT 84062","precinct":"25CH03","hd":"54","v_score":"1.121327652","decile":"3","lat":40.418621513821,"lng":-111.760137570923},{"id":"36955","name":"Tamiko Treutel","party":"","address":"10117 N Maple Ct, Cedar Hills, UT 84062","precinct":"25CH03","hd":"54","v_score":"0","decile":"1","lat":40.415872629084,"lng":-111.759478215567},{"id":"37359","name":"Kitty Waelchi","party":"Dem","address":"4355 Cedar Cv, Cedar Hills, UT 84062","precinct":"25CH03","hd":"54","v_score":"2.315214949","decile":"5","lat":40.419361241587,"lng":-111.763097215055},{"id":"38382","name":"Madyson Greenholt-Yundt","party":"Rep","address":"10108 N Pinion Dr, Cedar Hills, UT 84062","precinct":"25CH03","hd":"54","v_score":"3.93832808","decile":"6","lat":40.415597885052,"lng":-111.763319721096},{"id":"39193","name":"Shantel Williamson","party":"Dem","address":"4021 W Ironwood Dr, Cedar Hills, UT 84062","precinct":"25CH03","hd":"54","v_score":"2.315214949","decile":"5","lat":40.417457172215,"lng":-111.75469782408},{"id":"39813","name":"Dr. Delfina Lebsack","party":"Rep","address":"4141 W Mesquite Way, Cedar Hills, UT 84062","precinct":"25CH03","hd":"54","v_score":"1.121327652","decile":"3","lat":40.418749585697,"lng":-111.757832334553},{"id":"39961","name":"Kurtis Bahringer V","party":"Dem","address":"4095 W Cedar Hills Dr, Cedar Hills, UT 84062","precinct":"25CH03","hd":"54","v_score":"5.40460374","decile":"7","lat":40.413823687969,"lng":-111.756738742851},{"id":"40053","name":"Corine Bernhard","party":"Rep","address":"10259 N Pinion Dr, Cedar Hills, UT 84062","precinct":"25CH03","hd":"54","v_score":"1.121327652","decile":"3","lat":40.417939669715,"lng":-111.764123140184},{"id":"40447","name":"Byron Beatty-Langworth","party":"Dem","address":"10181 N Pinion Dr, Cedar Hills, UT 84062","precinct":"25CH03","hd":"54","v_score":"9.03120571","decile":"8","lat":40.416706657615,"lng":-111.763798535875},{"id":"40947","name":"Symone Rippin","party":"Dem","address":"4176 W Sandalwood Dr, Cedar Hills, UT 84062","precinct":"25CH03","hd":"54","v_score":"24.8691994","decile":"10","lat":40.418297152945,"lng":-111.759239601763},{"id":"40962","name":"Isabelle Rutherford","party":"Dem","address":"10053 N Sage E Rd, Cedar Hills, UT 84062","precinct":"25CH03","hd":"54","v_score":"3.93832808","decile":"6","lat":40.415435295538,"lng":-111.759507282358},{"id":"40967","name":"Jacob Beahan","party":"Dem","address":"10125 N Pinion Dr, Cedar Hills, UT 84062","precinct":"25CH03","hd":"54","v_score":"14.58072179","decile":"9","lat":40.415856828509,"lng":-111.763467644016},{"id":"40972","name":"Mrs. Yetta Green","party":"","address":"9969 N 4000 W, Cedar Hills, UT 84062","precinct":"25CH03","hd":"54","v_score":"1.46627566","decile":"4","lat":40.41335669558,"lng":-111.754418090134},{"id":"43084","name":"Jimmie McDermott I","party":"","address":"4229 W Sandalwood Dr, Cedar Hills, UT 84062","precinct":"25CH03","hd":"54","v_score":"1.193887297","decile":"3","lat":40.418833681316,"lng":-111.760606931364},{"id":"43232","name":"Jarod Cronin","party":"","address":"4064 W Cedar Hills Dr, Cedar Hills, UT 84062","precinct":"25CH03","hd":"54","v_score":"18.45422016","decile":"10","lat":40.413955957792,"lng":-111.755306296563},{"id":"43383","name":"Mrs. Deasia Hirthe","party":"","address":"4438 W Redwood Dr, Cedar Hills, UT 84062","precinct":"25CH03","hd":"54","v_score":"6.52928996","decile":"7","lat":40.420657051611,"lng":-111.765000340957},{"id":"44006","name":"Francine Hills","party":"","address":"10063 N Poplar Ct, Cedar Hills, UT 84062","precinct":"25CH03","hd":"54","v_score":"0","decile":"1","lat":40.414635379798,"lng":-111.760654551909},{"id":"44083","name":"Eliza Kassulke","party":"Dem","address":"4135 W Sage N Rd, Cedar Hills, UT 84062","precinct":"25CH03","hd":"54","v_score":"0","decile":"1","lat":40.414476639833,"lng":-111.758643990338},{"id":"44574","name":"Bette Schuster MD","party":"Dem","address":"10063 N Poplar Ct, Cedar Hills, UT 84062","precinct":"25CH03","hd":"54","v_score":"8.507303088","decile":"8","lat":40.414635379798,"lng":-111.760654551909},{"id":"45567","name":"Burley Rowe PhD","party":"","address":"10086 N Sage W Rd, Cedar Hills, UT 84062","precinct":"25CH03","hd":"54","v_score":"17.18129512","decile":"9","lat":40.415421676519,"lng":-111.759357228075},{"id":"45651","name":"Sydell Gerlach","party":"Dem","address":"10062 N Sage W Rd, Cedar Hills, UT 84062","precinct":"25CH03","hd":"54","v_score":"1.121327652","decile":"3","lat":40.416127819149,"lng":-111.75840595825},{"id":"46586","name":"Terri Kuhlman MD","party":"Rep","address":"10323 N Mesquite Way, Cedar Hills, UT 84062","precinct":"25CH03","hd":"54","v_score":"3.93832808","decile":"6","lat":40.418733487631,"lng":-111.757947221672},{"id":"47043","name":"Dell Schiller","party":"Dem","address":"10166 N Pinion Dr, Cedar Hills, UT 84062","precinct":"25CH03","hd":"54","v_score":"3.93832808","decile":"6","lat":40.416522554816,"lng":-111.763570165112},{"id":"47101","name":"Dr. Arnold Goldner","party":"","address":"10212 N Pinion Dr, Cedar Hills, UT 84062","precinct":"25CH03","hd":"54","v_score":"9.424470668","decile":"8","lat":40.4172380596,"lng":-111.763813514747},{"id":"48385","name":"Opha Altenwerth MD","party":"Dem","address":"10239 N Cottonwood Dr, Cedar Hills, UT 84062","precinct":"25CH03","hd":"54","v_score":"0","decile":"1","lat":40.41824776527,"lng":-111.763050201205},{"id":"48733","name":"Dr. Tatsuo Frami","party":"Rep","address":"4021 W Ironwood Dr, Cedar Hills, UT 84062","precinct":"25CH03","hd":"54","v_score":"3.781490609","decile":"6","lat":40.417457172215,"lng":-111.75469782408},{"id":"48972","name":"Marius Streich","party":"Dem","address":"4012 W Cedar Hills Dr, Cedar Hills, UT 84062","precinct":"25CH03","hd":"54","v_score":"0","decile":"1","lat":40.413977074459,"lng":-111.754576739908},{"id":"49502","name":"Rey Ondricka-Pollich","party":"Dem","address":"10467 N Cottonwood Dr, Cedar Hills, UT 84062","precinct":"25CH03","hd":"54","v_score":"2.660162957","decile":"5","lat":40.4207152375,"lng":-111.763628458387},{"id":"49588","name":"Dr. Dessie Breitenberg Jr.","party":"Rep","address":"10058 N Willow Ct, Cedar Hills, UT 84062","precinct":"25CH03","hd":"54","v_score":"2.315214949","decile":"5","lat":40.41476546768,"lng":-111.757464965298},{"id":"49688","name":"Mr. Wilber Beahan IV","party":"","address":"10325 N Sandalwood Dr, Cedar Hills, UT 84062","precinct":"25CH03","hd":"54","v_score":"3.781490609","decile":"6","lat":40.417914754202,"lng":-111.758517375497},{"id":"50480","name":"Jami Rohan","party":"Rep","address":"10061 N Poplar Ct, Cedar Hills, UT 84062","precinct":"25CH03","hd":"54","v_score":"1.121327652","decile":"3","lat":40.414630239162,"lng":-111.760661290312},{"id":"51148","name":"Isiah Champlin","party":"","address":"4176 W Sandalwood Dr, Cedar Hills, UT 84062","precinct":"25CH03","hd":"54","v_score":"27.47862542","decile":"10","lat":40.418297152945,"lng":-111.759239601763},{"id":"51466","name":"Brook Kemmer","party":"Dem","address":"4322 W Cedar Hills Dr, Cedar Hills, UT 84062","precinct":"25CH03","hd":"54","v_score":"8.347511332","decile":"8","lat":40.415069063911,"lng":-111.761658589813},{"id":"52216","name":"Amey Rice","party":"Rep","address":"4250 W Sumac Ct, Cedar Hills, UT 84062","precinct":"25CH03","hd":"54","v_score":"9.141333219","decile":"8","lat":40.415755794567,"lng":-111.760691006519},{"id":"53115","name":"Tari Hills","party":"Dem","address":"4021 W Ironwood Dr, Cedar Hills, UT 84062","precinct":"25CH03","hd":"54","v_score":"1.193887297","decile":"3","lat":40.417457172215,"lng":-111.75469782408},{"id":"55429","name":"Tonda Swaniawski","party":"Rep","address":"10268 N Pinion Dr, Cedar Hills, UT 84062","precinct":"25CH03","hd":"54","v_score":"9.35760564","decile":"8","lat":40.418112566372,"lng":-111.76401585719},{"id":"55792","name":"Miss Orilla Howe DVM","party":"Dem","address":"10242 N Pinion Dr, Cedar Hills, UT 84062","precinct":"25CH03","hd":"54","v_score":"1.121327652","decile":"3","lat":40.417710382062,"lng":-111.763899506212},{"id":"56252","name":"Leora Durgan-Muller","party":"Dem","address":"4012 W Oak N Rd, Cedar Hills, UT 84062","precinct":"25CH03","hd":"54","v_score":"6.468038869","decile":"7","lat":40.416082444755,"lng":-111.754991285697},{"id":"56804","name":"Mr. Guillermo Marquardt","party":"","address":"4420 W Hawthorne Ct, Cedar Hills, UT 84062","precinct":"25CH03","hd":"54","v_score":"1.121327652","decile":"3","lat":40.419706298215,"lng":-111.764071233725},{"id":"57846","name":"Mr. Woodrow Kub II","party":"","address":"10144 N Oak W Rd, Cedar Hills, UT 84062","precinct":"25CH03","hd":"54","v_score":"1.121327652","decile":"3","lat":40.416267957224,"lng":-111.760789997705},{"id":"58259","name":"Sherrie Emmerich","party":"Rep","address":"10047 N Sage E Rd, Cedar Hills, UT 84062","precinct":"25CH03","hd":"54","v_score":"2.315214949","decile":"5","lat":40.415433535277,"lng":-111.75950777132},{"id":"58917","name":"Cohen Abernathy","party":"Dem","address":"10126 N Cottonwood Dr, Cedar Hills, UT 84062","precinct":"25CH03","hd":"54","v_score":"3.93832808","decile":"6","lat":40.416909348001,"lng":-111.762431458142},{"id":"59740","name":"Wilson Spencer V","party":"","address":"4249 W Mesquite Way, Cedar Hills, UT 84062","precinct":"25CH03","hd":"54","v_score":"3.93832808","decile":"6","lat":40.419612338576,"lng":-111.760044117309},{"id":"60425","name":"Miss Teresa Effertz PhD","party":"","address":"10357 N Mesquite Way, Cedar Hills, UT 84062","precinct":"25CH03","hd":"54","v_score":"7.617264307","decile":"8","lat":40.419261329157,"lng":-111.759383302424},{"id":"61289","name":"Braelyn Abshire DVM","party":"","address":"10292 N Cottonwood Dr, Cedar Hills, UT 84062","precinct":"25CH03","hd":"54","v_score":"0","decile":"1","lat":40.418993164521,"lng":-111.763111964429},{"id":"61440","name":"Charlotta Stiedemann","party":"","address":"10056 N Sage W Rd, Cedar Hills, UT 84062","precinct":"25CH03","hd":"54","v_score":"1.193887297","decile":"3","lat":40.416198286942,"lng":-111.758144779471},{"id":"62328","name":"Dr. Jarrad Hoppe MD","party":"Rep","address":"10167 N Cottonwood Dr, Cedar Hills, UT 84062","precinct":"25CH03","hd":"54","v_score":"8.875197818","decile":"8","lat":40.417336062609,"lng":-111.762842988109},{"id":"62542","name":"Raphael Prohaska","party":"","address":"10229 N Pinion Dr, Cedar Hills, UT 84062","precinct":"25CH03","hd":"54","v_score":"3.016591252","decile":"6","lat":40.417470344969,"lng":-111.764005462401},{"id":"63530","name":"Patience Padberg-Wolf","party":"","address":"10269 N Sycamore Ln, Cedar Hills, UT 84062","precinct":"25CH03","hd":"54","v_score":"1.623113131","decile":"5","lat":40.418449005189,"lng":-111.756586810422},{"id":"64782","name":"Alexys Kassulke","party":"","address":"4136 W Oak N Rd, Cedar Hills, UT 84062","precinct":"25CH03","hd":"54","v_score":"7.56493005","decile":"8","lat":40.417891642957,"lng":-111.759701260889},{"id":"64952","name":"Tamra Berge PhD","party":"Dem","address":"10346 N Sandalwood Dr, Cedar Hills, UT 84062","precinct":"25CH03","hd":"54","v_score":"22.70134701","decile":"10","lat":40.418524996875,"lng":-111.759684647604},{"id":"65066","name":"Mildred Cummerata","party":"Rep","address":"10145 N Maple Ct, Cedar Hills, UT 84062","precinct":"25CH03","hd":"54","v_score":"3.93832808","decile":"6","lat":40.416062806727,"lng":-111.759672921192},{"id":"66022","name":"Ms. Dulcie Schuppe","party":"Rep","address":"10153 N Pinion Dr, Cedar Hills, UT 84062","precinct":"25CH03","hd":"54","v_score":"8.230583371","decile":"8","lat":40.416273523512,"lng":-111.76363047992},{"id":"66127","name":"Damion Berge","party":"Rep","address":"10167 N Pinion Dr, Cedar Hills, UT 84062","precinct":"25CH03","hd":"54","v_score":"0","decile":"1","lat":40.416490090563,"lng":-111.763714507897},{"id":"67706","name":"Barton Bins","party":"Dem","address":"10364 N Mesquite Way, Cedar Hills, UT 84062","precinct":"25CH03","hd":"54","v_score":"1.193887297","decile":"3","lat":40.419513976408,"lng":-111.759605570514},{"id":"68619","name":"Kiley Maggio-Cruickshank","party":"Rep","address":"4037 W Ironwood Dr, Cedar Hills, UT 84062","precinct":"25CH03","hd":"54","v_score":"8.570402431","decile":"8","lat":40.417588697343,"lng":-111.75513470542},{"id":"69395","name":"Joette Watsica-Torphy","party":"Rep","address":"10042 N Pine Ct, Cedar Hills, UT 84062","precinct":"25CH03","hd":"54","v_score":"12.22362323","decile":"9","lat":40.414202179172,"lng":-111.75516004148},{"id":"69491","name":"Jon Lockman","party":"Dem","address":"10030 N Pine Ct, Cedar Hills, UT 84062","precinct":"25CH03","hd":"54","v_score":"0","decile":"1","lat":40.414132454094,"lng":-111.755158665336},{"id":"70359","name":"Bobby Hilll","party":"Dem","address":"10218 N Sycamore Ln, Cedar Hills, UT 84062","precinct":"25CH03","hd":"54","v_score":"5.287675778","decile":"7","lat":40.417892383174,"lng":-111.756795724781},{"id":"70810","name":"Ephram Fahey Sr.","party":"","address":"10046 N Sage W Rd, Cedar Hills, UT 84062","precinct":"25CH03","hd":"54","v_score":"0","decile":"1","lat":40.416154718167,"lng":-111.757700699864},{"id":"70975","name":"Thomasina Nikolaus","party":"","address":"10255 N Sycamore Ln, Cedar Hills, UT 84062","precinct":"25CH03","hd":"54","v_score":"2.744440783","decile":"5","lat":40.418314970972,"lng":-111.756738089789},{"id":"71325","name":"Vito Crist","party":"Rep","address":"10030 N Pine Ct, Cedar Hills, UT 84062","precinct":"25CH03","hd":"54","v_score":"2.315214949","decile":"5","lat":40.414132454094,"lng":-111.755158665336},{"id":"71411","name":"Mrs. Cristin Heaney","party":"Rep","address":"10481 N Cottonwood Dr, Cedar Hills, UT 84062","precinct":"25CH03","hd":"54","v_score":"9.591057611","decile":"8","lat":40.420736911122,"lng":-111.763627053613},{"id":"71627","name":"Elmyra Monahan","party":"Rep","address":"10088 N Sage E Rd, Cedar Hills, UT 84062","precinct":"25CH03","hd":"54","v_score":"1.121327652","decile":"3","lat":40.415076950001,"lng":-111.756415937658},{"id":"74782","name":"Mr. Ted Cummings","party":"","address":"4253 W Sumac Ct, Cedar Hills, UT 84062","precinct":"25CH03","hd":"54","v_score":"3.93832808","decile":"6","lat":40.415660328674,"lng":-111.760774361496},{"id":"74895","name":"Bronson Runolfsson","party":"Dem","address":"10138 N Cottonwood Dr, Cedar Hills, UT 84062","precinct":"25CH03","hd":"54","v_score":"3.93832808","decile":"6","lat":40.417047253575,"lng":-111.762511298182},{"id":"75062","name":"Brody McKenzie","party":"","address":"4095 W Cedar Hills Dr, Cedar Hills, UT 84062","precinct":"25CH03","hd":"54","v_score":"2.744440783","decile":"5","lat":40.413823687969,"lng":-111.756738742851},{"id":"75253","name":"Rosario Hansen-Walker","party":"","address":"4381 W Dogwood Ln, Cedar Hills, UT 84062","precinct":"25CH03","hd":"54","v_score":"3.93832808","decile":"6","lat":40.418779808068,"lng":-111.763420905406},{"id":"75288","name":"Michaela Rohan","party":"Dem","address":"4236 W Cedar Hills Dr, Cedar Hills, UT 84062","precinct":"25CH03","hd":"54","v_score":"1.121327652","decile":"3","lat":40.414106045556,"lng":-111.760050491514},{"id":"75691","name":"Ms. Rosy Stiedemann","party":"Dem","address":"10018 N Pine Ct, Cedar Hills, UT 84062","precinct":"25CH03","hd":"54","v_score":"2.315214949","decile":"5","lat":40.414062729015,"lng":-111.755157289193},{"id":"76408","name":"Miss Dee Ondricka PhD","party":"Rep","address":"10167 N Cottonwood Dr, Cedar Hills, UT 84062","precinct":"25CH03","hd":"54","v_score":"8.875197818","decile":"8","lat":40.417336062609,"lng":-111.762842988109},{"id":"76521","name":"Tierra Hansen","party":"","address":"10094 N Oak W Rd, Cedar Hills, UT 84062","precinct":"25CH03","hd":"54","v_score":"2.315214949","decile":"5","lat":40.415609660741,"lng":-111.761117618893},{"id":"77187","name":"Ms. Miriah Jacobson DVM","party":"Dem","address":"4068 W Cedar Hills Dr, Cedar Hills, UT 84062","precinct":"25CH03","hd":"54","v_score":"1.121327652","decile":"3","lat":40.41395390823,"lng":-111.75542363453},{"id":"78492","name":"Elberta Prosacco PhD","party":"","address":"4001 W Ironwood Dr, Cedar Hills, UT 84062","precinct":"25CH03","hd":"54","v_score":"12.08877916","decile":"9","lat":40.417346429843,"lng":-111.754284816331},{"id":"79210","name":"Claud Goyette","party":"Rep","address":"10130 N Maple Ct, Cedar Hills, UT 84062","precinct":"25CH03","hd":"54","v_score":"1.121327652","decile":"3","lat":40.416038166597,"lng":-111.759456862099},{"id":"79302","name":"Cambria Haag-Trantow","party":"Rep","address":"9992 N 4000 W, Cedar Hills, UT 84062","precinct":"25CH03","hd":"54","v_score":"2.315214949","decile":"5","lat":40.413471286952,"lng":-111.75426758635},{"id":"79335","name":"Eleonore Brown-Ruecker","party":"Dem","address":"10089 N Oak E Rd, Cedar Hills, UT 84062","precinct":"25CH03","hd":"54","v_score":"3.93832808","decile":"6","lat":40.415455820653,"lng":-111.754579797335},{"id":"79405","name":"Lucius Gutmann-Skiles","party":"Dem","address":"10089 N Oak E Rd, Cedar Hills, UT 84062","precinct":"25CH03","hd":"54","v_score":"3.93832808","decile":"6","lat":40.415455820653,"lng":-111.754579797335},{"id":"81212","name":"Theta Cronin","party":"Rep","address":"4416 W Redwood Dr, Cedar Hills, UT 84062","precinct":"25CH03","hd":"54","v_score":"0","decile":"1","lat":40.420651407124,"lng":-111.764863462403},{"id":"83740","name":"Launa Bogisich-Pacocha","party":"Rep","address":"10407 N Mesquite Way, Cedar Hills, UT 84062","precinct":"25CH03","hd":"54","v_score":"1.193887297","decile":"3","lat":40.420726350616,"lng":-111.760371526654},{"id":"85005","name":"Dr. Ina Ondricka DDS","party":"Rep","address":"10089 N Sage E Rd, Cedar Hills, UT 84062","precinct":"25CH03","hd":"54","v_score":"2.817000428","decile":"6","lat":40.415445857104,"lng":-111.759504348589},{"id":"85137","name":"Golden Emard","party":"","address":"4261 W Sumac Ct, Cedar Hills, UT 84062","precinct":"25CH03","hd":"54","v_score":"0","decile":"1","lat":40.415667080084,"lng":-111.760788539453},{"id":"85155","name":"Mr. Archibald Gulgowski","party":"Dem","address":"4186 W Cedar Hills Dr, Cedar Hills, UT 84062","precinct":"25CH03","hd":"54","v_score":"7.781882349","decile":"8","lat":40.413939287248,"lng":-111.758797484341},{"id":"85251","name":"Rohan Harvey","party":"Rep","address":"10393 N Birch Cv, Cedar Hills, UT 84062","precinct":"25CH03","hd":"54","v_score":"5.360235423","decile":"7","lat":40.420539423275,"lng":-111.758465382259},{"id":"85367","name":"Karma Lockman","party":"","address":"10361 N Sandalwood Dr, Cedar Hills, UT 84062","precinct":"25CH03","hd":"54","v_score":"2.817000428","decile":"6","lat":40.418790611763,"lng":-111.760528544802},{"id":"86006","name":"Harmony Batz","party":"","address":"4285 W Sandalwood Dr, Cedar Hills, UT 84062","precinct":"25CH03","hd":"54","v_score":"0","decile":"1","lat":40.420120495786,"lng":-111.761348095357},{"id":"86289","name":"Alonza Crona DVM","party":"Rep","address":"10178 N Pinion Dr, Cedar Hills, UT 84062","precinct":"25CH03","hd":"54","v_score":"1.193887297","decile":"4","lat":40.416708183717,"lng":-111.763642189093},{"id":"86575","name":"Darla Stark","party":"Dem","address":"10047 N Sage E Rd, Cedar Hills, UT 84062","precinct":"25CH03","hd":"54","v_score":"1.193887297","decile":"4","lat":40.415433535277,"lng":-111.75950777132},{"id":"86635","name":"Miss Berneice Abernathy DVM","party":"Dem","address":"10052 N Pine Ct, Cedar Hills, UT 84062","precinct":"25CH03","hd":"54","v_score":"9.907118004","decile":"8","lat":40.414260283405,"lng":-111.755161188266},{"id":"87109","name":"Valentina Hagenes","party":"Dem","address":"4129 W Mesquite Way, Cedar Hills, UT 84062","precinct":"25CH03","hd":"54","v_score":"4.639704383","decile":"7","lat":40.418813483522,"lng":-111.757569643424},{"id":"87554","name":"Agnes Gislason","party":"","address":"10364 N Mesquite Way, Cedar Hills, UT 84062","precinct":"25CH03","hd":"54","v_score":"1.193887297","decile":"4","lat":40.419513976408,"lng":-111.759605570514},{"id":"87664","name":"Gary Jacobi","party":"","address":"10125 N Pinion Dr, Cedar Hills, UT 84062","precinct":"25CH03","hd":"54","v_score":"8.284004873","decile":"8","lat":40.415856828509,"lng":-111.763467644016},{"id":"87913","name":"Tilden Watsica","party":"Dem","address":"10052 N Poplar Ct, Cedar Hills, UT 84062","precinct":"25CH03","hd":"54","v_score":"2.817000428","decile":"6","lat":40.414528728537,"lng":-111.760581714704},{"id":"88886","name":"Layton VonRueden","party":"Dem","address":"4021 W Ironwood Dr, Cedar Hills, UT 84062","precinct":"25CH03","hd":"54","v_score":"0","decile":"1","lat":40.417457172215,"lng":-111.75469782408},{"id":"89367","name":"Oneida Steuber DVM","party":"","address":"9992 N 4160 W, Cedar Hills, UT 84062","precinct":"25CH03","hd":"54","v_score":"6.462591196","decile":"7","lat":40.413731287331,"lng":-111.758041794754},{"id":"89765","name":"Jessie Pfannerstill","party":"","address":"10167 N Pinion Dr, Cedar Hills, UT 84062","precinct":"25CH03","hd":"54","v_score":"5.407962308","decile":"7","lat":40.416490090563,"lng":-111.763714507897},{"id":"90398","name":"Kalel Blick","party":"Dem","address":"10167 N Cottonwood Dr, Cedar Hills, UT 84062","precinct":"25CH03","hd":"54","v_score":"2.817000428","decile":"6","lat":40.417336062609,"lng":-111.762842988109},{"id":"91134","name":"Evelena Douglas","party":"","address":"10236 N Sycamore Ln, Cedar Hills, UT 84062","precinct":"25CH03","hd":"54","v_score":"0","decile":"1","lat":40.418094285518,"lng":-111.756733324619},{"id":"91293","name":"Mr. Aedan Kling","party":"","address":"4254 W Joshua Ln, Cedar Hills, UT 84062","precinct":"25CH03","hd":"54","v_score":"1.193887297","decile":"4","lat":40.420519613104,"lng":-111.759551601857},{"id":"91309","name":"Darrius O'Reilly","party":"Dem","address":"4197 W Sandalwood Dr, Cedar Hills, UT 84062","precinct":"25CH03","hd":"54","v_score":"1.193887297","decile":"4","lat":40.418398341013,"lng":-111.759708857395},{"id":"91763","name":"Gay Weber","party":"Dem","address":"4137 W Mesquite Way, Cedar Hills, UT 84062","precinct":"25CH03","hd":"54","v_score":"5.693042993","decile":"7","lat":40.418770884972,"lng":-111.757744770843},{"id":"92360","name":"Shaneka Stamm","party":"","address":"4183 W Mesquite Way, Cedar Hills, UT 84062","precinct":"25CH03","hd":"54","v_score":"1.193887297","decile":"4","lat":40.418949516502,"lng":-111.758799019426},{"id":"92453","name":"Dr. Aaron Tromp","party":"","address":"10472 N Cottonwood Dr, Cedar Hills, UT 84062","precinct":"25CH03","hd":"54","v_score":"0","decile":"1","lat":40.420276751233,"lng":-111.763460400769},{"id":"92717","name":"Dorathea Heaney-McKenzie","party":"","address":"4259 W Mesquite Way, Cedar Hills, UT 84062","precinct":"25CH03","hd":"54","v_score":"5.360235423","decile":"7","lat":40.419762976414,"lng":-111.760216862121},{"id":"92933","name":"Julien Davis","party":"","address":"10036 N Sage W Rd, Cedar Hills, UT 84062","precinct":"25CH03","hd":"54","v_score":"0","decile":"1","lat":40.415963637741,"lng":-111.757353777785},{"id":"93109","name":"Rondal Johns","party":"","address":"4252 W Mesquite Way, Cedar Hills, UT 84062","precinct":"25CH03","hd":"54","v_score":"0","decile":"1","lat":40.419745643321,"lng":-111.760007382336},{"id":"93413","name":"Shannen Schaden","party":"Rep","address":"10046 N Sage W Rd, Cedar Hills, UT 84062","precinct":"25CH03","hd":"54","v_score":"0","decile":"1","lat":40.416154718167,"lng":-111.757700699864},{"id":"93519","name":"Buell Mertz","party":"","address":"4064 W Cedar Hills Dr, Cedar Hills, UT 84062","precinct":"25CH03","hd":"54","v_score":"5.407962308","decile":"7","lat":40.413955957792,"lng":-111.755306296563},{"id":"93823","name":"Kevon Kozey","party":"","address":"4198 W Sandalwood Dr, Cedar Hills, UT 84062","precinct":"25CH03","hd":"54","v_score":"1.193887297","decile":"4","lat":40.418594527439,"lng":-111.759816389686},{"id":"94053","name":"Caitlin McCullough","party":"","address":"4230 W Sandalwood Dr, Cedar Hills, UT 84062","precinct":"25CH03","hd":"54","v_score":"2.817000428","decile":"6","lat":40.419007366262,"lng":-111.760665840219},{"id":"95089","name":"Pamala Goldner","party":"","address":"4419 W Redwood Dr, Cedar Hills, UT 84062","precinct":"25CH03","hd":"54","v_score":"13.61907049","decile":"9","lat":40.420536812416,"lng":-111.764867455744},{"id":"95992","name":"Ronaldo Bayer","party":"","address":"4163 W Sandalwood Dr, Cedar Hills, UT 84062","precinct":"25CH03","hd":"54","v_score":"0","decile":"1","lat":40.417954976941,"lng":-111.758721689392},{"id":"96438","name":"Jonna Jaskolski-Schamberger","party":"","address":"10152 N Pinion Dr, Cedar Hills, UT 84062","precinct":"25CH03","hd":"54","v_score":"1.193887297","decile":"4","lat":40.416305987764,"lng":-111.763486137135},{"id":"96645","name":"Elouise Schoen","party":"","address":"10086 N Sage W Rd, Cedar Hills, UT 84062","precinct":"25CH03","hd":"54","v_score":"1.193887297","decile":"4","lat":40.415421676519,"lng":-111.759357228075},{"id":"96832","name":"Marco Hamill-Von","party":"","address":"10089 N Sage E Rd, Cedar Hills, UT 84062","precinct":"25CH03","hd":"54","v_score":"2.817000428","decile":"6","lat":40.415445857104,"lng":-111.759504348589},{"id":"97462","name":"Elliana O'Keefe DDS","party":"Dem","address":"4163 W Sandalwood Dr, Cedar Hills, UT 84062","precinct":"25CH03","hd":"54","v_score":"1.193887297","decile":"4","lat":40.417954976941,"lng":-111.758721689392},{"id":"98249","name":"Maymie Simonis PhD","party":"","address":"4249 W Mesquite Way, Cedar Hills, UT 84062","precinct":"25CH03","hd":"54","v_score":"7.031075439","decile":"8","lat":40.419612338576,"lng":-111.760044117309},{"id":"98754","name":"Isiah Wiza","party":"","address":"10040 N Sage E Rd, Cedar Hills, UT 84062","precinct":"25CH03","hd":"54","v_score":"1.193887297","decile":"4","lat":40.416050880862,"lng":-111.757480255453},{"id":"98900","name":"Drema Emmerich","party":"Dem","address":"10153 N Maple Ct, Cedar Hills, UT 84062","precinct":"25CH03","hd":"54","v_score":"0","decile":"1","lat":40.416117143197,"lng":-111.75972855137},{"id":"99427","name":"Angelo Braun","party":"Rep","address":"10255 N Sycamore Ln, Cedar Hills, UT 84062","precinct":"25CH03","hd":"54","v_score":"1.193887297","decile":"4","lat":40.418314970972,"lng":-111.756738089789},{"id":"99698","name":"Ms. Evie Boyle","party":"Rep","address":"10239 N Cottonwood Dr, Cedar Hills, UT 84062","precinct":"25CH03","hd":"54","v_score":"0","decile":"1","lat":40.41824776527,"lng":-111.763050201205},{"id":"99825","name":"Mathew Ullrich V","party":"","address":"4239 W Joshua Ln, Cedar Hills, UT 84062","precinct":"25CH03","hd":"54","v_score":"0","decile":"1","lat":40.420171032585,"lng":-111.759066015396},{"id":"99893","name":"Dr. Lessie Kohler","party":"","address":"4152 W Oak N Rd, Cedar Hills, UT 84062","precinct":"25CH03","hd":"54","v_score":"4.069929862","decile":"6","lat":40.418172759225,"lng":-111.760290573248},{"id":"99955","name":"Bronson Metz","party":"","address":"4259 W Mesquite Way, Cedar Hills, UT 84062","precinct":"25CH03","hd":"54","v_score":"2.876042565","decile":"6","lat":40.419762976414,"lng":-111.760216862121},{"id":"100593","name":"Terrence Reinger MD","party":"Dem","address":"10393 N Birch Cv, Cedar Hills, UT 84062","precinct":"25CH03","hd":"54","v_score":"0","decile":"1","lat":40.420539423275,"lng":-111.758465382259},{"id":"101790","name":"Mr. Nicholaus Gutkowski","party":"","address":"4260 W Joshua Ln, Cedar Hills, UT 84062","precinct":"25CH03","hd":"54","v_score":"0","decile":"2","lat":40.420559856571,"lng":-111.759773987202},{"id":"104738","name":"Mason Ritchie","party":"Rep","address":"10040 N Sage E Rd, Cedar Hills, UT 84062","precinct":"25CH03","hd":"54","v_score":"0","decile":"2","lat":40.416050880862,"lng":-111.757480255453},{"id":"104932","name":"Hideo Beer-Schinner","party":"Dem","address":"9992 N 4160 W, Cedar Hills, UT 84062","precinct":"25CH03","hd":"54","v_score":"2.876042565","decile":"6","lat":40.413731287331,"lng":-111.758041794754},{"id":"105206","name":"Luka Gottlieb","party":"Rep","address":"4040 W Juniper Rd, Cedar Hills, UT 84062","precinct":"25CH03","hd":"54","v_score":"4.905839784","decile":"7","lat":40.415449123914,"lng":-111.755439580637},{"id":"105706","name":"Mr. Orvis Bayer","party":"Rep","address":"10051 N Poplar Ct, Cedar Hills, UT 84062","precinct":"25CH03","hd":"54","v_score":"0","decile":"2","lat":40.414604535978,"lng":-111.760694982326},{"id":"106646","name":"Miss Lizbeth Corwin","party":"Dem","address":"10153 N Pinion Dr, Cedar Hills, UT 84062","precinct":"25CH03","hd":"54","v_score":"0","decile":"2","lat":40.416273523512,"lng":-111.76363047992},{"id":"106673","name":"Mila Stiedemann","party":"","address":"4028 W Juniper Rd, Cedar Hills, UT 84062","precinct":"25CH03","hd":"54","v_score":"0","decile":"2","lat":40.415526523997,"lng":-111.755239460654},{"id":"107513","name":"Jonah Towne V","party":"Rep","address":"10218 N Sycamore Ln, Cedar Hills, UT 84062","precinct":"25CH03","hd":"54","v_score":"0","decile":"2","lat":40.417892383174,"lng":-111.756795724781},{"id":"107655","name":"Mr. Diamond Torphy","party":"Rep","address":"4054 W Juniper Rd, Cedar Hills, UT 84062","precinct":"25CH03","hd":"54","v_score":"1.193887297","decile":"4","lat":40.415358823818,"lng":-111.75567305395},{"id":"107917","name":"Diane Bartoletti","party":"Rep","address":"10467 N Cottonwood Dr, Cedar Hills, UT 84062","precinct":"25CH03","hd":"54","v_score":"1.193887297","decile":"4","lat":40.4207152375,"lng":-111.763628458387},{"id":"108070","name":"Lannie Labadie","party":"Rep","address":"4285 W Sandalwood Dr, Cedar Hills, UT 84062","precinct":"25CH03","hd":"54","v_score":"0","decile":"2","lat":40.420120495786,"lng":-111.761348095357},{"id":"108543","name":"Manuel Gottlieb","party":"Rep","address":"10053 N Pine Ct, Cedar Hills, UT 84062","precinct":"25CH03","hd":"54","v_score":"0","decile":"2","lat":40.414258561617,"lng":-111.75531167592},{"id":"108697","name":"Miss Danelle Dooley DDS","party":"","address":"4021 W Ironwood Dr, Cedar Hills, UT 84062","precinct":"25CH03","hd":"54","v_score":"0","decile":"2","lat":40.417457172215,"lng":-111.75469782408},{"id":"108807","name":"Seth Oberbrunner","party":"Rep","address":"4431 W Redwood Dr, Cedar Hills, UT 84062","precinct":"25CH03","hd":"54","v_score":"0","decile":"2","lat":40.420539435107,"lng":-111.76493105588},{"id":"109214","name":"Kevin Reinger PhD","party":"","address":"4285 W Sandalwood Dr, Cedar Hills, UT 84062","precinct":"25CH03","hd":"54","v_score":"1.193887297","decile":"4","lat":40.420120495786,"lng":-111.761348095357},{"id":"109551","name":"Mr. Gorden Hartmann V","party":"Rep","address":"4202 W Cedar Hills Dr, Cedar Hills, UT 84062","precinct":"25CH03","hd":"54","v_score":"5.407962308","decile":"7","lat":40.413940100966,"lng":-111.759176266786},{"id":"110202","name":"Siddie Kirlin PhD","party":"","address":"4040 W Juniper Rd, Cedar Hills, UT 84062","precinct":"25CH03","hd":"54","v_score":"1.193887297","decile":"4","lat":40.415449123914,"lng":-111.755439580637},{"id":"110889","name":"Ms. Eboni Emmerich MD","party":"","address":"4158 W Sandalwood Dr, Cedar Hills, UT 84062","precinct":"25CH03","hd":"54","v_score":"0","decile":"2","lat":40.418091001333,"lng":-111.758756686645},{"id":"111032","name":"Chadrick Renner","party":"Dem","address":"4416 W Redwood Dr, Cedar Hills, UT 84062","precinct":"25CH03","hd":"54","v_score":"0","decile":"2","lat":40.420651407124,"lng":-111.764863462403},{"id":"111486","name":"Stephan Thompson","party":"","address":"10038 N Willow Ct, Cedar Hills, UT 84062","precinct":"25CH03","hd":"54","v_score":"0","decile":"2","lat":40.414480093192,"lng":-111.757320963429},{"id":"112219","name":"Mr. Math Frami DDS","party":"Rep","address":"4252 W Sumac Ct, Cedar Hills, UT 84062","precinct":"25CH03","hd":"54","v_score":"0","decile":"2","lat":40.41575748242,"lng":-111.760694551008},{"id":"112443","name":"Winford Sauer","party":"Rep","address":"10036 N Sage W Rd, Cedar Hills, UT 84062","precinct":"25CH03","hd":"54","v_score":"0","decile":"2","lat":40.415963637741,"lng":-111.757353777785},{"id":"113164","name":"Kaylene Simonis MD","party":"Dem","address":"4140 W Sandalwood Dr, Cedar Hills, UT 84062","precinct":"25CH03","hd":"54","v_score":"0","decile":"2","lat":40.417977714962,"lng":-111.758220528389},{"id":"113383","name":"Mrs. Janay Thompson MD","party":"Dem","address":"10047 N Sage E Rd, Cedar Hills, UT 84062","precinct":"25CH03","hd":"54","v_score":"0","decile":"2","lat":40.415433535277,"lng":-111.75950777132},{"id":"113524","name":"Aida Nolan","party":"Dem","address":"10167 N Pinion Dr, Cedar Hills, UT 84062","precinct":"25CH03","hd":"54","v_score":"0","decile":"2","lat":40.416490090563,"lng":-111.763714507897},{"id":"113530","name":"Lena McKenzie-Ferry","party":"Rep","address":"10167 N Pinion Dr, Cedar Hills, UT 84062","precinct":"25CH03","hd":"54","v_score":"0","decile":"2","lat":40.416490090563,"lng":-111.763714507897},{"id":"115238","name":"Adrianne Lindgren","party":"","address":"10360 N Sandalwood Dr, Cedar Hills, UT 84062","precinct":"25CH03","hd":"54","v_score":"0","decile":"2","lat":40.418883531342,"lng":-111.760440460732},{"id":"116885","name":"Casen Gusikowski","party":"Rep","address":"10166 N Pinion Dr, Cedar Hills, UT 84062","precinct":"25CH03","hd":"54","v_score":"0","decile":"2","lat":40.416522554816,"lng":-111.763570165112},{"id":"117100","name":"Delcie Rodriguez","party":"Dem","address":"10038 N Willow Ct, Cedar Hills, UT 84062","precinct":"25CH03","hd":"54","v_score":"1.193887297","decile":"4","lat":40.414480093192,"lng":-111.757320963429},{"id":"117533","name":"Wilhelmine Pfannerstill PhD","party":"","address":"10082 N Oak W Rd, Cedar Hills, UT 84062","precinct":"25CH03","hd":"54","v_score":"1.193887297","decile":"4","lat":40.415425906226,"lng":-111.76111852217},{"id":"118410","name":"Jaxton Leffler-Jacobs","party":"Rep","address":"4129 W Mesquite Way, Cedar Hills, UT 84062","precinct":"25CH03","hd":"54","v_score":"0","decile":"2","lat":40.418813483522,"lng":-111.757569643424},{"id":"119729","name":"Curley Buckridge","party":"Rep","address":"10328 N Cottonwood Dr, Cedar Hills, UT 84062","precinct":"25CH03","hd":"54","v_score":"1.193887297","decile":"4","lat":40.419515520187,"lng":-111.763301574947},{"id":"119746","name":"Dr. Fletcher Bruen","party":"Rep","address":"4045 W Juniper Rd, Cedar Hills, UT 84062","precinct":"25CH03","hd":"54","v_score":"1.193887297","decile":"4","lat":40.415321158464,"lng":-111.755438121746},{"id":"119812","name":"Bonny DuBuque","party":"","address":"4063 W Ironwood Dr, Cedar Hills, UT 84062","precinct":"25CH03","hd":"54","v_score":"1.193887297","decile":"4","lat":40.417840676515,"lng":-111.75567114638},{"id":"119856","name":"Pranav Tremblay","party":"Dem","address":"4259 W Mesquite Way, Cedar Hills, UT 84062","precinct":"25CH03","hd":"54","v_score":"1.193887297","decile":"4","lat":40.419762976414,"lng":-111.760216862121},{"id":"120656","name":"Mr. Gauge Gorczany PhD","party":"Rep","address":"10181 N Pinion Dr, Cedar Hills, UT 84062","precinct":"25CH03","hd":"54","v_score":"0","decile":"2","lat":40.416706657615,"lng":-111.763798535875},{"id":"121710","name":"Mrs. Lu McCullough","party":"Dem","address":"4181 W Joshua Ln, Cedar Hills, UT 84062","precinct":"25CH03","hd":"54","v_score":"4.069929862","decile":"7","lat":40.419766326693,"lng":-111.7582700214},{"id":"122990","name":"Aarav Ruecker-Schroeder","party":"Dem","address":"10407 N Mesquite Way, Cedar Hills, UT 84062","precinct":"25CH03","hd":"54","v_score":"1.193887297","decile":"4","lat":40.420726350616,"lng":-111.760371526654},{"id":"125626","name":"Tommy Willms","party":"Dem","address":"10139 N Pinion Dr, Cedar Hills, UT 84062","precinct":"25CH03","hd":"54","v_score":"0","decile":"2","lat":40.41605695646,"lng":-111.763546451942},{"id":"125777","name":"Adel Shanahan DDS","party":"Dem","address":"10040 N Sage E Rd, Cedar Hills, UT 84062","precinct":"25CH03","hd":"54","v_score":"0","decile":"2","lat":40.416050880862,"lng":-111.757480255453},{"id":"126432","name":"Esteban Bode-Lebsack","party":"Dem","address":"10071 N Sage W Rd, Cedar Hills, UT 84062","precinct":"25CH03","hd":"54","v_score":"0","decile":"2","lat":40.415440576321,"lng":-111.759505815474},{"id":"128416","name":"Ms. Rosanne Moore MD","party":"Dem","address":"10097 N Sage W Rd, Cedar Hills, UT 84062","precinct":"25CH03","hd":"54","v_score":"0","decile":"2","lat":40.415448204118,"lng":-111.75950369664},{"id":"130049","name":"Dr. Bayard Quigley DVM","party":"Rep","address":"4054 W Juniper Rd, Cedar Hills, UT 84062","precinct":"25CH03","hd":"54","v_score":"0","decile":"2","lat":40.415358823818,"lng":-111.75567305395},{"id":"132162","name":"Adah Hilll","party":"","address":"10197 N Pinion Dr, Cedar Hills, UT 84062","precinct":"25CH03","hd":"54","v_score":"0","decile":"2","lat":40.416954162817,"lng":-111.763894567849},{"id":"133027","name":"Mr. Randal Kutch Sr.","party":"","address":"10472 N Cottonwood Dr, Cedar Hills, UT 84062","precinct":"25CH03","hd":"54","v_score":"0","decile":"2","lat":40.420276751233,"lng":-111.763460400769},{"id":"133108","name":"Amos Altenwerth-Kilback","party":"Dem","address":"10146 N Maple Ct, Cedar Hills, UT 84062","precinct":"25CH03","hd":"54","v_score":"0","decile":"2","lat":40.416146839536,"lng":-111.759568122456},{"id":"133735","name":"Shannan Reinger","party":"","address":"4336 W Cedar Hills Dr, Cedar Hills, UT 84062","precinct":"25CH03","hd":"54","v_score":"0","decile":"2","lat":40.415110050997,"lng":-111.761729812498},{"id":"134378","name":"Cathern Russel","party":"Dem","address":"4381 W Dogwood Ln, Cedar Hills, UT 84062","precinct":"25CH03","hd":"54","v_score":"0","decile":"2","lat":40.418779808068,"lng":-111.763420905406},{"id":"135558","name":"Ilona McCullough-Konopelski","party":"","address":"10462 N Cottonwood Dr, Cedar Hills, UT 84062","precinct":"25CH03","hd":"54","v_score":"5.40460374","decile":"7","lat":40.420214899346,"lng":-111.763451122995},{"id":"135559","name":"Kaila Murphy","party":"Rep","address":"10462 N Cottonwood Dr, Cedar Hills, UT 84062","precinct":"25CH03","hd":"54","v_score":"5.40460374","decile":"7","lat":40.420214899346,"lng":-111.763451122995},{"id":"135791","name":"Wendi Rutherford","party":"Rep","address":"9978 N 4160 W, Cedar Hills, UT 84062","precinct":"25CH03","hd":"54","v_score":"9.116556227","decile":"8","lat":40.413514870107,"lng":-111.758044944858},{"id":"136123","name":"Hailey Crist","party":"","address":"10389 N Ironwood Dr, Cedar Hills, UT 84062","precinct":"25CH03","hd":"54","v_score":"2.315214949","decile":"5","lat":40.4210485841,"lng":-111.757477658777},{"id":"136195","name":"Cam Cormier","party":"","address":"10047 N Sage E Rd, Cedar Hills, UT 84062","precinct":"25CH03","hd":"54","v_score":"2.315214949","decile":"5","lat":40.415433535277,"lng":-111.75950777132},{"id":"136510","name":"Mr. Arne Wolff IV","party":"","address":"10130 N Maple Ct, Cedar Hills, UT 84062","precinct":"25CH03","hd":"54","v_score":"1.121327652","decile":"3","lat":40.416038166597,"lng":-111.759456862099},{"id":"136528","name":"Mr. Linus Lehner","party":"Rep","address":"10145 N Maple Ct, Cedar Hills, UT 84062","precinct":"25CH03","hd":"54","v_score":"11.9931021","decile":"9","lat":40.416062806727,"lng":-111.759672921192},{"id":"136976","name":"Breann Lesch","party":"Dem","address":"4212 W Mesquite Way, Cedar Hills, UT 84062","precinct":"25CH03","hd":"54","v_score":"1.193887297","decile":"4","lat":40.419345130337,"lng":-111.759277335886},{"id":"137005","name":"Dr. Stevie Thiel PhD","party":"","address":"10343 N Ironwood Dr, Cedar Hills, UT 84062","precinct":"25CH03","hd":"54","v_score":"2.587603312","decile":"5","lat":40.420067374383,"lng":-111.756854858483},{"id":"137031","name":"Carrie Harris","party":"Rep","address":"4037 W Ironwood Dr, Cedar Hills, UT 84062","precinct":"25CH03","hd":"54","v_score":"33.08081089","decile":"10","lat":40.417588697343,"lng":-111.75513470542},{"id":"137771","name":"Captain Crona-D'Amore","party":"","address":"10364 N Mesquite Way, Cedar Hills, UT 84062","precinct":"25CH03","hd":"54","v_score":"5.40460374","decile":"7","lat":40.419513976408,"lng":-111.759605570514},{"id":"138347","name":"Ceil Rempel","party":"Rep","address":"4322 W Cedar Hills Dr, Cedar Hills, UT 84062","precinct":"25CH03","hd":"54","v_score":"0","decile":"2","lat":40.415069063911,"lng":-111.761658589813},{"id":"138348","name":"Margarita Abshire-Reynolds","party":"Dem","address":"4322 W Cedar Hills Dr, Cedar Hills, UT 84062","precinct":"25CH03","hd":"54","v_score":"8.347511332","decile":"8","lat":40.415069063911,"lng":-111.761658589813},{"id":"138451","name":"Dr. Gorge Konopelski MD","party":"Rep","address":"10212 N Pinion Dr, Cedar Hills, UT 84062","precinct":"25CH03","hd":"54","v_score":"33.24848954","decile":"10","lat":40.4172380596,"lng":-111.763813514747},{"id":"138764","name":"Mamie Lueilwitz","party":"Rep","address":"4252 W Sumac Ct, Cedar Hills, UT 84062","precinct":"25CH03","hd":"54","v_score":"29.90463221","decile":"10","lat":40.41575748242,"lng":-111.760694551008},{"id":"139437","name":"Ms. Mickie Powlowski PhD","party":"Dem","address":"4033 W Juniper Rd, Cedar Hills, UT 84062","precinct":"25CH03","hd":"54","v_score":"3.781490609","decile":"6","lat":40.415398558547,"lng":-111.755238001764},{"id":"141172","name":"Camila Lueilwitz DVM","party":"","address":"9992 N 4160 W, Cedar Hills, UT 84062","precinct":"25CH03","hd":"54","v_score":"29.99952997","decile":"10","lat":40.413731287331,"lng":-111.758041794754},{"id":"141664","name":"Mr. Jimmie Legros DDS","party":"","address":"4438 W Redwood Dr, Cedar Hills, UT 84062","precinct":"25CH03","hd":"54","v_score":"12.49472132","decile":"9","lat":40.420657051611,"lng":-111.765000340957},{"id":"142439","name":"Hakeem Marvin","party":"","address":"4261 W Sumac Ct, Cedar Hills, UT 84062","precinct":"25CH03","hd":"54","v_score":"5.40460374","decile":"7","lat":40.415667080084,"lng":-111.760788539453},{"id":"142607","name":"Mr. Nat Goodwin IV","party":"","address":"10152 N Pinion Dr, Cedar Hills, UT 84062","precinct":"25CH03","hd":"54","v_score":"3.93832808","decile":"6","lat":40.416305987764,"lng":-111.763486137135},{"id":"142755","name":"Amon Witting","party":"","address":"10038 N Willow Ct, Cedar Hills, UT 84062","precinct":"25CH03","hd":"54","v_score":"5.40460374","decile":"7","lat":40.414480093192,"lng":-111.757320963429},{"id":"142902","name":"Winton Thiel","party":"Rep","address":"10483 N Mesquite Way, Cedar Hills, UT 84062","precinct":"25CH03","hd":"54","v_score":"12.65668843","decile":"9","lat":40.422353913037,"lng":-111.760027968219},{"id":"142989","name":"Dr. Ansel Koss","party":"","address":"10483 N Mesquite Way, Cedar Hills, UT 84062","precinct":"25CH03","hd":"54","v_score":"15.19992342","decile":"9","lat":40.422353913037,"lng":-111.760027968219},{"id":"143039","name":"Vesta Yost PhD","party":"","address":"10036 N Sage W Rd, Cedar Hills, UT 84062","precinct":"25CH03","hd":"54","v_score":"0","decile":"3","lat":40.415963637741,"lng":-111.757353777785},{"id":"143595","name":"Tyler Quitzon III","party":"","address":"4219 W Joshua Ln, Cedar Hills, UT 84062","precinct":"25CH03","hd":"54","v_score":"1.121327652","decile":"3","lat":40.42002164739,"lng":-111.758762745},{"id":"144628","name":"Mr. Wardell Boyle III","party":"Dem","address":"10125 N Cottonwood Dr, Cedar Hills, UT 84062","precinct":"25CH03","hd":"54","v_score":"15.00919004","decile":"9","lat":40.41685004123,"lng":-111.762561607413},{"id":"145067","name":"Dr. Abram Shanahan IV","party":"","address":"10197 N Pinion Dr, Cedar Hills, UT 84062","precinct":"25CH03","hd":"54","v_score":"1.193887297","decile":"4","lat":40.416954162817,"lng":-111.763894567849},{"id":"145533","name":"Nicola Schmidt-Strosin","party":"","address":"10047 N Sage E Rd, Cedar Hills, UT 84062","precinct":"25CH03","hd":"54","v_score":"2.315214949","decile":"5","lat":40.415433535277,"lng":-111.75950777132},{"id":"145652","name":"Dr. Martell Ferry","party":"Rep","address":"4183 W Mesquite Way, Cedar Hills, UT 84062","precinct":"25CH03","hd":"54","v_score":"1.193887297","decile":"4","lat":40.418949516502,"lng":-111.758799019426},{"id":"147524","name":"Bernard Hamill","party":"Rep","address":"10069 N Poplar Ct, Cedar Hills, UT 84062","precinct":"25CH03","hd":"54","v_score":"24.8691994","decile":"10","lat":40.414650801708,"lng":-111.7606343367},{"id":"147677","name":"Mrs. Ethyl Barton MD","party":"Dem","address":"4196 W Mesquite Way, Cedar Hills, UT 84062","precinct":"25CH03","hd":"54","v_score":"22.89645525","decile":"10","lat":40.419185224126,"lng":-111.758973296093},{"id":"148035","name":"Mr. Caleb Ortiz","party":"","address":"10292 N Cottonwood Dr, Cedar Hills, UT 84062","precinct":"25CH03","hd":"54","v_score":"21.85601351","decile":"10","lat":40.418993164521,"lng":-111.763111964429},{"id":"148535","name":"Kelly Zboncak","party":"","address":"10161 N Oak W Rd, Cedar Hills, UT 84062","precinct":"25CH03","hd":"54","v_score":"25.30104362","decile":"10","lat":40.41659481589,"lng":-111.761119018665},{"id":"148864","name":"Macel Fritsch DDS","party":"Dem","address":"4292 W Cedar Hills Dr, Cedar Hills, UT 84062","precinct":"25CH03","hd":"54","v_score":"12.65668843","decile":"9","lat":40.414476018469,"lng":-111.76086402502},{"id":"149504","name":"Mara Considine MD","party":"","address":"10030 N Pine Ct, Cedar Hills, UT 84062","precinct":"25CH03","hd":"54","v_score":"10.66687182","decile":"9","lat":40.414132454094,"lng":-111.755158665336},{"id":"150397","name":"Mrs. Bird Marks DDS","party":"Rep","address":"10285 N Pinion Dr, Cedar Hills, UT 84062","precinct":"25CH03","hd":"54","v_score":"28.94490108","decile":"10","lat":40.418369731016,"lng":-111.76417340339},{"id":"150789","name":"Dr. Kevin Roberts Jr.","party":"Rep","address":"10285 N Pinion Dr, Cedar Hills, UT 84062","precinct":"25CH03","hd":"54","v_score":"28.94490108","decile":"10","lat":40.418369731016,"lng":-111.76417340339},{"id":"150808","name":"Mr. Scott Purdy DDS","party":"","address":"10481 N Cottonwood Dr, Cedar Hills, UT 84062","precinct":"25CH03","hd":"54","v_score":"14.76249057","decile":"9","lat":40.420736911122,"lng":-111.763627053613},{"id":"151241","name":"Harriet Heaney","party":"Rep","address":"4260 W Joshua Ln, Cedar Hills, UT 84062","precinct":"25CH03","hd":"54","v_score":"17.56612467","decile":"9","lat":40.420559856571,"lng":-111.759773987202},{"id":"151323","name":"Debora Little","party":"","address":"4135 W Sage N Rd, Cedar Hills, UT 84062","precinct":"25CH03","hd":"54","v_score":"0","decile":"3","lat":40.414476639833,"lng":-111.758643990338},{"id":"151356","name":"Miss Brittany Cronin DDS","party":"Rep","address":"10089 N Sage Rd E, Cedar Hills, UT 84062","precinct":"25CH03","hd":"54","v_score":"29.10469283","decile":"10","lat":40.415445857104,"lng":-111.759504348589},{"id":"151417","name":"Mrs. Raelyn Sporer PhD","party":"Dem","address":"4285 W Sandalwood Dr, Cedar Hills, UT 84062","precinct":"25CH03","hd":"54","v_score":"5.40460374","decile":"7","lat":40.420120495786,"lng":-111.761348095357},{"id":"151750","name":"Yessenia Goyette DVM","party":"","address":"4278 W Sandalwood Dr, Cedar Hills, UT 84062","precinct":"25CH03","hd":"54","v_score":"18.91187591","decile":"10","lat":40.419993772864,"lng":-111.761197576777},{"id":"151974","name":"Maebell Williamson","party":"Dem","address":"10369 N Ironwood Dr, Cedar Hills, UT 84062","precinct":"25CH03","hd":"54","v_score":"5.40460374","decile":"7","lat":40.420565766391,"lng":-111.757342924513},{"id":"151990","name":"Demond Kihn I","party":"Dem","address":"10042 N Pine Ct, Cedar Hills, UT 84062","precinct":"25CH03","hd":"54","v_score":"10.17021529","decile":"9","lat":40.414202179172,"lng":-111.75516004148},{"id":"152007","name":"Mr. Odin Upton DDS","party":"","address":"4065 W Cedar Hills Dr, Cedar Hills, UT 84062","precinct":"25CH03","hd":"54","v_score":"29.10469283","decile":"10","lat":40.413830703197,"lng":-111.755915042772},{"id":"152352","name":"Willene Vandervort","party":"Dem","address":"10069 N Poplar Ct, Cedar Hills, UT 84062","precinct":"25CH03","hd":"54","v_score":"20.30022439","decile":"10","lat":40.414650801708,"lng":-111.7606343367},{"id":"152668","name":"Trudi Miller","party":"","address":"4128 W Sage N Rd, Cedar Hills, UT 84062","precinct":"25CH03","hd":"54","v_score":"8.35914475","decile":"8","lat":40.413973685571,"lng":-111.758352504767},{"id":"152797","name":"Dr. Mima Dickens PhD","party":"Dem","address":"10153 N Cottonwood Dr, Cedar Hills, UT 84062","precinct":"25CH03","hd":"54","v_score":"5.40460374","decile":"7","lat":40.417174055483,"lng":-111.762749194544},{"id":"153042","name":"Marlen Kohler","party":"Dem","address":"10048 N Willow Ct, Cedar Hills, UT 84062","precinct":"25CH03","hd":"54","v_score":"5.40460374","decile":"7","lat":40.41463620433,"lng":-111.75738166228},{"id":"153422","name":"Freddie Toy","party":"Dem","address":"10223 N Cottonwood Dr, Cedar Hills, UT 84062","precinct":"25CH03","hd":"54","v_score":"3.93832808","decile":"6","lat":40.418045939294,"lng":-111.763031280048},{"id":"153731","name":"Mrs. Garnett Rodriguez PhD","party":"Rep","address":"4012 W Oak N Rd, Cedar Hills, UT 84062","precinct":"25CH03","hd":"54","v_score":"17.33649681","decile":"9","lat":40.416082444755,"lng":-111.754991285697},{"id":"155399","name":"Hosteen Wisoky","party":"Rep","address":"4054 W Juniper Rd, Cedar Hills, UT 84062","precinct":"25CH03","hd":"54","v_score":"19.89079327","decile":"10","lat":40.415358823818,"lng":-111.75567305395},{"id":"156427","name":"Mrs. Marlee Casper DVM","party":"","address":"10369 N Ironwood Dr, Cedar Hills, UT 84062","precinct":"25CH03","hd":"54","v_score":"5.40460374","decile":"7","lat":40.420565766391,"lng":-111.757342924513},{"id":"156761","name":"Marinda Spencer","party":"Dem","address":"4152 W Oak N Rd, Cedar Hills, UT 84062","precinct":"25CH03","hd":"54","v_score":"29.10469283","decile":"10","lat":40.418172759225,"lng":-111.760290573248},{"id":"157375","name":"Marc Deckow","party":"","address":"9992 N 4160 W, Cedar Hills, UT 84062","precinct":"25CH03","hd":"54","v_score":"16.36864091","decile":"9","lat":40.413731287331,"lng":-111.758041794754},{"id":"158897","name":"Dawn Lind","party":"","address":"10469 N Mesquite Way, Cedar Hills, UT 84062","precinct":"25CH03","hd":"54","v_score":"18.91187591","decile":"10","lat":40.422100623498,"lng":-111.760163604575},{"id":"158898","name":"Rocio Turcotte PhD","party":"Dem","address":"10469 N Mesquite Way, Cedar Hills, UT 84062","precinct":"25CH03","hd":"54","v_score":"18.91187591","decile":"10","lat":40.422100623498,"lng":-111.760163604575},{"id":"159870","name":"Lucas Farrell","party":"","address":"4279 W Oak N Rd, Cedar Hills, UT 84062","precinct":"25CH03","hd":"54","v_score":"12.13314748","decile":"9","lat":40.418502929552,"lng":-111.761396237507},{"id":"159871","name":"Aaron Hauck","party":"","address":"4279 W Oak N Rd, Cedar Hills, UT 84062","precinct":"25CH03","hd":"54","v_score":"12.13314748","decile":"9","lat":40.418502929552,"lng":-111.761396237507},{"id":"159916","name":"Laurance Wuckert","party":"Rep","address":"10107 N Pinion Dr, Cedar Hills, UT 84062","precinct":"25CH03","hd":"54","v_score":"5.40460374","decile":"7","lat":40.415566498619,"lng":-111.763470547353},{"id":"159932","name":"Sid Spinka-Balistreri","party":"","address":"10107 N Pinion Dr, Cedar Hills, UT 84062","precinct":"25CH03","hd":"54","v_score":"5.40460374","decile":"7","lat":40.415566498619,"lng":-111.763470547353},{"id":"160874","name":"Dr. Lissa Conn","party":"Rep","address":"10137 N Maple Ct, Cedar Hills, UT 84062","precinct":"25CH03","hd":"54","v_score":"5.40460374","decile":"7","lat":40.416008470258,"lng":-111.759617291013},{"id":"161065","name":"Leoma Kirlin DDS","party":"Rep","address":"10153 N Cottonwood Dr, Cedar Hills, UT 84062","precinct":"25CH03","hd":"54","v_score":"5.40460374","decile":"7","lat":40.417174055483,"lng":-111.762749194544},{"id":"161110","name":"Bryn Bins","party":"","address":"4431 W Redwood Dr, Cedar Hills, UT 84062","precinct":"25CH03","hd":"54","v_score":"1.193887297","decile":"4","lat":40.420539435107,"lng":-111.76493105588},{"id":"161708","name":"Lora Stark","party":"Dem","address":"4292 W Cedar Hills Dr, Cedar Hills, UT 84062","precinct":"25CH03","hd":"54","v_score":"12.65668843","decile":"9","lat":40.414476018469,"lng":-111.76086402502},{"id":"161896","name":"Dimitri Homenick","party":"Rep","address":"10137 N Maple Ct, Cedar Hills, UT 84062","precinct":"25CH03","hd":"54","v_score":"34.77306933","decile":"10","lat":40.416008470258,"lng":-111.759617291013},{"id":"161996","name":"Parker Hane-Yost","party":"Dem","address":"4176 W Sandalwood Dr, Cedar Hills, UT 84062","precinct":"25CH03","hd":"54","v_score":"32.04760043","decile":"10","lat":40.418297152945,"lng":-111.759239601763},{"id":"162802","name":"Mrs. Inez Hyatt MD","party":"Rep","address":"10030 N Pine Ct, Cedar Hills, UT 84062","precinct":"25CH03","hd":"54","v_score":"3.93832808","decile":"6","lat":40.414132454094,"lng":-111.755158665336},{"id":"163007","name":"Dr. Jermain Reilly III","party":"","address":"4069 W Juniper Rd, Cedar Hills, UT 84062","precinct":"25CH03","hd":"54","v_score":"14.67638247","decile":"9","lat":40.415166358299,"lng":-111.755838361711},{"id":"163206","name":"Krish Torp","party":"Dem","address":"10328 N Cottonwood Dr, Cedar Hills, UT 84062","precinct":"25CH03","hd":"54","v_score":"5.40460374","decile":"7","lat":40.419515520187,"lng":-111.763301574947},{"id":"163890","name":"Carin Vandervort","party":"Rep","address":"10031 N Oak E Rd, Cedar Hills, UT 84062","precinct":"25CH03","hd":"54","v_score":"0","decile":"3","lat":40.4145363057,"lng":-111.754270934844},{"id":"163965","name":"Mr. Tallie Haag II","party":"Dem","address":"10081 N Sage Rd W, Cedar Hills, UT 84062","precinct":"25CH03","hd":"54","v_score":"5.40460374","decile":"7","lat":40.415443510089,"lng":-111.759505000538},{"id":"163978","name":"Mr. Clare Kshlerin","party":"Dem","address":"4162 W Joshua Ln, Cedar Hills, UT 84062","precinct":"25CH03","hd":"54","v_score":"19.07850777","decile":"10","lat":40.419645937213,"lng":-111.757792245851},{"id":"163998","name":"Maryellen Trantow","party":"Dem","address":"10107 N Sage Rd E, Cedar Hills, UT 84062","precinct":"25CH03","hd":"54","v_score":"5.69030266","decile":"7","lat":40.414477489534,"lng":-111.756358638206},{"id":"164495","name":"French Lueilwitz","party":"Dem","address":"4021 W Ironwood Dr, Cedar Hills, UT 84062","precinct":"25CH03","hd":"54","v_score":"2.998909327","decile":"6","lat":40.417457172215,"lng":-111.75469782408},{"id":"166034","name":"Zavier Bahringer","party":"Rep","address":"9980 N 4000 W, Cedar Hills, UT 84062","precinct":"25CH03","hd":"54","v_score":"3.102699348","decile":"6","lat":40.413120286992,"lng":-111.754267586608},{"id":"166195","name":"Wayne Hickle-Davis","party":"","address":"10172 N Oak Ct, Cedar Hills, UT 84062","precinct":"25CH03","hd":"54","v_score":"2.315214949","decile":"5","lat":40.41712883292,"lng":-111.76061914328},{"id":"166531","name":"Antwain Stanton DVM","party":"Dem","address":"10082 N Oak W Rd, Cedar Hills, UT 84062","precinct":"25CH03","hd":"54","v_score":"2.817000428","decile":"6","lat":40.415425906226,"lng":-111.76111852217},{"id":"167370","name":"Gussie Donnelly DVM","party":"Rep","address":"4216 W Sandalwood Dr, Cedar Hills, UT 84062","precinct":"25CH03","hd":"54","v_score":"8.347511332","decile":"8","lat":40.418809806366,"lng":-111.760306281317},{"id":"167475","name":"Mrs. Barbie Smith MD","party":"Dem","address":"4431 W Redwood Dr, Cedar Hills, UT 84062","precinct":"25CH03","hd":"54","v_score":"1.193887297","decile":"4","lat":40.420539435107,"lng":-111.76493105588},{"id":"168629","name":"Kaela Hintz DDS","party":"Rep","address":"10393 N Birch Cv, Cedar Hills, UT 84062","precinct":"25CH03","hd":"54","v_score":"18.05454756","decile":"10","lat":40.420539423275,"lng":-111.758465382259},{"id":"171014","name":"Miss Gail Glover DDS","party":"Rep","address":"10072 N Sage W Rd, Cedar Hills, UT 84062","precinct":"25CH03","hd":"54","v_score":"2.817000428","decile":"6","lat":40.415992611684,"lng":-111.758778603276},{"id":"171029","name":"Chandler Nienow DVM","party":"Rep","address":"4119 W Sandalwood Dr, Cedar Hills, UT 84062","precinct":"25CH03","hd":"54","v_score":"13.71222934","decile":"9","lat":40.417711321302,"lng":-111.757283863966},{"id":"171933","name":"Emilia Considine","party":"Dem","address":"10030 N Sage E Rd, Cedar Hills, UT 84062","precinct":"25CH03","hd":"54","v_score":"5.40460374","decile":"7","lat":40.415829600912,"lng":-111.757177038681},{"id":"172444","name":"Elgin Von","party":"Rep","address":"10194 N Pinion Dr, Cedar Hills, UT 84062","precinct":"25CH03","hd":"54","v_score":"25.47561365","decile":"10","lat":40.416955688919,"lng":-111.763738221067},{"id":"173004","name":"Killian Dickinson Jr.","party":"Rep","address":"4225 W Mesquite Way, Cedar Hills, UT 84062","precinct":"25CH03","hd":"54","v_score":"2.315214949","decile":"5","lat":40.419367586893,"lng":-111.759590125455},{"id":"173290","name":"Ruben Green","party":"Dem","address":"4174 W Sage Rd, Cedar Hills, UT 84062","precinct":"25CH03","hd":"54","v_score":"17.78484364","decile":"10","lat":40.413987008589,"lng":-111.758351705384},{"id":"173291","name":"Halley Swaniawski","party":"","address":"4174 W Sage Rd, Cedar Hills, UT 84062","precinct":"25CH03","hd":"54","v_score":"16.73021475","decile":"9","lat":40.413987008589,"lng":-111.758351705384},{"id":"173406","name":"Zigmund Dicki","party":"Rep","address":"4252 W Sumac Ct, Cedar Hills, UT 84062","precinct":"25CH03","hd":"54","v_score":"15.43762891","decile":"9","lat":40.41575748242,"lng":-111.760694551008},{"id":"173823","name":"Maximiliano White","party":"Dem","address":"10341 N Cottonwood Dr, Cedar Hills, UT 84062","precinct":"25CH03","hd":"54","v_score":"21.17866534","decile":"10","lat":40.420169344359,"lng":-111.763595787385},{"id":"174973","name":"Male Heidenreich MD","party":"Dem","address":"10181 N Pinion Dr, Cedar Hills, UT 84062","precinct":"25CH03","hd":"54","v_score":"1.121327652","decile":"3","lat":40.416706657615,"lng":-111.763798535875},{"id":"174980","name":"Samson Bergnaum IV","party":"","address":"4163 W Sandalwood Dr, Cedar Hills, UT 84062","precinct":"25CH03","hd":"54","v_score":"15.75938778","decile":"9","lat":40.417954976941,"lng":-111.758721689392},{"id":"175563","name":"Georgeann Lakin","party":"","address":"4209 W Mesquite Way, Cedar Hills, UT 84062","precinct":"25CH03","hd":"54","v_score":"6.324725604","decile":"7","lat":40.419210996545,"lng":-111.75928533362},{"id":"175945","name":"Joye Heaney","party":"Dem","address":"10236 N Sycamore Ln, Cedar Hills, UT 84062","precinct":"25CH03","hd":"54","v_score":"6.324725604","decile":"7","lat":40.418094285518,"lng":-111.756733324619},{"id":"176169","name":"Ms. Miriah Williamson","party":"Dem","address":"4019 W Sandalwood Dr, Cedar Hills, UT 84062","precinct":"25CH03","hd":"54","v_score":"26.74678107","decile":"10","lat":40.416965144067,"lng":-111.755319381124},{"id":"176321","name":"Pierce Harvey","party":"","address":"10167 N Pinion Dr, Cedar Hills, UT 84062","precinct":"25CH03","hd":"54","v_score":"18.7499088","decile":"10","lat":40.416490090563,"lng":-111.763714507897},{"id":"176421","name":"Glynda Mayert","party":"","address":"4174 W Sage N Rd, Cedar Hills, UT 84062","precinct":"25CH03","hd":"54","v_score":"5.40460374","decile":"7","lat":40.413987008589,"lng":-111.758351705384},{"id":"176448","name":"Nickolas Lockman","party":"Rep","address":"4012 W Sandalwood Dr, Cedar Hills, UT 84062","precinct":"25CH03","hd":"54","v_score":"6.954919332","decile":"8","lat":40.417018623855,"lng":-111.755155944375},{"id":"176539","name":"Sidney Lockman Sr.","party":"Dem","address":"4152 W Sage N Rd, Cedar Hills, UT 84062","precinct":"25CH03","hd":"54","v_score":"25.99640486","decile":"10","lat":40.413980636711,"lng":-111.758352087697},{"id":"177696","name":"Hayleigh Kihn","party":"Rep","address":"10343 N Ironwood Dr, Cedar Hills, UT 84062","precinct":"25CH03","hd":"54","v_score":"1.121327652","decile":"3","lat":40.420067374383,"lng":-111.756854858483},{"id":"177754","name":"Dian Boyer","party":"","address":"4155 W Sage N Rd, Cedar Hills, UT 84062","precinct":"25CH03","hd":"54","v_score":"12.56158634","decile":"9","lat":40.414740696852,"lng":-111.758966952291},{"id":"179033","name":"Taurus Williamson-Marquardt","party":"Dem","address":"4222 W Cedar Hills Dr, Cedar Hills, UT 84062","precinct":"25CH03","hd":"54","v_score":"2.315214949","decile":"5","lat":40.414001833061,"lng":-111.759632931768},{"id":"179718","name":"Liza Mraz","party":"","address":"10175 N Oak W Rd, Cedar Hills, UT 84062","precinct":"25CH03","hd":"54","v_score":"21.78791847","decile":"10","lat":40.417070284495,"lng":-111.761362037764},{"id":"179831","name":"Rosalinda Quigley MD","party":"Dem","address":"4037 W Ironwood Dr, Cedar Hills, UT 84062","precinct":"25CH03","hd":"54","v_score":"32.04760043","decile":"10","lat":40.417588697343,"lng":-111.75513470542},{"id":"180381","name":"Lafe Hauck","party":"","address":"10153 N Maple Ct, Cedar Hills, UT 84062","precinct":"25CH03","hd":"54","v_score":"1.121327652","decile":"3","lat":40.416117143197,"lng":-111.75972855137},{"id":"180568","name":"Jaheim Franecki","party":"","address":"10472 N Cottonwood Dr, Cedar Hills, UT 84062","precinct":"25CH03","hd":"54","v_score":"17.28363314","decile":"9","lat":40.420276751233,"lng":-111.763460400769},{"id":"180633","name":"Charle Beahan","party":"","address":"10080 N Willow Ct, Cedar Hills, UT 84062","precinct":"25CH03","hd":"54","v_score":"3.781490609","decile":"6","lat":40.415049316347,"lng":-111.757684739324},{"id":"180733","name":"Jeana Kunze-Bosco","party":"Dem","address":"10341 N Cottonwood Dr, Cedar Hills, UT 84062","precinct":"25CH03","hd":"54","v_score":"20.58808088","decile":"10","lat":40.420169344359,"lng":-111.763595787385},{"id":"180806","name":"Frona McDermott DDS","party":"","address":"10042 N Pine Ct, Cedar Hills, UT 84062","precinct":"25CH03","hd":"54","v_score":"15.16653082","decile":"9","lat":40.414202179172,"lng":-111.75516004148},{"id":"181364","name":"Jeramy Stark-Romaguera","party":"","address":"4162 W Joshua Ln, Cedar Hills, UT 84062","precinct":"25CH03","hd":"54","v_score":"17.14152077","decile":"9","lat":40.419645937213,"lng":-111.757792245851}]