[{"vid":"722771","name":"Beckett Wiegand","party":"","address":"14768 S Invergarry Ct, Draper, UT 84020","precinct":"25DR03","hd":"54","v_score":"1.121327652","decile":"3","lat":40.48257920457233,"lng":-111.83212924481174,"phone":"(648) 169-1447","sd":"19","ssbd":"11","lsbd":"School Board Aspen Peaks 4"},{"vid":"722772","name":"Exa McCullough DVM","party":"Dem","address":"14768 S Invergarry Ct, Draper, UT 84020","precinct":"25DR03","hd":"54","v_score":"0","decile":"1","lat":40.48257920457233,"lng":-111.83212924481174,"phone":"(590) 834-0151","sd":"19","ssbd":"11","lsbd":"School Board Aspen Peaks 4"},{"vid":"b75a6cdf9479d7b3e48f397f9a8c9df5f48e61f6fa388da1711302e6702df279","name":"Miss Nena Gaylord DVM","party":"Dem","address":"14869 S Canyon Pointe Rd, Draper, UT 84020","precinct":"25DR03","hd":"54","v_score":"6.881235673","decile":"8","lat":40.4814122768561,"lng":-111.82254375594185,"phone":"(834) 033-4651","sd":"19","ssbd":"11","lsbd":"School Board Aspen Peaks 4"},{"vid":"bbe05f1dce68864708e990aa982ad3f35c41a7049c728c87956312b9a4dbb549","name":"Orland Fisher","party":"","address":"2431 E Lone Hill Dr, Draper, UT 84020","precinct":"25DR03","hd":"54","v_score":"6.801678322","decile":"8","lat":40.48230720187572,"lng":-111.82509758948986,"phone":"(199) 876-0633","sd":"19","ssbd":"11","lsbd":"School Board Aspen Peaks 4"},{"vid":"826264","name":"Latonia Maggio","party":"Rep","address":"14617 S Shortcut Dr, Draper, UT 84020","precinct":"25DR03","hd":"54","v_score":"10.07628736","decile":"9","lat":40.48615028472953,"lng":-111.82040183921798,"phone":"(117) 458-7474","sd":"19","ssbd":"11","lsbd":"School Board Aspen Peaks 4"},{"vid":"831892","name":"Mrs. Luvenia Weber MD","party":"","address":"14776 S Invergarry Ct, Draper, UT 84020","precinct":"25DR03","hd":"54","v_score":"16.79207149","decile":"9","lat":40.48244342734372,"lng":-111.83205201456214,"phone":"(854) 161-2991","sd":"19","ssbd":"11","lsbd":"School Board Aspen Peaks 4"},{"vid":"1223469","name":"Dr. Devante Graham Jr.","party":"Dem","address":"2118 E Ash Down Ln, Draper, UT 84020","precinct":"25DR03","hd":"54","v_score":"0","decile":"1","lat":40.46194037247335,"lng":-111.828247200509,"phone":"(460) 282-5119","sd":"19","ssbd":"11","lsbd":"School Board Aspen Peaks 4"},{"vid":"b840cf0f28910ec9bdd85b1b6babfd836f5a235541602cca47a7da0806ea6af3","name":"Jami Mayert","party":"Rep","address":"2011 E Brookings Dr, Draper, UT 84020","precinct":"25DR03","hd":"54","v_score":"1.121327652","decile":"3","lat":40.4601231298891,"lng":-111.83053336763064,"phone":"(122) 941-3123","sd":"19","ssbd":"11","lsbd":"School Board Aspen Peaks 4"},{"vid":"1244976","name":"Deb Donnelly DVM","party":"Rep","address":"2454 E Springtime Rd, Draper, UT 84020","precinct":"25DR03","hd":"54","v_score":"8.280646305","decile":"8","lat":40.48547058058563,"lng":-111.82444673931423,"phone":"(356) 755-9224","sd":"19","ssbd":"11","lsbd":"School Board Aspen Peaks 4"},{"vid":"bbaafadb90802cc024b29bf7bd6a0d686d9da0be769506fe3d309e35105ab76e","name":"Bjorn Breitenberg","party":"Rep","address":"14782 S Deer Park Ln, Draper, UT 84020","precinct":"25DR03","hd":"54","v_score":"3.781490609","decile":"6","lat":40.482336777645955,"lng":-111.83025734289254,"phone":"(125) 352-7272","sd":"19","ssbd":"11","lsbd":"School Board Aspen Peaks 4"},{"vid":"1269698","name":"Mr. Oscar Beatty Jr.","party":"Dem","address":"15338 S Winged Trace Ct, Draper, UT 84020","precinct":"25DR03","hd":"54","v_score":"10.52632313","decile":"9","lat":40.472985673308614,"lng":-111.8213429420912,"phone":"(297) 529-3054","sd":"19","ssbd":"11","lsbd":"School Board Aspen Peaks 4"},{"vid":"1273158","name":"Maximilian Blick MD","party":"Rep","address":"2511 E Springtime Rd, Draper, UT 84020","precinct":"25DR03","hd":"54","v_score":"1.46627566","decile":"4","lat":40.48617319527663,"lng":-111.82291575620616,"phone":"(168) 620-4077","sd":"19","ssbd":"11","lsbd":"School Board Aspen Peaks 4"},{"vid":"033f61602c7fe9acba27935b2f0fc0c1e8d231544819251444504b1c2ab0563c","name":"Dr. Ernst Nicolas","party":"Dem","address":"14863 S Canyon Pointe Rd, Draper, UT 84020","precinct":"25DR03","hd":"54","v_score":"3.93832808","decile":"6","lat":40.481626325440324,"lng":-111.82232115156123,"phone":"(525) 331-6200","sd":"19","ssbd":"11","lsbd":"School Board Aspen Peaks 4"},{"vid":"1293055","name":"Mr. Dennis Marvin DDS","party":"","address":"1883 E Chimney Stone Ct, Draper, UT 84020","precinct":"25DR03","hd":"54","v_score":"34.36428496","decile":"10","lat":40.46076059985834,"lng":-111.8356879220674,"phone":"(314) 375-4028","sd":"19","ssbd":"11","lsbd":"School Board Aspen Peaks 4"},{"vid":"1293062","name":"Miss Omie Metz DDS","party":"Rep","address":"1883 E Chimney Stone Ct, Draper, UT 84020","precinct":"25DR03","hd":"54","v_score":"25.16992893","decile":"10","lat":40.46076059985834,"lng":-111.8356879220674,"phone":"(430) 505-0742","sd":"19","ssbd":"11","lsbd":"School Board Aspen Peaks 4"},{"vid":"19e393a793c277994922a4e961286d70cddf7818e575de93958bb8a0a989e420","name":"Macarthur Ritchie","party":"Dem","address":"2458 E Ember Dr, Draper, UT 84020","precinct":"25DR03","hd":"54","v_score":"8.280646305","decile":"8","lat":40.4830104001367,"lng":-111.82422479168933,"phone":"(254) 797-6581","sd":"19","ssbd":"11","lsbd":"School Board Aspen Peaks 4"},{"vid":"1296072","name":"Pedro Ortiz Jr.","party":"","address":"16086 S Fielding Hill Ln, Draper, UT 84020","precinct":"25DR03","hd":"54","v_score":"3.93832808","decile":"6","lat":40.4593542482891,"lng":-111.83568223365897,"phone":"(977) 821-5880","sd":"19","ssbd":"11","lsbd":"School Board Aspen Peaks 4"},{"vid":"63125dea5b19845e9c41b3c9bfc4b8ca144865b86a3822728985fca9b7afd8b5","name":"Lady Boyle","party":"Rep","address":"16017 S Chimney Stone Rd, Draper, UT 84020","precinct":"25DR03","hd":"54","v_score":"23.50380269","decile":"10","lat":40.46044553267185,"lng":-111.83348153814998,"phone":"(882) 823-7190","sd":"19","ssbd":"11","lsbd":"School Board Aspen Peaks 4"},{"vid":"1325633","name":"Mr. Emit Jones II","party":"","address":"14923 S Auburn Sky Dr, Draper, UT 84020","precinct":"25DR03","hd":"54","v_score":"1.193887297","decile":"3","lat":40.48049060904763,"lng":-111.82184019693992,"phone":"(686) 392-8740","sd":"19","ssbd":"11","lsbd":"School Board Aspen Peaks 4"},{"vid":"1330132","name":"Brown Okuneva","party":"Rep","address":"2043 E Brookings Dr, Draper, UT 84020","precinct":"25DR03","hd":"54","v_score":"1.193887297","decile":"3","lat":40.460187546298336,"lng":-111.82985702206949,"phone":"(248) 770-9614","sd":"19","ssbd":"11","lsbd":"School Board Aspen Peaks 4"},{"vid":"1331253","name":"Burleigh DuBuque-Mraz","party":"Dem","address":"2186 E Whitekirk Way, Draper, UT 84020","precinct":"25DR03","hd":"54","v_score":"5.331806201","decile":"7","lat":40.482152689242625,"lng":-111.83195175171443,"phone":"(143) 254-1830","sd":"19","ssbd":"11","lsbd":"School Board Aspen Peaks 4"},{"vid":"1332804","name":"Gardner Botsford","party":"Rep","address":"14886 S Canyon Pointe Rd, Draper, UT 84020","precinct":"25DR03","hd":"54","v_score":"2.315214949","decile":"5","lat":40.48141722448488,"lng":-111.82316544252296,"phone":"(266) 102-8054","sd":"19","ssbd":"11","lsbd":"School Board Aspen Peaks 4"},{"vid":"c80ec9c4bfadd7e63d9ad1f17e61bf1268a67e016921d2f2f7bbc2feaadb28ba","name":"Britny Hirthe","party":"Rep","address":"14939 S Springtime Rd, Draper, UT 84020","precinct":"25DR03","hd":"54","v_score":"11.45021068","decile":"9","lat":40.48044050139535,"lng":-111.82500092043344,"phone":"(173) 359-8328","sd":"19","ssbd":"11","lsbd":"School Board Aspen Peaks 4"},{"vid":"1346313","name":"Caitlyn Hammes","party":"","address":"14617 S Shortcut Dr, Draper, UT 84020","precinct":"25DR03","hd":"54","v_score":"21.92029883","decile":"10","lat":40.48615028472953,"lng":-111.82040183921798,"phone":"(701) 918-9728","sd":"19","ssbd":"11","lsbd":"School Board Aspen Peaks 4"},{"vid":"1356290","name":"Carmelo Boyer-Altenwerth","party":"Rep","address":"2282 E Deer Park Ln, Draper, UT 84020","precinct":"25DR03","hd":"54","v_score":"8.363183621","decile":"8","lat":40.482400495995876,"lng":-111.82964697456389,"phone":"(401) 349-3318","sd":"19","ssbd":"11","lsbd":"School Board Aspen Peaks 4"},{"vid":"1367843","name":"Tonia Steuber","party":"Rep","address":"2317 E Deer Park Ln, Draper, UT 84020","precinct":"25DR03","hd":"54","v_score":"0","decile":"1","lat":40.48264357407538,"lng":-111.82889223755062,"phone":"(236) 302-6337","sd":"19","ssbd":"11","lsbd":"School Board Aspen Peaks 4"},{"vid":"e70191264ab691828898bdc3e58213276d24812922416f2f433bd402c2b4e490","name":"Mr. Jarrad Reinger","party":"","address":"2452 E Lone Hill Dr, Draper, UT 84020","precinct":"25DR03","hd":"54","v_score":"3.016591252","decile":"6","lat":40.4820306526193,"lng":-111.82441551602885,"phone":"(818) 451-2071","sd":"19","ssbd":"11","lsbd":"School Board Aspen Peaks 4"},{"vid":"1371761","name":"Dr. Ginny Cartwright DDS","party":"","address":"14993 S Springtime Rd, Draper, UT 84020","precinct":"25DR03","hd":"54","v_score":"2.315214949","decile":"5","lat":40.47953487786728,"lng":-111.82419887530757,"phone":"(833) 515-8585","sd":"19","ssbd":"11","lsbd":"School Board Aspen Peaks 4"},{"vid":"1379735","name":"Agustus Emmerich","party":"","address":"16038 S Chimney Stone Rd, Draper, UT 84020","precinct":"25DR03","hd":"54","v_score":"5.40460374","decile":"7","lat":40.46013361738367,"lng":-111.83403284604533,"phone":"(281) 644-1085","sd":"19","ssbd":"11","lsbd":"School Board Aspen Peaks 4"},{"vid":"1383689","name":"Mr. Jaron Reichel DDS","party":"","address":"2496 E Springtime Rd, Draper, UT 84020","precinct":"25DR03","hd":"54","v_score":"17.31521058","decile":"9","lat":40.4856587512444,"lng":-111.82328988131553,"phone":"(696) 249-1696","sd":"19","ssbd":"11","lsbd":"School Board Aspen Peaks 4"},{"vid":"1392106","name":"Shirleen Monahan","party":"Dem","address":"2119 E Autumn Fields Ln, Draper, UT 84020","precinct":"25DR03","hd":"54","v_score":"3.781490609","decile":"6","lat":40.46302439414431,"lng":-111.82807037150228,"phone":"(535) 006-5989","sd":"19","ssbd":"11","lsbd":"School Board Aspen Peaks 4"},{"vid":"1404529","name":"Carli Leuschke","party":"Dem","address":"14681 S Short Oak Cv, Draper, UT 84020","precinct":"25DR03","hd":"54","v_score":"5.40460374","decile":"7","lat":40.48503975882725,"lng":-111.82473825778891,"phone":"(234) 745-3486","sd":"19","ssbd":"11","lsbd":"School Board Aspen Peaks 4"},{"vid":"ba94dcfc525e30c24f293ba3338398593cf5f22e7760b73c7f0ac60be3454b0e","name":"Arnulfo McClure","party":"Dem","address":"1938 E Brookings Dr, Draper, UT 84020","precinct":"25DR03","hd":"54","v_score":"2.315214949","decile":"5","lat":40.459824446773325,"lng":-111.83341904966957,"phone":"(132) 119-3522","sd":"19","ssbd":"11","lsbd":"School Board Aspen Peaks 4"},{"vid":"1422440","name":"Rishi Koss","party":"","address":"2491 E Springtime Rd, Draper, UT 84020","precinct":"25DR03","hd":"54","v_score":"0","decile":"1","lat":40.48617771788483,"lng":-111.82353722703911,"phone":"(474) 141-9895","sd":"19","ssbd":"11","lsbd":"School Board Aspen Peaks 4"},{"vid":"1423206","name":"Zebulon Brown DVM","party":"","address":"14782 S Castle End Cv, Draper, UT 84020","precinct":"25DR03","hd":"54","v_score":"1.121327652","decile":"3","lat":40.48236789750945,"lng":-111.82825574577669,"phone":"(687) 150-3845","sd":"19","ssbd":"11","lsbd":"School Board Aspen Peaks 4"},{"vid":"1423521","name":"Deante Renner","party":"Dem","address":"1968 E Fielding Hill Ln, Draper, UT 84020","precinct":"25DR03","hd":"54","v_score":"3.93832808","decile":"6","lat":40.45909308399853,"lng":-111.8322300713599,"phone":"(465) 136-9825","sd":"19","ssbd":"11","lsbd":"School Board Aspen Peaks 4"},{"vid":"1424722","name":"Marvin Turner","party":"Dem","address":"2491 E Springtime Rd, Draper, UT 84020","precinct":"25DR03","hd":"54","v_score":"0","decile":"1","lat":40.48617771788483,"lng":-111.82353722703911,"phone":"(724) 901-5908","sd":"19","ssbd":"11","lsbd":"School Board Aspen Peaks 4"},{"vid":"1434430","name":"Shirlene Bechtelar","party":"Dem","address":"2517 E Lone Hill Dr, Draper, UT 84020","precinct":"25DR03","hd":"54","v_score":"9.923865181","decile":"9","lat":40.48226018287305,"lng":-111.8228227126512,"phone":"(402) 891-9146","sd":"19","ssbd":"11","lsbd":"School Board Aspen Peaks 4"},{"vid":"7cb32056d715b89ad49b64432ec8b3fbb2b3b7e53f8af2e3f699b4ec1e01c449","name":"Arkie Franecki","party":"Dem","address":"2517 E Lone Hill Dr, Draper, UT 84020","precinct":"25DR03","hd":"54","v_score":"7.047822616","decile":"8","lat":40.48226018287305,"lng":-111.8228227126512,"phone":"(559) 027-2054","sd":"19","ssbd":"11","lsbd":"School Board Aspen Peaks 4"},{"vid":"1439147","name":"Diann Batz","party":"","address":"2127 E Autumn Fields Ln, Draper, UT 84020","precinct":"25DR03","hd":"54","v_score":"5.40460374","decile":"7","lat":40.46287225512843,"lng":-111.82783035870297,"phone":"(217) 902-3097","sd":"19","ssbd":"11","lsbd":"School Board Aspen Peaks 4"},{"vid":"1445164","name":"Dr. Stacy Aufderhar","party":"Dem","address":"14764 S Dryburg Cv, Draper, UT 84020","precinct":"25DR03","hd":"54","v_score":"1.121327652","decile":"3","lat":40.48267337595488,"lng":-111.83136783523231,"phone":"(215) 762-7568","sd":"19","ssbd":"11","lsbd":"School Board Aspen Peaks 4"},{"vid":"1448065","name":"Dr. Cooper Lind DDS","party":"Rep","address":"14896 S Canyon Pointe Rd, Draper, UT 84020","precinct":"25DR03","hd":"54","v_score":"16.2066738","decile":"9","lat":40.48121419034095,"lng":-111.82329655959211,"phone":"(546) 895-2927","sd":"19","ssbd":"11","lsbd":"School Board Aspen Peaks 4"},{"vid":"1452238","name":"Mrs. Karly Little","party":"Dem","address":"14798 S Deer Park Ln, Draper, UT 84020","precinct":"25DR03","hd":"54","v_score":"12.14838954","decile":"9","lat":40.48206477626752,"lng":-111.83008434294074,"phone":"(860) 702-9589","sd":"19","ssbd":"11","lsbd":"School Board Aspen Peaks 4"},{"vid":"1d171ca06acc7d15f1e1bef601614a4c75c8b7732023f1775abeb1fbc5f49f1e","name":"Lissette Schaden","party":"Dem","address":"14672 S Springtime Rd, Draper, UT 84020","precinct":"25DR03","hd":"54","v_score":"2.315214949","decile":"5","lat":40.485058919977654,"lng":-111.8260716875075,"phone":"(632) 155-6846","sd":"19","ssbd":"11","lsbd":"School Board Aspen Peaks 4"},{"vid":"1457314","name":"Lady Simonis PhD","party":"Rep","address":"1944 E Fielding Hill Ln, Draper, UT 84020","precinct":"25DR03","hd":"54","v_score":"1.193887297","decile":"3","lat":40.45907937898876,"lng":-111.8331281430209,"phone":"(141) 595-1168","sd":"19","ssbd":"11","lsbd":"School Board Aspen Peaks 4"},{"vid":"1457331","name":"Teressa Lindgren MD","party":"","address":"1944 E Fielding Hill Ln, Draper, UT 84020","precinct":"25DR03","hd":"54","v_score":"1.193887297","decile":"3","lat":40.45907937898876,"lng":-111.8331281430209,"phone":"(399) 126-6662","sd":"19","ssbd":"11","lsbd":"School Board Aspen Peaks 4"},{"vid":"1459655","name":"Burnie Daniel V","party":"Rep","address":"1954 E Fielding Hill Ln, Draper, UT 84020","precinct":"25DR03","hd":"54","v_score":"2.315214949","decile":"5","lat":40.459080400549006,"lng":-111.83276888086729,"phone":"(571) 751-7029","sd":"19","ssbd":"11","lsbd":"School Board Aspen Peaks 4"},{"vid":"1461410","name":"Vonda Will DDS","party":"Rep","address":"14729 S Canyon Wild Rd, Draper, UT 84020","precinct":"25DR03","hd":"54","v_score":"22.10816128","decile":"10","lat":40.48422199678759,"lng":-111.82464537662206,"phone":"(273) 832-7756","sd":"19","ssbd":"11","lsbd":"School Board Aspen Peaks 4"},{"vid":"1465977","name":"Jaquez Harber V","party":"Rep","address":"14776 S Invergarry Ct, Draper, UT 84020","precinct":"25DR03","hd":"54","v_score":"16.79207149","decile":"9","lat":40.48244342734372,"lng":-111.83205201456214,"phone":"(945) 685-1898","sd":"19","ssbd":"11","lsbd":"School Board Aspen Peaks 4"},{"vid":"1467052","name":"Ardell Lind MD","party":"Rep","address":"2502 E Canyon Wild Rd, Draper, UT 84020","precinct":"25DR03","hd":"54","v_score":"1.193887297","decile":"3","lat":40.48479785622577,"lng":-111.82315264977478,"phone":"(914) 618-7210","sd":"19","ssbd":"11","lsbd":"School Board Aspen Peaks 4"},{"vid":"c0dae536390f81d882d9aa169c8594090c27de7fdacb2f7c26c1efd093e555f7","name":"Mr. Howell Harber III","party":"Dem","address":"14672 S Springtime Rd, Draper, UT 84020","precinct":"25DR03","hd":"54","v_score":"2.315214949","decile":"5","lat":40.485058919977654,"lng":-111.8260716875075,"phone":"(396) 329-9654","sd":"19","ssbd":"11","lsbd":"School Board Aspen Peaks 4"},{"vid":"1472423","name":"Dr. Cielo Will","party":"Dem","address":"14772 S Invergarry Ct, Draper, UT 84020","precinct":"25DR03","hd":"54","v_score":"1.193887297","decile":"3","lat":40.482507070892495,"lng":-111.83210145429052,"phone":"(915) 845-2310","sd":"19","ssbd":"11","lsbd":"School Board Aspen Peaks 4"},{"vid":"1474951","name":"Jodie Wisoky","party":"Rep","address":"16032 S Timber Brook Dr, Draper, UT 84020","precinct":"25DR03","hd":"54","v_score":"4.296586645","decile":"7","lat":40.46033746047059,"lng":-111.83491298755729,"phone":"(732) 405-9064","sd":"19","ssbd":"11","lsbd":"School Board Aspen Peaks 4"},{"vid":"1477582","name":"Rich Corwin","party":"Dem","address":"14762 S Springtime Rd, Draper, UT 84020","precinct":"25DR03","hd":"54","v_score":"2.660162957","decile":"5","lat":40.48361406319484,"lng":-111.82609878136623,"phone":"(827) 437-5444","sd":"19","ssbd":"11","lsbd":"School Board Aspen Peaks 4"},{"vid":"1480296","name":"Dorris Hills","party":"","address":"2423 E Lone Hill Dr, Draper, UT 84020","precinct":"25DR03","hd":"54","v_score":"0","decile":"1","lat":40.48226952630284,"lng":-111.82535451716653,"phone":"(947) 215-9526","sd":"19","ssbd":"11","lsbd":"School Board Aspen Peaks 4"},{"vid":"1483057","name":"Aylin Waelchi-Ondricka","party":"Dem","address":"16057 S Fielding Hill Ln, Draper, UT 84020","precinct":"25DR03","hd":"54","v_score":"5.40460374","decile":"7","lat":40.45988291467144,"lng":-111.8353257955457,"phone":"(713) 945-8297","sd":"19","ssbd":"11","lsbd":"School Board Aspen Peaks 4"},{"vid":"1487668","name":"Georgia Dach","party":"Rep","address":"14771 S Haddington Rd, Draper, UT 84020","precinct":"25DR03","hd":"54","v_score":"1.46627566","decile":"4","lat":40.482531807104536,"lng":-111.8330819644051,"phone":"(866) 590-3028","sd":"19","ssbd":"11","lsbd":"School Board Aspen Peaks 4"},{"vid":"1488898","name":"Shayne Collier","party":"","address":"14932 S Water Birch Cir, Draper, UT 84020","precinct":"25DR03","hd":"54","v_score":"1.121327652","decile":"3","lat":40.480584837326916,"lng":-111.82455053687198,"phone":"(247) 704-5889","sd":"19","ssbd":"11","lsbd":"School Board Aspen Peaks 4"},{"vid":"496ec1b3fe4d519f88d7b746df91d385e1ac9088644623570c21b6b4a7fee2e5","name":"Weldon Effertz","party":"Dem","address":"14662 S Canyon Pointe Rd, Draper, UT 84020","precinct":"25DR03","hd":"54","v_score":"10.45996141","decile":"9","lat":40.48521714228776,"lng":-111.82200864192384,"phone":"(875) 417-0792","sd":"19","ssbd":"11","lsbd":"School Board Aspen Peaks 4"},{"vid":"1508733","name":"Mrs. Nataly Dickens","party":"Dem","address":"14907 S Water Birch Cir, Draper, UT 84020","precinct":"25DR03","hd":"54","v_score":"10.13721141","decile":"9","lat":40.48133778573145,"lng":-111.8246282614097,"phone":"(409) 689-9592","sd":"19","ssbd":"11","lsbd":"School Board Aspen Peaks 4"},{"vid":"1516686","name":"Sanders Rice III","party":"Rep","address":"2014 E Fielding Hill Ln, Draper, UT 84020","precinct":"25DR03","hd":"54","v_score":"5.40460374","decile":"7","lat":40.45914974467891,"lng":-111.8303850248611,"phone":"(113) 136-0395","sd":"19","ssbd":"11","lsbd":"School Board Aspen Peaks 4"},{"vid":"1521909","name":"Dr. Son Nitzsche","party":"","address":"14772 S Falkland Cv, Draper, UT 84020","precinct":"25DR03","hd":"54","v_score":"3.93832808","decile":"6","lat":40.482515692638394,"lng":-111.83276819706971,"phone":"(303) 056-0785","sd":"19","ssbd":"11","lsbd":"School Board Aspen Peaks 4"},{"vid":"1522319","name":"Mikala Konopelski","party":"","address":"14678 S Canyon Pointe Rd, Draper, UT 84020","precinct":"25DR03","hd":"54","v_score":"2.315214949","decile":"5","lat":40.485001722107974,"lng":-111.82200831373933,"phone":"(603) 429-2839","sd":"19","ssbd":"11","lsbd":"School Board Aspen Peaks 4"},{"vid":"1526541","name":"Adrianna Dooley","party":"Dem","address":"15579 S Mercer Ct, Draper, UT 84020","precinct":"25DR03","hd":"54","v_score":"14.25581744","decile":"9","lat":40.468525920810116,"lng":-111.82141888209615,"phone":"(866) 915-8481","sd":"19","ssbd":"11","lsbd":"School Board Aspen Peaks 4"},{"vid":"1531675","name":"Samie Bode","party":"","address":"14638 S Shortcut Dr, Draper, UT 84020","precinct":"25DR03","hd":"54","v_score":"3.781490609","decile":"6","lat":40.485683556919604,"lng":-111.82078519143026,"phone":"(162) 759-7551","sd":"19","ssbd":"11","lsbd":"School Board Aspen Peaks 4"},{"vid":"1540706","name":"Bedford Okuneva","party":"Rep","address":"14907 S Water Birch Cir, Draper, UT 84020","precinct":"25DR03","hd":"54","v_score":"10.13721141","decile":"9","lat":40.48133778573145,"lng":-111.8246282614097,"phone":"(581) 686-5466","sd":"19","ssbd":"11","lsbd":"School Board Aspen Peaks 4"},{"vid":"1550152","name":"Francisca Erdman-Bartoletti","party":"","address":"14729 S Canyon Wild Rd, Draper, UT 84020","precinct":"25DR03","hd":"54","v_score":"23.65847687","decile":"10","lat":40.48422199678759,"lng":-111.82464537662206,"phone":"(125) 983-2985","sd":"19","ssbd":"11","lsbd":"School Board Aspen Peaks 4"},{"vid":"1555479","name":"Danita Grady","party":"","address":"2182 E Whitekirk Way, Draper, UT 84020","precinct":"25DR03","hd":"54","v_score":"2.587603312","decile":"5","lat":40.4821355627652,"lng":-111.83206739485055,"phone":"(524) 669-2230","sd":"19","ssbd":"11","lsbd":"School Board Aspen Peaks 4"},{"vid":"1571406","name":"Dorthea Rodriguez","party":"Dem","address":"2451 E Lone Hill Dr, Draper, UT 84020","precinct":"25DR03","hd":"54","v_score":"13.06955813","decile":"9","lat":40.48237842701503,"lng":-111.82454067075763,"phone":"(815) 233-8977","sd":"19","ssbd":"11","lsbd":"School Board Aspen Peaks 4"},{"vid":"1572386","name":"Ms. Adamaris Willms","party":"","address":"14924 S Water Birch Cir, Draper, UT 84020","precinct":"25DR03","hd":"54","v_score":"0","decile":"1","lat":40.48078026362809,"lng":-111.82482569936603,"phone":"(479) 564-1676","sd":"19","ssbd":"11","lsbd":"School Board Aspen Peaks 4"},{"vid":"1572643","name":"Rome Cole","party":"Dem","address":"2216 E Fair Winns Ln, Draper, UT 84020","precinct":"25DR03","hd":"54","v_score":"10.38488476","decile":"9","lat":40.465651994852294,"lng":-111.82410898749976,"phone":"(823) 317-9970","sd":"19","ssbd":"11","lsbd":"School Board Aspen Peaks 4"},{"vid":"1574910","name":"Fiona Schmitt","party":"Dem","address":"14886 S Canyon Pointe Rd, Draper, UT 84020","precinct":"25DR03","hd":"54","v_score":"2.315214949","decile":"5","lat":40.48141722448488,"lng":-111.82316544252296,"phone":"(776) 262-6813","sd":"19","ssbd":"11","lsbd":"School Board Aspen Peaks 4"},{"vid":"1588215","name":"Whitley Kohler","party":"Dem","address":"2234 E Fair Winns Ln, Draper, UT 84020","precinct":"25DR03","hd":"54","v_score":"2.744440783","decile":"5","lat":40.46595817229192,"lng":-111.82350731003883,"phone":"(174) 946-5632","sd":"19","ssbd":"11","lsbd":"School Board Aspen Peaks 4"},{"vid":"38d65c01bfadca1e6e7190da53b5b357d352c865668cf7ce7ef26126f9fd903d","name":"Erline Bogan","party":"Rep","address":"16032 S Chimney Stone Rd, Draper, UT 84020","precinct":"25DR03","hd":"54","v_score":"0","decile":"1","lat":40.46030593065331,"lng":-111.8339852733641,"phone":"(303) 277-7431","sd":"19","ssbd":"11","lsbd":"School Board Aspen Peaks 4"},{"vid":"e89188af3cf19f22af3c17bdddfe4cfda2cffa0580e28d20029c8a1662f82041","name":"Jared Kuhlman","party":"","address":"16032 S Chimney Stone Rd, Draper, UT 84020","precinct":"25DR03","hd":"54","v_score":"9.35760564","decile":"8","lat":40.46030593065331,"lng":-111.8339852733641,"phone":"(291) 358-3385","sd":"19","ssbd":"11","lsbd":"School Board Aspen Peaks 4"},{"vid":"945a8b3d965250110a5fa8f2fbac96c1edd76885c77161457c7023df59cbc14e","name":"Lark Bernhard","party":"Dem","address":"2486 E Single Birch Cir, Draper, UT 84020","precinct":"25DR03","hd":"54","v_score":"17.33649681","decile":"9","lat":40.48123397994889,"lng":-111.82373480331391,"phone":"(143) 419-3813","sd":"19","ssbd":"11","lsbd":"School Board Aspen Peaks 4"},{"vid":"1597955","name":"Lillia Green-Russel","party":"","address":"14932 S Springtime Rd, Draper, UT 84020","precinct":"25DR03","hd":"54","v_score":"7.947838735","decile":"8","lat":40.48043817522193,"lng":-111.82550551653446,"phone":"(513) 946-3688","sd":"19","ssbd":"11","lsbd":"School Board Aspen Peaks 4"},{"vid":"1602596","name":"Rene Schuster","party":"Dem","address":"14792 S Dryburg Cv, Draper, UT 84020","precinct":"25DR03","hd":"54","v_score":"5.273794831","decile":"7","lat":40.48216342740757,"lng":-111.83136696701057,"phone":"(250) 543-1433","sd":"19","ssbd":"11","lsbd":"School Board Aspen Peaks 4"},{"vid":"1b8ef55646112b2de7fcd08146f684cf50cc720b27b053f7361196746fac88c6","name":"Dr. Benson Schumm","party":"Dem","address":"2011 E Brookings Dr, Draper, UT 84020","precinct":"25DR03","hd":"54","v_score":"14.64967766","decile":"9","lat":40.4601231298891,"lng":-111.83053336763064,"phone":"(705) 496-1512","sd":"19","ssbd":"11","lsbd":"School Board Aspen Peaks 4"},{"vid":"1607957","name":"Vivien Wintheiser","party":"Dem","address":"2486 E Springtime Rd, Draper, UT 84020","precinct":"25DR03","hd":"54","v_score":"6.814370645","decile":"8","lat":40.48579657289079,"lng":-111.82369811003365,"phone":"(994) 689-3199","sd":"19","ssbd":"11","lsbd":"School Board Aspen Peaks 4"},{"vid":"1610559","name":"Manuelita Jacobi","party":"Rep","address":"16032 S Chimney Stone Rd, Draper, UT 84020","precinct":"25DR03","hd":"54","v_score":"5.40460374","decile":"7","lat":40.46030593065331,"lng":-111.8339852733641,"phone":"(444) 905-1030","sd":"19","ssbd":"11","lsbd":"School Board Aspen Peaks 4"},{"vid":"1616183","name":"Nolen Jones-Crona","party":"","address":"14718 S Springtime Rd, Draper, UT 84020","precinct":"25DR03","hd":"54","v_score":"2.315214949","decile":"5","lat":40.484432353229316,"lng":-111.82617382087585,"phone":"(682) 730-9815","sd":"19","ssbd":"11","lsbd":"School Board Aspen Peaks 4"},{"vid":"1636556","name":"Tollie Kilback","party":"","address":"2476 E Canyon Wild Rd, Draper, UT 84020","precinct":"25DR03","hd":"54","v_score":"1.46627566","decile":"4","lat":40.48486847310048,"lng":-111.82388792430577,"phone":"(135) 860-4098","sd":"19","ssbd":"11","lsbd":"School Board Aspen Peaks 4"},{"vid":"1637765","name":"Samatha Hansen","party":"","address":"2466 E Lone Hill Dr, Draper, UT 84020","precinct":"25DR03","hd":"54","v_score":"1.193887297","decile":"3","lat":40.48195099124763,"lng":-111.82413424235067,"phone":"(371) 847-0174","sd":"19","ssbd":"11","lsbd":"School Board Aspen Peaks 4"},{"vid":"1639522","name":"Clemma Kozey","party":"","address":"2219 E Fair Winns Ln, Draper, UT 84020","precinct":"25DR03","hd":"54","v_score":"3.089388791","decile":"6","lat":40.466117929736605,"lng":-111.8241502679576,"phone":"(583) 608-8262","sd":"19","ssbd":"11","lsbd":"School Board Aspen Peaks 4"},{"vid":"1644073","name":"Dr. Lewis Nader Sr.","party":"Dem","address":"14749 S Springtime Rd, Draper, UT 84020","precinct":"25DR03","hd":"54","v_score":"5.274151572","decile":"7","lat":40.48385471228072,"lng":-111.82560837560159,"phone":"(218) 220-2638","sd":"19","ssbd":"11","lsbd":"School Board Aspen Peaks 4"},{"vid":"63913a7344feaa5fa100de37d2ac4e400d368651ab73e5cdd4adf33a85d62189","name":"Dr. Trent Willms","party":"Dem","address":"14839 S Canyon Pointe Rd, Draper, UT 84020","precinct":"25DR03","hd":"54","v_score":"2.315214949","decile":"5","lat":40.48219278195425,"lng":-111.8219010839567,"phone":"(675) 198-5317","sd":"19","ssbd":"11","lsbd":"School Board Aspen Peaks 4"},{"vid":"1648827","name":"Alfred Hermiston","party":"Dem","address":"2216 E Fair Winns Ln, Draper, UT 84020","precinct":"25DR03","hd":"54","v_score":"8.761771632","decile":"8","lat":40.465651994852294,"lng":-111.82410898749976,"phone":"(282) 715-3738","sd":"19","ssbd":"11","lsbd":"School Board Aspen Peaks 4"},{"vid":"1659570","name":"Louetta Boyer","party":"","address":"14678 S Short Oak Cv, Draper, UT 84020","precinct":"25DR03","hd":"54","v_score":"3.781490609","decile":"6","lat":40.48494838063395,"lng":-111.82498490578409,"phone":"(665) 182-1881","sd":"19","ssbd":"11","lsbd":"School Board Aspen Peaks 4"},{"vid":"1661109","name":"Brenden Reynolds Sr.","party":"","address":"14873 S Lone Birch Ln, Draper, UT 84020","precinct":"25DR03","hd":"54","v_score":"2.315214949","decile":"5","lat":40.481938377259155,"lng":-111.82511216759222,"phone":"(868) 174-0488","sd":"19","ssbd":"11","lsbd":"School Board Aspen Peaks 4"},{"vid":"1661426","name":"Mrs. May Schoen","party":"Rep","address":"16032 S Chimney Stone Rd, Draper, UT 84020","precinct":"25DR03","hd":"54","v_score":"1.193887297","decile":"3","lat":40.46030593065331,"lng":-111.8339852733641,"phone":"(110) 833-6201","sd":"19","ssbd":"11","lsbd":"School Board Aspen Peaks 4"},{"vid":"1685168","name":"Lafe Kreiger","party":"","address":"2043 E Brookings Dr, Draper, UT 84020","precinct":"25DR03","hd":"54","v_score":"0","decile":"1","lat":40.460187546298336,"lng":-111.82985702206949,"phone":"(876) 646-1612","sd":"19","ssbd":"11","lsbd":"School Board Aspen Peaks 4"},{"vid":"1688471","name":"Miss Jaime Gislason","party":"Rep","address":"14662 S Canyon Pointe Rd, Draper, UT 84020","precinct":"25DR03","hd":"54","v_score":"13.49145768","decile":"9","lat":40.48521714228776,"lng":-111.82200864192384,"phone":"(882) 177-4079","sd":"19","ssbd":"11","lsbd":"School Board Aspen Peaks 4"},{"vid":"0545a2f589ee3f5aa23b058ebdb692e1b7356697c8322dff3d0c4fac1bc47383","name":"Azul Torphy","party":"Rep","address":"2328 E Mercer Point Cir, Draper, UT 84020","precinct":"25DR03","hd":"54","v_score":"15.10209333","decile":"9","lat":40.47099833786964,"lng":-111.82046800734176,"phone":"(439) 976-0371","sd":"19","ssbd":"11","lsbd":"School Board Aspen Peaks 4"},{"vid":"1704612","name":"Janey Rodriguez","party":"","address":"2196 E Fair Winns Ln, Draper, UT 84020","precinct":"25DR03","hd":"54","v_score":"1.121327652","decile":"3","lat":40.46534197837142,"lng":-111.8247021422372,"phone":"(326) 529-3918","sd":"19","ssbd":"11","lsbd":"School Board Aspen Peaks 4"},{"vid":"1709039","name":"Oswaldo Rolfson","party":"Dem","address":"2234 E Fair Winns Ln, Draper, UT 84020","precinct":"25DR03","hd":"54","v_score":"1.121327652","decile":"3","lat":40.46595817229192,"lng":-111.82350731003883,"phone":"(514) 920-9265","sd":"19","ssbd":"11","lsbd":"School Board Aspen Peaks 4"},{"vid":"1713050","name":"Marcelo Christiansen","party":"Rep","address":"2037 E Brookings Dr, Draper, UT 84020","precinct":"25DR03","hd":"54","v_score":"1.193887297","decile":"3","lat":40.46022675910841,"lng":-111.83003223629744,"phone":"(786) 628-1851","sd":"19","ssbd":"11","lsbd":"School Board Aspen Peaks 4"},{"vid":"1720072","name":"Brantley Jakubowski","party":"Rep","address":"1938 E Fielding Hill Ln, Draper, UT 84020","precinct":"25DR03","hd":"54","v_score":"1.193887297","decile":"3","lat":40.45907886786686,"lng":-111.83330777499602,"phone":"(789) 956-7904","sd":"19","ssbd":"11","lsbd":"School Board Aspen Peaks 4"},{"vid":"1725104","name":"Karson Larkin","party":"","address":"1938 E Fielding Hill Ln, Draper, UT 84020","precinct":"25DR03","hd":"54","v_score":"1.193887297","decile":"3","lat":40.45907886786686,"lng":-111.83330777499602,"phone":"(940) 320-4710","sd":"19","ssbd":"11","lsbd":"School Board Aspen Peaks 4"},{"vid":"1743021","name":"Golden Tremblay","party":"Rep","address":"14792 S Dryburg Cv, Draper, UT 84020","precinct":"25DR03","hd":"54","v_score":"9.426618751","decile":"8","lat":40.48216342740757,"lng":-111.83136696701057,"phone":"(460) 565-5456","sd":"19","ssbd":"11","lsbd":"School Board Aspen Peaks 4"},{"vid":"1747761","name":"Kristi Ritchie","party":"","address":"14797 S Castle End Cv, Draper, UT 84020","precinct":"25DR03","hd":"54","v_score":"2.587603312","decile":"5","lat":40.482079865417965,"lng":-111.82796428211415,"phone":"(830) 964-0637","sd":"19","ssbd":"11","lsbd":"School Board Aspen Peaks 4"},{"vid":"1754674","name":"Dr. Henderson Hansen Jr.","party":"Rep","address":"14892 S Springtime Rd, Draper, UT 84020","precinct":"25DR03","hd":"54","v_score":"2.315214949","decile":"5","lat":40.48109329080592,"lng":-111.82615152379218,"phone":"(352) 648-4970","sd":"19","ssbd":"11","lsbd":"School Board Aspen Peaks 4"},{"vid":"1759510","name":"Shaun McGlynn","party":"Rep","address":"14772 S Dryburg Cv, Draper, UT 84020","precinct":"25DR03","hd":"54","v_score":"0","decile":"1","lat":40.48253088483729,"lng":-111.8313479559343,"phone":"(989) 426-8630","sd":"19","ssbd":"11","lsbd":"School Board Aspen Peaks 4"},{"vid":"1760580","name":"Kalvin Corwin I","party":"Rep","address":"14768 S Deer Park Ln, Draper, UT 84020","precinct":"25DR03","hd":"54","v_score":"1.193887297","decile":"3","lat":40.48255407095835,"lng":-111.83018871247906,"phone":"(969) 468-5904","sd":"19","ssbd":"11","lsbd":"School Board Aspen Peaks 4"},{"vid":"1761882","name":"Mr. Felton Walsh V","party":"","address":"14956 S Auburn Sky Dr, Draper, UT 84020","precinct":"25DR03","hd":"54","v_score":"1.121327652","decile":"3","lat":40.47975631426509,"lng":-111.82269411790743,"phone":"(179) 822-9747","sd":"19","ssbd":"11","lsbd":"School Board Aspen Peaks 4"},{"vid":"a2dc690edf62a901fb5c24ad158ca6a7ece112f3c866811e695e14a7df0161ec","name":"Kelby Yost-McKenzie","party":"Dem","address":"15611 S Winged Trace Ct, Draper, UT 84020","precinct":"25DR03","hd":"54","v_score":"5.258122542","decile":"7","lat":40.468047713960296,"lng":-111.82077414715934,"phone":"(343) 907-7799","sd":"19","ssbd":"11","lsbd":"School Board Aspen Peaks 4"},{"vid":"1762884","name":"Salvador Hane","party":"Rep","address":"2228 E Viscaya Dr, Draper, UT 84020","precinct":"25DR03","hd":"54","v_score":"13.23991076","decile":"9","lat":40.4643025646158,"lng":-111.82354780329423,"phone":"(294) 381-3632","sd":"19","ssbd":"11","lsbd":"School Board Aspen Peaks 4"},{"vid":"1769489","name":"Mr. Emmons Emmerich Jr.","party":"","address":"2066 E Ash Down Ln, Draper, UT 84020","precinct":"25DR03","hd":"54","v_score":"3.93832808","decile":"6","lat":40.462746198591745,"lng":-111.82927819595965,"phone":"(761) 820-8210","sd":"19","ssbd":"11","lsbd":"School Board Aspen Peaks 4"},{"vid":"9c8b3dbf155a6721c1bd782da041c6c09079cf46b1d24a4b469c7742f543f929","name":"Dr. Marcell Hodkiewicz","party":"Rep","address":"2066 E Ash Down Ln, Draper, UT 84020","precinct":"25DR03","hd":"54","v_score":"5.40460374","decile":"7","lat":40.462746198591745,"lng":-111.82927819595965,"phone":"(728) 693-9412","sd":"19","ssbd":"11","lsbd":"School Board Aspen Peaks 4"},{"vid":"1771695","name":"Markus Wisoky","party":"","address":"15547 S Mercer Ct, Draper, UT 84020","precinct":"25DR03","hd":"54","v_score":"8.347511332","decile":"8","lat":40.46912659179765,"lng":-111.82113957569047,"phone":"(849) 655-3770","sd":"19","ssbd":"11","lsbd":"School Board Aspen Peaks 4"},{"vid":"1776026","name":"Chaka Adams","party":"Rep","address":"14781 S Castle End Cv, Draper, UT 84020","precinct":"25DR03","hd":"54","v_score":"1.121327652","decile":"3","lat":40.482368179761544,"lng":-111.8279961505025,"phone":"(789) 956-1849","sd":"19","ssbd":"11","lsbd":"School Board Aspen Peaks 4"},{"vid":"1776931","name":"Ewell Johnston","party":"Rep","address":"14866 S Canyon Pointe Rd, Draper, UT 84020","precinct":"25DR03","hd":"54","v_score":"3.781490609","decile":"6","lat":40.48159880664031,"lng":-111.82305905289368,"phone":"(931) 276-1105","sd":"19","ssbd":"11","lsbd":"School Board Aspen Peaks 4"},{"vid":"1781004","name":"Scarlet Jaskolski","party":"Dem","address":"2502 E Canyon Wild Rd, Draper, UT 84020","precinct":"25DR03","hd":"54","v_score":"2.817000428","decile":"6","lat":40.48479785622577,"lng":-111.82315264977478,"phone":"(168) 980-8011","sd":"19","ssbd":"11","lsbd":"School Board Aspen Peaks 4"},{"vid":"1781326","name":"Mckinley Klocko","party":"Dem","address":"2053 E Brookings Dr, Draper, UT 84020","precinct":"25DR03","hd":"54","v_score":"3.781490609","decile":"6","lat":40.460262083251955,"lng":-111.82949923787322,"phone":"(361) 659-9260","sd":"19","ssbd":"11","lsbd":"School Board Aspen Peaks 4"},{"vid":"1781937","name":"Glen Murray I","party":"","address":"2144 E Whitekirk Way, Draper, UT 84020","precinct":"25DR03","hd":"54","v_score":"11.36410258","decile":"9","lat":40.48207479063631,"lng":-111.83297715760155,"phone":"(556) 714-4152","sd":"19","ssbd":"11","lsbd":"School Board Aspen Peaks 4"},{"vid":"a3feccb83ee6163139b73b943e23f9c224dd699bf900377b5bcff98f76039378","name":"Shaun Boehm","party":"Rep","address":"14866 S Canyon Pointe Rd, Draper, UT 84020","precinct":"25DR03","hd":"54","v_score":"3.781490609","decile":"6","lat":40.48159880664031,"lng":-111.82305905289368,"phone":"(401) 211-6451","sd":"19","ssbd":"11","lsbd":"School Board Aspen Peaks 4"},{"vid":"a597fdb1afb475ccea904a1d647639302c403140c393113d2a12eb9b55781f68","name":"Riley Kautzer DVM","party":"Rep","address":"1892 E Fielding Hill Ln, Draper, UT 84020","precinct":"25DR03","hd":"54","v_score":"2.315214949","decile":"5","lat":40.45909546602107,"lng":-111.83507253747021,"phone":"(276) 861-9435","sd":"19","ssbd":"11","lsbd":"School Board Aspen Peaks 4"},{"vid":"1795019","name":"Krystal Hansen MD","party":"Dem","address":"2474 E Springtime Rd, Draper, UT 84020","precinct":"25DR03","hd":"54","v_score":"8.500724203","decile":"8","lat":40.485699881715114,"lng":-111.8239642084267,"phone":"(428) 169-2781","sd":"19","ssbd":"11","lsbd":"School Board Aspen Peaks 4"},{"vid":"1798090","name":"Amiyah McGlynn","party":"","address":"16064 S Timber Brook Dr, Draper, UT 84020","precinct":"25DR03","hd":"54","v_score":"5.191257514","decile":"7","lat":40.45974676047926,"lng":-111.83495650855284,"phone":"(751) 465-1659","sd":"19","ssbd":"11","lsbd":"School Board Aspen Peaks 4"},{"vid":"1802740","name":"Tessie Jenkins","party":"","address":"15528 S Winged Trace Ct, Draper, UT 84020","precinct":"25DR03","hd":"54","v_score":"3.781490609","decile":"6","lat":40.46951667081244,"lng":-111.82118790160038,"phone":"(363) 370-4230","sd":"19","ssbd":"11","lsbd":"School Board Aspen Peaks 4"},{"vid":"1811393","name":"Mrs. Elisabeth Reinger","party":"","address":"1998 E Brookings Dr, Draper, UT 84020","precinct":"25DR03","hd":"54","v_score":"2.744440783","decile":"5","lat":40.45981633899402,"lng":-111.83104419259726,"phone":"(718) 359-3553","sd":"19","ssbd":"11","lsbd":"School Board Aspen Peaks 4"},{"vid":"1812059","name":"Demi Goldner PhD","party":"Rep","address":"1998 E Brookings Dr, Draper, UT 84020","precinct":"25DR03","hd":"54","v_score":"3.93832808","decile":"6","lat":40.45981633899402,"lng":-111.83104419259726,"phone":"(752) 324-5633","sd":"19","ssbd":"11","lsbd":"School Board Aspen Peaks 4"},{"vid":"1813203","name":"Mr. Merritt Haley","party":"Dem","address":"1962 E Brookings Dr, Draper, UT 84020","precinct":"25DR03","hd":"54","v_score":"5.191257514","decile":"7","lat":40.459868278311376,"lng":-111.83251803087839,"phone":"(700) 807-8444","sd":"19","ssbd":"11","lsbd":"School Board Aspen Peaks 4"},{"vid":"1827154","name":"Karel Wisozk","party":"Rep","address":"14611 S Canyon Pointe Rd, Draper, UT 84020","precinct":"25DR03","hd":"54","v_score":"4.137918904","decile":"7","lat":40.48631616294443,"lng":-111.82192117334054,"phone":"(353) 592-4332","sd":"19","ssbd":"11","lsbd":"School Board Aspen Peaks 4"},{"vid":"c4ee7253d75caad13877e6566af8f9325d44aa6ad9f22be45fa9759ccd1545b0","name":"Mrs. Meredith Schmidt MD","party":"Rep","address":"2454 E Springtime Rd, Draper, UT 84020","precinct":"25DR03","hd":"54","v_score":"26.42542406","decile":"10","lat":40.48547058058563,"lng":-111.82444673931423,"phone":"(974) 548-3557","sd":"19","ssbd":"11","lsbd":"School Board Aspen Peaks 4"},{"vid":"227a444647d9a2efd811a7e834f21f93a0c1e1e0964fb502c49a5ee8287691bc","name":"Madelyn Wiza MD","party":"Dem","address":"2514 E Ember Dr, Draper, UT 84020","precinct":"25DR03","hd":"54","v_score":"13.84916389","decile":"9","lat":40.48415485861757,"lng":-111.82253269120982,"phone":"(467) 612-7827","sd":"19","ssbd":"11","lsbd":"School Board Aspen Peaks 4"},{"vid":"7ba35b9409e681bc73c09de059bc721558cd66ab770c2e0498c599eb7ca444db","name":"Eston Blick","party":"","address":"16066 S Fielding Hill Ln, Draper, UT 84020","precinct":"25DR03","hd":"54","v_score":"2.587603312","decile":"5","lat":40.459658836651215,"lng":-111.83598431034608,"phone":"(697) 163-0305","sd":"19","ssbd":"11","lsbd":"School Board Aspen Peaks 4"},{"vid":"1844101","name":"Alpha Gottlieb","party":"Rep","address":"2053 E Brookings Dr, Draper, UT 84020","precinct":"25DR03","hd":"54","v_score":"4.13679489","decile":"7","lat":40.460262083251955,"lng":-111.82949923787322,"phone":"(546) 489-5971","sd":"19","ssbd":"11","lsbd":"School Board Aspen Peaks 4"},{"vid":"1844797","name":"Markita Simonis","party":"","address":"1863 E Chimney Stone Ct, Draper, UT 84020","precinct":"25DR03","hd":"54","v_score":"7.153624035","decile":"8","lat":40.460842596428044,"lng":-111.83658613008151,"phone":"(865) 012-1520","sd":"19","ssbd":"11","lsbd":"School Board Aspen Peaks 4"},{"vid":"02f75497517c3a90c899d0dae9f3b6efa8ef68c5c0835fa583af21e6d670c9fc","name":"Michell Casper","party":"Dem","address":"2181 E Fair Winns Ln, Draper, UT 84020","precinct":"25DR03","hd":"54","v_score":"6.881235673","decile":"8","lat":40.46557282358736,"lng":-111.82529611725624,"phone":"(776) 738-8024","sd":"19","ssbd":"11","lsbd":"School Board Aspen Peaks 4"},{"vid":"782ff22bf863c7cbfa7c1ad580afd16a1fcd451f82b42f7ea6ba651462dcd543","name":"Norene Price","party":"Dem","address":"1948 E Brookings Dr, Draper, UT 84020","precinct":"25DR03","hd":"54","v_score":"2.744440783","decile":"5","lat":40.459825497028966,"lng":-111.83305978338373,"phone":"(573) 509-1263","sd":"19","ssbd":"11","lsbd":"School Board Aspen Peaks 4"},{"vid":"f5aceaa4a764bb8e08b1050a04b2c3130c328e4096e0227e1d420d1ce9d6514b","name":"Concetta Oberbrunner","party":"","address":"14775 S Invergarry Ct, Draper, UT 84020","precinct":"25DR03","hd":"54","v_score":"1.193887297","decile":"3","lat":40.482432895924745,"lng":-111.83174163570418,"phone":"(632) 485-2181","sd":"19","ssbd":"11","lsbd":"School Board Aspen Peaks 4"},{"vid":"1861603","name":"Shyanne Lockman-Homenick","party":"Dem","address":"14951 S Canyon Pointe Rd, Draper, UT 84020","precinct":"25DR03","hd":"54","v_score":"3.93832808","decile":"6","lat":40.48011634484582,"lng":-111.82309950730318,"phone":"(616) 728-7019","sd":"19","ssbd":"11","lsbd":"School Board Aspen Peaks 4"},{"vid":"1869250","name":"Artis Pouros","party":"Rep","address":"14933 S Auburn Sky Dr, Draper, UT 84020","precinct":"25DR03","hd":"54","v_score":"1.121327652","decile":"3","lat":40.48028633182377,"lng":-111.82188723881801,"phone":"(938) 530-0088","sd":"19","ssbd":"11","lsbd":"School Board Aspen Peaks 4"},{"vid":"1874105","name":"Nella Luettgen","party":"","address":"14763 S Haddington Rd, Draper, UT 84020","precinct":"25DR03","hd":"54","v_score":"9.61867875","decile":"8","lat":40.48267719624753,"lng":-111.83313646752899,"phone":"(757) 249-8150","sd":"19","ssbd":"11","lsbd":"School Board Aspen Peaks 4"},{"vid":"1880096","name":"Demetric Koelpin","party":"","address":"2178 E Whitekirk Way, Draper, UT 84020","precinct":"25DR03","hd":"54","v_score":"5.40460374","decile":"7","lat":40.48212885628569,"lng":-111.83216926601528,"phone":"(679) 968-4834","sd":"19","ssbd":"11","lsbd":"School Board Aspen Peaks 4"},{"vid":"1892089","name":"Troy Runolfsson","party":"","address":"1948 E Brookings Dr, Draper, UT 84020","precinct":"25DR03","hd":"54","v_score":"13.18367289","decile":"9","lat":40.459825497028966,"lng":-111.83305978338373,"phone":"(669) 491-9858","sd":"19","ssbd":"11","lsbd":"School Board Aspen Peaks 4"},{"vid":"1898199","name":"Cam Howe","party":"Rep","address":"14792 S Deer Park Ln, Draper, UT 84020","precinct":"25DR03","hd":"54","v_score":"15.72690788","decile":"9","lat":40.48218970909597,"lng":-111.83018309056821,"phone":"(582) 596-2849","sd":"19","ssbd":"11","lsbd":"School Board Aspen Peaks 4"},{"vid":"1905771","name":"Windell Adams-Kihn","party":"Dem","address":"2514 E Ember Dr, Draper, UT 84020","precinct":"25DR03","hd":"54","v_score":"16.79207149","decile":"9","lat":40.48415485861757,"lng":-111.82253269120982,"phone":"(759) 423-7774","sd":"19","ssbd":"11","lsbd":"School Board Aspen Peaks 4"},{"vid":"1906702","name":"Miss Patricia Cormier DDS","party":"","address":"14792 S Dryburg Cv, Draper, UT 84020","precinct":"25DR03","hd":"54","v_score":"3.93832808","decile":"6","lat":40.48216342740757,"lng":-111.83136696701057,"phone":"(307) 179-8436","sd":"19","ssbd":"11","lsbd":"School Board Aspen Peaks 4"},{"vid":"f8eac20846e83e8153cd01547ed88b2fee39e4e479248d5b20cc156dbea058dc","name":"Yajaira Turner","party":"Dem","address":"2483 E Springtime Rd, Draper, UT 84020","precinct":"25DR03","hd":"54","v_score":"13.61621523","decile":"9","lat":40.486134655375665,"lng":-111.82376763803452,"phone":"(797) 082-5441","sd":"19","ssbd":"11","lsbd":"School Board Aspen Peaks 4"},{"vid":"1907186","name":"Angus Raynor","party":"Rep","address":"2483 E Springtime Rd, Draper, UT 84020","precinct":"25DR03","hd":"54","v_score":"0","decile":"1","lat":40.486134655375665,"lng":-111.82376763803452,"phone":"(420) 226-2398","sd":"19","ssbd":"11","lsbd":"School Board Aspen Peaks 4"},{"vid":"1915019","name":"Araminta West DDS","party":"Rep","address":"14942 S Water Birch Cir, Draper, UT 84020","precinct":"25DR03","hd":"54","v_score":"3.93832808","decile":"6","lat":40.480424678593785,"lng":-111.82445513747773,"phone":"(870) 408-1821","sd":"19","ssbd":"11","lsbd":"School Board Aspen Peaks 4"},{"vid":"1922340","name":"Valentine Gislason","party":"Rep","address":"2037 E Brookings Dr, Draper, UT 84020","precinct":"25DR03","hd":"54","v_score":"1.193887297","decile":"3","lat":40.46022675910841,"lng":-111.83003223629744,"phone":"(421) 345-6928","sd":"19","ssbd":"11","lsbd":"School Board Aspen Peaks 4"},{"vid":"1925222","name":"Phoebe Fadel MD","party":"Dem","address":"2476 E Canyon Wild Rd, Draper, UT 84020","precinct":"25DR03","hd":"54","v_score":"1.46627566","decile":"4","lat":40.48486847310048,"lng":-111.82388792430577,"phone":"(748) 750-5170","sd":"19","ssbd":"11","lsbd":"School Board Aspen Peaks 4"},{"vid":"b21e9434b36b63c7c67e2538581eefb11c00e2d7ea44a0996397c43662c21a33","name":"Carlie Daugherty","party":"","address":"16056 S Fielding Hill Ln, Draper, UT 84020","precinct":"25DR03","hd":"54","v_score":"2.315214949","decile":"5","lat":40.45984847852721,"lng":-111.83590157701526,"phone":"(629) 891-0735","sd":"19","ssbd":"11","lsbd":"School Board Aspen Peaks 4"},{"vid":"1929894","name":"Americo Sawayn","party":"Dem","address":"16068 S Timber Brook Dr, Draper, UT 84020","precinct":"25DR03","hd":"54","v_score":"3.781490609","decile":"6","lat":40.459609551651134,"lng":-111.8349558357147,"phone":"(318) 202-1351","sd":"19","ssbd":"11","lsbd":"School Board Aspen Peaks 4"},{"vid":"1935556","name":"Edward O'Keefe-Williamson","party":"","address":"16092 S Fielding Hill Ln, Draper, UT 84020","precinct":"25DR03","hd":"54","v_score":"26.2609852","decile":"10","lat":40.45923779148413,"lng":-111.83558520402258,"phone":"(153) 726-9348","sd":"19","ssbd":"11","lsbd":"School Board Aspen Peaks 4"},{"vid":"1935862","name":"Drema Thompson","party":"Rep","address":"2004 E Brookings Dr, Draper, UT 84020","precinct":"25DR03","hd":"54","v_score":"11.2235539","decile":"9","lat":40.45982705864816,"lng":-111.83088777385038,"phone":"(509) 134-0381","sd":"19","ssbd":"11","lsbd":"School Board Aspen Peaks 4"},{"vid":"1935904","name":"Erby Dickens PhD","party":"Dem","address":"2004 E Brookings Dr, Draper, UT 84020","precinct":"25DR03","hd":"54","v_score":"6.814370645","decile":"8","lat":40.45982705864816,"lng":-111.83088777385038,"phone":"(838) 924-7819","sd":"19","ssbd":"11","lsbd":"School Board Aspen Peaks 4"},{"vid":"1943015","name":"Raegan Barrows-Bernhard","party":"Rep","address":"2528 E Ember Dr, Draper, UT 84020","precinct":"25DR03","hd":"54","v_score":"8.280646305","decile":"8","lat":40.48422750437076,"lng":-111.82226771451184,"phone":"(658) 405-0429","sd":"19","ssbd":"11","lsbd":"School Board Aspen Peaks 4"},{"vid":"1948072","name":"Desirae Konopelski","party":"Dem","address":"15767 S Rolling Bluff Dr, Draper, UT 84020","precinct":"25DR03","hd":"54","v_score":"2.587603312","decile":"5","lat":40.465161292660525,"lng":-111.8225146790271,"phone":"(552) 157-8065","sd":"19","ssbd":"11","lsbd":"School Board Aspen Peaks 4"},{"vid":"1953321","name":"Mr. Ruel Leannon DDS","party":"","address":"14952 S Water Birch Cir, Draper, UT 84020","precinct":"25DR03","hd":"54","v_score":"0","decile":"1","lat":40.480248863723276,"lng":-111.8242030471273,"phone":"(363) 330-7142","sd":"19","ssbd":"11","lsbd":"School Board Aspen Peaks 4"},{"vid":"1963957","name":"Mariyah Marquardt MD","party":"","address":"2136 E Whitekirk Way, Draper, UT 84020","precinct":"25DR03","hd":"54","v_score":"8.347511332","decile":"8","lat":40.482046428684754,"lng":-111.83321795544448,"phone":"(197) 109-4955","sd":"19","ssbd":"11","lsbd":"School Board Aspen Peaks 4"},{"vid":"1964648","name":"Rosemarie Zieme-Halvorson","party":"Rep","address":"14753 S Canyon Peak Dr, Draper, UT 84020","precinct":"25DR03","hd":"54","v_score":"2.744440783","decile":"5","lat":40.48364084361268,"lng":-111.81854379131109,"phone":"(746) 628-5085","sd":"19","ssbd":"11","lsbd":"School Board Aspen Peaks 4"},{"vid":"1967121","name":"Miah O'Conner","party":"Rep","address":"2095 E Autumn Fields Ln, Draper, UT 84020","precinct":"25DR03","hd":"54","v_score":"6.881235673","decile":"8","lat":40.463122454303004,"lng":-111.82831768966626,"phone":"(545) 226-3984","sd":"19","ssbd":"11","lsbd":"School Board Aspen Peaks 4"},{"vid":"1971654","name":"Woodroe O'Reilly","party":"Dem","address":"14782 S Castle End Cv, Draper, UT 84020","precinct":"25DR03","hd":"54","v_score":"2.315214949","decile":"5","lat":40.48236789750945,"lng":-111.82825574577669,"phone":"(821) 585-5693","sd":"19","ssbd":"11","lsbd":"School Board Aspen Peaks 4"},{"vid":"1980034","name":"Ruth Hessel","party":"Dem","address":"14761 S Springtime Rd, Draper, UT 84020","precinct":"25DR03","hd":"54","v_score":"4.192796624","decile":"7","lat":40.48363243171548,"lng":-111.82560814221932,"phone":"(627) 993-8022","sd":"19","ssbd":"11","lsbd":"School Board Aspen Peaks 4"},{"vid":"1984827","name":"Dahlia Towne","party":"","address":"14686 S Springtime Rd, Draper, UT 84020","precinct":"25DR03","hd":"54","v_score":"1.121327652","decile":"3","lat":40.484856167802164,"lng":-111.82610903595551,"phone":"(391) 421-2990","sd":"19","ssbd":"11","lsbd":"School Board Aspen Peaks 4"},{"vid":"1989567","name":"Burnett Labadie","party":"Dem","address":"2216 E Viscaya Dr, Draper, UT 84020","precinct":"25DR03","hd":"54","v_score":"11.53879936","decile":"9","lat":40.46456252562735,"lng":-111.8239454354886,"phone":"(511) 599-5475","sd":"19","ssbd":"11","lsbd":"School Board Aspen Peaks 4"},{"vid":"1992435","name":"Dr. Derrek Predovic","party":"","address":"16092 S Fielding Hill Ln, Draper, UT 84020","precinct":"25DR03","hd":"54","v_score":"20.92591958","decile":"10","lat":40.45923779148413,"lng":-111.83558520402258,"phone":"(396) 667-5389","sd":"19","ssbd":"11","lsbd":"School Board Aspen Peaks 4"},{"vid":"1995849","name":"Finley Purdy-West","party":"Dem","address":"16073 S Fielding Hill Ln, Draper, UT 84020","precinct":"25DR03","hd":"54","v_score":"0","decile":"1","lat":40.45948936013568,"lng":-111.83537760582027,"phone":"(854) 123-9023","sd":"19","ssbd":"11","lsbd":"School Board Aspen Peaks 4"},{"vid":"2004346","name":"Magen Funk","party":"Rep","address":"15513 S Winged Trace Ct, Draper, UT 84020","precinct":"25DR03","hd":"54","v_score":"0","decile":"1","lat":40.469815494585596,"lng":-111.82080040379944,"phone":"(921) 304-4029","sd":"19","ssbd":"11","lsbd":"School Board Aspen Peaks 4"},{"vid":"2004625","name":"Dola Daugherty","party":"Dem","address":"14637 S Canyon End Dr, Draper, UT 84020","precinct":"25DR03","hd":"54","v_score":"2.660162957","decile":"5","lat":40.485744996722474,"lng":-111.81862573028697,"phone":"(942) 024-2765","sd":"19","ssbd":"11","lsbd":"School Board Aspen Peaks 4"},{"vid":"2006832","name":"Bobbye Marvin PhD","party":"","address":"14884 S Lone Birch Ln, Draper, UT 84020","precinct":"25DR03","hd":"54","v_score":"15.03795631","decile":"9","lat":40.48134822403144,"lng":-111.82526521161724,"phone":"(867) 154-0937","sd":"19","ssbd":"11","lsbd":"School Board Aspen Peaks 4"},{"vid":"127015e79620cfa945888f7c4652de98382309f50c98a804019e5d49059b8add","name":"Dr. Bose Zemlak II","party":"Dem","address":"14796 S Castle End Cv, Draper, UT 84020","precinct":"25DR03","hd":"54","v_score":"7.650280567","decile":"8","lat":40.482079513535595,"lng":-111.82830057347756,"phone":"(403) 403-5304","sd":"19","ssbd":"11","lsbd":"School Board Aspen Peaks 4"},{"vid":"76b527aef8337303997503635d0ca01e6bb263278fe5d00a9155462b48689cb6","name":"Tab Bogisich Jr.","party":"Dem","address":"14794 S Deer Park Ln, Draper, UT 84020","precinct":"25DR03","hd":"54","v_score":"6.814370645","decile":"8","lat":40.482115357403195,"lng":-111.83015193070051,"phone":"(645) 743-7134","sd":"19","ssbd":"11","lsbd":"School Board Aspen Peaks 4"},{"vid":"2030910","name":"Angeles Fahey-Collins","party":"","address":"14918 S Springtime Rd, Draper, UT 84020","precinct":"25DR03","hd":"54","v_score":"5.40460374","decile":"7","lat":40.480674830702,"lng":-111.82571627661154,"phone":"(566) 381-4505","sd":"19","ssbd":"11","lsbd":"School Board Aspen Peaks 4"},{"vid":"2035373","name":"Simon McClure","party":"Rep","address":"14651 S Springtime Rd, Draper, UT 84020","precinct":"25DR03","hd":"54","v_score":"9.55742766","decile":"8","lat":40.485229394975136,"lng":-111.82552208023695,"phone":"(164) 727-4495","sd":"19","ssbd":"11","lsbd":"School Board Aspen Peaks 4"},{"vid":"2045039","name":"Ariana Simonis-Sipes","party":"","address":"14780 S Invergarry Ct, Draper, UT 84020","precinct":"25DR03","hd":"54","v_score":"13.24168426","decile":"9","lat":40.48236459825222,"lng":-111.83200008610694,"phone":"(235) 732-1960","sd":"19","ssbd":"11","lsbd":"School Board Aspen Peaks 4"},{"vid":"43226f6226d36789fa06ca7fdd035472fbaf873691244b5ebf6d5de3108e8102","name":"Miss Asha Gibson DDS","party":"Dem","address":"14807 S Springtime Rd, Draper, UT 84020","precinct":"25DR03","hd":"54","v_score":"10.67330764","decile":"9","lat":40.48277513700459,"lng":-111.82572801037117,"phone":"(633) 651-2629","sd":"19","ssbd":"11","lsbd":"School Board Aspen Peaks 4"},{"vid":"2045980","name":"Monte Gerhold","party":"","address":"14694 S Canyon Pointe Rd, Draper, UT 84020","precinct":"25DR03","hd":"54","v_score":"9.600440767","decile":"8","lat":40.48470069030233,"lng":-111.82190199667006,"phone":"(834) 784-0676","sd":"19","ssbd":"11","lsbd":"School Board Aspen Peaks 4"},{"vid":"2047456","name":"Eben Kihn","party":"Rep","address":"14780 S Invergarry Ct, Draper, UT 84020","precinct":"25DR03","hd":"54","v_score":"4.210716443","decile":"7","lat":40.48236459825222,"lng":-111.83200008610694,"phone":"(594) 088-5665","sd":"19","ssbd":"11","lsbd":"School Board Aspen Peaks 4"},{"vid":"2048630","name":"Jonathon Hessel I","party":"","address":"1943 E Brookings Dr, Draper, UT 84020","precinct":"25DR03","hd":"54","v_score":"9.757278238","decile":"8","lat":40.460254978614145,"lng":-111.83320699324383,"phone":"(946) 716-0925","sd":"19","ssbd":"11","lsbd":"School Board Aspen Peaks 4"},{"vid":"c01212f04b581e36c300b7394e9d5705fc7fae2a39a597f6836df7df8b529145","name":"Kaleena Corkery","party":"Dem","address":"2331 E Deer Park Ln, Draper, UT 84020","precinct":"25DR03","hd":"54","v_score":"13.61621523","decile":"9","lat":40.48264391515929,"lng":-111.82858679077077,"phone":"(581) 274-7217","sd":"19","ssbd":"11","lsbd":"School Board Aspen Peaks 4"},{"vid":"05bfdb85f4ac12c915e61a1c4961387aeb7e2fa2b645ee41daf03f22bc97826c","name":"Mrs. Burnice Berge PhD","party":"","address":"16084 S Duck Horn Dr, Draper, UT 84020","precinct":"25DR03","hd":"54","v_score":"1.121327652","decile":"3","lat":40.45933469263007,"lng":-111.82984483737056,"phone":"(387) 166-9161","sd":"19","ssbd":"11","lsbd":"School Board Aspen Peaks 4"},{"vid":"2104273","name":"Olof Quitzon","party":"","address":"2413 E Lone Hill Dr, Draper, UT 84020","precinct":"25DR03","hd":"54","v_score":"2.744440783","decile":"5","lat":40.48213777002028,"lng":-111.82558656907509,"phone":"(452) 321-3512","sd":"19","ssbd":"11","lsbd":"School Board Aspen Peaks 4"},{"vid":"2119307","name":"Gracia Bode","party":"","address":"14784 S Castle End Cv, Draper, UT 84020","precinct":"25DR03","hd":"54","v_score":"3.781490609","decile":"6","lat":40.48229531476699,"lng":-111.82832918215436,"phone":"(126) 119-8572","sd":"19","ssbd":"11","lsbd":"School Board Aspen Peaks 4"},{"vid":"2119309","name":"Ms. Evette Gerlach","party":"","address":"1878 E Chimney Stone Ct, Draper, UT 84020","precinct":"25DR03","hd":"54","v_score":"12.07549285","decile":"9","lat":40.46038225086679,"lng":-111.83575780724169,"phone":"(937) 642-9610","sd":"19","ssbd":"11","lsbd":"School Board Aspen Peaks 4"},{"vid":"74183a9db78678968d64e0c72c013af5fe1491538cf0b81b4f5187fb6adeee8c","name":"Dr. Belva Roob","party":"Dem","address":"2068 E Ash Down Ln, Draper, UT 84020","precinct":"25DR03","hd":"54","v_score":"6.814370645","decile":"8","lat":40.462502890429384,"lng":-111.82923628636172,"phone":"(511) 071-7302","sd":"19","ssbd":"11","lsbd":"School Board Aspen Peaks 4"},{"vid":"a1836bd63e3aef56598c529b72284df56116a97cd239d9ce89ea51090f81c004","name":"Dr. Kaia Sawayn DVM","party":"","address":"2487 E Ember Dr, Draper, UT 84020","precinct":"25DR03","hd":"54","v_score":"5.191257514","decile":"7","lat":40.48436790584306,"lng":-111.82345555512572,"phone":"(547) 241-6995","sd":"19","ssbd":"11","lsbd":"School Board Aspen Peaks 4"},{"vid":"2128326","name":"Michaele Thompson","party":"Rep","address":"1972 E Brookings Dr, Draper, UT 84020","precinct":"25DR03","hd":"54","v_score":"10.87160818","decile":"9","lat":40.45994230179342,"lng":-111.83215056186889,"phone":"(833) 734-3771","sd":"19","ssbd":"11","lsbd":"School Board Aspen Peaks 4"},{"vid":"39615971aaf2dc23882b69eb3cd3f112f8f6b8924799ce584c7c47eb3c8c50c6","name":"Izabella Funk","party":"Dem","address":"15547 S Mercer Ct, Draper, UT 84020","precinct":"25DR03","hd":"54","v_score":"8.347511332","decile":"8","lat":40.46912659179765,"lng":-111.82113957569047,"phone":"(610) 133-5330","sd":"19","ssbd":"11","lsbd":"School Board Aspen Peaks 4"},{"vid":"fed759134de6d5f4a46a5a8d06b122bcd3f413de1becf952314e00f4a118d2f7","name":"Norval Leuschke","party":"","address":"16012 S Brookings Ct, Draper, UT 84020","precinct":"25DR03","hd":"54","v_score":"23.70365327","decile":"10","lat":40.46054093878613,"lng":-111.83244414144995,"phone":"(418) 160-2880","sd":"19","ssbd":"11","lsbd":"School Board Aspen Peaks 4"},{"vid":"2162013","name":"Anaya McCullough","party":"Dem","address":"2317 E Deer Park Ln, Draper, UT 84020","precinct":"25DR03","hd":"54","v_score":"3.781490609","decile":"6","lat":40.48264357407538,"lng":-111.82889223755062,"phone":"(958) 081-0685","sd":"19","ssbd":"11","lsbd":"School Board Aspen Peaks 4"},{"vid":"f7996da2ca4c9430c2977a1af37fcb15edb6a2bf8188a1ac7536e5af33711338","name":"Sarita Dickinson","party":"Rep","address":"2008 E Brookings Dr, Draper, UT 84020","precinct":"25DR03","hd":"54","v_score":"5.40460374","decile":"7","lat":40.45978872896606,"lng":-111.83068716405839,"phone":"(279) 070-8602","sd":"19","ssbd":"11","lsbd":"School Board Aspen Peaks 4"},{"vid":"59ec0c931783fa2158188caf25bd9dcfdd8043080bd67eadac9d2ee13c2be583","name":"Hilda Stamm","party":"","address":"2189 E Fair Winns Ln, Draper, UT 84020","precinct":"25DR03","hd":"54","v_score":"1.193887297","decile":"3","lat":40.46573035278406,"lng":-111.82504174059859,"phone":"(629) 649-5863","sd":"19","ssbd":"11","lsbd":"School Board Aspen Peaks 4"},{"vid":"354cc867af19cd137628f7a14a435eddcca927b73280641dcce335b0050ccdda","name":"Gisele Okuneva","party":"Dem","address":"14951 S Canyon Pointe Rd, Draper, UT 84020","precinct":"25DR03","hd":"54","v_score":"3.93832808","decile":"6","lat":40.48011634484582,"lng":-111.82309950730318,"phone":"(812) 290-5988","sd":"19","ssbd":"11","lsbd":"School Board Aspen Peaks 4"},{"vid":"62a5d874bfadd3c7afe286875d05e4bf4e91c3ce65b92673f7bf2cbcfe0daf27","name":"Petra Jacobi","party":"Dem","address":"16098 S Fielding Hill Ln, Draper, UT 84020","precinct":"25DR03","hd":"54","v_score":"0","decile":"1","lat":40.45917773022381,"lng":-111.83540030775528,"phone":"(514) 205-5245","sd":"19","ssbd":"11","lsbd":"School Board Aspen Peaks 4"},{"vid":"8537c35f2fc25f92ec11df44642316a6f65128cf8514f2116b292716106c768e","name":"Mr. Kaden Green","party":"Rep","address":"15538 S Mercer Ct, Draper, UT 84020","precinct":"25DR03","hd":"54","v_score":"0","decile":"1","lat":40.46930295132517,"lng":-111.82184443799841,"phone":"(529) 727-5862","sd":"19","ssbd":"11","lsbd":"School Board Aspen Peaks 4"},{"vid":"fc403915baf596d50151c5465dbffd861af51d3151d24e5f9d1cffa1b856fbd6","name":"Florencio Weimann-Steuber","party":"Rep","address":"14964 S Canyon Pointe Rd, Draper, UT 84020","precinct":"25DR03","hd":"54","v_score":"5.687348376","decile":"7","lat":40.47990397902722,"lng":-111.82376981368333,"phone":"(579) 016-6102","sd":"19","ssbd":"11","lsbd":"School Board Aspen Peaks 4"},{"vid":"2189888","name":"Sharla Yost","party":"Dem","address":"2428 E Springtime Rd, Draper, UT 84020","precinct":"25DR03","hd":"54","v_score":"10.54249873","decile":"9","lat":40.48545416311469,"lng":-111.82506514171062,"phone":"(622) 949-9850","sd":"19","ssbd":"11","lsbd":"School Board Aspen Peaks 4"},{"vid":"2194231","name":"Delina Zboncak","party":"Dem","address":"2478 E Lone Hill Dr, Draper, UT 84020","precinct":"25DR03","hd":"54","v_score":"9.405332525","decile":"8","lat":40.48199400043922,"lng":-111.82375836839684,"phone":"(864) 402-2544","sd":"19","ssbd":"11","lsbd":"School Board Aspen Peaks 4"},{"vid":"2200673","name":"Sula Goodwin","party":"Dem","address":"2212 E Viscaya Dr, Draper, UT 84020","precinct":"25DR03","hd":"54","v_score":"0","decile":"1","lat":40.464597622961314,"lng":-111.82418084168064,"phone":"(159) 242-9657","sd":"19","ssbd":"11","lsbd":"School Board Aspen Peaks 4"},{"vid":"2bb5c772042f757fb32ffa88b744bf6d12c9a61b1251d45068cf49c6f47a6419","name":"Dandre Kuphal","party":"","address":"15679 S Fair Winns Ct, Draper, UT 84020","precinct":"25DR03","hd":"54","v_score":"2.998909327","decile":"6","lat":40.46670203995829,"lng":-111.82308336953172,"phone":"(548) 573-8471","sd":"19","ssbd":"11","lsbd":"School Board Aspen Peaks 4"},{"vid":"8e269f05dbb14b622ffcdf4fdb371b4043ea45fea09f4e7be72c126a10f8cc4e","name":"Andre Corkery II","party":"","address":"15679 S Fair Winns Ct, Draper, UT 84020","precinct":"25DR03","hd":"54","v_score":"3.93832808","decile":"6","lat":40.46670203995829,"lng":-111.82308336953172,"phone":"(221) 950-9502","sd":"19","ssbd":"11","lsbd":"School Board Aspen Peaks 4"},{"vid":"3722c1a71133777fa2498dc1c6964f571ee657e68e6a60976492b74215aa84c7","name":"Maranda Doyle","party":"Rep","address":"14677 S Snow Leopard Ln, Draper, UT 84020","precinct":"25DR03","hd":"54","v_score":"2.315214949","decile":"5","lat":40.48509215461265,"lng":-111.8223533780498,"phone":"(398) 070-8249","sd":"19","ssbd":"11","lsbd":"School Board Aspen Peaks 4"},{"vid":"2207450","name":"Shamar Klocko Sr.","party":"","address":"15689 S Fair Winns Ct, Draper, UT 84020","precinct":"25DR03","hd":"54","v_score":"3.93832808","decile":"6","lat":40.46658317882786,"lng":-111.82286458116074,"phone":"(207) 940-1507","sd":"19","ssbd":"11","lsbd":"School Board Aspen Peaks 4"},{"vid":"2213647","name":"Zana Keebler","party":"","address":"2508 E Lone Hill Dr, Draper, UT 84020","precinct":"25DR03","hd":"54","v_score":"1.121327652","decile":"3","lat":40.48194596636043,"lng":-111.82317263466325,"phone":"(803) 651-6046","sd":"19","ssbd":"11","lsbd":"School Board Aspen Peaks 4"},{"vid":"2215040","name":"Kayli Greenholt","party":"","address":"2597 E Canyon Edge Dr, Draper, UT 84020","precinct":"25DR03","hd":"54","v_score":"4.15282392","decile":"7","lat":40.48692093355891,"lng":-111.82086599602155,"phone":"(394) 053-1379","sd":"19","ssbd":"11","lsbd":"School Board Aspen Peaks 4"},{"vid":"2219408","name":"Edd Haley","party":"Dem","address":"1879 E Chimney Stone Ct, Draper, UT 84020","precinct":"25DR03","hd":"54","v_score":"5.501814877","decile":"7","lat":40.46077415402208,"lng":-111.83586669417515,"phone":"(263) 281-2492","sd":"19","ssbd":"11","lsbd":"School Board Aspen Peaks 4"},{"vid":"2241091","name":"Burnell Kling","party":"Rep","address":"14949 S Auburn Sky Dr, Draper, UT 84020","precinct":"25DR03","hd":"54","v_score":"5.40460374","decile":"7","lat":40.47984760322752,"lng":-111.82193711895923,"phone":"(184) 524-7688","sd":"19","ssbd":"11","lsbd":"School Board Aspen Peaks 4"},{"vid":"9645ff3ac7a3738dfa3f4409810eea1e5b1c3686cbcd317aa8fc88081da34e0d","name":"Dr. Wing Leuschke","party":"Rep","address":"2331 E Deer Park Ln, Draper, UT 84020","precinct":"25DR03","hd":"54","v_score":"9.207031979","decile":"8","lat":40.48264391515929,"lng":-111.82858679077077,"phone":"(823) 541-8888","sd":"19","ssbd":"11","lsbd":"School Board Aspen Peaks 4"},{"vid":"db1b02c3357cc19fe8b18ae91a718c7357266ba5d66ccaf3a7acea40329508c4","name":"Jaclyn Aufderhar DVM","party":"Dem","address":"1934 E Brookings Dr, Draper, UT 84020","precinct":"25DR03","hd":"54","v_score":"5.258122542","decile":"7","lat":40.45988240576684,"lng":-111.83365282411854,"phone":"(399) 691-5693","sd":"19","ssbd":"11","lsbd":"School Board Aspen Peaks 4"},{"vid":"e9f9d70f1873bf0d0794cf4f42a498c3ddaf7e426c60148361e342e802f97220","name":"Dr. Salma Gulgowski MD","party":"Rep","address":"1934 E Brookings Dr, Draper, UT 84020","precinct":"25DR03","hd":"54","v_score":"5.258122542","decile":"7","lat":40.45988240576684,"lng":-111.83365282411854,"phone":"(286) 351-2616","sd":"19","ssbd":"11","lsbd":"School Board Aspen Peaks 4"},{"vid":"e2590efc203323ed81acfcc06327b0bca0d09321eb20f1cca5f5a369ba18f8dc","name":"Julia Ruecker","party":"","address":"2481 E Lone Hill Dr, Draper, UT 84020","precinct":"25DR03","hd":"54","v_score":"24.9591484","decile":"10","lat":40.48238968130077,"lng":-111.82369987435754,"phone":"(873) 712-4782","sd":"19","ssbd":"11","lsbd":"School Board Aspen Peaks 4"},{"vid":"67b306293a74d1a3cf7e3bae28e31fd9edc52d4a12ae1f16efa7f3a6e36003a0","name":"Jefferson Heidenreich-Hand","party":"","address":"1973 E Fielding Hill Ln, Draper, UT 84020","precinct":"25DR03","hd":"54","v_score":"10.8476567","decile":"9","lat":40.45958894029728,"lng":-111.8321604639628,"phone":"(987) 682-4632","sd":"19","ssbd":"11","lsbd":"School Board Aspen Peaks 4"},{"vid":"2270161","name":"Prosper Rutherford-Ziemann","party":"Rep","address":"2222 E Fair Winns Ln, Draper, UT 84020","precinct":"25DR03","hd":"54","v_score":"2.315214949","decile":"5","lat":40.46578862691447,"lng":-111.82392390975772,"phone":"(386) 455-7298","sd":"19","ssbd":"11","lsbd":"School Board Aspen Peaks 4"},{"vid":"ac1282cfde706dae2eb3409ed3773b2d743cf3fc85dd8bbc21e07f49f6252c91","name":"Kyler Jacobson-Kub","party":"Dem","address":"1981 E Brookings Dr, Draper, UT 84020","precinct":"25DR03","hd":"54","v_score":"0","decile":"1","lat":40.46038141211387,"lng":-111.83173956469885,"phone":"(131) 223-2915","sd":"19","ssbd":"11","lsbd":"School Board Aspen Peaks 4"},{"vid":"2274264","name":"Elvin Luettgen","party":"","address":"2181 E Fair Winns Ln, Draper, UT 84020","precinct":"25DR03","hd":"54","v_score":"6.881235673","decile":"8","lat":40.46557282358736,"lng":-111.82529611725624,"phone":"(343) 455-7928","sd":"19","ssbd":"11","lsbd":"School Board Aspen Peaks 4"},{"vid":"57465b9b78fa7efc97b71a80613ea62370b69e9c80466e11d4178ac29bbcaba5","name":"Mr. Buren Marks III","party":"Dem","address":"14796 S Castle End Cv, Draper, UT 84020","precinct":"25DR03","hd":"54","v_score":"1.121327652","decile":"3","lat":40.482079513535595,"lng":-111.82830057347756,"phone":"(884) 958-5801","sd":"19","ssbd":"11","lsbd":"School Board Aspen Peaks 4"},{"vid":"f7096799c4a2abe19f0bea395470f0afe569f71607bdec3ffd5b2fbc36a71ab6","name":"Christop Harvey","party":"Rep","address":"2173 E Fair Winns Ln, Draper, UT 84020","precinct":"25DR03","hd":"54","v_score":"8.236277988","decile":"8","lat":40.46545697938721,"lng":-111.82551775445407,"phone":"(357) 742-2797","sd":"19","ssbd":"11","lsbd":"School Board Aspen Peaks 4"},{"vid":"4c9ba110ba27910ecd8eea91aa65b5a3a14eef8e3bbde9a8a90c1c91c32478d7","name":"Baxter Gulgowski","party":"Rep","address":"14781 S Castle End Cv, Draper, UT 84020","precinct":"25DR03","hd":"54","v_score":"24.00101786","decile":"10","lat":40.482368179761544,"lng":-111.8279961505025,"phone":"(304) 817-8451","sd":"19","ssbd":"11","lsbd":"School Board Aspen Peaks 4"},{"vid":"f73ece867e3b246a85d8c3baa8545c6ebb24e4e6c9dee7730eade6bfe3d058ae","name":"Racquel Wolff","party":"Rep","address":"14963 S Canyon Pointe Rd, Draper, UT 84020","precinct":"25DR03","hd":"54","v_score":"3.93832808","decile":"6","lat":40.47985635325837,"lng":-111.82329320610302,"phone":"(438) 791-4460","sd":"19","ssbd":"11","lsbd":"School Board Aspen Peaks 4"},{"vid":"4e33ccfdd21c68c099e1fda7e8e4cf88a21e32740a2f492a5704f3158eab9ed0","name":"Liane Goldner","party":"Rep","address":"16038 S Timber Brook Dr, Draper, UT 84020","precinct":"25DR03","hd":"54","v_score":"3.93832808","decile":"6","lat":40.460158183926126,"lng":-111.835030244068,"phone":"(351) 348-4615","sd":"19","ssbd":"11","lsbd":"School Board Aspen Peaks 4"},{"vid":"48643c858086d33933674a94990c4428ccd4d76953f11a1034af8356ca2754c9","name":"Ms. Margurite Bartoletti MD","party":"","address":"14781 S Castle End Cv, Draper, UT 84020","precinct":"25DR03","hd":"54","v_score":"1.121327652","decile":"3","lat":40.482368179761544,"lng":-111.8279961505025,"phone":"(717) 613-0646","sd":"19","ssbd":"11","lsbd":"School Board Aspen Peaks 4"},{"vid":"13235a12100a757b9647413ba4f1bf7e3ada830541714e19be3d5bf3639f7f19","name":"Dr. Katina Keebler DVM","party":"Dem","address":"15513 S Winged Trace Ct, Draper, UT 84020","precinct":"25DR03","hd":"54","v_score":"2.744440783","decile":"5","lat":40.469815494585596,"lng":-111.82080040379944,"phone":"(825) 460-8945","sd":"19","ssbd":"11","lsbd":"School Board Aspen Peaks 4"},{"vid":"2295073","name":"Jaunita Reinger","party":"Rep","address":"2451 E Lone Hill Dr, Draper, UT 84020","precinct":"25DR03","hd":"54","v_score":"10.52632313","decile":"9","lat":40.48237842701503,"lng":-111.82454067075763,"phone":"(894) 360-7702","sd":"19","ssbd":"11","lsbd":"School Board Aspen Peaks 4"},{"vid":"2296040","name":"Addisyn Doyle","party":"","address":"16032 S Chimney Stone Rd, Draper, UT 84020","precinct":"25DR03","hd":"54","v_score":"5.941816919","decile":"7","lat":40.46030593065331,"lng":-111.8339852733641,"phone":"(694) 031-9869","sd":"19","ssbd":"11","lsbd":"School Board Aspen Peaks 4"},{"vid":"2297937","name":"Roland Morar","party":"","address":"14929 S Springtime Rd, Draper, UT 84020","precinct":"25DR03","hd":"54","v_score":"15.43762891","decile":"9","lat":40.48063374555864,"lng":-111.82515046423644,"phone":"(357) 642-2085","sd":"19","ssbd":"11","lsbd":"School Board Aspen Peaks 4"},{"vid":"b1ceb46508fde962942f2043cf9e890a25115eb4607ac22de200634d73b694ca","name":"Daunte Jenkins","party":"Rep","address":"16057 S Timber Brook Dr, Draper, UT 84020","precinct":"25DR03","hd":"54","v_score":"7.135704216","decile":"8","lat":40.45985811208659,"lng":-111.83441254163775,"phone":"(148) 072-4129","sd":"19","ssbd":"11","lsbd":"School Board Aspen Peaks 4"},{"vid":"8099876e509aeb77ec6b3ff47e831e8d88f36e585b7e8da0dce1dd291d8b8be9","name":"Dr. Marley Aufderhar","party":"Rep","address":"16046 S Fielding Hill Ln, Draper, UT 84020","precinct":"25DR03","hd":"54","v_score":"2.315214949","decile":"5","lat":40.45998555973792,"lng":-111.83589341510226,"phone":"(209) 995-5297","sd":"19","ssbd":"11","lsbd":"School Board Aspen Peaks 4"},{"vid":"2307887","name":"Verlie Roob","party":"","address":"1988 E Fielding Hill Ln, Draper, UT 84020","precinct":"25DR03","hd":"54","v_score":"6.814370645","decile":"8","lat":40.459099955640376,"lng":-111.83133190160284,"phone":"(229) 065-0952","sd":"19","ssbd":"11","lsbd":"School Board Aspen Peaks 4"},{"vid":"2322561","name":"Johnson Lang","party":"","address":"16024 S Brookings Ct, Draper, UT 84020","precinct":"25DR03","hd":"54","v_score":"3.93832808","decile":"6","lat":40.460395972258404,"lng":-111.83295141181449,"phone":"(488) 093-1110","sd":"19","ssbd":"11","lsbd":"School Board Aspen Peaks 4"},{"vid":"2324609","name":"Alyse Hegmann","party":"Dem","address":"14577 S Canyon End Dr, Draper, UT 84020","precinct":"25DR03","hd":"54","v_score":"3.93832808","decile":"6","lat":40.486928084639516,"lng":-111.81844333687235,"phone":"(182) 024-7710","sd":"19","ssbd":"11","lsbd":"School Board Aspen Peaks 4"},{"vid":"2327371","name":"Marius Zemlak","party":"","address":"15787 S Rolling Bluff Dr, Draper, UT 84020","precinct":"25DR03","hd":"54","v_score":"1.121327652","decile":"3","lat":40.46479138883908,"lng":-111.82254090421004,"phone":"(176) 486-0656","sd":"19","ssbd":"11","lsbd":"School Board Aspen Peaks 4"},{"vid":"2330159","name":"Ian Bradtke-Marquardt","party":"Rep","address":"14764 S Invergarry Ct, Draper, UT 84020","precinct":"25DR03","hd":"54","v_score":"16.29714955","decile":"9","lat":40.482658355719444,"lng":-111.83210171599973,"phone":"(677) 114-8415","sd":"19","ssbd":"11","lsbd":"School Board Aspen Peaks 4"},{"vid":"2334549","name":"Miya Bailey","party":"","address":"1954 E Fielding Hill Ln, Draper, UT 84020","precinct":"25DR03","hd":"54","v_score":"0","decile":"1","lat":40.459080400549006,"lng":-111.83276888086729,"phone":"(297) 053-1408","sd":"19","ssbd":"11","lsbd":"School Board Aspen Peaks 4"},{"vid":"2334644","name":"Otha Corwin","party":"","address":"2573 E Canyon Edge Dr, Draper, UT 84020","precinct":"25DR03","hd":"54","v_score":"0","decile":"1","lat":40.486555718945496,"lng":-111.82145370460282,"phone":"(427) 795-3590","sd":"19","ssbd":"11","lsbd":"School Board Aspen Peaks 4"},{"vid":"2336226","name":"Bell Zboncak","party":"","address":"16024 S Brookings Ct, Draper, UT 84020","precinct":"25DR03","hd":"54","v_score":"1.121327652","decile":"3","lat":40.460395972258404,"lng":-111.83295141181449,"phone":"(571) 782-7195","sd":"19","ssbd":"11","lsbd":"School Board Aspen Peaks 4"},{"vid":"2337916","name":"Emil Daniel DVM","party":"","address":"1863 E Chimney Stone Ct, Draper, UT 84020","precinct":"25DR03","hd":"54","v_score":"3.93832808","decile":"6","lat":40.460842596428044,"lng":-111.83658613008151,"phone":"(384) 771-1270","sd":"19","ssbd":"11","lsbd":"School Board Aspen Peaks 4"},{"vid":"2339119","name":"Dr. Katarina Fahey MD","party":"","address":"2438 E Lone Hill Dr, Draper, UT 84020","precinct":"25DR03","hd":"54","v_score":"1.121327652","decile":"3","lat":40.481998643004054,"lng":-111.82472604926852,"phone":"(715) 519-8558","sd":"19","ssbd":"11","lsbd":"School Board Aspen Peaks 4"},{"vid":"2339554","name":"Kristal Durgan","party":"","address":"2222 E Fair Winns Ln, Draper, UT 84020","precinct":"25DR03","hd":"54","v_score":"2.817000428","decile":"6","lat":40.46578862691447,"lng":-111.82392390975772,"phone":"(657) 802-9127","sd":"19","ssbd":"11","lsbd":"School Board Aspen Peaks 4"},{"vid":"2344615","name":"Casandra Mitchell","party":"Dem","address":"16078 S Chimney Stone Rd, Draper, UT 84020","precinct":"25DR03","hd":"54","v_score":"0","decile":"1","lat":40.45938829577098,"lng":-111.83395147573981,"phone":"(260) 865-4717","sd":"19","ssbd":"11","lsbd":"School Board Aspen Peaks 4"},{"vid":"2344846","name":"Leamon Prohaska","party":"Rep","address":"16046 S Fielding Hill Ln, Draper, UT 84020","precinct":"25DR03","hd":"54","v_score":"2.315214949","decile":"5","lat":40.45998555973792,"lng":-111.83589341510226,"phone":"(574) 308-8388","sd":"19","ssbd":"11","lsbd":"School Board Aspen Peaks 4"},{"vid":"2350055","name":"Mrs. Mandi Weber","party":"","address":"2418 E Ember Dr, Draper, UT 84020","precinct":"25DR03","hd":"54","v_score":"3.781490609","decile":"6","lat":40.48274676517395,"lng":-111.82533129606134,"phone":"(236) 582-5425","sd":"19","ssbd":"11","lsbd":"School Board Aspen Peaks 4"},{"vid":"2361495","name":"Dr. Miah Bogisich","party":"Rep","address":"2077 E Autumn Fields Ln, Draper, UT 84020","precinct":"25DR03","hd":"54","v_score":"2.315214949","decile":"5","lat":40.46341010482902,"lng":-111.82878671898945,"phone":"(555) 131-2198","sd":"19","ssbd":"11","lsbd":"School Board Aspen Peaks 4"},{"vid":"2366543","name":"Evelena Satterfield","party":"Dem","address":"15538 S Mercer Ct, Draper, UT 84020","precinct":"25DR03","hd":"54","v_score":"2.315214949","decile":"5","lat":40.46930295132517,"lng":-111.82184443799841,"phone":"(548) 600-5430","sd":"19","ssbd":"11","lsbd":"School Board Aspen Peaks 4"},{"vid":"2368505","name":"Dr. Anahi Gulgowski DDS","party":"Dem","address":"2022 E Brookings Dr, Draper, UT 84020","precinct":"25DR03","hd":"54","v_score":"2.315214949","decile":"5","lat":40.45980878777447,"lng":-111.8300617130666,"phone":"(115) 579-4202","sd":"19","ssbd":"11","lsbd":"School Board Aspen Peaks 4"},{"vid":"2369686","name":"Mozella Labadie","party":"","address":"2467 E Ember Dr, Draper, UT 84020","precinct":"25DR03","hd":"54","v_score":"3.93832808","decile":"6","lat":40.48388739431148,"lng":-111.82425465426383,"phone":"(572) 665-9286","sd":"19","ssbd":"11","lsbd":"School Board Aspen Peaks 4"},{"vid":"2369703","name":"Dr. Ricki Kilback","party":"Dem","address":"2467 E Ember Dr, Draper, UT 84020","precinct":"25DR03","hd":"54","v_score":"2.315214949","decile":"5","lat":40.48388739431148,"lng":-111.82425465426383,"phone":"(692) 159-4325","sd":"19","ssbd":"11","lsbd":"School Board Aspen Peaks 4"},{"vid":"2378040","name":"Dr. Cherri Kutch","party":"Dem","address":"14973 S Springtime Rd, Draper, UT 84020","precinct":"25DR03","hd":"54","v_score":"2.315214949","decile":"5","lat":40.479864792620226,"lng":-111.82460445065342,"phone":"(659) 297-6238","sd":"19","ssbd":"11","lsbd":"School Board Aspen Peaks 4"},{"vid":"2378062","name":"Dakota Heller","party":"Dem","address":"14932 S Springtime Rd, Draper, UT 84020","precinct":"25DR03","hd":"54","v_score":"0","decile":"1","lat":40.48043817522193,"lng":-111.82550551653446,"phone":"(213) 395-9290","sd":"19","ssbd":"11","lsbd":"School Board Aspen Peaks 4"},{"vid":"2378069","name":"Dr. Lenord Marks","party":"Rep","address":"2212 E Viscaya Dr, Draper, UT 84020","precinct":"25DR03","hd":"54","v_score":"1.121327652","decile":"3","lat":40.464597622961314,"lng":-111.82418084168064,"phone":"(125) 738-3329","sd":"19","ssbd":"11","lsbd":"School Board Aspen Peaks 4"},{"vid":"2383104","name":"Rustin Crist","party":"","address":"16039 S Timber Brook Dr, Draper, UT 84020","precinct":"25DR03","hd":"54","v_score":"2.315214949","decile":"5","lat":40.46013253008765,"lng":-111.83441388533774,"phone":"(451) 041-1492","sd":"19","ssbd":"11","lsbd":"School Board Aspen Peaks 4"},{"vid":"2383808","name":"Octavie Strosin DDS","party":"Rep","address":"16046 S Chimney Stone Rd, Draper, UT 84020","precinct":"25DR03","hd":"54","v_score":"6.814370645","decile":"8","lat":40.459996408798865,"lng":-111.8340321751835,"phone":"(290) 289-5210","sd":"19","ssbd":"11","lsbd":"School Board Aspen Peaks 4"},{"vid":"2384010","name":"Jaxen Huels","party":"","address":"2333 E Deer Park Ln, Draper, UT 84020","precinct":"25DR03","hd":"54","v_score":"0","decile":"1","lat":40.48264405837076,"lng":-111.82846819087503,"phone":"(501) 325-5206","sd":"19","ssbd":"11","lsbd":"School Board Aspen Peaks 4"},{"vid":"2386059","name":"Malvina Kemmer","party":"Rep","address":"14932 S Water Birch Cir, Draper, UT 84020","precinct":"25DR03","hd":"54","v_score":"1.121327652","decile":"3","lat":40.480584837326916,"lng":-111.82455053687198,"phone":"(905) 962-2745","sd":"19","ssbd":"11","lsbd":"School Board Aspen Peaks 4"},{"vid":"2387223","name":"Corine Nikolaus PhD","party":"Dem","address":"15757 S Rolling Bluff Dr, Draper, UT 84020","precinct":"25DR03","hd":"54","v_score":"3.93832808","decile":"6","lat":40.46534321606756,"lng":-111.82250929542609,"phone":"(739) 066-0185","sd":"19","ssbd":"11","lsbd":"School Board Aspen Peaks 4"},{"vid":"2387234","name":"Milly Marks","party":"Rep","address":"16073 S Timber Brook Dr, Draper, UT 84020","precinct":"25DR03","hd":"54","v_score":"10.24124245","decile":"9","lat":40.459583694331535,"lng":-111.83441119865638,"phone":"(100) 607-2088","sd":"19","ssbd":"11","lsbd":"School Board Aspen Peaks 4"},{"vid":"2390982","name":"Michell Waelchi-Abernathy","party":"","address":"14677 S Snow Leopard Ln, Draper, UT 84020","precinct":"25DR03","hd":"54","v_score":"2.315214949","decile":"5","lat":40.48509215461265,"lng":-111.8223533780498,"phone":"(105) 450-7764","sd":"19","ssbd":"11","lsbd":"School Board Aspen Peaks 4"},{"vid":"2394947","name":"Darrell Harris","party":"","address":"14858 S Springtime Rd, Draper, UT 84020","precinct":"25DR03","hd":"54","v_score":"2.315214949","decile":"5","lat":40.48190871549098,"lng":-111.82663606516971,"phone":"(590) 151-0600","sd":"19","ssbd":"11","lsbd":"School Board Aspen Peaks 4"},{"vid":"2397474","name":"Shawnda Rippin","party":"Rep","address":"14892 S Springtime Rd, Draper, UT 84020","precinct":"25DR03","hd":"54","v_score":"2.315214949","decile":"5","lat":40.48109329080592,"lng":-111.82615152379218,"phone":"(298) 778-6946","sd":"19","ssbd":"11","lsbd":"School Board Aspen Peaks 4"},{"vid":"2402951","name":"Dr. Art Kessler DDS","party":"Rep","address":"14933 S Auburn Sky Dr, Draper, UT 84020","precinct":"25DR03","hd":"54","v_score":"1.121327652","decile":"3","lat":40.48028633182377,"lng":-111.82188723881801,"phone":"(988) 499-0202","sd":"19","ssbd":"11","lsbd":"School Board Aspen Peaks 4"},{"vid":"2403190","name":"Davion Lockman","party":"Rep","address":"15709 S Rolling Bluff Dr, Draper, UT 84020","precinct":"25DR03","hd":"54","v_score":"7.650280567","decile":"8","lat":40.46622272941841,"lng":-111.82279611139012,"phone":"(302) 797-4161","sd":"19","ssbd":"11","lsbd":"School Board Aspen Peaks 4"},{"vid":"2403316","name":"Villa Sipes","party":"Dem","address":"14919 S Water Birch Cir, Draper, UT 84020","precinct":"25DR03","hd":"54","v_score":"10.52632313","decile":"9","lat":40.48107040458297,"lng":-111.82441151996517,"phone":"(293) 076-6617","sd":"19","ssbd":"11","lsbd":"School Board Aspen Peaks 4"},{"vid":"2403960","name":"Dr. Yehuda Shanahan","party":"Dem","address":"16078 S Timber Brook Dr, Draper, UT 84020","precinct":"25DR03","hd":"54","v_score":"2.744440783","decile":"5","lat":40.45938459375489,"lng":-111.83491477134427,"phone":"(498) 783-5465","sd":"19","ssbd":"11","lsbd":"School Board Aspen Peaks 4"},{"vid":"2412291","name":"Christ King-Wiegand","party":"Dem","address":"14718 S Springtime Rd, Draper, UT 84020","precinct":"25DR03","hd":"54","v_score":"15.39947949","decile":"9","lat":40.484432353229316,"lng":-111.82617382087585,"phone":"(409) 430-4321","sd":"19","ssbd":"11","lsbd":"School Board Aspen Peaks 4"},{"vid":"2412970","name":"Karlie Russel","party":"Dem","address":"16033 S Fielding Hill Ln, Draper, UT 84020","precinct":"25DR03","hd":"54","v_score":"2.315214949","decile":"5","lat":40.46037207479336,"lng":-111.83545738498442,"phone":"(165) 034-5412","sd":"19","ssbd":"11","lsbd":"School Board Aspen Peaks 4"},{"vid":"2415486","name":"Mima Wiza PhD","party":"","address":"15709 S Rolling Bluff Dr, Draper, UT 84020","precinct":"25DR03","hd":"54","v_score":"3.93832808","decile":"6","lat":40.46622272941841,"lng":-111.82279611139012,"phone":"(468) 850-2386","sd":"19","ssbd":"11","lsbd":"School Board Aspen Peaks 4"},{"vid":"2418435","name":"Zollie Runolfsdottir","party":"Dem","address":"2095 E Autumn Fields Ln, Draper, UT 84020","precinct":"25DR03","hd":"54","v_score":"4.858449944","decile":"7","lat":40.463122454303004,"lng":-111.82831768966626,"phone":"(156) 346-6648","sd":"19","ssbd":"11","lsbd":"School Board Aspen Peaks 4"},{"vid":"2418588","name":"Mr. Juelz Mueller DVM","party":"","address":"2008 E Fielding Hill Ln, Draper, UT 84020","precinct":"25DR03","hd":"54","v_score":"3.93832808","decile":"6","lat":40.45908650585117,"lng":-111.83061334118337,"phone":"(144) 052-8644","sd":"19","ssbd":"11","lsbd":"School Board Aspen Peaks 4"},{"vid":"2420209","name":"Marlin Purdy","party":"","address":"2008 E Brookings Dr, Draper, UT 84020","precinct":"25DR03","hd":"54","v_score":"2.315214949","decile":"5","lat":40.45978872896606,"lng":-111.83068716405839,"phone":"(408) 324-0267","sd":"19","ssbd":"11","lsbd":"School Board Aspen Peaks 4"},{"vid":"2420651","name":"Dr. Kolby McCullough","party":"","address":"14786 S Deer Park Ln, Draper, UT 84020","precinct":"25DR03","hd":"54","v_score":"10.52632313","decile":"9","lat":40.4822538534359,"lng":-111.83026942743373,"phone":"(520) 748-1435","sd":"19","ssbd":"11","lsbd":"School Board Aspen Peaks 4"},{"vid":"2425971","name":"Xander Pouros","party":"Dem","address":"15774 S Rolling Bluff Dr, Draper, UT 84020","precinct":"25DR03","hd":"54","v_score":"0","decile":"1","lat":40.46504504062604,"lng":-111.82291794630568,"phone":"(622) 059-0851","sd":"19","ssbd":"11","lsbd":"School Board Aspen Peaks 4"},{"vid":"2426497","name":"Crissie Nader-Zulauf","party":"","address":"14902 S Auburn Sky Dr, Draper, UT 84020","precinct":"25DR03","hd":"54","v_score":"3.93832808","decile":"6","lat":40.48094673788922,"lng":-111.8223378457294,"phone":"(566) 384-9670","sd":"19","ssbd":"11","lsbd":"School Board Aspen Peaks 4"},{"vid":"2439949","name":"Nallely Kunze DVM","party":"Rep","address":"2468 E Single Birch Cir, Draper, UT 84020","precinct":"25DR03","hd":"54","v_score":"5.191257514","decile":"7","lat":40.481280487403794,"lng":-111.82403131888745,"phone":"(585) 604-7665","sd":"19","ssbd":"11","lsbd":"School Board Aspen Peaks 4"},{"vid":"2441555","name":"Laurence Gutmann","party":"Dem","address":"14956 S Auburn Sky Dr, Draper, UT 84020","precinct":"25DR03","hd":"54","v_score":"2.315214949","decile":"5","lat":40.47975631426509,"lng":-111.82269411790743,"phone":"(421) 486-6166","sd":"19","ssbd":"11","lsbd":"School Board Aspen Peaks 4"},{"vid":"2443531","name":"Asa Schmidt","party":"","address":"14783 S Stonehenge Pl, Draper, UT 84020","precinct":"25DR03","hd":"54","v_score":"1.121327652","decile":"3","lat":40.482300870580445,"lng":-111.8292619730741,"phone":"(820) 593-8092","sd":"19","ssbd":"11","lsbd":"School Board Aspen Peaks 4"},{"vid":"2443939","name":"Ethelene Gottlieb-Jast","party":"","address":"14931 S Water Birch Cir, Draper, UT 84020","precinct":"25DR03","hd":"54","v_score":"1.121327652","decile":"3","lat":40.48088287211212,"lng":-111.82424790207698,"phone":"(925) 241-0924","sd":"19","ssbd":"11","lsbd":"School Board Aspen Peaks 4"},{"vid":"2444597","name":"Pollie Lebsack DVM","party":"","address":"14993 S Springtime Rd, Draper, UT 84020","precinct":"25DR03","hd":"54","v_score":"1.121327652","decile":"3","lat":40.47953487786728,"lng":-111.82419887530757,"phone":"(831) 403-1422","sd":"19","ssbd":"11","lsbd":"School Board Aspen Peaks 4"},{"vid":"2448696","name":"Mr. Hunter Parker DVM","party":"Rep","address":"14903 S Auburn Sky Dr, Draper, UT 84020","precinct":"25DR03","hd":"54","v_score":"9.35760564","decile":"8","lat":40.48091713908791,"lng":-111.82176048556053,"phone":"(688) 950-1936","sd":"19","ssbd":"11","lsbd":"School Board Aspen Peaks 4"},{"vid":"2450437","name":"Byrdie Lueilwitz-Veum","party":"Dem","address":"14758 S Canyon Wild Rd, Draper, UT 84020","precinct":"25DR03","hd":"54","v_score":"3.93832808","decile":"6","lat":40.48358848935102,"lng":-111.82516194656229,"phone":"(560) 496-8487","sd":"19","ssbd":"11","lsbd":"School Board Aspen Peaks 4"},{"vid":"2452735","name":"Junie Boehm","party":"","address":"16007 S Chimney Stone Rd, Draper, UT 84020","precinct":"25DR03","hd":"54","v_score":"3.93832808","decile":"6","lat":40.46062217562315,"lng":-111.8336096339034,"phone":"(285) 432-5374","sd":"19","ssbd":"11","lsbd":"School Board Aspen Peaks 4"},{"vid":"2460280","name":"Alaina Rempel-Hilll","party":"Dem","address":"2004 E Brookings Dr, Draper, UT 84020","precinct":"25DR03","hd":"54","v_score":"2.817000428","decile":"6","lat":40.45982705864816,"lng":-111.83088777385038,"phone":"(491) 827-7393","sd":"19","ssbd":"11","lsbd":"School Board Aspen Peaks 4"},{"vid":"2462055","name":"Trula Herman","party":"","address":"15709 S Rolling Bluff Dr, Draper, UT 84020","precinct":"25DR03","hd":"54","v_score":"2.817000428","decile":"6","lat":40.46622272941841,"lng":-111.82279611139012,"phone":"(969) 535-6503","sd":"19","ssbd":"11","lsbd":"School Board Aspen Peaks 4"},{"vid":"2463684","name":"Amon Kihn","party":"Rep","address":"1998 E Fielding Hill Ln, Draper, UT 84020","precinct":"25DR03","hd":"54","v_score":"1.193887297","decile":"3","lat":40.45910761239581,"lng":-111.83097260914609,"phone":"(245) 425-7796","sd":"19","ssbd":"11","lsbd":"School Board Aspen Peaks 4"},{"vid":"2466398","name":"Miss Dulcie Ryan","party":"Rep","address":"14964 S Canyon Pointe Rd, Draper, UT 84020","precinct":"25DR03","hd":"54","v_score":"0","decile":"1","lat":40.47990397902722,"lng":-111.82376981368333,"phone":"(336) 438-2378","sd":"19","ssbd":"11","lsbd":"School Board Aspen Peaks 4"},{"vid":"2469128","name":"Eryn Bernier DVM","party":"Rep","address":"14787 S Stonehenge Pl, Draper, UT 84020","precinct":"25DR03","hd":"54","v_score":"6.587995052","decile":"7","lat":40.48223603504079,"lng":-111.82924273692096,"phone":"(348) 461-8680","sd":"19","ssbd":"11","lsbd":"School Board Aspen Peaks 4"},{"vid":"2472899","name":"Mrs. Iola Hermiston DVM","party":"","address":"1967 E Fielding Hill Ln, Draper, UT 84020","precinct":"25DR03","hd":"54","v_score":"1.193887297","decile":"3","lat":40.45956451749091,"lng":-111.83233994502095,"phone":"(775) 276-1213","sd":"19","ssbd":"11","lsbd":"School Board Aspen Peaks 4"},{"vid":"2472900","name":"Nicolle Medhurst","party":"Rep","address":"16007 S Chimney Stone Rd, Draper, UT 84020","precinct":"25DR03","hd":"54","v_score":"0","decile":"1","lat":40.46062217562315,"lng":-111.8336096339034,"phone":"(439) 365-1273","sd":"19","ssbd":"11","lsbd":"School Board Aspen Peaks 4"},{"vid":"2477146","name":"Mr. Orlando Ferry","party":"","address":"16004 S Brookings Ct, Draper, UT 84020","precinct":"25DR03","hd":"54","v_score":"0","decile":"1","lat":40.46069477312386,"lng":-111.83299285708932,"phone":"(794) 083-5883","sd":"19","ssbd":"11","lsbd":"School Board Aspen Peaks 4"},{"vid":"2492788","name":"Che Schultz","party":"Rep","address":"14942 S Water Birch Cir, Draper, UT 84020","precinct":"25DR03","hd":"54","v_score":"1.623113131","decile":"5","lat":40.480424678593785,"lng":-111.82445513747773,"phone":"(990) 309-5133","sd":"19","ssbd":"11","lsbd":"School Board Aspen Peaks 4"},{"vid":"2494741","name":"Salvador Yost","party":"Rep","address":"2328 E Mercer Point Cir, Draper, UT 84020","precinct":"25DR03","hd":"54","v_score":"15.10209333","decile":"9","lat":40.47099833786964,"lng":-111.82046800734176,"phone":"(870) 742-2752","sd":"19","ssbd":"11","lsbd":"School Board Aspen Peaks 4"},{"vid":"2499911","name":"Franco Jenkins","party":"Rep","address":"16038 S Timber Brook Dr, Draper, UT 84020","precinct":"25DR03","hd":"54","v_score":"2.817000428","decile":"6","lat":40.460158183926126,"lng":-111.835030244068,"phone":"(408) 099-1420","sd":"19","ssbd":"11","lsbd":"School Board Aspen Peaks 4"},{"vid":"2504048","name":"Darin Ortiz","party":"Rep","address":"2037 E Brookings Dr, Draper, UT 84020","precinct":"25DR03","hd":"54","v_score":"0","decile":"1","lat":40.46022675910841,"lng":-111.83003223629744,"phone":"(120) 265-7972","sd":"19","ssbd":"11","lsbd":"School Board Aspen Peaks 4"},{"vid":"2504106","name":"Lillian Kunze DVM","party":"Rep","address":"2037 E Brookings Dr, Draper, UT 84020","precinct":"25DR03","hd":"54","v_score":"1.623113131","decile":"5","lat":40.46022675910841,"lng":-111.83003223629744,"phone":"(136) 621-3137","sd":"19","ssbd":"11","lsbd":"School Board Aspen Peaks 4"},{"vid":"2504239","name":"Winfield Mann","party":"Rep","address":"2014 E Fielding Hill Ln, Draper, UT 84020","precinct":"25DR03","hd":"54","v_score":"0","decile":"1","lat":40.45914974467891,"lng":-111.8303850248611,"phone":"(545) 605-9304","sd":"19","ssbd":"11","lsbd":"School Board Aspen Peaks 4"},{"vid":"2508504","name":"Shaylee Schuppe","party":"","address":"1943 E Brookings Dr, Draper, UT 84020","precinct":"25DR03","hd":"54","v_score":"4.069929862","decile":"6","lat":40.460254978614145,"lng":-111.83320699324383,"phone":"(605) 629-7040","sd":"19","ssbd":"11","lsbd":"School Board Aspen Peaks 4"},{"vid":"2516963","name":"Nada Fisher","party":"","address":"2462 E Springtime Rd, Draper, UT 84020","precinct":"25DR03","hd":"54","v_score":"2.817000428","decile":"6","lat":40.48560988739207,"lng":-111.82428033449267,"phone":"(768) 949-6885","sd":"19","ssbd":"11","lsbd":"School Board Aspen Peaks 4"},{"vid":"2518618","name":"Acy Hyatt","party":"","address":"2497 E Ember Dr, Draper, UT 84020","precinct":"25DR03","hd":"54","v_score":"2.817000428","decile":"6","lat":40.4844358480327,"lng":-111.82318837707774,"phone":"(467) 835-8185","sd":"19","ssbd":"11","lsbd":"School Board Aspen Peaks 4"},{"vid":"2523243","name":"Eppie Jast DVM","party":"Rep","address":"14899 S Canyon Pointe Rd, Draper, UT 84020","precinct":"25DR03","hd":"54","v_score":"2.817000428","decile":"6","lat":40.48101697486232,"lng":-111.82286104842935,"phone":"(839) 581-3795","sd":"19","ssbd":"11","lsbd":"School Board Aspen Peaks 4"},{"vid":"2523245","name":"Adelynn Yundt","party":"Rep","address":"2529 E Springtime Rd, Draper, UT 84020","precinct":"25DR03","hd":"54","v_score":"0","decile":"1","lat":40.48614851145481,"lng":-111.82261048211764,"phone":"(737) 557-3045","sd":"19","ssbd":"11","lsbd":"School Board Aspen Peaks 4"},{"vid":"2534324","name":"Guy Reilly","party":"Rep","address":"1842 E Chimney Stone Ct, Draper, UT 84020","precinct":"25DR03","hd":"54","v_score":"0","decile":"1","lat":40.460803565275526,"lng":-111.83713080011522,"phone":"(671) 992-8133","sd":"19","ssbd":"11","lsbd":"School Board Aspen Peaks 4"},{"vid":"2534326","name":"Charlene Gerlach DDS","party":"","address":"1842 E Chimney Stone Ct, Draper, UT 84020","precinct":"25DR03","hd":"54","v_score":"0","decile":"1","lat":40.460803565275526,"lng":-111.83713080011522,"phone":"(250) 853-0798","sd":"19","ssbd":"11","lsbd":"School Board Aspen Peaks 4"},{"vid":"2541966","name":"Stella Borer","party":"Dem","address":"15774 S Rolling Bluff Dr, Draper, UT 84020","precinct":"25DR03","hd":"54","v_score":"5.926494964","decile":"7","lat":40.46504504062604,"lng":-111.82291794630568,"phone":"(193) 169-8861","sd":"19","ssbd":"11","lsbd":"School Board Aspen Peaks 4"},{"vid":"2553422","name":"Myah Will-Towne","party":"","address":"2523 E Lone Hill Dr, Draper, UT 84020","precinct":"25DR03","hd":"54","v_score":"3.781490609","decile":"6","lat":40.482048823576044,"lng":-111.82253819568487,"phone":"(439) 958-7159","sd":"19","ssbd":"11","lsbd":"School Board Aspen Peaks 4"},{"vid":"2553427","name":"Antione Howell","party":"Rep","address":"14577 S Canyon End Dr, Draper, UT 84020","precinct":"25DR03","hd":"54","v_score":"2.817000428","decile":"6","lat":40.486928084639516,"lng":-111.81844333687235,"phone":"(111) 938-2481","sd":"19","ssbd":"11","lsbd":"School Board Aspen Peaks 4"},{"vid":"2556452","name":"Kaeden Moen I","party":"","address":"1993 E Brookings Dr, Draper, UT 84020","precinct":"25DR03","hd":"54","v_score":"0","decile":"1","lat":40.46030029083302,"lng":-111.8312529454985,"phone":"(291) 012-8640","sd":"19","ssbd":"11","lsbd":"School Board Aspen Peaks 4"},{"vid":"2576662","name":"Dr. Curtis Schulist","party":"Rep","address":"2216 E Fair Winns Ln, Draper, UT 84020","precinct":"25DR03","hd":"54","v_score":"0","decile":"1","lat":40.465651994852294,"lng":-111.82410898749976,"phone":"(273) 125-4266","sd":"19","ssbd":"11","lsbd":"School Board Aspen Peaks 4"},{"vid":"2577747","name":"Kirt Volkman","party":"","address":"14904 S Canyon Pointe Rd, Draper, UT 84020","precinct":"25DR03","hd":"54","v_score":"18.35167816","decile":"10","lat":40.48095101526404,"lng":-111.82337860833039,"phone":"(444) 682-7732","sd":"19","ssbd":"11","lsbd":"School Board Aspen Peaks 4"},{"vid":"2577748","name":"Amari Beer MD","party":"Rep","address":"14904 S Canyon Pointe Rd, Draper, UT 84020","precinct":"25DR03","hd":"54","v_score":"18.35167816","decile":"10","lat":40.48095101526404,"lng":-111.82337860833039,"phone":"(454) 032-6325","sd":"19","ssbd":"11","lsbd":"School Board Aspen Peaks 4"},{"vid":"2578241","name":"Kandice Rogahn","party":"Dem","address":"15423 S Winged Trace Ct, Draper, UT 84020","precinct":"25DR03","hd":"54","v_score":"0","decile":"1","lat":40.47161704000284,"lng":-111.82149319154074,"phone":"(645) 492-2925","sd":"19","ssbd":"11","lsbd":"School Board Aspen Peaks 4"},{"vid":"2594673","name":"Marius Graham","party":"Dem","address":"14634 S Springtime Rd, Draper, UT 84020","precinct":"25DR03","hd":"54","v_score":"18.35167816","decile":"10","lat":40.48572668874708,"lng":-111.82579500517816,"phone":"(508) 410-7485","sd":"19","ssbd":"11","lsbd":"School Board Aspen Peaks 4"},{"vid":"2601721","name":"Mr. Westin Reichert","party":"Dem","address":"2483 E Ember Dr, Draper, UT 84020","precinct":"25DR03","hd":"54","v_score":"0","decile":"1","lat":40.48432891811188,"lng":-111.82376070836578,"phone":"(558) 865-5446","sd":"19","ssbd":"11","lsbd":"School Board Aspen Peaks 4"},{"vid":"2611930","name":"Einar Johnston-Gottlieb","party":"Rep","address":"14948 S Auburn Sky Dr, Draper, UT 84020","precinct":"25DR03","hd":"54","v_score":"4.069929862","decile":"6","lat":40.480073168451476,"lng":-111.8226544529987,"phone":"(728) 310-7098","sd":"19","ssbd":"11","lsbd":"School Board Aspen Peaks 4"},{"vid":"2611932","name":"Roberta Bashirian","party":"Rep","address":"14948 S Auburn Sky Dr, Draper, UT 84020","precinct":"25DR03","hd":"54","v_score":"4.069929862","decile":"6","lat":40.480073168451476,"lng":-111.8226544529987,"phone":"(614) 495-0581","sd":"19","ssbd":"11","lsbd":"School Board Aspen Peaks 4"},{"vid":"2612496","name":"Terrance Klocko","party":"","address":"2423 E Lone Hill Dr, Draper, UT 84020","precinct":"25DR03","hd":"54","v_score":"0","decile":"1","lat":40.48226952630284,"lng":-111.82535451716653,"phone":"(523) 966-5863","sd":"19","ssbd":"11","lsbd":"School Board Aspen Peaks 4"},{"vid":"2621164","name":"Davion Effertz","party":"","address":"1993 E Brookings Dr, Draper, UT 84020","precinct":"25DR03","hd":"54","v_score":"1.193887297","decile":"4","lat":40.46030029083302,"lng":-111.8312529454985,"phone":"(417) 671-4421","sd":"19","ssbd":"11","lsbd":"School Board Aspen Peaks 4"},{"vid":"2621401","name":"Mikalah Dickens","party":"","address":"2573 E Canyon Edge Dr, Draper, UT 84020","precinct":"25DR03","hd":"54","v_score":"8.284004873","decile":"8","lat":40.486555718945496,"lng":-111.82145370460282,"phone":"(925) 135-1236","sd":"19","ssbd":"11","lsbd":"School Board Aspen Peaks 4"},{"vid":"2626284","name":"Wiley Breitenberg Sr.","party":"","address":"14779 S Falkland Cv, Draper, UT 84020","precinct":"25DR03","hd":"54","v_score":"10.51171112","decile":"9","lat":40.48236777778327,"lng":-111.83246318935407,"phone":"(904) 090-3183","sd":"19","ssbd":"11","lsbd":"School Board Aspen Peaks 4"},{"vid":"2626522","name":"Ms. Beula Zulauf MD","party":"Rep","address":"1878 E Chimney Stone Ct, Draper, UT 84020","precinct":"25DR03","hd":"54","v_score":"6.528952915","decile":"7","lat":40.46038225086679,"lng":-111.83575780724169,"phone":"(771) 604-7477","sd":"19","ssbd":"11","lsbd":"School Board Aspen Peaks 4"},{"vid":"2628405","name":"Brandan Bartoletti","party":"","address":"2137 E Ash Down Ln, Draper, UT 84020","precinct":"25DR03","hd":"54","v_score":"1.193887297","decile":"4","lat":40.462286951270706,"lng":-111.82765598345145,"phone":"(816) 518-5642","sd":"19","ssbd":"11","lsbd":"School Board Aspen Peaks 4"},