[{"id":"138","name":"Beckett Wiegand","party":"","address":"14768 S Invergarry Ct, Draper, UT 84020","precinct":"25DR03","hd":"54","v_score":"1.121327652","decile":"3","lat":40.482411770475,"lng":-111.831966465452},{"id":"139","name":"Exa McCullough DVM","party":"Dem","address":"14768 S Invergarry Ct, Draper, UT 84020","precinct":"25DR03","hd":"54","v_score":"0","decile":"1","lat":40.482411770475,"lng":-111.831966465452},{"id":"208","name":"Miss Nena Gaylord DVM","party":"Dem","address":"14869 S Canyon Pointe Rd, Draper, UT 84020","precinct":"25DR03","hd":"54","v_score":"6.881235673","decile":"8","lat":40.481561296695,"lng":-111.822639759139},{"id":"272","name":"Orland Fisher","party":"","address":"2431 E Lone Hill Dr, Draper, UT 84020","precinct":"25DR03","hd":"54","v_score":"6.801678322","decile":"8","lat":40.482112046241,"lng":-111.825184745041},{"id":"439","name":"Mrs. Luvenia Weber MD","party":"","address":"14776 S Invergarry Ct, Draper, UT 84020","precinct":"25DR03","hd":"54","v_score":"16.79207149","decile":"9","lat":40.482385596433,"lng":-111.83195916088},{"id":"542","name":"Dr. Devante Graham Jr.","party":"Dem","address":"2118 E Ash Down Ln, Draper, UT 84020","precinct":"25DR03","hd":"54","v_score":"0","decile":"1","lat":40.462057238834,"lng":-111.828408253572},{"id":"1127","name":"Jami Mayert","party":"Rep","address":"2011 E Brookings Dr, Draper, UT 84020","precinct":"25DR03","hd":"54","v_score":"1.121327652","decile":"3","lat":40.460021470859,"lng":-111.830589135559},{"id":"1531","name":"Bjorn Breitenberg","party":"Rep","address":"14782 S Deer Park Ln, Draper, UT 84020","precinct":"25DR03","hd":"54","v_score":"3.781490609","decile":"6","lat":40.482089062159,"lng":-111.829787202365},{"id":"1906","name":"Mr. Oscar Beatty Jr.","party":"Dem","address":"15338 S Winged Trace Ct, Draper, UT 84020","precinct":"25DR03","hd":"54","v_score":"10.52632313","decile":"9","lat":40.472700949575,"lng":-111.821532505022},{"id":"2438","name":"Dr. Ernst Nicolas","party":"Dem","address":"14863 S Canyon Pointe Rd, Draper, UT 84020","precinct":"25DR03","hd":"54","v_score":"3.93832808","decile":"6","lat":40.481636892372,"lng":-111.822583393934},{"id":"2834","name":"Mr. Dennis Marvin DDS","party":"","address":"1883 E Chimney Stone Ct, Draper, UT 84020","precinct":"25DR03","hd":"54","v_score":"34.36428496","decile":"10","lat":40.460633941315,"lng":-111.836426842186},{"id":"2836","name":"Miss Omie Metz DDS","party":"Rep","address":"1883 E Chimney Stone Ct, Draper, UT 84020","precinct":"25DR03","hd":"54","v_score":"25.16992893","decile":"10","lat":40.460633941315,"lng":-111.836426842186},{"id":"2905","name":"Macarthur Ritchie","party":"Dem","address":"2458 E Ember Dr, Draper, UT 84020","precinct":"25DR03","hd":"54","v_score":"8.280646305","decile":"8","lat":40.483428155519,"lng":-111.824134384991},{"id":"2935","name":"Pedro Ortiz Jr.","party":"","address":"16086 S Fielding Hill Ln, Draper, UT 84020","precinct":"25DR03","hd":"54","v_score":"3.93832808","decile":"6","lat":40.460228560356,"lng":-111.835690191925},{"id":"4020","name":"Mr. Emit Jones II","party":"","address":"14923 S Auburn Sky Dr, Draper, UT 84020","precinct":"25DR03","hd":"54","v_score":"1.193887297","decile":"3","lat":40.480311246787,"lng":-111.82198709659},{"id":"4167","name":"Brown Okuneva","party":"Rep","address":"2043 E Brookings Dr, Draper, UT 84020","precinct":"25DR03","hd":"54","v_score":"1.193887297","decile":"3","lat":40.460067941343,"lng":-111.829450768858},{"id":"4188","name":"Burleigh DuBuque-Mraz","party":"Dem","address":"2186 E Whitekirk Way, Draper, UT 84020","precinct":"25DR03","hd":"54","v_score":"5.331806201","decile":"7","lat":40.482206693784,"lng":-111.832116436073},{"id":"4228","name":"Gardner Botsford","party":"Rep","address":"14886 S Canyon Pointe Rd, Draper, UT 84020","precinct":"25DR03","hd":"54","v_score":"2.315214949","decile":"5","lat":40.481176895056,"lng":-111.823055174722},{"id":"4697","name":"Britny Hirthe","party":"Rep","address":"14939 S Springtime Rd, Draper, UT 84020","precinct":"25DR03","hd":"54","v_score":"11.45021068","decile":"9","lat":40.480492763792,"lng":-111.825305039586},{"id":"5329","name":"Carmelo Boyer-Altenwerth","party":"Rep","address":"2282 E Deer Park Ln, Draper, UT 84020","precinct":"25DR03","hd":"54","v_score":"8.363183621","decile":"8","lat":40.482089062159,"lng":-111.829787202365},{"id":"5704","name":"Tonia Steuber","party":"Rep","address":"2317 E Deer Park Ln, Draper, UT 84020","precinct":"25DR03","hd":"54","v_score":"0","decile":"1","lat":40.482519284892,"lng":-111.828830143266},{"id":"5749","name":"Mr. Jarrad Reinger","party":"","address":"2452 E Lone Hill Dr, Draper, UT 84020","precinct":"25DR03","hd":"54","v_score":"3.016591252","decile":"6","lat":40.482069561327,"lng":-111.824804736479},{"id":"5791","name":"Dr. Ginny Cartwright DDS","party":"","address":"14993 S Springtime Rd, Draper, UT 84020","precinct":"25DR03","hd":"54","v_score":"2.315214949","decile":"5","lat":40.480013861847,"lng":-111.824903959332},{"id":"6088","name":"Agustus Emmerich","party":"","address":"16038 S Chimney Stone Rd, Draper, UT 84020","precinct":"25DR03","hd":"54","v_score":"5.40460374","decile":"7","lat":40.460055287815,"lng":-111.833856620469},{"id":"6789","name":"Shirleen Monahan","party":"Dem","address":"2119 E Autumn Fields Ln, Draper, UT 84020","precinct":"25DR03","hd":"54","v_score":"3.781490609","decile":"6","lat":40.46285759069,"lng":-111.828181094749},{"id":"8077","name":"Arnulfo McClure","party":"Dem","address":"1938 E Brookings Dr, Draper, UT 84020","precinct":"25DR03","hd":"54","v_score":"2.315214949","decile":"5","lat":40.459940696362,"lng":-111.832971842445},{"id":"8435","name":"Zebulon Brown DVM","party":"","address":"14782 S Castle End Cv, Draper, UT 84020","precinct":"25DR03","hd":"54","v_score":"1.121327652","decile":"3","lat":40.482154167919,"lng":-111.828168643448},{"id":"8451","name":"Deante Renner","party":"Dem","address":"1968 E Fielding Hill Ln, Draper, UT 84020","precinct":"25DR03","hd":"54","v_score":"3.93832808","decile":"6","lat":40.459252941006,"lng":-111.831555773678},{"id":"8925","name":"Shirlene Bechtelar","party":"Dem","address":"2517 E Lone Hill Dr, Draper, UT 84020","precinct":"25DR03","hd":"54","v_score":"9.923865181","decile":"9","lat":40.482208961758,"lng":-111.823803880587},{"id":"9096","name":"Arkie Franecki","party":"Dem","address":"2517 E Lone Hill Dr, Draper, UT 84020","precinct":"25DR03","hd":"54","v_score":"7.047822616","decile":"8","lat":40.482208961758,"lng":-111.823803880587},{"id":"9172","name":"Diann Batz","party":"","address":"2127 E Autumn Fields Ln, Draper, UT 84020","precinct":"25DR03","hd":"54","v_score":"5.40460374","decile":"7","lat":40.462805941417,"lng":-111.82809993163},{"id":"9332","name":"Dr. Stacy Aufderhar","party":"Dem","address":"14764 S Dryburg Cv, Draper, UT 84020","precinct":"25DR03","hd":"54","v_score":"1.121327652","decile":"3","lat":40.482609956176,"lng":-111.831419984196},{"id":"9500","name":"Dr. Cooper Lind DDS","party":"Rep","address":"14896 S Canyon Pointe Rd, Draper, UT 84020","precinct":"25DR03","hd":"54","v_score":"16.2066738","decile":"9","lat":40.481031283619,"lng":-111.823126893803},{"id":"9694","name":"Mrs. Karly Little","party":"Dem","address":"14798 S Deer Park Ln, Draper, UT 84020","precinct":"25DR03","hd":"54","v_score":"12.14838954","decile":"9","lat":40.481880285035,"lng":-111.829741485592},{"id":"9838","name":"Lady Simonis PhD","party":"Rep","address":"1944 E Fielding Hill Ln, Draper, UT 84020","precinct":"25DR03","hd":"54","v_score":"1.193887297","decile":"3","lat":40.459225743814,"lng":-111.831154615588},{"id":"9839","name":"Teressa Lindgren MD","party":"","address":"1944 E Fielding Hill Ln, Draper, UT 84020","precinct":"25DR03","hd":"54","v_score":"1.193887297","decile":"3","lat":40.459225743814,"lng":-111.831154615588},{"id":"9917","name":"Burnie Daniel V","party":"Rep","address":"1954 E Fielding Hill Ln, Draper, UT 84020","precinct":"25DR03","hd":"54","v_score":"2.315214949","decile":"5","lat":40.459237075978,"lng":-111.831321764792},{"id":"10022","name":"Vonda Will DDS","party":"Rep","address":"14729 S Canyon Wild Rd, Draper, UT 84020","precinct":"25DR03","hd":"54","v_score":"22.10816128","decile":"10","lat":40.483270577856,"lng":-111.824696808017},{"id":"10295","name":"Jaquez Harber V","party":"Rep","address":"14776 S Invergarry Ct, Draper, UT 84020","precinct":"25DR03","hd":"54","v_score":"16.79207149","decile":"9","lat":40.482385596433,"lng":-111.83195916088},{"id":"10557","name":"Dr. Cielo Will","party":"Dem","address":"14772 S Invergarry Ct, Draper, UT 84020","precinct":"25DR03","hd":"54","v_score":"1.193887297","decile":"3","lat":40.482396595207,"lng":-111.83196246051},{"id":"10661","name":"Jodie Wisoky","party":"Rep","address":"16032 S Timber Brook Dr, Draper, UT 84020","precinct":"25DR03","hd":"54","v_score":"4.296586645","decile":"7","lat":40.46001627728,"lng":-111.834791325193},{"id":"10749","name":"Rich Corwin","party":"Dem","address":"14762 S Springtime Rd, Draper, UT 84020","precinct":"25DR03","hd":"54","v_score":"2.660162957","decile":"5","lat":40.483072260342,"lng":-111.82594188618},{"id":"10819","name":"Dorris Hills","party":"","address":"2423 E Lone Hill Dr, Draper, UT 84020","precinct":"25DR03","hd":"54","v_score":"0","decile":"1","lat":40.482069378191,"lng":-111.82531791517},{"id":"10944","name":"Aylin Waelchi-Ondricka","party":"Dem","address":"16057 S Fielding Hill Ln, Draper, UT 84020","precinct":"25DR03","hd":"54","v_score":"5.40460374","decile":"7","lat":40.459724047112,"lng":-111.835558441168},{"id":"11305","name":"Georgia Dach","party":"Rep","address":"14771 S Haddington Rd, Draper, UT 84020","precinct":"25DR03","hd":"54","v_score":"1.46627566","decile":"4","lat":40.482943073643,"lng":-111.833085946063},{"id":"11866","name":"Weldon Effertz","party":"Dem","address":"14662 S Canyon Pointe Rd, Draper, UT 84020","precinct":"25DR03","hd":"54","v_score":"10.45996141","decile":"9","lat":40.484198813321,"lng":-111.821737377229},{"id":"12737","name":"Sanders Rice III","party":"Rep","address":"2014 E Fielding Hill Ln, Draper, UT 84020","precinct":"25DR03","hd":"54","v_score":"5.40460374","decile":"7","lat":40.45922103923,"lng":-111.832308616879},{"id":"12946","name":"Dr. Son Nitzsche","party":"","address":"14772 S Falkland Cv, Draper, UT 84020","precinct":"25DR03","hd":"54","v_score":"3.93832808","decile":"6","lat":40.482392048657,"lng":-111.832668103369},{"id":"12996","name":"Mikala Konopelski","party":"","address":"14678 S Canyon Pointe Rd, Draper, UT 84020","precinct":"25DR03","hd":"54","v_score":"2.315214949","decile":"5","lat":40.484108295546,"lng":-111.821743217097},{"id":"13133","name":"Adrianna Dooley","party":"Dem","address":"15579 S Mercer Ct, Draper, UT 84020","precinct":"25DR03","hd":"54","v_score":"14.25581744","decile":"9","lat":40.468487946224,"lng":-111.821775362178},{"id":"14281","name":"Francisca Erdman-Bartoletti","party":"","address":"14729 S Canyon Wild Rd, Draper, UT 84020","precinct":"25DR03","hd":"54","v_score":"23.65847687","decile":"10","lat":40.483270577856,"lng":-111.824696808017},{"id":"14601","name":"Danita Grady","party":"","address":"2182 E Whitekirk Way, Draper, UT 84020","precinct":"25DR03","hd":"54","v_score":"2.587603312","decile":"5","lat":40.482206693789,"lng":-111.83218036081},{"id":"15431","name":"Dorthea Rodriguez","party":"Dem","address":"2451 E Lone Hill Dr, Draper, UT 84020","precinct":"25DR03","hd":"54","v_score":"13.06955813","decile":"9","lat":40.482174172758,"lng":-111.82487411236},{"id":"15513","name":"Rome Cole","party":"Dem","address":"2216 E Fair Winns Ln, Draper, UT 84020","precinct":"25DR03","hd":"54","v_score":"10.38488476","decile":"9","lat":40.465786388124,"lng":-111.824184711146},{"id":"15607","name":"Fiona Schmitt","party":"Dem","address":"14886 S Canyon Pointe Rd, Draper, UT 84020","precinct":"25DR03","hd":"54","v_score":"2.315214949","decile":"5","lat":40.481176895056,"lng":-111.823055174722},{"id":"16367","name":"Whitley Kohler","party":"Dem","address":"2234 E Fair Winns Ln, Draper, UT 84020","precinct":"25DR03","hd":"54","v_score":"2.744440783","decile":"5","lat":40.465947805177,"lng":-111.823875013482},{"id":"16416","name":"Erline Bogan","party":"Rep","address":"16032 S Chimney Stone Rd, Draper, UT 84020","precinct":"25DR03","hd":"54","v_score":"0","decile":"1","lat":40.460211660024,"lng":-111.833856620448},{"id":"16788","name":"Jared Kuhlman","party":"","address":"16032 S Chimney Stone Rd, Draper, UT 84020","precinct":"25DR03","hd":"54","v_score":"9.35760564","decile":"8","lat":40.460211660024,"lng":-111.833856620448},{"id":"16872","name":"Lillia Green-Russel","party":"","address":"14932 S Springtime Rd, Draper, UT 84020","precinct":"25DR03","hd":"54","v_score":"7.947838735","decile":"8","lat":40.480450564331,"lng":-111.82544832106},{"id":"17088","name":"Rene Schuster","party":"Dem","address":"14792 S Dryburg Cv, Draper, UT 84020","precinct":"25DR03","hd":"54","v_score":"5.273794831","decile":"7","lat":40.482210460242,"lng":-111.831419984673},{"id":"17211","name":"Dr. Benson Schumm","party":"Dem","address":"2011 E Brookings Dr, Draper, UT 84020","precinct":"25DR03","hd":"54","v_score":"14.64967766","decile":"9","lat":40.460021470859,"lng":-111.830589135559},{"id":"17367","name":"Manuelita Jacobi","party":"Rep","address":"16032 S Chimney Stone Rd, Draper, UT 84020","precinct":"25DR03","hd":"54","v_score":"5.40460374","decile":"7","lat":40.460211660024,"lng":-111.833856620448},{"id":"17616","name":"Nolen Jones-Crona","party":"","address":"14718 S Springtime Rd, Draper, UT 84020","precinct":"25DR03","hd":"54","v_score":"2.315214949","decile":"5","lat":40.483158457613,"lng":-111.825930477707},{"id":"18736","name":"Ms. Reese Jacobs","party":"","address":"2291 Mercer Hollow Cv, Draper, UT 84020","precinct":"25DR03","hd":"54","v_score":"5.40460374","decile":"7","lat":40.461987619281,"lng":-111.821373561615},{"id":"18945","name":"Samatha Hansen","party":"","address":"2466 E Lone Hill Dr, Draper, UT 84020","precinct":"25DR03","hd":"54","v_score":"1.193887297","decile":"3","lat":40.48211066631,"lng":-111.824587922271},{"id":"19032","name":"Clemma Kozey","party":"","address":"2219 E Fair Winns Ln, Draper, UT 84020","precinct":"25DR03","hd":"54","v_score":"3.089388791","decile":"6","lat":40.465968481826,"lng":-111.824100878212},{"id":"19203","name":"Dr. Lewis Nader Sr.","party":"Dem","address":"14749 S Springtime Rd, Draper, UT 84020","precinct":"25DR03","hd":"54","v_score":"5.274151572","decile":"7","lat":40.483088209111,"lng":-111.825788354513},{"id":"19382","name":"Dr. Trent Willms","party":"Dem","address":"14839 S Canyon Pointe Rd, Draper, UT 84020","precinct":"25DR03","hd":"54","v_score":"2.315214949","decile":"5","lat":40.482583538713,"lng":-111.822047403556},{"id":"19480","name":"Alfred Hermiston","party":"Dem","address":"2216 E Fair Winns Ln, Draper, UT 84020","precinct":"25DR03","hd":"54","v_score":"8.761771632","decile":"8","lat":40.465786388124,"lng":-111.824184711146},{"id":"20445","name":"Mrs. May Schoen","party":"Rep","address":"16032 S Chimney Stone Rd, Draper, UT 84020","precinct":"25DR03","hd":"54","v_score":"1.193887297","decile":"3","lat":40.460211660024,"lng":-111.833856620448},{"id":"21623","name":"Lafe Kreiger","party":"","address":"2043 E Brookings Dr, Draper, UT 84020","precinct":"25DR03","hd":"54","v_score":"0","decile":"1","lat":40.460067941343,"lng":-111.829450768858},{"id":"21781","name":"Miss Jaime Gislason","party":"Rep","address":"14662 S Canyon Pointe Rd, Draper, UT 84020","precinct":"25DR03","hd":"54","v_score":"13.49145768","decile":"9","lat":40.484198813321,"lng":-111.821737377229},{"id":"22462","name":"Azul Torphy","party":"Rep","address":"2328 E Mercer Point Cir, Draper, UT 84020","precinct":"25DR03","hd":"54","v_score":"15.10209333","decile":"9","lat":40.470875005216,"lng":-111.821101762638},{"id":"22610","name":"Janey Rodriguez","party":"","address":"2196 E Fair Winns Ln, Draper, UT 84020","precinct":"25DR03","hd":"54","v_score":"1.121327652","decile":"3","lat":40.465650089417,"lng":-111.824447982892},{"id":"22884","name":"Oswaldo Rolfson","party":"Dem","address":"2234 E Fair Winns Ln, Draper, UT 84020","precinct":"25DR03","hd":"54","v_score":"1.121327652","decile":"3","lat":40.465947805177,"lng":-111.823875013482},{"id":"23059","name":"Marcelo Christiansen","party":"Rep","address":"2037 E Brookings Dr, Draper, UT 84020","precinct":"25DR03","hd":"54","v_score":"1.193887297","decile":"3","lat":40.460018050271,"lng":-111.829992712513},{"id":"23418","name":"Brantley Jakubowski","party":"Rep","address":"1938 E Fielding Hill Ln, Draper, UT 84020","precinct":"25DR03","hd":"54","v_score":"1.193887297","decile":"3","lat":40.459211696297,"lng":-111.831051065832},{"id":"23668","name":"Karson Larkin","party":"","address":"1938 E Fielding Hill Ln, Draper, UT 84020","precinct":"25DR03","hd":"54","v_score":"1.193887297","decile":"3","lat":40.459211696297,"lng":-111.831051065832},{"id":"23738","name":"Dr. Elian Lowe V","party":"Dem","address":"14793 S Cardiff Park Way, Draper, UT 84020","precinct":"25DR03","hd":"54","v_score":"5.40460374","decile":"7","lat":40.482124088018,"lng":-111.828675809645},{"id":"24199","name":"Doloris Bernier","party":"Rep","address":"2291 Mercer Hollow Cv, Draper, UT 84020","precinct":"25DR03","hd":"54","v_score":"5.40460374","decile":"7","lat":40.461987619281,"lng":-111.821373561615},{"id":"24227","name":"Carri Reinger","party":"Dem","address":"2306 Mercer Hollow Cv, Draper, UT 84020","precinct":"25DR03","hd":"54","v_score":"22.22702134","decile":"10","lat":40.462047991814,"lng":-111.820738793395},{"id":"24561","name":"Golden Tremblay","party":"Rep","address":"14792 S Dryburg Cv, Draper, UT 84020","precinct":"25DR03","hd":"54","v_score":"9.426618751","decile":"8","lat":40.482210460242,"lng":-111.831419984673},{"id":"24760","name":"Kristi Ritchie","party":"","address":"14797 S Castle End Cv, Draper, UT 84020","precinct":"25DR03","hd":"54","v_score":"2.587603312","decile":"5","lat":40.482111395255,"lng":-111.828017985194},{"id":"25026","name":"Dr. Henderson Hansen Jr.","party":"Rep","address":"14892 S Springtime Rd, Draper, UT 84020","precinct":"25DR03","hd":"54","v_score":"2.315214949","decile":"5","lat":40.481075733,"lng":-111.825912275071},{"id":"25355","name":"Shaun McGlynn","party":"Rep","address":"14772 S Dryburg Cv, Draper, UT 84020","precinct":"25DR03","hd":"54","v_score":"0","decile":"1","lat":40.482471792266,"lng":-111.831419984356},{"id":"25458","name":"Kalvin Corwin I","party":"Rep","address":"14768 S Deer Park Ln, Draper, UT 84020","precinct":"25DR03","hd":"54","v_score":"1.193887297","decile":"3","lat":40.482225297795,"lng":-111.829947830481},{"id":"25522","name":"Mr. Felton Walsh V","party":"","address":"14956 S Auburn Sky Dr, Draper, UT 84020","precinct":"25DR03","hd":"54","v_score":"1.121327652","decile":"3","lat":40.479763813574,"lng":-111.822498520658},{"id":"25564","name":"Kelby Yost-McKenzie","party":"Dem","address":"15611 S Winged Trace Ct, Draper, UT 84020","precinct":"25DR03","hd":"54","v_score":"5.258122542","decile":"7","lat":40.467653157244,"lng":-111.822944723908},{"id":"25570","name":"Salvador Hane","party":"Rep","address":"2228 E Viscaya Dr, Draper, UT 84020","precinct":"25DR03","hd":"54","v_score":"13.23991076","decile":"9","lat":40.46458614385,"lng":-111.823761512262},{"id":"26007","name":"Mr. Emmons Emmerich Jr.","party":"","address":"2066 E Ash Down Ln, Draper, UT 84020","precinct":"25DR03","hd":"54","v_score":"3.93832808","decile":"6","lat":40.462401575983,"lng":-111.828981638101},{"id":"26054","name":"Dr. Marcell Hodkiewicz","party":"Rep","address":"2066 E Ash Down Ln, Draper, UT 84020","precinct":"25DR03","hd":"54","v_score":"5.40460374","decile":"7","lat":40.462401575983,"lng":-111.828981638101},{"id":"26130","name":"Markus Wisoky","party":"","address":"15547 S Mercer Ct, Draper, UT 84020","precinct":"25DR03","hd":"54","v_score":"8.347511332","decile":"8","lat":40.46876547404,"lng":-111.821709157321},{"id":"26407","name":"Chaka Adams","party":"Rep","address":"14781 S Castle End Cv, Draper, UT 84020","precinct":"25DR03","hd":"54","v_score":"1.121327652","decile":"3","lat":40.482160278287,"lng":-111.828017985187},{"id":"26432","name":"Ewell Johnston","party":"Rep","address":"14866 S Canyon Pointe Rd, Draper, UT 84020","precinct":"25DR03","hd":"54","v_score":"3.781490609","decile":"6","lat":40.481467746834,"lng":-111.822882708691},{"id":"26729","name":"Mckinley Klocko","party":"Dem","address":"2053 E Brookings Dr, Draper, UT 84020","precinct":"25DR03","hd":"54","v_score":"3.781490609","decile":"6","lat":40.46029828737,"lng":-111.828442908147},{"id":"26754","name":"Glen Murray I","party":"","address":"2144 E Whitekirk Way, Draper, UT 84020","precinct":"25DR03","hd":"54","v_score":"11.36410258","decile":"9","lat":40.482176564537,"lng":-111.832792793042},{"id":"27039","name":"Ms. Angelia Hilpert DDS","party":"Dem","address":"2313 Mercer Hollow Cv, Draper, UT 84020","precinct":"25DR03","hd":"54","v_score":"2.587603312","decile":"5","lat":40.461962197897,"lng":-111.821079944922},{"id":"27040","name":"Sherrie King","party":"Dem","address":"2313 Mercer Hollow Cv, Draper, UT 84020","precinct":"25DR03","hd":"54","v_score":"2.587603312","decile":"5","lat":40.461962197897,"lng":-111.821079944922},{"id":"27102","name":"Shaun Boehm","party":"Rep","address":"14866 S Canyon Pointe Rd, Draper, UT 84020","precinct":"25DR03","hd":"54","v_score":"3.781490609","decile":"6","lat":40.481467746834,"lng":-111.822882708691},{"id":"27606","name":"Amiyah McGlynn","party":"","address":"16064 S Timber Brook Dr, Draper, UT 84020","precinct":"25DR03","hd":"54","v_score":"5.191257514","decile":"7","lat":40.459677283667,"lng":-111.834789888824},{"id":"27915","name":"Tessie Jenkins","party":"","address":"15528 S Winged Trace Ct, Draper, UT 84020","precinct":"25DR03","hd":"54","v_score":"3.781490609","decile":"6","lat":40.469673763428,"lng":-111.821133716876},{"id":"28307","name":"Mrs. Elisabeth Reinger","party":"","address":"1998 E Brookings Dr, Draper, UT 84020","precinct":"25DR03","hd":"54","v_score":"2.744440783","decile":"5","lat":40.460041712599,"lng":-111.831578446068},{"id":"28346","name":"Demi Goldner PhD","party":"Rep","address":"1998 E Brookings Dr, Draper, UT 84020","precinct":"25DR03","hd":"54","v_score":"3.93832808","decile":"6","lat":40.460041712599,"lng":-111.831578446068},{"id":"28434","name":"Mr. Merritt Haley","party":"Dem","address":"1962 E Brookings Dr, Draper, UT 84020","precinct":"25DR03","hd":"54","v_score":"5.191257514","decile":"7","lat":40.45997938274,"lng":-111.832390241085},{"id":"29309","name":"Karel Wisozk","party":"Rep","address":"14611 S Canyon Pointe Rd, Draper, UT 84020","precinct":"25DR03","hd":"54","v_score":"4.137918904","decile":"7","lat":40.484487379824,"lng":-111.821567916903},{"id":"29563","name":"Madelyn Wiza MD","party":"Dem","address":"2514 E Ember Dr, Draper, UT 84020","precinct":"25DR03","hd":"54","v_score":"13.84916389","decile":"9","lat":40.484297005846,"lng":-111.82240309227},{"id":"29701","name":"Eston Blick","party":"","address":"16066 S Fielding Hill Ln, Draper, UT 84020","precinct":"25DR03","hd":"54","v_score":"2.587603312","decile":"5","lat":40.459894396999,"lng":-111.835702723094},{"id":"30613","name":"Alpha Gottlieb","party":"Rep","address":"2053 E Brookings Dr, Draper, UT 84020","precinct":"25DR03","hd":"54","v_score":"4.13679489","decile":"7","lat":40.46029828737,"lng":-111.828442908147},{"id":"30665","name":"Markita Simonis","party":"","address":"1863 E Chimney Stone Ct, Draper, UT 84020","precinct":"25DR03","hd":"54","v_score":"7.153624035","decile":"8","lat":40.460677775478,"lng":-111.836535341042},{"id":"31258","name":"Michell Casper","party":"Dem","address":"2181 E Fair Winns Ln, Draper, UT 84020","precinct":"25DR03","hd":"54","v_score":"6.881235673","decile":"8","lat":40.465655259595,"lng":-111.82470572594},{"id":"31527","name":"Norene Price","party":"Dem","address":"1948 E Brookings Dr, Draper, UT 84020","precinct":"25DR03","hd":"54","v_score":"2.744440783","decile":"5","lat":40.45994069635,"lng":-111.832804692513},{"id":"31629","name":"Concetta Oberbrunner","party":"","address":"14775 S Invergarry Ct, Draper, UT 84020","precinct":"25DR03","hd":"54","v_score":"1.193887297","decile":"3","lat":40.482416588214,"lng":-111.831813927882},{"id":"31736","name":"Shyanne Lockman-Homenick","party":"Dem","address":"14951 S Canyon Pointe Rd, Draper, UT 84020","precinct":"25DR03","hd":"54","v_score":"3.93832808","decile":"6","lat":40.480475264401,"lng":-111.823192994293},{"id":"32096","name":"Artis Pouros","party":"Rep","address":"14933 S Auburn Sky Dr, Draper, UT 84020","precinct":"25DR03","hd":"54","v_score":"1.121327652","decile":"3","lat":40.480127141891,"lng":-111.822079149058},{"id":"32474","name":"Nella Luettgen","party":"","address":"14763 S Haddington Rd, Draper, UT 84020","precinct":"25DR03","hd":"54","v_score":"9.61867875","decile":"8","lat":40.482982476982,"lng":-111.833001510326},{"id":"33110","name":"Demetric Koelpin","party":"","address":"2178 E Whitekirk Way, Draper, UT 84020","precinct":"25DR03","hd":"54","v_score":"5.40460374","decile":"7","lat":40.482206693794,"lng":-111.832244285547},{"id":"33928","name":"Troy Runolfsson","party":"","address":"1948 E Brookings Dr, Draper, UT 84020","precinct":"25DR03","hd":"54","v_score":"13.18367289","decile":"9","lat":40.45994069635,"lng":-111.832804692513},{"id":"34368","name":"Cam Howe","party":"Rep","address":"14792 S Deer Park Ln, Draper, UT 84020","precinct":"25DR03","hd":"54","v_score":"15.72690788","decile":"9","lat":40.481951051853,"lng":-111.829741485583},{"id":"34847","name":"Windell Adams-Kihn","party":"Dem","address":"2514 E Ember Dr, Draper, UT 84020","precinct":"25DR03","hd":"54","v_score":"16.79207149","decile":"9","lat":40.484297005846,"lng":-111.82240309227},{"id":"34925","name":"Miss Patricia Cormier DDS","party":"","address":"14792 S Dryburg Cv, Draper, UT 84020","precinct":"25DR03","hd":"54","v_score":"3.93832808","decile":"6","lat":40.482210460242,"lng":-111.831419984673},{"id":"36183","name":"Valentine Gislason","party":"Rep","address":"2037 E Brookings Dr, Draper, UT 84020","precinct":"25DR03","hd":"54","v_score":"1.193887297","decile":"3","lat":40.460018050271,"lng":-111.829992712513},{"id":"36453","name":"Carlie Daugherty","party":"","address":"16056 S Fielding Hill Ln, Draper, UT 84020","precinct":"25DR03","hd":"54","v_score":"2.315214949","decile":"5","lat":40.45972731532,"lng":-111.835708988679},{"id":"36687","name":"Americo Sawayn","party":"Dem","address":"16068 S Timber Brook Dr, Draper, UT 84020","precinct":"25DR03","hd":"54","v_score":"3.781490609","decile":"6","lat":40.459634909466,"lng":-111.834789709278},{"id":"37035","name":"Edward O'Keefe-Williamson","party":"","address":"16092 S Fielding Hill Ln, Draper, UT 84020","precinct":"25DR03","hd":"54","v_score":"26.2609852","decile":"10","lat":40.460328809363,"lng":-111.835686432575},{"id":"37044","name":"Drema Thompson","party":"Rep","address":"2004 E Brookings Dr, Draper, UT 84020","precinct":"25DR03","hd":"54","v_score":"11.2235539","decile":"9","lat":40.460032797634,"lng":-111.831483353203},{"id":"37046","name":"Erby Dickens PhD","party":"Dem","address":"2004 E Brookings Dr, Draper, UT 84020","precinct":"25DR03","hd":"54","v_score":"6.814370645","decile":"8","lat":40.460032797634,"lng":-111.831483353203},{"id":"37450","name":"Raegan Barrows-Bernhard","party":"Rep","address":"2528 E Ember Dr, Draper, UT 84020","precinct":"25DR03","hd":"54","v_score":"8.280646305","decile":"8","lat":40.484353007861,"lng":-111.822309302199},{"id":"37805","name":"Desirae Konopelski","party":"Dem","address":"15767 S Rolling Bluff Dr, Draper, UT 84020","precinct":"25DR03","hd":"54","v_score":"2.587603312","decile":"5","lat":40.465270217713,"lng":-111.822575314389},{"id":"38515","name":"Vara Rau-Kulas","party":"","address":"14793 S Cardiff Park Way, Draper, UT 84020","precinct":"25DR03","hd":"54","v_score":"9.99960731","decile":"9","lat":40.482124088018,"lng":-111.828675809645},{"id":"38692","name":"Mariyah Marquardt MD","party":"","address":"2136 E Whitekirk Way, Draper, UT 84020","precinct":"25DR03","hd":"54","v_score":"8.347511332","decile":"8","lat":40.482166049347,"lng":-111.832870999808},{"id":"38895","name":"Miah O'Conner","party":"Rep","address":"2095 E Autumn Fields Ln, Draper, UT 84020","precinct":"25DR03","hd":"54","v_score":"6.881235673","decile":"8","lat":40.463007651717,"lng":-111.828433324036},{"id":"39505","name":"Homer Wilderman","party":"Rep","address":"15848 Mercer Hollow Cv, Draper, UT 84020","precinct":"25DR03","hd":"54","v_score":"2.315214949","decile":"5","lat":40.462540978342,"lng":-111.819797094592},{"id":"39677","name":"Woodroe O'Reilly","party":"Dem","address":"14782 S Castle End Cv, Draper, UT 84020","precinct":"25DR03","hd":"54","v_score":"2.315214949","decile":"5","lat":40.482154167919,"lng":-111.828168643448},{"id":"40424","name":"Ruth Hessel","party":"Dem","address":"14761 S Springtime Rd, Draper, UT 84020","precinct":"25DR03","hd":"54","v_score":"4.192796624","decile":"7","lat":40.483064700764,"lng":-111.825791465914},{"id":"40884","name":"Burnett Labadie","party":"Dem","address":"2216 E Viscaya Dr, Draper, UT 84020","precinct":"25DR03","hd":"54","v_score":"11.53879936","decile":"9","lat":40.464629217578,"lng":-111.823875893786},{"id":"41172","name":"Dr. Derrek Predovic","party":"","address":"16092 S Fielding Hill Ln, Draper, UT 84020","precinct":"25DR03","hd":"54","v_score":"20.92591958","decile":"10","lat":40.460328809363,"lng":-111.835686432575},{"id":"41575","name":"Finley Purdy-West","party":"Dem","address":"16073 S Fielding Hill Ln, Draper, UT 84020","precinct":"25DR03","hd":"54","v_score":"0","decile":"1","lat":40.459991377798,"lng":-111.835548416233},{"id":"42181","name":"Magen Funk","party":"Rep","address":"15513 S Winged Trace Ct, Draper, UT 84020","precinct":"25DR03","hd":"54","v_score":"0","decile":"1","lat":40.469868351972,"lng":-111.821167374442},{"id":"43030","name":"Dr. Bose Zemlak II","party":"Dem","address":"14796 S Castle End Cv, Draper, UT 84020","precinct":"25DR03","hd":"54","v_score":"7.650280567","decile":"8","lat":40.482111395267,"lng":-111.828168643454},{"id":"43031","name":"Tab Bogisich Jr.","party":"Dem","address":"14794 S Deer Park Ln, Draper, UT 84020","precinct":"25DR03","hd":"54","v_score":"6.814370645","decile":"8","lat":40.481927462914,"lng":-111.829741485586},{"id":"43689","name":"Willam Grimes","party":"","address":"15837 Mercer Hollow Cv, Draper, UT 84020","precinct":"25DR03","hd":"54","v_score":"0","decile":"1","lat":40.46244960469,"lng":-111.819660071834},{"id":"44038","name":"Angeles Fahey-Collins","party":"","address":"14918 S Springtime Rd, Draper, UT 84020","precinct":"25DR03","hd":"54","v_score":"5.40460374","decile":"7","lat":40.480682094969,"lng":-111.825629162386},{"id":"44412","name":"Floyd Boyle","party":"","address":"1905 E Chimney Stone Ct, Draper, UT 84020","precinct":"25DR03","hd":"54","v_score":"11.38334565","decile":"9","lat":40.460601829094,"lng":-111.836296919169},{"id":"44936","name":"Ariana Simonis-Sipes","party":"","address":"14780 S Invergarry Ct, Draper, UT 84020","precinct":"25DR03","hd":"54","v_score":"13.24168426","decile":"9","lat":40.482374597659,"lng":-111.83195586125},{"id":"44943","name":"Cass Krajcik","party":"Dem","address":"1919 E Chimney Stone Ct, Draper, UT 84020","precinct":"25DR03","hd":"54","v_score":"5.40460374","decile":"7","lat":40.460584062065,"lng":-111.836216134754},{"id":"44983","name":"Miss Asha Gibson DDS","party":"Dem","address":"14807 S Springtime Rd, Draper, UT 84020","precinct":"25DR03","hd":"54","v_score":"10.67330764","decile":"9","lat":40.482781480195,"lng":-111.825828833734},{"id":"45006","name":"Monte Gerhold","party":"","address":"14694 S Canyon Pointe Rd, Draper, UT 84020","precinct":"25DR03","hd":"54","v_score":"9.600440767","decile":"8","lat":40.484029114616,"lng":-111.821754578197},{"id":"45045","name":"Eben Kihn","party":"Rep","address":"14780 S Invergarry Ct, Draper, UT 84020","precinct":"25DR03","hd":"54","v_score":"4.210716443","decile":"7","lat":40.482374597659,"lng":-111.83195586125},{"id":"45110","name":"Jonathon Hessel I","party":"","address":"1943 E Brookings Dr, Draper, UT 84020","precinct":"25DR03","hd":"54","v_score":"9.757278238","decile":"8","lat":40.460055287737,"lng":-111.832850980171},{"id":"47271","name":"Kaleena Corkery","party":"Dem","address":"2331 E Deer Park Ln, Draper, UT 84020","precinct":"25DR03","hd":"54","v_score":"13.61621523","decile":"9","lat":40.482519284863,"lng":-111.828460552889},{"id":"48708","name":"Mrs. Burnice Berge PhD","party":"","address":"16084 S Duck Horn Dr, Draper, UT 84020","precinct":"25DR03","hd":"54","v_score":"1.121327652","decile":"3","lat":40.459355642744,"lng":-111.830020830561},{"id":"48850","name":"Johnie Little","party":"Dem","address":"15884 Mercer Hollow Cv, Draper, UT 84020","precinct":"25DR03","hd":"54","v_score":"3.93832808","decile":"6","lat":40.462762178158,"lng":-111.81983135174},{"id":"49505","name":"Olof Quitzon","party":"","address":"2413 E Lone Hill Dr, Draper, UT 84020","precinct":"25DR03","hd":"54","v_score":"2.744440783","decile":"5","lat":40.482012965081,"lng":-111.825460358296},{"id":"50506","name":"Gracia Bode","party":"","address":"14784 S Castle End Cv, Draper, UT 84020","precinct":"25DR03","hd":"54","v_score":"3.781490609","decile":"6","lat":40.48214805754,"lng":-111.828168643449},{"id":"50507","name":"Ms. Evette Gerlach","party":"","address":"1878 E Chimney Stone Ct, Draper, UT 84020","precinct":"25DR03","hd":"54","v_score":"12.07549285","decile":"9","lat":40.46045121367,"lng":-111.835958219688},{"id":"50511","name":"Audra Farrell-Ritchie","party":"Dem","address":"1919 E Chimney Stone Ct, Draper, UT 84020","precinct":"25DR03","hd":"54","v_score":"11.99259879","decile":"9","lat":40.460584062065,"lng":-111.836216134754},{"id":"50750","name":"Dr. Belva Roob","party":"Dem","address":"2068 E Ash Down Ln, Draper, UT 84020","precinct":"25DR03","hd":"54","v_score":"6.814370645","decile":"8","lat":40.462384404592,"lng":-111.82896768635},{"id":"50921","name":"Dr. Kaia Sawayn DVM","party":"","address":"2487 E Ember Dr, Draper, UT 84020","precinct":"25DR03","hd":"54","v_score":"5.191257514","decile":"7","lat":40.484086236396,"lng":-111.823805211387},{"id":"51104","name":"Michaele Thompson","party":"Rep","address":"1972 E Brookings Dr, Draper, UT 84020","precinct":"25DR03","hd":"54","v_score":"10.87160818","decile":"9","lat":40.460021696289,"lng":-111.83214464308},{"id":"51749","name":"Izabella Funk","party":"Dem","address":"15547 S Mercer Ct, Draper, UT 84020","precinct":"25DR03","hd":"54","v_score":"8.347511332","decile":"8","lat":40.46876547404,"lng":-111.821709157321},{"id":"52158","name":"Norval Leuschke","party":"","address":"16012 S Brookings Ct, Draper, UT 84020","precinct":"25DR03","hd":"54","v_score":"23.70365327","decile":"10","lat":40.460281793001,"lng":-111.83271908247},{"id":"52700","name":"Zeb Streich","party":"Rep","address":"1927 E Chimney Stone Ct, Draper, UT 84020","precinct":"25DR03","hd":"54","v_score":"3.781490609","decile":"6","lat":40.460580278475,"lng":-111.836161272758},{"id":"53486","name":"Anaya McCullough","party":"Dem","address":"2317 E Deer Park Ln, Draper, UT 84020","precinct":"25DR03","hd":"54","v_score":"3.781490609","decile":"6","lat":40.482519284892,"lng":-111.828830143266},{"id":"54197","name":"Sarita Dickinson","party":"Rep","address":"2008 E Brookings Dr, Draper, UT 84020","precinct":"25DR03","hd":"54","v_score":"5.40460374","decile":"7","lat":40.460026854325,"lng":-111.831419957959},{"id":"54728","name":"Hilda Stamm","party":"","address":"2189 E Fair Winns Ln, Draper, UT 84020","precinct":"25DR03","hd":"54","v_score":"1.193887297","decile":"3","lat":40.465711726202,"lng":-111.824596656217},{"id":"55066","name":"Gisele Okuneva","party":"Dem","address":"14951 S Canyon Pointe Rd, Draper, UT 84020","precinct":"25DR03","hd":"54","v_score":"3.93832808","decile":"6","lat":40.480475264401,"lng":-111.823192994293},{"id":"55859","name":"Petra Jacobi","party":"Dem","address":"16098 S Fielding Hill Ln, Draper, UT 84020","precinct":"25DR03","hd":"54","v_score":"0","decile":"1","lat":40.460447385668,"lng":-111.835675688505},{"id":"55909","name":"Mr. Kaden Green","party":"Rep","address":"15538 S Mercer Ct, Draper, UT 84020","precinct":"25DR03","hd":"54","v_score":"0","decile":"1","lat":40.46885561076,"lng":-111.821840568309},{"id":"56114","name":"Florencio Weimann-Steuber","party":"Rep","address":"14964 S Canyon Pointe Rd, Draper, UT 84020","precinct":"25DR03","hd":"54","v_score":"5.687348376","decile":"7","lat":40.480003498527,"lng":-111.823484907855},{"id":"56661","name":"Delina Zboncak","party":"Dem","address":"2478 E Lone Hill Dr, Draper, UT 84020","precinct":"25DR03","hd":"54","v_score":"9.405332525","decile":"8","lat":40.482128361717,"lng":-111.824413108758},{"id":"57171","name":"Sula Goodwin","party":"Dem","address":"2212 E Viscaya Dr, Draper, UT 84020","precinct":"25DR03","hd":"54","v_score":"0","decile":"1","lat":40.464656695137,"lng":-111.823990048229},{"id":"57242","name":"Dandre Kuphal","party":"","address":"15679 S Fair Winns Ct, Draper, UT 84020","precinct":"25DR03","hd":"54","v_score":"2.998909327","decile":"6","lat":40.46649853114,"lng":-111.823065925906},{"id":"57422","name":"Andre Corkery II","party":"","address":"15679 S Fair Winns Ct, Draper, UT 84020","precinct":"25DR03","hd":"54","v_score":"3.93832808","decile":"6","lat":40.46649853114,"lng":-111.823065925906},{"id":"57728","name":"Maranda Doyle","party":"Rep","address":"14677 S Snow Leopard Ln, Draper, UT 84020","precinct":"25DR03","hd":"54","v_score":"2.315214949","decile":"5","lat":40.484572214706,"lng":-111.822538940346},{"id":"57751","name":"Shamar Klocko Sr.","party":"","address":"15689 S Fair Winns Ct, Draper, UT 84020","precinct":"25DR03","hd":"54","v_score":"3.93832808","decile":"6","lat":40.466470953504,"lng":-111.823052793704},{"id":"58269","name":"Zana Keebler","party":"","address":"2508 E Lone Hill Dr, Draper, UT 84020","precinct":"25DR03","hd":"54","v_score":"1.121327652","decile":"3","lat":40.482106300575,"lng":-111.823949180736},{"id":"58866","name":"Edd Haley","party":"Dem","address":"1879 E Chimney Stone Ct, Draper, UT 84020","precinct":"25DR03","hd":"54","v_score":"5.501814877","decile":"7","lat":40.460642592095,"lng":-111.836451929438},{"id":"60883","name":"Burnell Kling","party":"Rep","address":"14949 S Auburn Sky Dr, Draper, UT 84020","precinct":"25DR03","hd":"54","v_score":"5.40460374","decile":"7","lat":40.47983802968,"lng":-111.82225863545},{"id":"61068","name":"Dr. Wing Leuschke","party":"Rep","address":"2331 E Deer Park Ln, Draper, UT 84020","precinct":"25DR03","hd":"54","v_score":"9.207031979","decile":"8","lat":40.482519284863,"lng":-111.828460552889},{"id":"61451","name":"Dr. Sammy Renner","party":"Dem","address":"1923 E Chimney Stone Ct, Draper, UT 84020","precinct":"25DR03","hd":"54","v_score":"0","decile":"1","lat":40.46058217027,"lng":-111.836188703756},{"id":"61711","name":"Jaclyn Aufderhar DVM","party":"Dem","address":"1934 E Brookings Dr, Draper, UT 84020","precinct":"25DR03","hd":"54","v_score":"5.258122542","decile":"7","lat":40.459940696368,"lng":-111.833038702418},{"id":"62644","name":"Dr. Salma Gulgowski MD","party":"Rep","address":"1934 E Brookings Dr, Draper, UT 84020","precinct":"25DR03","hd":"54","v_score":"5.258122542","decile":"7","lat":40.459940696368,"lng":-111.833038702418},{"id":"62762","name":"Julia Ruecker","party":"","address":"2481 E Lone Hill Dr, Draper, UT 84020","precinct":"25DR03","hd":"54","v_score":"24.9591484","decile":"10","lat":40.482243729305,"lng":-111.8243862181},{"id":"63110","name":"Jefferson Heidenreich-Hand","party":"","address":"1973 E Fielding Hill Ln, Draper, UT 84020","precinct":"25DR03","hd":"54","v_score":"10.8476567","decile":"9","lat":40.459367597615,"lng":-111.831580003396},{"id":"63393","name":"Prosper Rutherford-Ziemann","party":"Rep","address":"2222 E Fair Winns Ln, Draper, UT 84020","precinct":"25DR03","hd":"54","v_score":"2.315214949","decile":"5","lat":40.465874935342,"lng":-111.824013844509},{"id":"63668","name":"Kyler Jacobson-Kub","party":"Dem","address":"1981 E Brookings Dr, Draper, UT 84020","precinct":"25DR03","hd":"54","v_score":"0","decile":"1","lat":40.460120526525,"lng":-111.831266880728},{"id":"63735","name":"Elvin Luettgen","party":"","address":"2181 E Fair Winns Ln, Draper, UT 84020","precinct":"25DR03","hd":"54","v_score":"6.881235673","decile":"8","lat":40.465655259595,"lng":-111.82470572594},{"id":"64073","name":"Mr. Buren Marks III","party":"Dem","address":"14796 S Castle End Cv, Draper, UT 84020","precinct":"25DR03","hd":"54","v_score":"1.121327652","decile":"3","lat":40.482111395267,"lng":-111.828168643454},{"id":"64132","name":"Christop Harvey","party":"Rep","address":"2173 E Fair Winns Ln, Draper, UT 84020","precinct":"25DR03","hd":"54","v_score":"8.236277988","decile":"8","lat":40.465598792988,"lng":-111.824814795663},{"id":"64156","name":"Baxter Gulgowski","party":"Rep","address":"14781 S Castle End Cv, Draper, UT 84020","precinct":"25DR03","hd":"54","v_score":"24.00101786","decile":"10","lat":40.482160278287,"lng":-111.828017985187},{"id":"65114","name":"Racquel Wolff","party":"Rep","address":"14963 S Canyon Pointe Rd, Draper, UT 84020","precinct":"25DR03","hd":"54","v_score":"3.93832808","decile":"6","lat":40.480305577138,"lng":-111.82324248643},{"id":"65176","name":"Liane Goldner","party":"Rep","address":"16038 S Timber Brook Dr, Draper, UT 84020","precinct":"25DR03","hd":"54","v_score":"3.93832808","decile":"6","lat":40.459952715978,"lng":-111.834791055874},{"id":"65213","name":"Ms. Margurite Bartoletti MD","party":"","address":"14781 S Castle End Cv, Draper, UT 84020","precinct":"25DR03","hd":"54","v_score":"1.121327652","decile":"3","lat":40.482160278287,"lng":-111.828017985187},{"id":"65259","name":"Dr. Katina Keebler DVM","party":"Dem","address":"15513 S Winged Trace Ct, Draper, UT 84020","precinct":"25DR03","hd":"54","v_score":"2.744440783","decile":"5","lat":40.469868351972,"lng":-111.821167374442},{"id":"65576","name":"Jaunita Reinger","party":"Rep","address":"2451 E Lone Hill Dr, Draper, UT 84020","precinct":"25DR03","hd":"54","v_score":"10.52632313","decile":"9","lat":40.482174172758,"lng":-111.82487411236},{"id":"65678","name":"Addisyn Doyle","party":"","address":"16032 S Chimney Stone Rd, Draper, UT 84020","precinct":"25DR03","hd":"54","v_score":"5.941816919","decile":"7","lat":40.460211660024,"lng":-111.833856620448},{"id":"66035","name":"Roland Morar","party":"","address":"14929 S Springtime Rd, Draper, UT 84020","precinct":"25DR03","hd":"54","v_score":"15.43762891","decile":"9","lat":40.480581449337,"lng":-111.825379313707},{"id":"66133","name":"Daunte Jenkins","party":"Rep","address":"16057 S Timber Brook Dr, Draper, UT 84020","precinct":"25DR03","hd":"54","v_score":"7.135704216","decile":"8","lat":40.459762401495,"lng":-111.834639640103},{"id":"66907","name":"Dr. Marley Aufderhar","party":"Rep","address":"16046 S Fielding Hill Ln, Draper, UT 84020","precinct":"25DR03","hd":"54","v_score":"2.315214949","decile":"5","lat":40.45954679678,"lng":-111.83568815754},{"id":"66927","name":"Carl Harris","party":"","address":"1901 E Chimney Stone Ct, Draper, UT 84020","precinct":"25DR03","hd":"54","v_score":"6.814370645","decile":"8","lat":40.460606699859,"lng":-111.836323708362},{"id":"66938","name":"Verlie Roob","party":"","address":"1988 E Fielding Hill Ln, Draper, UT 84020","precinct":"25DR03","hd":"54","v_score":"6.814370645","decile":"8","lat":40.459250602209,"lng":-111.831874040632},{"id":"68136","name":"Johnson Lang","party":"","address":"16024 S Brookings Ct, Draper, UT 84020","precinct":"25DR03","hd":"54","v_score":"3.93832808","decile":"6","lat":40.460250360436,"lng":-111.832713642223},{"id":"68466","name":"Marius Zemlak","party":"","address":"15787 S Rolling Bluff Dr, Draper, UT 84020","precinct":"25DR03","hd":"54","v_score":"1.121327652","decile":"3","lat":40.465126938038,"lng":-111.822585420984},{"id":"68537","name":"Coraima Kilback PhD","party":"","address":"1901 E Chimney Stone Ct, Draper, UT 84020","precinct":"25DR03","hd":"54","v_score":"6.814370645","decile":"8","lat":40.460606699859,"lng":-111.836323708362},{"id":"68701","name":"Ian Bradtke-Marquardt","party":"Rep","address":"14764 S Invergarry Ct, Draper, UT 84020","precinct":"25DR03","hd":"54","v_score":"16.29714955","decile":"9","lat":40.482422923643,"lng":-111.831968696084},{"id":"69334","name":"Miya Bailey","party":"","address":"1954 E Fielding Hill Ln, Draper, UT 84020","precinct":"25DR03","hd":"54","v_score":"0","decile":"1","lat":40.459237075978,"lng":-111.831321764792},{"id":"69444","name":"Bell Zboncak","party":"","address":"16024 S Brookings Ct, Draper, UT 84020","precinct":"25DR03","hd":"54","v_score":"1.121327652","decile":"3","lat":40.460250360436,"lng":-111.832713642223},{"id":"69533","name":"Emil Daniel DVM","party":"","address":"1863 E Chimney Stone Ct, Draper, UT 84020","precinct":"25DR03","hd":"54","v_score":"3.93832808","decile":"6","lat":40.460677775478,"lng":-111.836535341042},{"id":"69598","name":"Dr. Katarina Fahey MD","party":"","address":"2438 E Lone Hill Dr, Draper, UT 84020","precinct":"25DR03","hd":"54","v_score":"1.121327652","decile":"3","lat":40.482026072766,"lng":-111.825022179356},{"id":"69631","name":"Kristal Durgan","party":"","address":"2222 E Fair Winns Ln, Draper, UT 84020","precinct":"25DR03","hd":"54","v_score":"2.817000428","decile":"6","lat":40.465874935342,"lng":-111.824013844509},{"id":"70084","name":"Casandra Mitchell","party":"Dem","address":"16078 S Chimney Stone Rd, Draper, UT 84020","precinct":"25DR03","hd":"54","v_score":"0","decile":"1","lat":40.459551046153,"lng":-111.833867949147},{"id":"70108","name":"Leamon Prohaska","party":"Rep","address":"16046 S Fielding Hill Ln, Draper, UT 84020","precinct":"25DR03","hd":"54","v_score":"2.315214949","decile":"5","lat":40.45954679678,"lng":-111.83568815754},{"id":"70556","name":"Mrs. Mandi Weber","party":"","address":"2418 E Ember Dr, Draper, UT 84020","precinct":"25DR03","hd":"54","v_score":"3.781490609","decile":"6","lat":40.482869696046,"lng":-111.82531417751},{"id":"70835","name":"Estela Shanahan","party":"Dem","address":"2327 Mercer Hollow Cv, Draper, UT 84020","precinct":"25DR03","hd":"54","v_score":"2.315214949","decile":"5","lat":40.461946020653,"lng":-111.820893097937},{"id":"71509","name":"Dr. Miah Bogisich","party":"Rep","address":"2077 E Autumn Fields Ln, Draper, UT 84020","precinct":"25DR03","hd":"54","v_score":"2.315214949","decile":"5","lat":40.463102019848,"lng":-111.828654241948},{"id":"71996","name":"Evelena Satterfield","party":"Dem","address":"15538 S Mercer Ct, Draper, UT 84020","precinct":"25DR03","hd":"54","v_score":"2.315214949","decile":"5","lat":40.46885561076,"lng":-111.821840568309},{"id":"72168","name":"Dr. Anahi Gulgowski DDS","party":"Dem","address":"2022 E Brookings Dr, Draper, UT 84020","precinct":"25DR03","hd":"54","v_score":"2.315214949","decile":"5","lat":40.459991993763,"lng":-111.831210522538},{"id":"72280","name":"Mozella Labadie","party":"","address":"2467 E Ember Dr, Draper, UT 84020","precinct":"25DR03","hd":"54","v_score":"3.93832808","decile":"6","lat":40.483571499728,"lng":-111.824212520076},{"id":"72283","name":"Dr. Ricki Kilback","party":"Dem","address":"2467 E Ember Dr, Draper, UT 84020","precinct":"25DR03","hd":"54","v_score":"2.315214949","decile":"5","lat":40.483571499728,"lng":-111.824212520076},{"id":"72901","name":"Dr. Cherri Kutch","party":"Dem","address":"14973 S Springtime Rd, Draper, UT 84020","precinct":"25DR03","hd":"54","v_score":"2.315214949","decile":"5","lat":40.480191232938,"lng":-111.825052507574},{"id":"72907","name":"Dakota Heller","party":"Dem","address":"14932 S Springtime Rd, Draper, UT 84020","precinct":"25DR03","hd":"54","v_score":"0","decile":"1","lat":40.480450564331,"lng":-111.82544832106},{"id":"72909","name":"Dr. Lenord Marks","party":"Rep","address":"2212 E Viscaya Dr, Draper, UT 84020","precinct":"25DR03","hd":"54","v_score":"1.121327652","decile":"3","lat":40.464656695137,"lng":-111.823990048229},{"id":"73142","name":"Rustin Crist","party":"","address":"16039 S Timber Brook Dr, Draper, UT 84020","precinct":"25DR03","hd":"54","v_score":"2.315214949","decile":"5","lat":40.459953085403,"lng":-111.83464044806},{"id":"73200","name":"Octavie Strosin DDS","party":"Rep","address":"16046 S Chimney Stone Rd, Draper, UT 84020","precinct":"25DR03","hd":"54","v_score":"6.814370645","decile":"8","lat":40.459880110864,"lng":-111.833859618352},{"id":"73212","name":"Jaxen Huels","party":"","address":"2333 E Deer Park Ln, Draper, UT 84020","precinct":"25DR03","hd":"54","v_score":"0","decile":"1","lat":40.482519284861,"lng":-111.828424064203},{"id":"73522","name":"Corine Nikolaus PhD","party":"Dem","address":"15757 S Rolling Bluff Dr, Draper, UT 84020","precinct":"25DR03","hd":"54","v_score":"3.93832808","decile":"6","lat":40.465336324236,"lng":-111.822577054026},{"id":"73526","name":"Milly Marks","party":"Rep","address":"16073 S Timber Brook Dr, Draper, UT 84020","precinct":"25DR03","hd":"54","v_score":"10.24124245","decile":"9","lat":40.459592904689,"lng":-111.834638921918},{"id":"73876","name":"Michell Waelchi-Abernathy","party":"","address":"14677 S Snow Leopard Ln, Draper, UT 84020","precinct":"25DR03","hd":"54","v_score":"2.315214949","decile":"5","lat":40.484572214706,"lng":-111.822538940346},{"id":"74302","name":"Darrell Harris","party":"","address":"14858 S Springtime Rd, Draper, UT 84020","precinct":"25DR03","hd":"54","v_score":"2.315214949","decile":"5","lat":40.482009015134,"lng":-111.826454807074},{"id":"74491","name":"Shawnda Rippin","party":"Rep","address":"14892 S Springtime Rd, Draper, UT 84020","precinct":"25DR03","hd":"54","v_score":"2.315214949","decile":"5","lat":40.481075733,"lng":-111.825912275071},{"id":"74986","name":"Dr. Art Kessler DDS","party":"Rep","address":"14933 S Auburn Sky Dr, Draper, UT 84020","precinct":"25DR03","hd":"54","v_score":"1.121327652","decile":"3","lat":40.480127141891,"lng":-111.822079149058},{"id":"75002","name":"Davion Lockman","party":"Rep","address":"15709 S Rolling Bluff Dr, Draper, UT 84020","precinct":"25DR03","hd":"54","v_score":"7.650280567","decile":"8","lat":40.465663127714,"lng":-111.822671935762},{"id":"75087","name":"Dr. Yehuda Shanahan","party":"Dem","address":"16078 S Timber Brook Dr, Draper, UT 84020","precinct":"25DR03","hd":"54","v_score":"2.744440783","decile":"5","lat":40.459528973962,"lng":-111.834789260413},{"id":"75860","name":"Christ King-Wiegand","party":"Dem","address":"14718 S Springtime Rd, Draper, UT 84020","precinct":"25DR03","hd":"54","v_score":"15.39947949","decile":"9","lat":40.483158457613,"lng":-111.825930477707},{"id":"75925","name":"Karlie Russel","party":"Dem","address":"16033 S Fielding Hill Ln, Draper, UT 84020","precinct":"25DR03","hd":"54","v_score":"2.315214949","decile":"5","lat":40.459401561676,"lng":-111.835404604736},{"id":"76094","name":"Mima Wiza PhD","party":"","address":"15709 S Rolling Bluff Dr, Draper, UT 84020","precinct":"25DR03","hd":"54","v_score":"3.93832808","decile":"6","lat":40.465663127714,"lng":-111.822671935762},{"id":"76287","name":"Zollie Runolfsdottir","party":"Dem","address":"2095 E Autumn Fields Ln, Draper, UT 84020","precinct":"25DR03","hd":"54","v_score":"4.858449944","decile":"7","lat":40.463007651717,"lng":-111.828433324036},{"id":"76301","name":"Mr. Juelz Mueller DVM","party":"","address":"2008 E Fielding Hill Ln, Draper, UT 84020","precinct":"25DR03","hd":"54","v_score":"3.93832808","decile":"6","lat":40.459227861456,"lng":-111.832208330053},{"id":"76511","name":"Marlin Purdy","party":"","address":"2008 E Brookings Dr, Draper, UT 84020","precinct":"25DR03","hd":"54","v_score":"2.315214949","decile":"5","lat":40.460026854325,"lng":-111.831419957959},{"id":"76531","name":"Dr. Kolby McCullough","party":"","address":"14786 S Deer Park Ln, Draper, UT 84020","precinct":"25DR03","hd":"54","v_score":"10.52632313","decile":"9","lat":40.48203323867,"lng":-111.829760323978},{"id":"77053","name":"Xander Pouros","party":"Dem","address":"15774 S Rolling Bluff Dr, Draper, UT 84020","precinct":"25DR03","hd":"54","v_score":"0","decile":"1","lat":40.464909153734,"lng":-111.822820966982},{"id":"77124","name":"Crissie Nader-Zulauf","party":"","address":"14902 S Auburn Sky Dr, Draper, UT 84020","precinct":"25DR03","hd":"54","v_score":"3.93832808","decile":"6","lat":40.480706094945,"lng":-111.822027377193},{"id":"78567","name":"Laurence Gutmann","party":"Dem","address":"14956 S Auburn Sky Dr, Draper, UT 84020","precinct":"25DR03","hd":"54","v_score":"2.315214949","decile":"5","lat":40.479763813574,"lng":-111.822498520658},{"id":"78993","name":"Asa Schmidt","party":"","address":"14783 S Stonehenge Pl, Draper, UT 84020","precinct":"25DR03","hd":"54","v_score":"1.121327652","decile":"3","lat":40.482216227199,"lng":-111.829362394431},{"id":"79143","name":"Pollie Lebsack DVM","party":"","address":"14993 S Springtime Rd, Draper, UT 84020","precinct":"25DR03","hd":"54","v_score":"1.121327652","decile":"3","lat":40.480013861847,"lng":-111.824903959332},{"id":"79731","name":"Nick Bergstrom","party":"","address":"2327 Mercer Hollow Cv, Draper, UT 84020","precinct":"25DR03","hd":"54","v_score":"2.315214949","decile":"5","lat":40.461946020653,"lng":-111.820893097937},{"id":"79771","name":"Mr. Hunter Parker DVM","party":"Rep","address":"14903 S Auburn Sky Dr, Draper, UT 84020","precinct":"25DR03","hd":"54","v_score":"9.35760564","decile":"8","lat":40.480712253088,"lng":-111.821876940892},{"id":"79866","name":"Byrdie Lueilwitz-Veum","party":"Dem","address":"14758 S Canyon Wild Rd, Draper, UT 84020","precinct":"25DR03","hd":"54","v_score":"3.93832808","decile":"6","lat":40.483202281105,"lng":-111.824823087548},{"id":"81120","name":"Alaina Rempel-Hilll","party":"Dem","address":"2004 E Brookings Dr, Draper, UT 84020","precinct":"25DR03","hd":"54","v_score":"2.817000428","decile":"6","lat":40.460032797634,"lng":-111.831483353203},{"id":"81303","name":"Trula Herman","party":"","address":"15709 S Rolling Bluff Dr, Draper, UT 84020","precinct":"25DR03","hd":"54","v_score":"2.817000428","decile":"6","lat":40.465663127714,"lng":-111.822671935762},{"id":"81405","name":"Amon Kihn","party":"Rep","address":"1998 E Fielding Hill Ln, Draper, UT 84020","precinct":"25DR03","hd":"54","v_score":"1.193887297","decile":"3","lat":40.459239231832,"lng":-111.832041185342},{"id":"81632","name":"Miss Dulcie Ryan","party":"Rep","address":"14964 S Canyon Pointe Rd, Draper, UT 84020","precinct":"25DR03","hd":"54","v_score":"0","decile":"1","lat":40.480003498527,"lng":-111.823484907855},{"id":"81918","name":"Eryn Bernier DVM","party":"Rep","address":"14787 S Stonehenge Pl, Draper, UT 84020","precinct":"25DR03","hd":"54","v_score":"6.587995052","decile":"7","lat":40.482206875319,"lng":-111.829362060436},{"id":"82274","name":"Mrs. Iola Hermiston DVM","party":"","address":"1967 E Fielding Hill Ln, Draper, UT 84020","precinct":"25DR03","hd":"54","v_score":"1.193887297","decile":"3","lat":40.459364813713,"lng":-111.831508977092},{"id":"82418","name":"Ashleigh Reichert","party":"Dem","address":"15866 Mercer Hollow Cv, Draper, UT 84020","precinct":"25DR03","hd":"54","v_score":"0","decile":"1","lat":40.462650690166,"lng":-111.819800644128},{"id":"82705","name":"Mr. Orlando Ferry","party":"","address":"16004 S Brookings Ct, Draper, UT 84020","precinct":"25DR03","hd":"54","v_score":"0","decile":"1","lat":40.460302748045,"lng":-111.832722709301},{"id":"84468","name":"Salvador Yost","party":"Rep","address":"2328 E Mercer Point Cir, Draper, UT 84020","precinct":"25DR03","hd":"54","v_score":"15.10209333","decile":"9","lat":40.470875005216,"lng":-111.821101762638},{"id":"85000","name":"Franco Jenkins","party":"Rep","address":"16038 S Timber Brook Dr, Draper, UT 84020","precinct":"25DR03","hd":"54","v_score":"2.817000428","decile":"6","lat":40.459952715978,"lng":-111.834791055874},{"id":"85454","name":"Darin Ortiz","party":"Rep","address":"2037 E Brookings Dr, Draper, UT 84020","precinct":"25DR03","hd":"54","v_score":"0","decile":"1","lat":40.460018050271,"lng":-111.829992712513},{"id":"85455","name":"Lillian Kunze DVM","party":"Rep","address":"2037 E Brookings Dr, Draper, UT 84020","precinct":"25DR03","hd":"54","v_score":"1.623113131","decile":"5","lat":40.460018050271,"lng":-111.829992712513},{"id":"85489","name":"Winfield Mann","party":"Rep","address":"2014 E Fielding Hill Ln, Draper, UT 84020","precinct":"25DR03","hd":"54","v_score":"0","decile":"1","lat":40.45922103923,"lng":-111.832308616879},{"id":"85917","name":"Shaylee Schuppe","party":"","address":"1943 E Brookings Dr, Draper, UT 84020","precinct":"25DR03","hd":"54","v_score":"4.069929862","decile":"6","lat":40.460055287737,"lng":-111.832850980171},{"id":"86979","name":"Acy Hyatt","party":"","address":"2497 E Ember Dr, Draper, UT 84020","precinct":"25DR03","hd":"54","v_score":"2.817000428","decile":"6","lat":40.484262528342,"lng":-111.823450559183},{"id":"87415","name":"Eppie Jast DVM","party":"Rep","address":"14899 S Canyon Pointe Rd, Draper, UT 84020","precinct":"25DR03","hd":"54","v_score":"2.817000428","decile":"6","lat":40.481182571137,"lng":-111.82289149927},{"id":"88628","name":"Guy Reilly","party":"Rep","address":"1842 E Chimney Stone Ct, Draper, UT 84020","precinct":"25DR03","hd":"54","v_score":"0","decile":"1","lat":40.460523389713,"lng":-111.836471093663},{"id":"88629","name":"Charlene Gerlach DDS","party":"","address":"1842 E Chimney Stone Ct, Draper, UT 84020","precinct":"25DR03","hd":"54","v_score":"0","decile":"1","lat":40.460523389713,"lng":-111.836471093663},{"id":"89419","name":"Stella Borer","party":"Dem","address":"15774 S Rolling Bluff Dr, Draper, UT 84020","precinct":"25DR03","hd":"54","v_score":"5.926494964","decile":"7","lat":40.464909153734,"lng":-111.822820966982},{"id":"89731","name":"Mrs. Anabella Rau","party":"Rep","address":"15857 Mercer Hollow Cv, Draper, UT 84020","precinct":"25DR03","hd":"54","v_score":"1.193887297","decile":"4","lat":40.462594774023,"lng":-111.8196443851},{"id":"90505","name":"Myah Will-Towne","party":"","address":"2523 E Lone Hill Dr, Draper, UT 84020","precinct":"25DR03","hd":"54","v_score":"3.781490609","decile":"6","lat":40.482203391953,"lng":-111.823707801576},{"id":"90846","name":"Kaeden Moen I","party":"","address":"1993 E Brookings Dr, Draper, UT 84020","precinct":"25DR03","hd":"54","v_score":"0","decile":"1","lat":40.460069624089,"lng":-111.83099455284},{"id":"92438","name":"Dr. Curtis Schulist","party":"Rep","address":"2216 E Fair Winns Ln, Draper, UT 84020","precinct":"25DR03","hd":"54","v_score":"0","decile":"1","lat":40.465786388124,"lng":-111.824184711146},{"id":"92527","name":"Kirt Volkman","party":"","address":"14904 S Canyon Pointe Rd, Draper, UT 84020","precinct":"25DR03","hd":"54","v_score":"18.35167816","decile":"10","lat":40.480914794469,"lng":-111.823184269069},{"id":"92528","name":"Amari Beer MD","party":"Rep","address":"14904 S Canyon Pointe Rd, Draper, UT 84020","precinct":"25DR03","hd":"54","v_score":"18.35167816","decile":"10","lat":40.480914794469,"lng":-111.823184269069},{"id":"92603","name":"Kandice Rogahn","party":"Dem","address":"15423 S Winged Trace Ct, Draper, UT 84020","precinct":"25DR03","hd":"54","v_score":"0","decile":"1","lat":40.471231996582,"lng":-111.821549043621},{"id":"94032","name":"Mr. Westin Reichert","party":"Dem","address":"2483 E Ember Dr, Draper, UT 84020","precinct":"25DR03","hd":"54","v_score":"0","decile":"1","lat":40.48399220869,"lng":-111.823899239104},{"id":"94995","name":"Einar Johnston-Gottlieb","party":"Rep","address":"14948 S Auburn Sky Dr, Draper, UT 84020","precinct":"25DR03","hd":"54","v_score":"4.069929862","decile":"6","lat":40.479887229417,"lng":-111.822394695434},{"id":"94996","name":"Roberta Bashirian","party":"Rep","address":"14948 S Auburn Sky Dr, Draper, UT 84020","precinct":"25DR03","hd":"54","v_score":"4.069929862","decile":"6","lat":40.479887229417,"lng":-111.822394695434},{"id":"95053","name":"Terrance Klocko","party":"","address":"2423 E Lone Hill Dr, Draper, UT 84020","precinct":"25DR03","hd":"54","v_score":"0","decile":"1","lat":40.482069378191,"lng":-111.82531791517},{"id":"95724","name":"Davion Effertz","party":"","address":"1993 E Brookings Dr, Draper, UT 84020","precinct":"25DR03","hd":"54","v_score":"1.193887297","decile":"4","lat":40.460069624089,"lng":-111.83099455284},{"id":"96148","name":"Wiley Breitenberg Sr.","party":"","address":"14779 S Falkland Cv, Draper, UT 84020","precinct":"25DR03","hd":"54","v_score":"10.51171112","decile":"9","lat":40.482385878956,"lng":-111.832515849864},{"id":"96163","name":"Ms. Beula Zulauf MD","party":"Rep","address":"1878 E Chimney Stone Ct, Draper, UT 84020","precinct":"25DR03","hd":"54","v_score":"6.528952915","decile":"7","lat":40.46045121367,"lng":-111.835958219688},{"id":"96371","name":"Brandan Bartoletti","party":"","address":"2137 E Ash Down Ln, Draper, UT 84020","precinct":"25DR03","hd":"54","v_score":"1.193887297","decile":"4","lat":40.46212898608,"lng":-111.828145065363},{"id":"96372","name":"Dr. Zachery Christiansen","party":"Dem","address":"14899 S Canyon Pointe Rd, Draper, UT 84020","precinct":"25DR03","hd":"54","v_score":"2.817000428","decile":"6","lat":40.481182571137,"lng":-111.82289149927},{"id":"97281","name":"Miss Parker Leannon DVM","party":"Dem","address":"2437 E Ember Dr, Draper, UT 84020","precinct":"25DR03","hd":"54","v_score":"2.817000428","decile":"6","lat":40.483016465066,"lng":-111.824924888347},{"id":"97522","name":"Mintie Block DDS","party":"Rep","address":"16057 S Timber Brook Dr, Draper, UT 84020","precinct":"25DR03","hd":"54","v_score":"2.817000428","decile":"6","lat":40.459762401495,"lng":-111.834639640103},{"id":"98704","name":"Dr. Elaina Effertz MD","party":"","address":"16032 S Timber Brook Dr, Draper, UT 84020","precinct":"25DR03","hd":"54","v_score":"0","decile":"1","lat":40.46001627728,"lng":-111.834791325193},{"id":"98774","name":"Miss Latanya Hauck","party":"","address":"14903 S Auburn Sky Dr, Draper, UT 84020","precinct":"25DR03","hd":"54","v_score":"1.193887297","decile":"4","lat":40.480712253088,"lng":-111.821876940892},{"id":"98775","name":"Alleen Crist","party":"","address":"2057 E Brookings Dr, Draper, UT 84020","precinct":"25DR03","hd":"54","v_score":"1.193887297","decile":"4","lat":40.460262940198,"lng":-111.828013891968},{"id":"99127","name":"Miss Melanie Price DVM","party":"Dem","address":"14729 S Canyon Wild Rd, Draper, UT 84020","precinct":"25DR03","hd":"54","v_score":"4.214075011","decile":"7","lat":40.483270577856,"lng":-111.824696808017},{"id":"99206","name":"Isa Haag","party":"Rep","address":"2317 E Deer Park Ln, Draper, UT 84020","precinct":"25DR03","hd":"54","v_score":"0","decile":"1","lat":40.482519284892,"lng":-111.828830143266},{"id":"100061","name":"Estela Leannon","party":"","address":"15454 S Winged Trace Ct, Draper, UT 84020","precinct":"25DR03","hd":"54","v_score":"0","decile":"1","lat":40.471105604974,"lng":-111.821668469668},{"id":"100169","name":"Zella Berge","party":"Rep","address":"1842 E Chimney Stone Ct, Draper, UT 84020","precinct":"25DR03","hd":"54","v_score":"0","decile":"1","lat":40.460523389713,"lng":-111.836471093663},{"id":"100670","name":"Ms. Magen Shields","party":"Rep","address":"16074 S Duck Horn Dr, Draper, UT 84020","precinct":"25DR03","hd":"54","v_score":"0","decile":"1","lat":40.459409248413,"lng":-111.829959938064},{"id":"100985","name":"Dr. David Terry","party":"Rep","address":"16065 S Timber Brook Dr, Draper, UT 84020","precinct":"25DR03","hd":"54","v_score":"16.72856503","decile":"9","lat":40.459677653092,"lng":-111.83463928101},{"id":"101897","name":"Ila Rohan","party":"","address":"2076 E Ash Down Ln, Draper, UT 84020","precinct":"25DR03","hd":"54","v_score":"3.711952487","decile":"6","lat":40.462314123864,"lng":-111.828902074124},{"id":"103056","name":"Cathleen Mitchell","party":"Rep","address":"14733 S Springtime Rd, Draper, UT 84020","precinct":"25DR03","hd":"54","v_score":"0","decile":"2","lat":40.483119553574,"lng":-111.825784205977},{"id":"103145","name":"Ginny Torp MD","party":"","address":"14787 S Stonehenge Pl, Draper, UT 84020","precinct":"25DR03","hd":"54","v_score":"2.876042565","decile":"6","lat":40.482206875319,"lng":-111.829362060436},{"id":"103624","name":"Clinton Bode-Powlowski","party":"","address":"14792 S Castle End Cv, Draper, UT 84020","precinct":"25DR03","hd":"54","v_score":"0","decile":"2","lat":40.482123616025,"lng":-111.828168643452},{"id":"104124","name":"Kerrie Quigley","party":"Dem","address":"1967 E Fielding Hill Ln, Draper, UT 84020","precinct":"25DR03","hd":"54","v_score":"0","decile":"2","lat":40.459364813713,"lng":-111.831508977092},{"id":"104655","name":"Danyelle Zemlak","party":"","address":"15784 S Rolling Bluff Dr, Draper, UT 84020","precinct":"25DR03","hd":"54","v_score":"1.193887297","decile":"4","lat":40.464728728227,"lng":-111.822917386432},{"id":"104725","name":"Nicholas Sipes","party":"Rep","address":"15857 Mercer Hollow Cv, Draper, UT 84020","precinct":"25DR03","hd":"54","v_score":"0","decile":"2","lat":40.462594774023,"lng":-111.8196443851},{"id":"105022","name":"Miss Shalonda Boyle","party":"","address":"2488 E Lone Hill Dr, Draper, UT 84020","precinct":"25DR03","hd":"54","v_score":"0","decile":"2","lat":40.482132585394,"lng":-111.824252608581},{"id":"105146","name":"Aubree Hand","party":"Rep","address":"14881 S Auburn Sky Dr, Draper, UT 84020","precinct":"25DR03","hd":"54","v_score":"0","decile":"2","lat":40.481144960447,"lng":-111.821907556919},{"id":"106207","name":"Wheeler Bauch","party":"Rep","address":"14767 S Invergarry Ct, Draper, UT 84020","precinct":"25DR03","hd":"54","v_score":"1.193887297","decile":"4","lat":40.482434580538,"lng":-111.831818635999},{"id":"106446","name":"Ms. Berenice McGlynn","party":"Rep","address":"14772 S Deer Park Ln, Draper, UT 84020","precinct":"25DR03","hd":"54","v_score":"3.711952487","decile":"6","lat":40.482191465845,"lng":-111.82990460078},{"id":"106482","name":"Ira Rippin","party":"","address":"2174 E Whitekirk Way, Draper, UT 84020","precinct":"25DR03","hd":"54","v_score":"1.193887297","decile":"4","lat":40.482206693799,"lng":-111.832308210284},{"id":"106640","name":"Cohen D'Amore","party":"Rep","address":"2332 Mercer Hollow Cv, Draper, UT 84020","precinct":"25DR03","hd":"54","v_score":"4.905839784","decile":"7","lat":40.462053311052,"lng":-111.820322928795},{"id":"108719","name":"Chip Conn","party":"","address":"2201 E Viscaya Dr, Draper, UT 84020","precinct":"25DR03","hd":"54","v_score":"4.069929862","decile":"7","lat":40.464789237613,"lng":-111.824420232517},{"id":"108720","name":"German Ankunding","party":"","address":"2201 E Viscaya Dr, Draper, UT 84020","precinct":"25DR03","hd":"54","v_score":"8.284004873","decile":"8","lat":40.464789237613,"lng":-111.824420232517},{"id":"109171","name":"Dr. Angus Kuvalis","party":"","address":"2328 E Mercer Point Cir, Draper, UT 84020","precinct":"25DR03","hd":"54","v_score":"1.193887297","decile":"4","lat":40.470875005216,"lng":-111.821101762638},{"id":"109314","name":"Josefita Gerhold","party":"Dem","address":"2057 E Brookings Dr, Draper, UT 84020","precinct":"25DR03","hd":"54","v_score":"0","decile":"2","lat":40.460262940198,"lng":-111.828013891968},{"id":"109408","name":"Mrs. Julie Collier PhD","party":"Rep","address":"2332 Mercer Hollow Cv, Draper, UT 84020","precinct":"25DR03","hd":"54","v_score":"1.193887297","decile":"4","lat":40.462053311052,"lng":-111.820322928795},{"id":"109443","name":"Algot Erdman","party":"","address":"14949 S Springtime Rd, Draper, UT 84020","precinct":"25DR03","hd":"54","v_score":"1.193887297","decile":"4","lat":40.480404078247,"lng":-111.825230765465},{"id":"109458","name":"Gregoria Wuckert","party":"Dem","address":"2278 E Deer Park Ln, Draper, UT 84020","precinct":"25DR03","hd":"54","v_score":"0","decile":"2","lat":40.482139588208,"lng":-111.829836468529},{"id":"109936","name":"Katherin Moen-Quitzon","party":"Rep","address":"1981 E Brookings Dr, Draper, UT 84020","precinct":"25DR03","hd":"54","v_score":"0","decile":"2","lat":40.460120526525,"lng":-111.831266880728},{"id":"110238","name":"Ely Murphy","party":"Dem","address":"1984 E Fielding Hill Ln, Draper, UT 84020","precinct":"25DR03","hd":"54","v_score":"0","decile":"2","lat":40.459255150359,"lng":-111.831807182748},{"id":"110357","name":"Sawyer Keebler","party":"","address":"2137 E Ash Down Ln, Draper, UT 84020","precinct":"25DR03","hd":"54","v_score":"0","decile":"2","lat":40.46212898608,"lng":-111.828145065363},{"id":"110583","name":"Maximilian Marvin","party":"","address":"1993 E Brookings Dr, Draper, UT 84020","precinct":"25DR03","hd":"54","v_score":"1.193887297","decile":"4","lat":40.460069624089,"lng":-111.83099455284},{"id":"111160","name":"Jose Kerluke","party":"Dem","address":"15777 S Rolling Bluff Dr, Draper, UT 84020","precinct":"25DR03","hd":"54","v_score":"0","decile":"2","lat":40.46520411119,"lng":-111.822573574753},{"id":"111451","name":"Rollin Smith I","party":"","address":"14949 S Springtime Rd, Draper, UT 84020","precinct":"25DR03","hd":"54","v_score":"5.407962308","decile":"7","lat":40.480404078247,"lng":-111.825230765465},{"id":"111452","name":"Charley Labadie","party":"","address":"2278 E Deer Park Ln, Draper, UT 84020","precinct":"25DR03","hd":"54","v_score":"0","decile":"2","lat":40.482139588208,"lng":-111.829836468529},{"id":"111570","name":"Tommie Kreiger","party":"","address":"16039 S Fielding Hill Ln, Draper, UT 84020","precinct":"25DR03","hd":"54","v_score":"1.193887297","decile":"4","lat":40.459468160266,"lng":-111.835478428277},{"id":"111789","name":"Miss Caydence Hegmann PhD","party":"Dem","address":"14703 S Snow Leopard Ln, Draper, UT 84020","precinct":"25DR03","hd":"54","v_score":"1.193887297","decile":"4","lat":40.484528139727,"lng":-111.822527921608},{"id":"111840","name":"Sullivan Cummings","party":"Rep","address":"16032 S Timber Brook Dr, Draper, UT 84020","precinct":"25DR03","hd":"54","v_score":"1.193887297","decile":"4","lat":40.46001627728,"lng":-111.834791325193},{"id":"111845","name":"Olena Lowe","party":"","address":"15784 S Rolling Bluff Dr, Draper, UT 84020","precinct":"25DR03","hd":"54","v_score":"1.193887297","decile":"4","lat":40.464728728227,"lng":-111.822917386432},{"id":"111849","name":"Lorna Hand","party":"Rep","address":"1944 E Fielding Hill Ln, Draper, UT 84020","precinct":"25DR03","hd":"54","v_score":"1.193887297","decile":"4","lat":40.459225743814,"lng":-111.831154615588},{"id":"112182","name":"Anabella Waters","party":"Rep","address":"2008 E Fielding Hill Ln, Draper, UT 84020","precinct":"25DR03","hd":"54","v_score":"0","decile":"2","lat":40.459227861456,"lng":-111.832208330053},{"id":"112285","name":"Santos Dibbert-Morar","party":"Rep","address":"15609 S Winged Trace Ct, Draper, UT 84020","precinct":"25DR03","hd":"54","v_score":"1.193887297","decile":"4","lat":40.4676626798,"lng":-111.822974547764},{"id":"112403","name":"Dr. Baldwin Kemmer","party":"Dem","address":"2479 E Ember Dr, Draper, UT 84020","precinct":"25DR03","hd":"54","v_score":"0","decile":"2","lat":40.483889325781,"lng":-111.823991977667},{"id":"112674","name":"Dr. Vela Pacocha","party":"Rep","address":"14927 S Canyon Pointe Rd, Draper, UT 84020","precinct":"25DR03","hd":"54","v_score":"4.069929862","decile":"7","lat":40.480802784594,"lng":-111.823078558354},{"id":"112675","name":"Edward Watsica","party":"Dem","address":"14927 S Canyon Pointe Rd, Draper, UT 84020","precinct":"25DR03","hd":"54","v_score":"1.193887297","decile":"4","lat":40.480802784594,"lng":-111.823078558354},{"id":"113378","name":"Alexzander Metz","party":"Dem","address":"1956 E Brookings Dr, Draper, UT 84020","precinct":"25DR03","hd":"54","v_score":"1.193887297","decile":"4","lat":40.459940696339,"lng":-111.832670972566},{"id":"113388","name":"Mrs. Felicity Simonis","party":"Dem","address":"14773 S Springtime Rd, Draper, UT 84020","precinct":"25DR03","hd":"54","v_score":"1.193887297","decile":"4","lat":40.483041192417,"lng":-111.825794577316},{"id":"113753","name":"Ms. Elizabeth Romaguera","party":"Dem","address":"14678 S Canyon Pointe Rd, Draper, UT 84020","precinct":"25DR03","hd":"54","v_score":"0","decile":"2","lat":40.484108295546,"lng":-111.821743217097},{"id":"114211","name":"Mateo Jerde","party":"","address":"15817 S Rolling Bluff Dr, Draper, UT 84020","precinct":"25DR03","hd":"54","v_score":"1.193887297","decile":"4","lat":40.464926680473,"lng":-111.822652737663},{"id":"114616","name":"Toshiko Becker MD","party":"","address":"1905 E Chimney Stone Ct, Draper, UT 84020","precinct":"25DR03","hd":"54","v_score":"0","decile":"2","lat":40.460601829094,"lng":-111.836296919169},{"id":"115505","name":"Ferris Russel","party":"","address":"2119 E Autumn Fields Ln, Draper, UT 84020","precinct":"25DR03","hd":"54","v_score":"0","decile":"2","lat":40.46285759069,"lng":-111.828181094749},{"id":"115652","name":"Gabrielle Ledner","party":"Dem","address":"14797 S Springtime Rd, Draper, UT 84020","precinct":"25DR03","hd":"54","v_score":"1.193887297","decile":"4","lat":40.482994175724,"lng":-111.82580080012},{"id":"115653","name":"Ashli Fisher DDS","party":"Rep","address":"14797 S Springtime Rd, Draper, UT 84020","precinct":"25DR03","hd":"54","v_score":"1.193887297","decile":"4","lat":40.482994175724,"lng":-111.82580080012},{"id":"116193","name":"Mrs. Terrie Hyatt MD","party":"Dem","address":"2204 E Fair Winns Ln, Draper, UT 84020","precinct":"25DR03","hd":"54","v_score":"4.069929862","decile":"7","lat":40.4657046089,"lng":-111.824342674194},{"id":"116212","name":"Channing Cormier","party":"Dem","address":"2204 E Fair Winns Ln, Draper, UT 84020","precinct":"25DR03","hd":"54","v_score":"4.069929862","decile":"7","lat":40.4657046089,"lng":-111.824342674194},{"id":"116628","name":"Mr. Knox Cartwright Jr.","party":"","address":"14703 S Snow Leopard Ln, Draper, UT 84020","precinct":"25DR03","hd":"54","v_score":"1.193887297","decile":"4","lat":40.484528139727,"lng":-111.822527921608},{"id":"116913","name":"Mr. Jaxon Kunze","party":"Rep","address":"14928 S Canyon Pointe Rd, Draper, UT 84020","precinct":"25DR03","hd":"54","v_score":"1.193887297","decile":"4","lat":40.480549991328,"lng":-111.82332551406},{"id":"117057","name":"Genaro Runolfsdottir","party":"Dem","address":"14768 S Falkland Cv, Draper, UT 84020","precinct":"25DR03","hd":"54","v_score":"8.284004873","decile":"8","lat":40.482409705318,"lng":-111.832668642735},{"id":"117500","name":"Ms. Mayme Reilly","party":"Dem","address":"14928 S Canyon Pointe Rd, Draper, UT 84020","precinct":"25DR03","hd":"54","v_score":"1.193887297","decile":"4","lat":40.480549991328,"lng":-111.82332551406},{"id":"118209","name":"Mr. Chas Flatley PhD","party":"Rep","address":"1942 E Brookings Dr, Draper, UT 84020","precinct":"25DR03","hd":"54","v_score":"0","decile":"2","lat":40.459940696357,"lng":-111.832904982472},{"id":"118798","name":"Ronda Stroman-Goodwin","party":"Dem","address":"14767 S Invergarry Ct, Draper, UT 84020","precinct":"25DR03","hd":"54","v_score":"1.193887297","decile":"4","lat":40.482434580538,"lng":-111.831818635999},{"id":"119389","name":"Harper Mraz I","party":"","address":"2022 E Brookings Dr, Draper, UT 84020","precinct":"25DR03","hd":"54","v_score":"0","decile":"2","lat":40.459991993763,"lng":-111.831210522538},{"id":"119489","name":"Jetta Huels","party":"","address":"14918 S Springtime Rd, Draper, UT 84020","precinct":"25DR03","hd":"54","v_score":"1.193887297","decile":"4","lat":40.480682094969,"lng":-111.825629162386},{"id":"119515","name":"Dr. Rosamond Kreiger DDS","party":"Rep","address":"2278 E Deer Park Ln, Draper, UT 84020","precinct":"25DR03","hd":"54","v_score":"1.193887297","decile":"4","lat":40.482139588208,"lng":-111.829836468529},{"id":"120079","name":"Nunzio Pagac-Orn","party":"Rep","address":"2182 E Fair Winns Ln, Draper, UT 84020","precinct":"25DR03","hd":"54","v_score":"1.193887297","decile":"4","lat":40.465554680323,"lng":-111.824632273114},{"id":"120281","name":"Tori Gislason","party":"Rep","address":"14778 S Cardiff Park Way, Draper, UT 84020","precinct":"25DR03","hd":"54","v_score":"4.069929862","decile":"7","lat":40.482165913897,"lng":-111.828826927677},{"id":"120321","name":"Carlton Abbott PhD","party":"Rep","address":"2278 E Deer Park Ln, Draper, UT 84020","precinct":"25DR03","hd":"54","v_score":"0","decile":"2","lat":40.482139588208,"lng":-111.829836468529},{"id":"120693","name":"Ms. Genevieve Bogan DDS","party":"Dem","address":"14866 S Canyon Pointe Rd, Draper, UT 84020","precinct":"25DR03","hd":"54","v_score":"1.193887297","decile":"4","lat":40.481467746834,"lng":-111.822882708691},{"id":"120819","name":"Ms. Vanesa Fritsch DVM","party":"","address":"15699 S Rolling Bluff Dr, Draper, UT 84020","precinct":"25DR03","hd":"54","v_score":"0","decile":"2","lat":40.465725373031,"lng":-111.822701248952},{"id":"121075","name":"Desiree Watsica-Rath","party":"Rep","address":"2057 E Brookings Dr, Draper, UT 84020","precinct":"25DR03","hd":"54","v_score":"1.193887297","decile":"4","lat":40.460262940198,"lng":-111.828013891968},{"id":"121150","name":"Petra Eichmann-Keebler","party":"","address":"2174 E Whitekirk Way, Draper, UT 84020","precinct":"25DR03","hd":"54","v_score":"0","decile":"2","lat":40.482206693799,"lng":-111.832308210284},{"id":"121448","name":"Yancy Donnelly-Kemmer","party":"Rep","address":"16064 S Duck Horn Dr, Draper, UT 84020","precinct":"25DR03","hd":"54","v_score":"1.193887297","decile":"4","lat":40.459472719512,"lng":-111.829906091787},{"id":"121499","name":"Dr. Vidal Kunze","party":"Dem","address":"16076 S Fielding Hill Ln, Draper, UT 84020","precinct":"25DR03","hd":"54","v_score":"0","decile":"2","lat":40.460061478677,"lng":-111.83569645751},{"id":"121534","name":"Blain Kreiger","party":"Dem","address":"14762 S Springtime Rd, Draper, UT 84020","precinct":"25DR03","hd":"54","v_score":"1.193887297","decile":"4","lat":40.483072260342,"lng":-111.82594188618},{"id":"122219","name":"Mrs. Traci Ryan","party":"Rep","address":"15848 Mercer Hollow Cv, Draper, UT 84020","precinct":"25DR03","hd":"54","v_score":"1.193887297","decile":"4","lat":40.462540978342,"lng":-111.819797094592},{"id":"122569","name":"Arley Bernier","party":"Rep","address":"14851 S Auburn Sky Dr, Draper, UT 84020","precinct":"25DR03","hd":"54","v_score":"1.193887297","decile":"4","lat":40.481724185566,"lng":-111.822161367828},{"id":"122591","name":"Tate Beahan","party":"Dem","address":"1944 E Fielding Hill Ln, Draper, UT 84020","precinct":"25DR03","hd":"54","v_score":"1.193887297","decile":"4","lat":40.459225743814,"lng":-111.831154615588},{"id":"124800","name":"Gino Jenkins","party":"Rep","address":"14833 S Springtime Rd, Draper, UT 84020","precinct":"25DR03","hd":"54","v_score":"0","decile":"2","lat":40.482401485166,"lng":-111.826118432006},{"id":"125389","name":"Rose Stracke MD","party":"Rep","address":"14792 S Castle End Cv, Draper, UT 84020","precinct":"25DR03","hd":"54","v_score":"0","decile":"2","lat":40.482123616025,"lng":-111.828168643452},{"id":"126860","name":"Dr. Royal Smitham Sr.","party":"Rep","address":"14763 S Falkland Cv, Draper, UT 84020","precinct":"25DR03","hd":"54","v_score":"0","decile":"2","lat":40.482427527818,"lng":-111.832517984008},{"id":"127518","name":"Maura Kovacek","party":"Dem","address":"1942 E Brookings Dr, Draper, UT 84020","precinct":"25DR03","hd":"54","v_score":"0","decile":"2","lat":40.459940696357,"lng":-111.832904982472},{"id":"127522","name":"Dr. Mikal Willms V","party":"Rep","address":"1998 E Fielding Hill Ln, Draper, UT 84020","precinct":"25DR03","hd":"54","v_score":"0","decile":"2","lat":40.459239231832,"lng":-111.832041185342},{"id":"127595","name":"Dr. Kennard Greenholt","party":"Rep","address":"2306 Mercer Hollow Cv, Draper, UT 84020","precinct":"25DR03","hd":"54","v_score":"0","decile":"2","lat":40.462047991814,"lng":-111.820738793395},{"id":"127695","name":"Virgie Klein","party":"","address":"16078 S Chimney Stone Rd, Draper, UT 84020","precinct":"25DR03","hd":"54","v_score":"0","decile":"2","lat":40.459551046153,"lng":-111.833867949147},{"id":"127826","name":"Dr. Dariana Lynch","party":"Rep","address":"14771 S Invergarry Ct, Draper, UT 84020","precinct":"25DR03","hd":"54","v_score":"0","decile":"2","lat":40.482427586988,"lng":-111.831817227512},{"id":"128155","name":"Ms. Vernice Balistreri DVM","party":"","address":"1874 E Chimney Stone Ct, Draper, UT 84020","precinct":"25DR03","hd":"54","v_score":"0","decile":"2","lat":40.460455035869,"lng":-111.8360136415},{"id":"130138","name":"Rohan Ondricka","party":"Rep","address":"14779 S Falkland Cv, Draper, UT 84020","precinct":"25DR03","hd":"54","v_score":"0","decile":"2","lat":40.482385878956,"lng":-111.832515849864},{"id":"130154","name":"Helga Mosciski","party":"Rep","address":"15927 Mercer Hollow Cv, Draper, UT 84020","precinct":"25DR03","hd":"54","v_score":"0","decile":"2","lat":40.463058390084,"lng":-111.819845367692},{"id":"130553","name":"Mr. Cato Donnelly V","party":"Rep","address":"1879 E Chimney Stone Ct, Draper, UT 84020","precinct":"25DR03","hd":"54","v_score":"0","decile":"2","lat":40.460642592095,"lng":-111.836451929438},{"id":"130866","name":"Leia Grant","party":"Dem","address":"14772 S Deer Park Ln, Draper, UT 84020","precinct":"25DR03","hd":"54","v_score":"0","decile":"2","lat":40.482191465845,"lng":-111.82990460078},{"id":"131482","name":"Shania Gutmann","party":"Rep","address":"14949 S Auburn Sky Dr, Draper, UT 84020","precinct":"25DR03","hd":"54","v_score":"0","decile":"2","lat":40.47983802968,"lng":-111.82225863545},{"id":"131607","name":"Miss Selina Senger DVM","party":"Rep","address":"14943 S Auburn Sky Dr, Draper, UT 84020","precinct":"25DR03","hd":"54","v_score":"0","decile":"2","lat":40.479944764336,"lng":-111.822191926278},{"id":"131939","name":"Martika Aufderhar","party":"Dem","address":"15513 S Winged Trace Ct, Draper, UT 84020","precinct":"25DR03","hd":"54","v_score":"0","decile":"2","lat":40.469868351972,"lng":-111.821167374442},{"id":"132012","name":"Hervey Pfannerstill","party":"Rep","address":"14943 S Auburn Sky Dr, Draper, UT 84020","precinct":"25DR03","hd":"54","v_score":"0","decile":"2","lat":40.479944764336,"lng":-111.822191926278},{"id":"132013","name":"Willie Sipes","party":"Rep","address":"14943 S Auburn Sky Dr, Draper, UT 84020","precinct":"25DR03","hd":"54","v_score":"0","decile":"2","lat":40.479944764336,"lng":-111.822191926278},{"id":"132616","name":"Elijah Erdman","party":"Rep","address":"14899 S Canyon Pointe Rd, Draper, UT 84020","precinct":"25DR03","hd":"54","v_score":"0","decile":"2","lat":40.481182571137,"lng":-111.82289149927},{"id":"132617","name":"Brandon Abernathy","party":"Rep","address":"14899 S Canyon Pointe Rd, Draper, UT 84020","precinct":"25DR03","hd":"54","v_score":"0","decile":"2","lat":40.481182571137,"lng":-111.82289149927},{"id":"132745","name":"Lita Nikolaus","party":"","address":"14927 S Canyon Pointe Rd, Draper, UT 84020","precinct":"25DR03","hd":"54","v_score":"0","decile":"2","lat":40.480802784594,"lng":-111.823078558354},{"id":"133057","name":"Britni Stamm","party":"","address":"14893 S Auburn Sky Dr, Draper, UT 84020","precinct":"25DR03","hd":"54","v_score":"0","decile":"2","lat":40.480908938251,"lng":-111.821890857268},{"id":"133710","name":"Spencer Bauch","party":"Rep","address":"2004 E Fielding Hill Ln, Draper, UT 84020","precinct":"25DR03","hd":"54","v_score":"0","decile":"2","lat":40.459232409606,"lng":-111.832141472168},{"id":"133711","name":"Noreta Schultz","party":"Dem","address":"2004 E Fielding Hill Ln, Draper, UT 84020","precinct":"25DR03","hd":"54","v_score":"0","decile":"2","lat":40.459232409606,"lng":-111.832141472168},{"id":"133738","name":"Sharleen Altenwerth","party":"","address":"16066 S Fielding Hill Ln, Draper, UT 84020","precinct":"25DR03","hd":"54","v_score":"0","decile":"2","lat":40.459894396999,"lng":-111.835702723094},{"id":"134427","name":"Dawson Beatty","party":"Rep","address":"14778 S Cardiff Park Way, Draper, UT 84020","precinct":"25DR03","hd":"54","v_score":"0","decile":"2","lat":40.482165913897,"lng":-111.828826927677},{"id":"134618","name":"Gabriella Kulas","party":"Dem","address":"16056 S Fielding Hill Ln, Draper, UT 84020","precinct":"25DR03","hd":"54","v_score":"2.315214949","decile":"5","lat":40.45972731532,"lng":-111.835708988679},{"id":"134716","name":"Ms. Jerrica McKenzie PhD","party":"Dem","address":"2064 E Ash Down Ln, Draper, UT 84020","precinct":"25DR03","hd":"54","v_score":"2.315214949","decile":"5","lat":40.462418747374,"lng":-111.828995589852},{"id":"134849","name":"Amil Connelly","party":"Dem","address":"14917 S Auburn Sky Dr, Draper, UT 84020","precinct":"25DR03","hd":"54","v_score":"3.781490609","decile":"6","lat":40.480421709725,"lng":-111.821931865109},{"id":"134998","name":"Lesley Lakin","party":"Rep","address":"2278 E Deer Park Ln, Draper, UT 84020","precinct":"25DR03","hd":"54","v_score":"0","decile":"2","lat":40.482139588208,"lng":-111.829836468529},{"id":"135460","name":"Jamarion Wisoky-Koepp","party":"","address":"1956 E Brookings Dr, Draper, UT 84020","precinct":"25DR03","hd":"54","v_score":"16.20026414","decile":"9","lat":40.459940696339,"lng":-111.832670972566},{"id":"135508","name":"Mr. Isidro Hane V","party":"Dem","address":"2156 E Whitekirk Way, Draper, UT 84020","precinct":"25DR03","hd":"54","v_score":"24.93681795","decile":"10","lat":40.482192337322,"lng":-111.832675482892},{"id":"135540","name":"Claudette Lowe DVM","party":"","address":"1967 E Fielding Hill Ln, Draper, UT 84020","precinct":"25DR03","hd":"54","v_score":"5.40460374","decile":"7","lat":40.459364813713,"lng":-111.831508977092},{"id":"135766","name":"Randle Mills","party":"Rep","address":"14761 S Springtime Rd, Draper, UT 84020","precinct":"25DR03","hd":"54","v_score":"5.659072284","decile":"7","lat":40.483064700764,"lng":-111.825791465914},{"id":"135790","name":"Rashaad Mann DDS","party":"","address":"14904 S Springtime Rd, Draper, UT 84020","precinct":"25DR03","hd":"54","v_score":"8.280646305","decile":"8","lat":40.480893586992,"lng":-111.825781680621},{"id":"135793","name":"Dorr Nikolaus","party":"Rep","address":"2172 E Viscaya Dr, Draper, UT 84020","precinct":"25DR03","hd":"54","v_score":"12.07513611","decile":"9","lat":40.464616077691,"lng":-111.824689422012},{"id":"135810","name":"Rogelio Bogisich","party":"Dem","address":"15747 S Rolling Bluff Dr, Draper, UT 84020","precinct":"25DR03","hd":"54","v_score":"18.73354571","decile":"10","lat":40.465410168884,"lng":-111.82258914507},{"id":"135811","name":"Roberto Hartmann-Schoen","party":"Dem","address":"15747 S Rolling Bluff Dr, Draper, UT 84020","precinct":"25DR03","hd":"54","v_score":"8.638904871","decile":"8","lat":40.465410168884,"lng":-111.82258914507},{"id":"135819","name":"Ahmed Will PhD","party":"Dem","address":"2173 E Fair Winns Ln, Draper, UT 84020","precinct":"25DR03","hd":"54","v_score":"46.12571148","decile":"10","lat":40.465598792988,"lng":-111.824814795663},{"id":"135956","name":"Junia Monahan","party":"Dem","address":"16044 S Timber Brook Dr, Draper, UT 84020","precinct":"25DR03","hd":"54","v_score":"7.947838735","decile":"8","lat":40.459889154675,"lng":-111.834790786555},{"id":"136008","name":"Zaire Stroman","party":"Dem","address":"14771 S Invergarry Ct, Draper, UT 84020","precinct":"25DR03","hd":"54","v_score":"0","decile":"2","lat":40.482427586988,"lng":-111.831817227512},{"id":"136050","name":"Dr. Mable Tillman PhD","party":"Rep","address":"1923 E Chimney Stone Ct, Draper, UT 84020","precinct":"25DR03","hd":"54","v_score":"4.283276088","decile":"7","lat":40.46058217027,"lng":-111.836188703756},{"id":"136090","name":"Miss Joanna Koss","party":"","address":"14797 S Cardiff Park Way, Draper, UT 84020","precinct":"25DR03","hd":"54","v_score":"13.61621523","decile":"9","lat":40.4821118671,"lng":-111.828675676811},{"id":"136207","name":"Carina Wintheiser-Thompson","party":"Dem","address":"16014 S Brookings Ct, Draper, UT 84020","precinct":"25DR03","hd":"54","v_score":"17.49441367","decile":"9","lat":40.46027655424,"lng":-111.832718175762},{"id":"136208","name":"Davon Goyette-Pacocha","party":"Dem","address":"16014 S Brookings Ct, Draper, UT 84020","precinct":"25DR03","hd":"54","v_score":"17.49441367","decile":"9","lat":40.46027655424,"lng":-111.832718175762},{"id":"136241","name":"Atha Graham","party":"","address":"14797 S Cardiff Park Way, Draper, UT 84020","precinct":"25DR03","hd":"54","v_score":"5.40460374","decile":"7","lat":40.4821118671,"lng":-111.828675676811},{"id":"136495","name":"Bonita Altenwerth","party":"","address":"1974 E Fielding Hill Ln, Draper, UT 84020","precinct":"25DR03","hd":"54","v_score":"6.657533174","decile":"7","lat":40.459264927962,"lng":-111.831640939365},{"id":"136536","name":"Arne Towne MD","party":"Rep","address":"2095 E Autumn Fields Ln, Draper, UT 84020","precinct":"25DR03","hd":"54","v_score":"1.121327652","decile":"3","lat":40.463007651717,"lng":-111.828433324036},{"id":"136599","name":"Lyndsey Brakus","party":"","address":"15513 S Winged Trace Ct, Draper, UT 84020","precinct":"25DR03","hd":"54","v_score":"0","decile":"2","lat":40.469868351972,"lng":-111.821167374442},{"id":"136641","name":"Dr. Thedore Davis","party":"Rep","address":"2077 E Autumn Fields Ln, Draper, UT 84020","precinct":"25DR03","hd":"54","v_score":"11.99259879","decile":"9","lat":40.463102019848,"lng":-111.828654241948},{"id":"136726","name":"Dr. Jeffrey Carter DVM","party":"Rep","address":"2483 E Ember Dr, Draper, UT 84020","precinct":"25DR03","hd":"54","v_score":"3.93832808","decile":"6","lat":40.48399220869,"lng":-111.823899239104},{"id":"136769","name":"Dr. Christel Lynch DVM","party":"","address":"1878 E Chimney Stone Ct, Draper, UT 84020","precinct":"25DR03","hd":"54","v_score":"12.51600754","decile":"9","lat":40.46045121367,"lng":-111.835958219688},{"id":"137112","name":"Gayle Greenholt","party":"Dem","address":"2217 E Viscaya Dr, Draper, UT 84020","precinct":"25DR03","hd":"54","v_score":"0","decile":"2","lat":40.464790130796,"lng":-111.824141986968},{"id":"137154","name":"Phoenix Gorczany","party":"Dem","address":"14858 S Springtime Rd, Draper, UT 84020","precinct":"25DR03","hd":"54","v_score":"10.22509301","decile":"9","lat":40.482009015134,"lng":-111.826454807074},{"id":"137415","name":"Lisandro Turcotte","party":"","address":"14628 S Snow Leopard Ln, Draper, UT 84020","precinct":"25DR03","hd":"54","v_score":"6.657533174","decile":"7","lat":40.48458374442,"lng":-111.822695185408},{"id":"137485","name":"Delta Batz","party":"","address":"2182 E Fair Winns Ln, Draper, UT 84020","precinct":"25DR03","hd":"54","v_score":"16.48028049","decile":"9","lat":40.465554680323,"lng":-111.824632273114},{"id":"137486","name":"Ms. Tamekia Swift MD","party":"Rep","address":"2182 E Fair Winns Ln, Draper, UT 84020","precinct":"25DR03","hd":"54","v_score":"12.768328","decile":"9","lat":40.465554680323,"lng":-111.824632273114},{"id":"137532","name":"Tatianna Kautzer","party":"Rep","address":"14928 S Canyon Pointe Rd, Draper, UT 84020","precinct":"25DR03","hd":"54","v_score":"5.40460374","decile":"7","lat":40.480549991328,"lng":-111.82332551406},{"id":"137534","name":"Mr. Butch Gleason V","party":"","address":"14928 S Canyon Pointe Rd, Draper, UT 84020","precinct":"25DR03","hd":"54","v_score":"5.40460374","decile":"7","lat":40.480549991328,"lng":-111.82332551406},{"id":"137755","name":"Ceasar Weimann","party":"Rep","address":"2227 E Fair Winns Ln, Draper, UT 84020","precinct":"25DR03","hd":"54","v_score":"8.280646305","decile":"8","lat":40.4660143825,"lng":-111.824013339662},{"id":"137786","name":"Hollis Rutherford","party":"Rep","address":"2158 E Viscaya Dr, Draper, UT 84020","precinct":"25DR03","hd":"54","v_score":"17.61555103","decile":"9","lat":40.464533918643,"lng":-111.824931867452},{"id":"137838","name":"Lelar Wisoky","party":"Dem","address":"2418 E Ember Dr, Draper, UT 84020","precinct":"25DR03","hd":"54","v_score":"2.315214949","decile":"5","lat":40.482869696046,"lng":-111.82531417751},{"id":"137933","name":"Jacey West","party":"","address":"15884 Mercer Hollow Cv, Draper, UT 84020","precinct":"25DR03","hd":"54","v_score":"5.40460374","decile":"7","lat":40.462762178158,"lng":-111.81983135174},{"id":"137969","name":"Herb Veum","party":"","address":"14993 S Springtime Rd, Draper, UT 84020","precinct":"25DR03","hd":"54","v_score":"5.40460374","decile":"7","lat":40.480013861847,"lng":-111.824903959332},{"id":"138057","name":"Miss Jetta Armstrong","party":"Dem","address":"15641 S Winged Trace Ct, Draper, UT 84020","precinct":"25DR03","hd":"54","v_score":"10.36948566","decile":"9","lat":40.46775284257,"lng":-111.822452580485},{"id":"138224","name":"Mrs. Rowena Gleason","party":"Rep","address":"2193 E Viscaya Dr, Draper, UT 84020","precinct":"25DR03","hd":"54","v_score":"35.57420129","decile":"10","lat":40.464769410309,"lng":-111.824559815604},{"id":"138226","name":"Jasper Crist-Terry","party":"Dem","address":"2193 E Viscaya Dr, Draper, UT 84020","precinct":"25DR03","hd":"54","v_score":"26.44109635","decile":"10","lat":40.464769410309,"lng":-111.824559815604},{"id":"138339","name":"Dr. Casper Ritchie MD","party":"","address":"2327 E Mercer Point Cir, Draper, UT 84020","precinct":"25DR03","hd":"54","v_score":"16.72856503","decile":"9","lat":40.47097064065,"lng":-111.821188982532},{"id":"138407","name":"Tena Heathcote-Mueller","party":"Rep","address":"2077 E Autumn Fields Ln, Draper, UT 84020","precinct":"25DR03","hd":"54","v_score":"14.53583379","decile":"9","lat":40.463102019848,"lng":-111.828654241948},{"id":"138686","name":"Mr. Lovett Greenholt PhD","party":"Rep","address":"14948 S Springtime Rd, Draper, UT 84020","precinct":"25DR03","hd":"54","v_score":"1.121327652","decile":"3","lat":40.480311929455,"lng":-111.825332214388},{"id":"138713","name":"Kaylene Durgan-O'Connell","party":"","address":"15499 S Winged Trace Ct, Draper, UT 84020","precinct":"25DR03","hd":"54","v_score":"8.347511332","decile":"8","lat":40.470055716352,"lng":-111.821383762591},{"id":"138714","name":"Miss Lacey Zulauf","party":"Rep","address":"15499 S Winged Trace Ct, Draper, UT 84020","precinct":"25DR03","hd":"54","v_score":"7.153624035","decile":"8","lat":40.470055716352,"lng":-111.821383762591},{"id":"138926","name":"Tatianna Prohaska-Wiegand","party":"Dem","address":"14896 S Canyon Pointe Rd, Draper, UT 84020","precinct":"25DR03","hd":"54","v_score":"16.2066738","decile":"9","lat":40.481031283619,"lng":-111.823126893803},{"id":"138950","name":"Celine Lynch","party":"Dem","address":"14959 S Springtime Rd, Draper, UT 84020","precinct":"25DR03","hd":"54","v_score":"28.93631606","decile":"10","lat":40.480315392701,"lng":-111.825156491344},{"id":"138951","name":"Jayden Friesen","party":"","address":"14959 S Springtime Rd, Draper, UT 84020","precinct":"25DR03","hd":"54","v_score":"28.93631606","decile":"10","lat":40.480315392701,"lng":-111.825156491344},{"id":"138952","name":"Thresa Roob MD","party":"Rep","address":"14959 S Springtime Rd, Draper, UT 84020","precinct":"25DR03","hd":"54","v_score":"26.58521581","decile":"10","lat":40.480315392701,"lng":-111.825156491344},{"id":"138973","name":"Mr. Ralph Dooley","party":"Rep","address":"2497 E Ember Dr, Draper, UT 84020","precinct":"25DR03","hd":"54","v_score":"2.817000428","decile":"6","lat":40.484262528342,"lng":-111.823450559183},{"id":"139061","name":"Dr. Marlo Harvey DVM","party":"Rep","address":"14851 S Auburn Sky Dr, Draper, UT 84020","precinct":"25DR03","hd":"54","v_score":"27.63534038","decile":"10","lat":40.481724185566,"lng":-111.822161367828},{"id":"139085","name":"Joana Stiedemann","party":"Dem","address":"15719 S Rolling Bluff Dr, Draper, UT 84020","precinct":"25DR03","hd":"54","v_score":"4.283276088","decile":"7","lat":40.465597544336,"lng":-111.822642384569},{"id":"139170","name":"Dr. Herminia Spinka","party":"","address":"15528 S Winged Trace Ct, Draper, UT 84020","precinct":"25DR03","hd":"54","v_score":"3.781490609","decile":"6","lat":40.469673763428,"lng":-111.821133716876},{"id":"139224","name":"Qiana O'Keefe-Stark","party":"Rep","address":"2338 E Mercer Point Cir, Draper, UT 84020","precinct":"25DR03","hd":"54","v_score":"20.91307447","decile":"10","lat":40.470917600055,"lng":-111.820979712021},{"id":"139260","name":"Billie Hartmann","party":"Rep","address":"2351 E Deer Park Ln, Draper, UT 84020","precinct":"25DR03","hd":"54","v_score":"5.40460374","decile":"7","lat":40.482519284829,"lng":-111.828015191472},{"id":"139381","name":"Bradford Huels-Yost","party":"","address":"15528 S Winged Trace Ct, Draper, UT 84020","precinct":"25DR03","hd":"54","v_score":"3.781490609","decile":"6","lat":40.469673763428,"lng":-111.821133716876},{"id":"139403","name":"Lynn Howe","party":"","address":"14939 S Springtime Rd, Draper, UT 84020","precinct":"25DR03","hd":"54","v_score":"14.18213378","decile":"9","lat":40.480492763792,"lng":-111.825305039586},{"id":"139413","name":"Quintin Rosenbaum","party":"Dem","address":"14776 S Deer Park Ln, Draper, UT 84020","precinct":"25DR03","hd":"54","v_score":"14.35128642","decile":"9","lat":40.482157633894,"lng":-111.829861371078},{"id":"139624","name":"Erland Rempel","party":"Rep","address":"14807 S Springtime Rd, Draper, UT 84020","precinct":"25DR03","hd":"54","v_score":"5.40460374","decile":"7","lat":40.482781480195,"lng":-111.825828833734},{"id":"139716","name":"Steven Crist-Konopelski","party":"","address":"15699 S Rolling Bluff Dr, Draper, UT 84020","precinct":"25DR03","hd":"54","v_score":"5.40460374","decile":"7","lat":40.465725373031,"lng":-111.822701248952},{"id":"139760","name":"Richmond McKenzie","party":"","address":"14904 S Springtime Rd, Draper, UT 84020","precinct":"25DR03","hd":"54","v_score":"12.43347023","decile":"9","lat":40.480893586992,"lng":-111.825781680621},{"id":"139826","name":"Ona Boyle","party":"Dem","address":"1948 E Brookings Dr, Draper, UT 84020","precinct":"25DR03","hd":"54","v_score":"13.18367289","decile":"9","lat":40.45994069635,"lng":-111.832804692513},{"id":"139905","name":"Gennie Raynor","party":"Dem","address":"14939 S Canyon Pointe Rd, Draper, UT 84020","precinct":"25DR03","hd":"54","v_score":"1.193887297","decile":"4","lat":40.480644951663,"lng":-111.823143502155},{"id":"140172","name":"Mrs. Jean Brakus","party":"","address":"14812 S Springtime Rd, Draper, UT 84020","precinct":"25DR03","hd":"54","v_score":"17.33649681","decile":"9","lat":40.48270726506,"lng":-111.826019307747},{"id":"140317","name":"Reginal Beer","party":"","address":"2148 E Whitekirk Way, Draper, UT 84020","precinct":"25DR03","hd":"54","v_score":"41.90823111","decile":"10","lat":40.482181822132,"lng":-111.832753689659},{"id":"140377","name":"Mr. Gage Renner MD","party":"","address":"1934 E Fielding Hill Ln, Draper, UT 84020","precinct":"25DR03","hd":"54","v_score":"24.9135696","decile":"10","lat":40.459211696291,"lng":-111.830983941282},{"id":"140598","name":"Loriann Jakubowski PhD","party":"","address":"15857 Mercer Hollow Cv, Draper, UT 84020","precinct":"25DR03","hd":"54","v_score":"15.39205011","decile":"9","lat":40.462594774023,"lng":-111.8196443851},{"id":"140634","name":"Mace Trantow-Wolf","party":"Rep","address":"14959 S Springtime Rd, Draper, UT 84020","precinct":"25DR03","hd":"54","v_score":"26.58521581","decile":"10","lat":40.480315392701,"lng":-111.825156491344},{"id":"140639","name":"Mr. Vaughn Veum IV","party":"","address":"2478 E Lone Hill Dr, Draper, UT 84020","precinct":"25DR03","hd":"54","v_score":"12.74918986","decile":"9","lat":40.482128361717,"lng":-111.824413108758},{"id":"140800","name":"Melvyn Bernier-Kuhlman","party":"Dem","address":"14709 S Springtime Rd, Draper, UT 84020","precinct":"25DR03","hd":"54","v_score":"8.280646305","decile":"8","lat":40.483166570267,"lng":-111.825777983174},