[{"vid":"1224643","name":"Carleigh Ruecker-Lind","party":"","address":"2315 E Boxwood Ln, Eagle Mountain, UT 84005","precinct":"25EM31","hd":"50","v_score":"8.280646305","decile":"8","lat":40.3035634172957,"lng":-111.99964943545498,"phone":"(884) 793-9804","sd":"11","ssbd":"10","lsbd":"School Board Lake Mountain 6"},{"vid":"1275434","name":"Fronia Mosciski PhD","party":"Dem","address":"3913 N Summer Way, Eagle Mountain, UT 84005","precinct":"25EM31","hd":"50","v_score":"4.192796624","decile":"7","lat":40.30409548610669,"lng":-112.00632269073768,"phone":"(351) 956-6451","sd":"11","ssbd":"10","lsbd":"School Board Lake Mountain 6"},{"vid":"1279637","name":"Mr. Silvio McGlynn","party":"","address":"2082 E Blossom St, Eagle Mountain, UT 84005","precinct":"25EM31","hd":"50","v_score":"0","decile":"1","lat":40.29978777105565,"lng":-112.00424799871065,"phone":"(167) 024-6281","sd":"11","ssbd":"10","lsbd":"School Board Lake Mountain 6"},{"vid":"bb1be92a4f80e923b9ba43df73ccbdfb87fdc419a4d314ab8db82f920d5fc6fd","name":"Ms. Esther Wyman MD","party":"Rep","address":"2093 E Easter Dr, Eagle Mountain, UT 84005","precinct":"25EM31","hd":"50","v_score":"20.33180184","decile":"10","lat":40.29886690543439,"lng":-112.00385049404771,"phone":"(600) 712-9526","sd":"11","ssbd":"10","lsbd":"School Board Lake Mountain 6"},{"vid":"1285592","name":"Darvin Bosco","party":"Rep","address":"1995 E Blossom St, Eagle Mountain, UT 84005","precinct":"25EM31","hd":"50","v_score":"26.41733837","decile":"10","lat":40.300238239255485,"lng":-112.00583778176426,"phone":"(286) 785-7434","sd":"11","ssbd":"10","lsbd":"School Board Lake Mountain 6"},{"vid":"79734e9211867d1a02b80016cdad8df083fa6b802ab2e3658cfe1ed227c5033e","name":"Tristian Hagenes","party":"Rep","address":"3706 N Partridge Ln, Eagle Mountain, UT 84005","precinct":"25EM31","hd":"50","v_score":"1.121327652","decile":"3","lat":40.301114849945726,"lng":-112.0022260194699,"phone":"(380) 951-5784","sd":"11","ssbd":"10","lsbd":"School Board Lake Mountain 6"},{"vid":"3119235e73cdc401f69de4e39b290eda765f4c8334e192dc734b792ecbd21373","name":"Clarence Cummings","party":"","address":"2148 E Partridge Ln, Eagle Mountain, UT 84005","precinct":"25EM31","hd":"50","v_score":"3.93832808","decile":"6","lat":40.30122065023632,"lng":-112.0028495030047,"phone":"(180) 827-7719","sd":"11","ssbd":"10","lsbd":"School Board Lake Mountain 6"},{"vid":"1335946","name":"Darry McDermott","party":"Rep","address":"2065 E Autumn St, Eagle Mountain, UT 84005","precinct":"25EM31","hd":"50","v_score":"5.191257514","decile":"7","lat":40.30270026079798,"lng":-112.0044078298406,"phone":"(390) 919-7328","sd":"11","ssbd":"10","lsbd":"School Board Lake Mountain 6"},{"vid":"1340663","name":"Lupe Beier PhD","party":"Rep","address":"2036 E Fall St, Eagle Mountain, UT 84005","precinct":"25EM31","hd":"50","v_score":"2.587603312","decile":"5","lat":40.302976671130445,"lng":-112.00497972340162,"phone":"(657) 110-1419","sd":"11","ssbd":"10","lsbd":"School Board Lake Mountain 6"},{"vid":"1348039","name":"Savanna Shields","party":"","address":"2038 E Easter Dr, Eagle Mountain, UT 84005","precinct":"25EM31","hd":"50","v_score":"22.64413479","decile":"10","lat":40.29843843425219,"lng":-112.00493659402719,"phone":"(691) 663-0702","sd":"11","ssbd":"10","lsbd":"School Board Lake Mountain 6"},{"vid":"b0854f3252b81b98772714341b434aeb0ba8f7fdbba12fa4a1a90c9ba22baa65","name":"Magdalene Brakus","party":"Dem","address":"2019 E Partridge Ln, Eagle Mountain, UT 84005","precinct":"25EM31","hd":"50","v_score":"5.40460374","decile":"7","lat":40.30160704725203,"lng":-112.0053066480016,"phone":"(423) 870-7189","sd":"11","ssbd":"10","lsbd":"School Board Lake Mountain 6"},{"vid":"1350816","name":"Alycia Purdy MD","party":"Dem","address":"3946 N Dateman Dr, Eagle Mountain, UT 84005","precinct":"25EM31","hd":"50","v_score":"2.315214949","decile":"5","lat":40.3045728567497,"lng":-111.99742465725447,"phone":"(245) 078-3486","sd":"11","ssbd":"10","lsbd":"School Board Lake Mountain 6"},{"vid":"1361186","name":"Dr. Kymani VonRueden","party":"Rep","address":"2080 E Fall St, Eagle Mountain, UT 84005","precinct":"25EM31","hd":"50","v_score":"8.15240309","decile":"8","lat":40.30297368977123,"lng":-112.00411946614282,"phone":"(368) 216-3024","sd":"11","ssbd":"10","lsbd":"School Board Lake Mountain 6"},{"vid":"1390311","name":"Cary Kuhn IV","party":"Dem","address":"3554 N Easter Dr, Eagle Mountain, UT 84005","precinct":"25EM31","hd":"50","v_score":"30.73460115","decile":"10","lat":40.29880422022516,"lng":-112.00229974326233,"phone":"(700) 742-3511","sd":"11","ssbd":"10","lsbd":"School Board Lake Mountain 6"},{"vid":"1400452","name":"Mr. Carroll Heidenreich","party":"Rep","address":"2414 E Spring St, Eagle Mountain, UT 84005","precinct":"25EM31","hd":"50","v_score":"1.121327652","decile":"3","lat":40.30389056585052,"lng":-111.99769959182258,"phone":"(219) 995-9038","sd":"11","ssbd":"10","lsbd":"School Board Lake Mountain 6"},{"vid":"1414803","name":"Gianna Gottlieb DVM","party":"Dem","address":"2311 E Cobble Creek Ln, Eagle Mountain, UT 84005","precinct":"25EM31","hd":"50","v_score":"9.907118004","decile":"8","lat":40.3049355381746,"lng":-111.99970614394292,"phone":"(278) 038-0093","sd":"11","ssbd":"10","lsbd":"School Board Lake Mountain 6"},{"vid":"1415714","name":"Cain Wilderman","party":"Rep","address":"3780 N Summer Way, Eagle Mountain, UT 84005","precinct":"25EM31","hd":"50","v_score":"13.32779236","decile":"9","lat":40.302318693331756,"lng":-112.00595679679948,"phone":"(350) 546-6420","sd":"11","ssbd":"10","lsbd":"School Board Lake Mountain 6"},{"vid":"1416123","name":"Lea Leuschke","party":"","address":"2114 E Blossom St, Eagle Mountain, UT 84005","precinct":"25EM31","hd":"50","v_score":"1.121327652","decile":"3","lat":40.29978280622814,"lng":-112.00347744257482,"phone":"(532) 678-5205","sd":"11","ssbd":"10","lsbd":"School Board Lake Mountain 6"},{"vid":"5c7912514c29721096fcacbd0ae773a9abbe32e7b0a599046cdf3ef783f9961c","name":"Chase Ferry","party":"Dem","address":"2096 E Spring St, Eagle Mountain, UT 84005","precinct":"25EM31","hd":"50","v_score":"3.781490609","decile":"6","lat":40.30365869452228,"lng":-112.00380903658773,"phone":"(255) 711-3611","sd":"11","ssbd":"10","lsbd":"School Board Lake Mountain 6"},{"vid":"491339ffbcf530047ce5458137dd8da9b23f3776db38d9afed9f46ca5909053b","name":"Dr. Onie Sauer PhD","party":"","address":"3706 N Partridge Ln, Eagle Mountain, UT 84005","precinct":"25EM31","hd":"50","v_score":"2.315214949","decile":"5","lat":40.301114849945726,"lng":-112.0022260194699,"phone":"(458) 750-1786","sd":"11","ssbd":"10","lsbd":"School Board Lake Mountain 6"},{"vid":"a05509d9888987bd39d35a38836bed75db1f7c1e645a840faf2061df7655ae79","name":"Miss Milda Cummerata PhD","party":"Rep","address":"2068 E Partridge Ln, Eagle Mountain, UT 84005","precinct":"25EM31","hd":"50","v_score":"11.52389434","decile":"9","lat":40.301190219695556,"lng":-112.0045011376695,"phone":"(679) 912-6801","sd":"11","ssbd":"10","lsbd":"School Board Lake Mountain 6"},{"vid":"1457135","name":"Jaylen Hegmann","party":"Dem","address":"1995 E Blossom St, Eagle Mountain, UT 84005","precinct":"25EM31","hd":"50","v_score":"12.38789653","decile":"9","lat":40.300238239255485,"lng":-112.00583778176426,"phone":"(660) 692-5846","sd":"11","ssbd":"10","lsbd":"School Board Lake Mountain 6"},{"vid":"1458568","name":"Watt Legros","party":"Rep","address":"2329 E Woodbury Ln, Eagle Mountain, UT 84005","precinct":"25EM31","hd":"50","v_score":"9.405332525","decile":"8","lat":40.30219122744009,"lng":-111.99938138050983,"phone":"(180) 471-9898","sd":"11","ssbd":"10","lsbd":"School Board Lake Mountain 6"},{"vid":"1482292","name":"Dwain Purdy V","party":"Rep","address":"3707 N Summer Way, Eagle Mountain, UT 84005","precinct":"25EM31","hd":"50","v_score":"0","decile":"1","lat":40.300829271049444,"lng":-112.00653491206998,"phone":"(293) 345-4351","sd":"11","ssbd":"10","lsbd":"School Board Lake Mountain 6"},{"vid":"1491817","name":"Trisha Sauer","party":"Dem","address":"2418 E Cinder Ln, Eagle Mountain, UT 84005","precinct":"25EM31","hd":"50","v_score":"1.121327652","decile":"3","lat":40.3024333395672,"lng":-111.99768590283868,"phone":"(260) 268-3484","sd":"11","ssbd":"10","lsbd":"School Board Lake Mountain 6"},{"vid":"1492594","name":"Gaven Ferry-Barrows","party":"","address":"2037 E Blossom St, Eagle Mountain, UT 84005","precinct":"25EM31","hd":"50","v_score":"18.35167816","decile":"10","lat":40.300233105968644,"lng":-112.00503492631313,"phone":"(809) 895-7671","sd":"11","ssbd":"10","lsbd":"School Board Lake Mountain 6"},{"vid":"a9c86ad9c490ddb7dc30092a2c9c0a3c77047e0952e28bf9ea50ee2e666121f8","name":"Jordy Hermiston","party":"Rep","address":"2267 E Marigold Dr, Eagle Mountain, UT 84005","precinct":"25EM31","hd":"50","v_score":"3.781490609","decile":"6","lat":40.29865047939284,"lng":-112.00060772932171,"phone":"(556) 015-3569","sd":"11","ssbd":"10","lsbd":"School Board Lake Mountain 6"},{"vid":"1527953","name":"Chesley Prohaska-Shanahan","party":"","address":"3714 N Summer Way, Eagle Mountain, UT 84005","precinct":"25EM31","hd":"50","v_score":"12.49472132","decile":"9","lat":40.30125389341474,"lng":-112.00617526377124,"phone":"(282) 686-0884","sd":"11","ssbd":"10","lsbd":"School Board Lake Mountain 6"},{"vid":"1538320","name":"Nona Lueilwitz","party":"","address":"2108 E Shadow Dr, Eagle Mountain, UT 84005","precinct":"25EM31","hd":"50","v_score":"1.121327652","decile":"3","lat":40.30047142203894,"lng":-112.00368337102307,"phone":"(679) 416-2042","sd":"11","ssbd":"10","lsbd":"School Board Lake Mountain 6"},{"vid":"1541866","name":"Mr. Esco Waelchi DVM","party":"Dem","address":"2036 E Spring St, Eagle Mountain, UT 84005","precinct":"25EM31","hd":"50","v_score":"11.04973188","decile":"9","lat":40.303662660858514,"lng":-112.00495632049184,"phone":"(313) 913-0135","sd":"11","ssbd":"10","lsbd":"School Board Lake Mountain 6"},{"vid":"1544373","name":"Mr. Orval Harris Jr.","party":"Rep","address":"2003 E Shadow Dr, Eagle Mountain, UT 84005","precinct":"25EM31","hd":"50","v_score":"2.315214949","decile":"5","lat":40.30094106708265,"lng":-112.00558993861354,"phone":"(547) 774-2119","sd":"11","ssbd":"10","lsbd":"School Board Lake Mountain 6"},{"vid":"1544811","name":"Joshuah Walter","party":"","address":"2037 E Blossom St, Eagle Mountain, UT 84005","precinct":"25EM31","hd":"50","v_score":"26.63697331","decile":"10","lat":40.300233105968644,"lng":-112.00503492631313,"phone":"(927) 474-3474","sd":"11","ssbd":"10","lsbd":"School Board Lake Mountain 6"},{"vid":"1547481","name":"Bayard Grady","party":"Rep","address":"2094 E Sunrise Dr, Eagle Mountain, UT 84005","precinct":"25EM31","hd":"50","v_score":"2.315214949","decile":"5","lat":40.299096037919874,"lng":-112.00391582193065,"phone":"(984) 161-0356","sd":"11","ssbd":"10","lsbd":"School Board Lake Mountain 6"},{"vid":"06a03dea2d8e8d344eef1b7c32f22d4b779a2f67f7ed514d8f2a26bfb0a9142a","name":"Khalid Herman","party":"","address":"2393 E Spring St, Eagle Mountain, UT 84005","precinct":"25EM31","hd":"50","v_score":"15.66172","decile":"9","lat":40.30424913854529,"lng":-111.99812108530907,"phone":"(457) 304-4193","sd":"11","ssbd":"10","lsbd":"School Board Lake Mountain 6"},{"vid":"1560735","name":"Stan Trantow-Jast","party":"","address":"2019 E Fall St, Eagle Mountain, UT 84005","precinct":"25EM31","hd":"50","v_score":"0","decile":"1","lat":40.303389253993245,"lng":-112.00525170973378,"phone":"(586) 690-9557","sd":"11","ssbd":"10","lsbd":"School Board Lake Mountain 6"},{"vid":"1587086","name":"Lyla Graham MD","party":"Dem","address":"1992 E Partridge Ln, Eagle Mountain, UT 84005","precinct":"25EM31","hd":"50","v_score":"1.46627566","decile":"4","lat":40.30117104880051,"lng":-112.00579053900415,"phone":"(815) 187-5210","sd":"11","ssbd":"10","lsbd":"School Board Lake Mountain 6"},{"vid":"1587395","name":"Maliyah Wehner","party":"Dem","address":"3935 N Summer Way, Eagle Mountain, UT 84005","precinct":"25EM31","hd":"50","v_score":"5.40460374","decile":"7","lat":40.30453057780123,"lng":-112.00616931113221,"phone":"(722) 632-6256","sd":"11","ssbd":"10","lsbd":"School Board Lake Mountain 6"},{"vid":"1598011","name":"Audra O'Kon","party":"","address":"2062 E Shadow Dr, Eagle Mountain, UT 84005","precinct":"25EM31","hd":"50","v_score":"2.744440783","decile":"5","lat":40.300504179922676,"lng":-112.004508628002,"phone":"(491) 987-5089","sd":"11","ssbd":"10","lsbd":"School Board Lake Mountain 6"},{"vid":"f56513e34bef1199b8c68947871e0c32849903d52c67ac90be229b7a89c91352","name":"Mr. Reagan Waelchi PhD","party":"","address":"2327 E Cinder Ln, Eagle Mountain, UT 84005","precinct":"25EM31","hd":"50","v_score":"10.87160818","decile":"9","lat":40.30287729351583,"lng":-111.99937921467168,"phone":"(907) 511-1797","sd":"11","ssbd":"10","lsbd":"School Board Lake Mountain 6"},{"vid":"1616298","name":"Deric Ebert","party":"Dem","address":"1991 E Shadow Dr, Eagle Mountain, UT 84005","precinct":"25EM31","hd":"50","v_score":"12.49472132","decile":"9","lat":40.30092430639276,"lng":-112.00583026825522,"phone":"(301) 957-5093","sd":"11","ssbd":"10","lsbd":"School Board Lake Mountain 6"},{"vid":"1618296","name":"Mira Rolfson","party":"Rep","address":"3594 N Easter Dr, Eagle Mountain, UT 84005","precinct":"25EM31","hd":"50","v_score":"5.40460374","decile":"7","lat":40.299437130470245,"lng":-112.00206089025133,"phone":"(177) 928-4585","sd":"11","ssbd":"10","lsbd":"School Board Lake Mountain 6"},{"vid":"1624347","name":"Dr. Carolynn Upton PhD","party":"","address":"2092 E Partridge Ln, Eagle Mountain, UT 84005","precinct":"25EM31","hd":"50","v_score":"38.99046514","decile":"10","lat":40.301186777182146,"lng":-112.00396349004308,"phone":"(102) 751-7504","sd":"11","ssbd":"10","lsbd":"School Board Lake Mountain 6"},{"vid":"1635229","name":"Asa Streich","party":"Dem","address":"2033 E Partridge Ln, Eagle Mountain, UT 84005","precinct":"25EM31","hd":"50","v_score":"1.121327652","decile":"3","lat":40.3016053051789,"lng":-112.00503425599025,"phone":"(709) 024-3996","sd":"11","ssbd":"10","lsbd":"School Board Lake Mountain 6"},{"vid":"e75d30241c955fe19307b6d161bca658f21f82e6ccf280fd7dd613f676f96cef","name":"Miss Delisa Jerde","party":"Dem","address":"2069 E Sunrise Dr, Eagle Mountain, UT 84005","precinct":"25EM31","hd":"50","v_score":"2.315214949","decile":"5","lat":40.299557954196395,"lng":-112.00438223650877,"phone":"(178) 203-5700","sd":"11","ssbd":"10","lsbd":"School Board Lake Mountain 6"},{"vid":"1645043","name":"Dr. Latrell Kilback","party":"Dem","address":"2359 E Woodbury Ln, Eagle Mountain, UT 84005","precinct":"25EM31","hd":"50","v_score":"12.8500256","decile":"9","lat":40.302191095627904,"lng":-111.9988344310083,"phone":"(403) 388-1261","sd":"11","ssbd":"10","lsbd":"School Board Lake Mountain 6"},{"vid":"1646497","name":"Ms. Shannon Murray","party":"","address":"2302 E Woodbury Ln, Eagle Mountain, UT 84005","precinct":"25EM31","hd":"50","v_score":"1.193887297","decile":"3","lat":40.30179306940851,"lng":-112.00004737888506,"phone":"(483) 130-5818","sd":"11","ssbd":"10","lsbd":"School Board Lake Mountain 6"},{"vid":"1649653","name":"Andon Zulauf-Howe","party":"Dem","address":"2041 E Sunrise Dr, Eagle Mountain, UT 84005","precinct":"25EM31","hd":"50","v_score":"6.814370645","decile":"8","lat":40.29956123067378,"lng":-112.0048899637085,"phone":"(505) 163-0722","sd":"11","ssbd":"10","lsbd":"School Board Lake Mountain 6"},{"vid":"1650971","name":"Dr. Alaina Tremblay","party":"Dem","address":"2109 E Fall St, Eagle Mountain, UT 84005","precinct":"25EM31","hd":"50","v_score":"11.55530256","decile":"9","lat":40.30338329172221,"lng":-112.00353078989636,"phone":"(781) 396-6551","sd":"11","ssbd":"10","lsbd":"School Board Lake Mountain 6"},{"vid":"1658372","name":"Dr. Gibson Hagenes","party":"Rep","address":"2030 E Summer Way, Eagle Mountain, UT 84005","precinct":"25EM31","hd":"50","v_score":"2.587603312","decile":"5","lat":40.304415550326915,"lng":-112.00508943087434,"phone":"(311) 813-3088","sd":"11","ssbd":"10","lsbd":"School Board Lake Mountain 6"},{"vid":"1660350","name":"Eloisa Kihn","party":"Rep","address":"2257 E Cinder Ln, Eagle Mountain, UT 84005","precinct":"25EM31","hd":"50","v_score":"12.51449002","decile":"9","lat":40.30279065454312,"lng":-112.00086036188924,"phone":"(717) 377-3264","sd":"11","ssbd":"10","lsbd":"School Board Lake Mountain 6"},{"vid":"1668601","name":"Kristan Funk-Howell","party":"","address":"3952 N Winter Way, Eagle Mountain, UT 84005","precinct":"25EM31","hd":"50","v_score":"0","decile":"1","lat":40.304664967807966,"lng":-112.00226787878535,"phone":"(709) 327-7787","sd":"11","ssbd":"10","lsbd":"School Board Lake Mountain 6"},{"vid":"538afb965651f428b9deb72e664546cf7f81b60301fc5dbba69533ea338dd718","name":"Ms. Lauretta Mann MD","party":"Rep","address":"2114 E Blossom St, Eagle Mountain, UT 84005","precinct":"25EM31","hd":"50","v_score":"15.76947144","decile":"9","lat":40.29978280622814,"lng":-112.00347744257482,"phone":"(498) 769-4963","sd":"11","ssbd":"10","lsbd":"School Board Lake Mountain 6"},{"vid":"1687072","name":"Kyle Walter","party":"Dem","address":"2062 E Shadow Dr, Eagle Mountain, UT 84005","precinct":"25EM31","hd":"50","v_score":"4.210716443","decile":"7","lat":40.300504179922676,"lng":-112.004508628002,"phone":"(349) 215-1155","sd":"11","ssbd":"10","lsbd":"School Board Lake Mountain 6"},{"vid":"1694485","name":"Heidi Predovic","party":"Rep","address":"2096 E Shadow Dr, Eagle Mountain, UT 84005","precinct":"25EM31","hd":"50","v_score":"2.817000428","decile":"6","lat":40.3005007091477,"lng":-112.00397102241674,"phone":"(910) 836-8695","sd":"11","ssbd":"10","lsbd":"School Board Lake Mountain 6"},{"vid":"1698078","name":"Miss Carrie Cormier PhD","party":"Rep","address":"2118 E Easter Dr, Eagle Mountain, UT 84005","precinct":"25EM31","hd":"50","v_score":"0","decile":"1","lat":40.298428794711945,"lng":-112.00343132393651,"phone":"(505) 416-3845","sd":"11","ssbd":"10","lsbd":"School Board Lake Mountain 6"},{"vid":"1709387","name":"Hubbard Graham","party":"","address":"3906 N Dateman Dr, Eagle Mountain, UT 84005","precinct":"25EM31","hd":"50","v_score":"3.93832808","decile":"6","lat":40.304008447946224,"lng":-111.99721209911733,"phone":"(631) 186-5902","sd":"11","ssbd":"10","lsbd":"School Board Lake Mountain 6"},{"vid":"1710576","name":"Estevan Kunze DDS","party":"Dem","address":"3698 N Summer Way, Eagle Mountain, UT 84005","precinct":"25EM31","hd":"50","v_score":"23.99859859","decile":"10","lat":40.300839419421756,"lng":-112.00616073169078,"phone":"(648) 792-7849","sd":"11","ssbd":"10","lsbd":"School Board Lake Mountain 6"},{"vid":"1713144","name":"Octavio Lesch","party":"Rep","address":"3692 N Partridge Ln, Eagle Mountain, UT 84005","precinct":"25EM31","hd":"50","v_score":"0","decile":"1","lat":40.30089464924425,"lng":-112.00214373812987,"phone":"(407) 332-9366","sd":"11","ssbd":"10","lsbd":"School Board Lake Mountain 6"},{"vid":"4a98eeba16a6ed0a64861e80d8ff72441ac96613055b45fb01ad003b9251a1b8","name":"Wilmer Ziemann IV","party":"","address":"2301 E Cobble Creek Ln, Eagle Mountain, UT 84005","precinct":"25EM31","hd":"50","v_score":"25.27566718","decile":"10","lat":40.304935590102644,"lng":-111.99995707807675,"phone":"(189) 239-5938","sd":"11","ssbd":"10","lsbd":"School Board Lake Mountain 6"},{"vid":"1722450","name":"Dale Wunsch-Jacobson","party":"","address":"2062 E Summer Way, Eagle Mountain, UT 84005","precinct":"25EM31","hd":"50","v_score":"0","decile":"1","lat":40.30446742231592,"lng":-112.00438144897568,"phone":"(560) 113-1176","sd":"11","ssbd":"10","lsbd":"School Board Lake Mountain 6"},{"vid":"1729386","name":"Lindsay Streich","party":"Rep","address":"2126 E Fall St, Eagle Mountain, UT 84005","precinct":"25EM31","hd":"50","v_score":"11.2829142","decile":"9","lat":40.30297070334227,"lng":-112.00325920888403,"phone":"(705) 621-0423","sd":"11","ssbd":"10","lsbd":"School Board Lake Mountain 6"},{"vid":"1743488","name":"Mr. Dessie Barton V","party":"Dem","address":"2377 E Marigold Dr, Eagle Mountain, UT 84005","precinct":"25EM31","hd":"50","v_score":"18.84034033","decile":"10","lat":40.298706593191675,"lng":-111.99856322926469,"phone":"(354) 321-9870","sd":"11","ssbd":"10","lsbd":"School Board Lake Mountain 6"},{"vid":"1748242","name":"Ayleen Schmitt","party":"","address":"2377 E Marigold Dr, Eagle Mountain, UT 84005","precinct":"25EM31","hd":"50","v_score":"5.40460374","decile":"7","lat":40.298706593191675,"lng":-111.99856322926469,"phone":"(831) 068-2198","sd":"11","ssbd":"10","lsbd":"School Board Lake Mountain 6"},{"vid":"1749035","name":"Mr. Hermon Feeney III","party":"Dem","address":"2146 E Shadow Dr, Eagle Mountain, UT 84005","precinct":"25EM31","hd":"50","v_score":"0","decile":"1","lat":40.30049395476972,"lng":-112.00291724936078,"phone":"(712) 346-7252","sd":"11","ssbd":"10","lsbd":"School Board Lake Mountain 6"},{"vid":"e97840048cc4b6b81a72e350995b2c26c343cd59f5037894651ef6a36933d58d","name":"Brandin Baumbach","party":"Dem","address":"2394 E Spring St, Eagle Mountain, UT 84005","precinct":"25EM31","hd":"50","v_score":"2.315214949","decile":"5","lat":40.303837478116314,"lng":-111.9980829266724,"phone":"(963) 164-0733","sd":"11","ssbd":"10","lsbd":"School Board Lake Mountain 6"},{"vid":"1798559","name":"Reyna Jaskolski","party":"Rep","address":"2036 E Autumn St, Eagle Mountain, UT 84005","precinct":"25EM31","hd":"50","v_score":"15.96892118","decile":"9","lat":40.302276695652296,"lng":-112.00498690848659,"phone":"(587) 762-8762","sd":"11","ssbd":"10","lsbd":"School Board Lake Mountain 6"},{"vid":"1798794","name":"Vonda Von","party":"","address":"2091 E Partridge Ln, Eagle Mountain, UT 84005","precinct":"25EM31","hd":"50","v_score":"2.876042565","decile":"6","lat":40.301598395804604,"lng":-112.00395899289711,"phone":"(228) 914-2583","sd":"11","ssbd":"10","lsbd":"School Board Lake Mountain 6"},{"vid":"1800427","name":"Ms. Hertha Medhurst MD","party":"Dem","address":"2312 E Woodbury Ln, Eagle Mountain, UT 84005","precinct":"25EM31","hd":"50","v_score":"1.121327652","decile":"3","lat":40.30179266670762,"lng":-111.9997964722397,"phone":"(728) 303-4964","sd":"11","ssbd":"10","lsbd":"School Board Lake Mountain 6"},{"vid":"1810608","name":"Ms. Theodocia Veum DDS","party":"","address":"2035 E Autumn St, Eagle Mountain, UT 84005","precinct":"25EM31","hd":"50","v_score":"2.315214949","decile":"5","lat":40.302702228922314,"lng":-112.00498132042652,"phone":"(676) 300-0002","sd":"11","ssbd":"10","lsbd":"School Board Lake Mountain 6"},{"vid":"1820441","name":"Sammie Hegmann","party":"","address":"3927 N Summer Way, Eagle Mountain, UT 84005","precinct":"25EM31","hd":"50","v_score":"0","decile":"1","lat":40.30429430763828,"lng":-112.00624134154175,"phone":"(735) 283-4454","sd":"11","ssbd":"10","lsbd":"School Board Lake Mountain 6"},{"vid":"1840363","name":"Andra Ledner","party":"","address":"2325 E Boxwood Ln, Eagle Mountain, UT 84005","precinct":"25EM31","hd":"50","v_score":"7.295495972","decile":"8","lat":40.303563361393124,"lng":-111.99938421756917,"phone":"(832) 541-3754","sd":"11","ssbd":"10","lsbd":"School Board Lake Mountain 6"},{"vid":"ffb4385c16abe2ddad5b9b8d0b98ea2dc2e02f5bd351269d272e5ed9fb35f7fa","name":"Dr. Cael Moore","party":"","address":"2012 E Summer Way, Eagle Mountain, UT 84005","precinct":"25EM31","hd":"50","v_score":"5.40460374","decile":"7","lat":40.30446676246655,"lng":-112.00540764639958,"phone":"(874) 166-6408","sd":"11","ssbd":"10","lsbd":"School Board Lake Mountain 6"},{"vid":"b520a8ac61dd39d03ac0d9dadddf7184087da11d64848048b193ab568e4f8cf4","name":"Edrie Gottlieb","party":"","address":"3866 N Dateman Dr, Eagle Mountain, UT 84005","precinct":"25EM31","hd":"50","v_score":"17.89408627","decile":"10","lat":40.30342795057884,"lng":-111.99712274962489,"phone":"(835) 114-7186","sd":"11","ssbd":"10","lsbd":"School Board Lake Mountain 6"},{"vid":"4aad7de95c960c5ddc819bd603cb3bbdb857427a3d80e24f4caf576c926f96a1","name":"Kylie Hayes","party":"Dem","address":"3582 N Easter Dr, Eagle Mountain, UT 84005","precinct":"25EM31","hd":"50","v_score":"1.193887297","decile":"3","lat":40.29924504382115,"lng":-112.00206299446506,"phone":"(176) 263-0160","sd":"11","ssbd":"10","lsbd":"School Board Lake Mountain 6"},{"vid":"1855860","name":"Alwina Walsh","party":"","address":"3813 N Chapman Dr, Eagle Mountain, UT 84005","precinct":"25EM31","hd":"50","v_score":"4.210716443","decile":"7","lat":40.30264436420723,"lng":-112.00134400339321,"phone":"(884) 771-7432","sd":"11","ssbd":"10","lsbd":"School Board Lake Mountain 6"},{"vid":"1868256","name":"Genaro Schowalter","party":"","address":"2287 E Cinder Ln, Eagle Mountain, UT 84005","precinct":"25EM31","hd":"50","v_score":"8.347511332","decile":"8","lat":40.30287746369155,"lng":-112.00018213605914,"phone":"(360) 670-4039","sd":"11","ssbd":"10","lsbd":"School Board Lake Mountain 6"},{"vid":"1874115","name":"Ms. Zula Nikolaus","party":"Dem","address":"2142 E Fall St, Eagle Mountain, UT 84005","precinct":"25EM31","hd":"50","v_score":"1.193887297","decile":"3","lat":40.30296952129403,"lng":-112.00291564407138,"phone":"(146) 899-8472","sd":"11","ssbd":"10","lsbd":"School Board Lake Mountain 6"},{"vid":"1881164","name":"Devonta Bauch IV","party":"Rep","address":"2098 E Blossom St, Eagle Mountain, UT 84005","precinct":"25EM31","hd":"50","v_score":"5.40460374","decile":"7","lat":40.299786049580526,"lng":-112.00397919762483,"phone":"(409) 550-2910","sd":"11","ssbd":"10","lsbd":"School Board Lake Mountain 6"},{"vid":"1889689","name":"Juliann Hammes","party":"","address":"2047 E Summer Way, Eagle Mountain, UT 84005","precinct":"25EM31","hd":"50","v_score":"5.40460374","decile":"7","lat":40.30491977424306,"lng":-112.00474329759862,"phone":"(910) 763-6298","sd":"11","ssbd":"10","lsbd":"School Board Lake Mountain 6"},{"vid":"1892888","name":"Tilman Lockman-Langworth","party":"","address":"2047 E Summer Way, Eagle Mountain, UT 84005","precinct":"25EM31","hd":"50","v_score":"5.40460374","decile":"7","lat":40.30491977424306,"lng":-112.00474329759862,"phone":"(657) 934-7547","sd":"11","ssbd":"10","lsbd":"School Board Lake Mountain 6"},{"vid":"b836b9b0d81cd22993d8afd532d589146aba0fca670c92b58f49762145e52645","name":"Ariane Bechtelar-Hermann","party":"Dem","address":"2113 E Winter Way, Eagle Mountain, UT 84005","precinct":"25EM31","hd":"50","v_score":"2.315214949","decile":"5","lat":40.30483802036393,"lng":-112.00345885053852,"phone":"(247) 047-3113","sd":"11","ssbd":"10","lsbd":"School Board Lake Mountain 6"},{"vid":"1916740","name":"Blane Kiehn","party":"","address":"3945 N Chapman Dr, Eagle Mountain, UT 84005","precinct":"25EM31","hd":"50","v_score":"0","decile":"1","lat":40.30456592216936,"lng":-112.00112112082948,"phone":"(917) 630-2187","sd":"11","ssbd":"10","lsbd":"School Board Lake Mountain 6"},{"vid":"1919632","name":"Mr. Darwin Zieme","party":"Rep","address":"2377 E Marigold Dr, Eagle Mountain, UT 84005","precinct":"25EM31","hd":"50","v_score":"7.511882601","decile":"8","lat":40.298706593191675,"lng":-111.99856322926469,"phone":"(278) 386-8260","sd":"11","ssbd":"10","lsbd":"School Board Lake Mountain 6"},{"vid":"1929023","name":"Tomeka Lueilwitz MD","party":"Rep","address":"2288 E Cinder Ln, Eagle Mountain, UT 84005","precinct":"25EM31","hd":"50","v_score":"2.315214949","decile":"5","lat":40.302465813127064,"lng":-112.00023315138414,"phone":"(141) 234-2748","sd":"11","ssbd":"10","lsbd":"School Board Lake Mountain 6"},{"vid":"1931804","name":"Dr. Samie Volkman","party":"","address":"2078 E Easter Dr, Eagle Mountain, UT 84005","precinct":"25EM31","hd":"50","v_score":"10.87160818","decile":"9","lat":40.298433616674664,"lng":-112.00418397649901,"phone":"(103) 017-0554","sd":"11","ssbd":"10","lsbd":"School Board Lake Mountain 6"},{"vid":"464d9f4c9b6e9a877de6d5b1a3ea516f3c6cd76537269d4196b34e67b41368ea","name":"Dameon Nicolas","party":"","address":"2312 E Cobble Creek Ln, Eagle Mountain, UT 84005","precinct":"25EM31","hd":"50","v_score":"5.40460374","decile":"7","lat":40.304568713272246,"lng":-111.99967619772873,"phone":"(883) 153-6438","sd":"11","ssbd":"10","lsbd":"School Board Lake Mountain 6"},{"vid":"1948714","name":"Bethann Ritchie","party":"Rep","address":"2278 E Cinder Ln, Eagle Mountain, UT 84005","precinct":"25EM31","hd":"50","v_score":"2.315214949","decile":"5","lat":40.302465863960876,"lng":-112.00048836365465,"phone":"(581) 702-9673","sd":"11","ssbd":"10","lsbd":"School Board Lake Mountain 6"},{"vid":"1960152","name":"Buddy Huel","party":"Dem","address":"2422 E Woodbury Ln, Eagle Mountain, UT 84005","precinct":"25EM31","hd":"50","v_score":"1.193887297","decile":"3","lat":40.30187834968253,"lng":-111.99761179957312,"phone":"(873) 643-9665","sd":"11","ssbd":"10","lsbd":"School Board Lake Mountain 6"},{"vid":"1987328","name":"Waymon Yundt DVM","party":"Dem","address":"2080 E Fall St, Eagle Mountain, UT 84005","precinct":"25EM31","hd":"50","v_score":"5.191257514","decile":"7","lat":40.30297368977123,"lng":-112.00411946614282,"phone":"(794) 734-0353","sd":"11","ssbd":"10","lsbd":"School Board Lake Mountain 6"},{"vid":"1992156","name":"Annemarie Hodkiewicz PhD","party":"Dem","address":"3620 N Summer Way, Eagle Mountain, UT 84005","precinct":"25EM31","hd":"50","v_score":"8.280646305","decile":"8","lat":40.299870431866864,"lng":-112.00617714923092,"phone":"(366) 160-6410","sd":"11","ssbd":"10","lsbd":"School Board Lake Mountain 6"},{"vid":"1994893","name":"Delisa Bogisich","party":"Rep","address":"3945 N Chapman Dr, Eagle Mountain, UT 84005","precinct":"25EM31","hd":"50","v_score":"1.121327652","decile":"3","lat":40.30456592216936,"lng":-112.00112112082948,"phone":"(713) 425-5665","sd":"11","ssbd":"10","lsbd":"School Board Lake Mountain 6"},{"vid":"2001414","name":"Ananias Rolfson V","party":"","address":"2095 E Autumn St, Eagle Mountain, UT 84005","precinct":"25EM31","hd":"50","v_score":"1.46627566","decile":"4","lat":40.30269826198162,"lng":-112.00383433889536,"phone":"(398) 159-3538","sd":"11","ssbd":"10","lsbd":"School Board Lake Mountain 6"},{"vid":"2013079","name":"Dr. Gilbert Hoeger","party":"Dem","address":"2047 E Shadow Dr, Eagle Mountain, UT 84005","precinct":"25EM31","hd":"50","v_score":"6.657533174","decile":"7","lat":40.30091763303682,"lng":-112.00479085997931,"phone":"(198) 834-7341","sd":"11","ssbd":"10","lsbd":"School Board Lake Mountain 6"},{"vid":"2014905","name":"Lonie Ernser-D'Amore","party":"","address":"2359 E Woodbury Ln, Eagle Mountain, UT 84005","precinct":"25EM31","hd":"50","v_score":"12.49472132","decile":"9","lat":40.302191095627904,"lng":-111.9988344310083,"phone":"(601) 817-4757","sd":"11","ssbd":"10","lsbd":"School Board Lake Mountain 6"},{"vid":"2019909","name":"Kenyatta Schaden","party":"Dem","address":"2269 E Woodbury Ln, Eagle Mountain, UT 84005","precinct":"25EM31","hd":"50","v_score":"1.193887297","decile":"3","lat":40.30212099969884,"lng":-112.0005373300029,"phone":"(164) 414-6957","sd":"11","ssbd":"10","lsbd":"School Board Lake Mountain 6"},{"vid":"2028186","name":"Mandi Kreiger-Konopelski","party":"Dem","address":"3881 N Chapman Dr, Eagle Mountain, UT 84005","precinct":"25EM31","hd":"50","v_score":"0","decile":"1","lat":40.303708105766205,"lng":-112.00123808749403,"phone":"(188) 878-7595","sd":"11","ssbd":"10","lsbd":"School Board Lake Mountain 6"},{"vid":"9615f8916bf8de3cdfd99d122f7977a557f0c4f5c2bb23376bd1bea4b172ad7d","name":"Tate Beatty","party":"Rep","address":"2287 E Cinder Ln, Eagle Mountain, UT 84005","precinct":"25EM31","hd":"50","v_score":"3.781490609","decile":"6","lat":40.30287746369155,"lng":-112.00018213605914,"phone":"(628) 002-2140","sd":"11","ssbd":"10","lsbd":"School Board Lake Mountain 6"},{"vid":"2057624","name":"Cyndi Abshire","party":"Rep","address":"3744 N Summer Way, Eagle Mountain, UT 84005","precinct":"25EM31","hd":"50","v_score":"11.02844566","decile":"9","lat":40.301548853637904,"lng":-112.00614346998697,"phone":"(430) 568-6727","sd":"11","ssbd":"10","lsbd":"School Board Lake Mountain 6"},{"vid":"2059790","name":"Ms. Sky West","party":"Rep","address":"2368 E Cinder Ln, Eagle Mountain, UT 84005","precinct":"25EM31","hd":"50","v_score":"2.315214949","decile":"5","lat":40.3024654587977,"lng":-111.99863072310559,"phone":"(401) 197-5991","sd":"11","ssbd":"10","lsbd":"School Board Lake Mountain 6"},{"vid":"2069857","name":"Takisha Senger","party":"Rep","address":"2020 E Fall St, Eagle Mountain, UT 84005","precinct":"25EM31","hd":"50","v_score":"3.93832808","decile":"6","lat":40.30297765381841,"lng":-112.00526645216559,"phone":"(287) 596-4837","sd":"11","ssbd":"10","lsbd":"School Board Lake Mountain 6"},{"vid":"2075770","name":"Trudi Brakus-Fisher","party":"Rep","address":"2397 E Cinder Ln, Eagle Mountain, UT 84005","precinct":"25EM31","hd":"50","v_score":"17.75698939","decile":"10","lat":40.302876963714745,"lng":-111.99803148877992,"phone":"(290) 181-0693","sd":"11","ssbd":"10","lsbd":"School Board Lake Mountain 6"},{"vid":"2077116","name":"Reece Herzog","party":"","address":"2242 E Woodbury Ln, Eagle Mountain, UT 84005","precinct":"25EM31","hd":"50","v_score":"10.06121514","decile":"9","lat":40.30185319534609,"lng":-112.0010017708411,"phone":"(718) 590-5426","sd":"11","ssbd":"10","lsbd":"School Board Lake Mountain 6"},{"vid":"2085049","name":"Dr. Kelan Lebsack III","party":"","address":"2067 E Easter Dr, Eagle Mountain, UT 84005","precinct":"25EM31","hd":"50","v_score":"0","decile":"1","lat":40.298870217571945,"lng":-112.00436672395129,"phone":"(504) 298-7421","sd":"11","ssbd":"10","lsbd":"School Board Lake Mountain 6"},{"vid":"2088370","name":"Fanny Brakus","party":"","address":"3671 N Summer Way, Eagle Mountain, UT 84005","precinct":"25EM31","hd":"50","v_score":"5.40460374","decile":"7","lat":40.30057822331937,"lng":-112.00655620283646,"phone":"(128) 021-6002","sd":"11","ssbd":"10","lsbd":"School Board Lake Mountain 6"},{"vid":"2101101","name":"Ms. Frieda Gibson DDS","party":"Rep","address":"2159 E Winter Way, Eagle Mountain, UT 84005","precinct":"25EM31","hd":"50","v_score":"0","decile":"1","lat":40.30470468188177,"lng":-112.00253760741458,"phone":"(552) 127-0467","sd":"11","ssbd":"10","lsbd":"School Board Lake Mountain 6"},{"vid":"2112198","name":"Ms. Tisa Rolfson","party":"","address":"2096 E Fall St, Eagle Mountain, UT 84005","precinct":"25EM31","hd":"50","v_score":"15.51131257","decile":"9","lat":40.30297270420586,"lng":-112.00383270162591,"phone":"(528) 850-0915","sd":"11","ssbd":"10","lsbd":"School Board Lake Mountain 6"},{"vid":"2118538","name":"Ms. Amber Morissette PhD","party":"Dem","address":"2036 E Blossom St, Eagle Mountain, UT 84005","precinct":"25EM31","hd":"50","v_score":"0","decile":"1","lat":40.29979285509345,"lng":-112.00504248551648,"phone":"(644) 894-2623","sd":"11","ssbd":"10","lsbd":"School Board Lake Mountain 6"},{"vid":"121a7e0ac0368b4984407b53d4211d196e1d55c1e0211dd27c64fc98b45d5d84","name":"Markel Armstrong","party":"","address":"2006 E Fall St, Eagle Mountain, UT 84005","precinct":"25EM31","hd":"50","v_score":"3.781490609","decile":"6","lat":40.302978636506346,"lng":-112.00555321632316,"phone":"(107) 244-8137","sd":"11","ssbd":"10","lsbd":"School Board Lake Mountain 6"},{"vid":"2145269","name":"Mallorie Halvorson","party":"Dem","address":"1989 E Autumn St, Eagle Mountain, UT 84005","precinct":"25EM31","hd":"50","v_score":"2.587603312","decile":"5","lat":40.30261938954318,"lng":-112.00594275213321,"phone":"(458) 085-3309","sd":"11","ssbd":"10","lsbd":"School Board Lake Mountain 6"},{"vid":"2146527","name":"Rex Harber","party":"Rep","address":"2096 E Fall St, Eagle Mountain, UT 84005","precinct":"25EM31","hd":"50","v_score":"7.227307695","decile":"8","lat":40.30297270420586,"lng":-112.00383270162591,"phone":"(978) 257-1425","sd":"11","ssbd":"10","lsbd":"School Board Lake Mountain 6"},{"vid":"ec934ab645b37c7ee2a4d22fc4a02bcbee769138bdb60e34dbff50760ac4c2d2","name":"Maleah Ernser","party":"Rep","address":"3648 N Partridge Ln, Eagle Mountain, UT 84005","precinct":"25EM31","hd":"50","v_score":"0","decile":"1","lat":40.300116566093074,"lng":-112.00213284850757,"phone":"(862) 178-9425","sd":"11","ssbd":"10","lsbd":"School Board Lake Mountain 6"},{"vid":"6bb2fdd1709140c74aa838d7b72ac949ef750f27b6b57e7035ae76cd5a5a88ae","name":"Ellison Kertzmann","party":"","address":"2134 E Sunrise Dr, Eagle Mountain, UT 84005","precinct":"25EM31","hd":"50","v_score":"5.40460374","decile":"7","lat":40.29909115788292,"lng":-112.00315883754216,"phone":"(235) 187-2183","sd":"11","ssbd":"10","lsbd":"School Board Lake Mountain 6"},{"vid":"2179142","name":"Miss Latosha Streich MD","party":"Dem","address":"2053 E Blossom St, Eagle Mountain, UT 84005","precinct":"25EM31","hd":"50","v_score":"1.193887297","decile":"3","lat":40.30023136317495,"lng":-112.00476253897301,"phone":"(710) 655-2337","sd":"11","ssbd":"10","lsbd":"School Board Lake Mountain 6"},{"vid":"d142ad99d23a8c419194aec0001c1b7ba9707e62a90dd9f012134fee1628dcd8","name":"Bill Larson","party":"Rep","address":"3863 N Summer Way, Eagle Mountain, UT 84005","precinct":"25EM31","hd":"50","v_score":"2.817000428","decile":"6","lat":40.303297690156825,"lng":-112.00628105360897,"phone":"(233) 524-9119","sd":"11","ssbd":"10","lsbd":"School Board Lake Mountain 6"},{"vid":"6e973841532add37cdb291ce4834c22800f9a0ed4ab5b0bae7e89c4af3607341","name":"Isai Bayer DVM","party":"","address":"2001 E Summer Way, Eagle Mountain, UT 84005","precinct":"25EM31","hd":"50","v_score":"2.744440783","decile":"5","lat":40.30487313485457,"lng":-112.00564912922516,"phone":"(330) 955-3151","sd":"11","ssbd":"10","lsbd":"School Board Lake Mountain 6"},{"vid":"27784ee5d61195bf8214f5a6e2aa00e4f041e38fba2bb1b4325977753fc808d4","name":"Shelley Rice-Hauck","party":"Rep","address":"2022 E Blossom St, Eagle Mountain, UT 84005","precinct":"25EM31","hd":"50","v_score":"1.121327652","decile":"3","lat":40.299794574284654,"lng":-112.00531132193602,"phone":"(809) 626-8375","sd":"11","ssbd":"10","lsbd":"School Board Lake Mountain 6"},{"vid":"dc71e0830a1f9fe44a6b9a550c84bc047e5f38276b440d1a74f5c40bb67ee201","name":"Xavier Stoltenberg-Collins","party":"Rep","address":"1998 E Sunrise Dr, Eagle Mountain, UT 84005","precinct":"25EM31","hd":"50","v_score":"1.623113131","decile":"5","lat":40.29918709419241,"lng":-112.00555991705414,"phone":"(718) 559-5097","sd":"11","ssbd":"10","lsbd":"School Board Lake Mountain 6"},{"vid":"5d946e1b270d99fe2f3ece3181395cdb72cc4a461b3e0cb8bae33563878f28af","name":"Mr. Judah Dietrich II","party":"Dem","address":"2129 E Winter Way, Eagle Mountain, UT 84005","precinct":"25EM31","hd":"50","v_score":"3.93832808","decile":"6","lat":40.304878192712444,"lng":-112.00313717676516,"phone":"(928) 127-2859","sd":"11","ssbd":"10","lsbd":"School Board Lake Mountain 6"},{"vid":"c5e7205b9e7e93b9af1c893c83a53ab41176100250a62d76733b627ddcca06c9","name":"Octa Heidenreich","party":"Dem","address":"2129 E Winter Way, Eagle Mountain, UT 84005","precinct":"25EM31","hd":"50","v_score":"3.93832808","decile":"6","lat":40.304878192712444,"lng":-112.00313717676516,"phone":"(386) 654-5010","sd":"11","ssbd":"10","lsbd":"School Board Lake Mountain 6"},{"vid":"2219431","name":"Alek Bergstrom","party":"Dem","address":"3662 N Daffodil Dr, Eagle Mountain, UT 84005","precinct":"25EM31","hd":"50","v_score":"2.315214949","decile":"5","lat":40.30041203852849,"lng":-111.99728530875872,"phone":"(690) 455-9328","sd":"11","ssbd":"10","lsbd":"School Board Lake Mountain 6"},{"vid":"8e8ecd10382829a9f1bcbf4a1986ffff3ad05de46f97ffd87eddb6533297d2b6","name":"Edsel Hayes","party":"","address":"2063 E Shadow Dr, Eagle Mountain, UT 84005","precinct":"25EM31","hd":"50","v_score":"4.499155696","decile":"7","lat":40.300934314781195,"lng":-112.0045385836427,"phone":"(639) 089-2660","sd":"11","ssbd":"10","lsbd":"School Board Lake Mountain 6"},{"vid":"2225674","name":"Dr. Dylan Parisian DVM","party":"","address":"2039 E Easter Dr, Eagle Mountain, UT 84005","precinct":"25EM31","hd":"50","v_score":"0","decile":"1","lat":40.29887352788234,"lng":-112.0048829647844,"phone":"(931) 318-1662","sd":"11","ssbd":"10","lsbd":"School Board Lake Mountain 6"},{"vid":"6dafa6bd9de1dede3195c883e0aeb088bc24cb09a6f7047e9bfc1d3f9e1e4565","name":"Qiana Russel-Ullrich","party":"Rep","address":"3744 N Summer Way, Eagle Mountain, UT 84005","precinct":"25EM31","hd":"50","v_score":"0","decile":"1","lat":40.301548853637904,"lng":-112.00614346998697,"phone":"(243) 284-2319","sd":"11","ssbd":"10","lsbd":"School Board Lake Mountain 6"},{"vid":"2229854","name":"Mercedes Gorczany","party":"","address":"2344 E Spring St, Eagle Mountain, UT 84005","precinct":"25EM31","hd":"50","v_score":"2.315214949","decile":"5","lat":40.3038377259774,"lng":-111.99918337475322,"phone":"(160) 944-2153","sd":"11","ssbd":"10","lsbd":"School Board Lake Mountain 6"},{"vid":"97071053a9e31443185efbcbd7079e053ab4af349c2b230a6f8ff3caeca02de9","name":"Lady Satterfield","party":"","address":"1998 E Sunrise Dr, Eagle Mountain, UT 84005","precinct":"25EM31","hd":"50","v_score":"12.85640681","decile":"9","lat":40.29918709419241,"lng":-112.00555991705414,"phone":"(848) 053-7008","sd":"11","ssbd":"10","lsbd":"School Board Lake Mountain 6"},{"vid":"6deb4ff8356e5fa2db2fb861236732dbdb715eee4ca311bfc86854c7257b9e3b","name":"Lon Ryan","party":"Dem","address":"2033 E Partridge Ln, Eagle Mountain, UT 84005","precinct":"25EM31","hd":"50","v_score":"1.121327652","decile":"3","lat":40.3016053051789,"lng":-112.00503425599025,"phone":"(908) 316-8562","sd":"11","ssbd":"10","lsbd":"School Board Lake Mountain 6"},{"vid":"297e61627c520ea0c4442a0726192a4382d8645e939379b8fd108531fd06ba4a","name":"Marilou Gutmann","party":"","address":"2312 E Woodbury Ln, Eagle Mountain, UT 84005","precinct":"25EM31","hd":"50","v_score":"1.121327652","decile":"3","lat":40.30179266670762,"lng":-111.9997964722397,"phone":"(155) 186-2766","sd":"11","ssbd":"10","lsbd":"School Board Lake Mountain 6"},{"vid":"cefecb1a01b5eb440f33a4632ae4985e69ede4f7422590757f1fae9e89136d21","name":"Marnie Reilly","party":"Rep","address":"3835 N Summer Way, Eagle Mountain, UT 84005","precinct":"25EM31","hd":"50","v_score":"1.121327652","decile":"3","lat":40.303040623726055,"lng":-112.00625917262894,"phone":"(424) 837-1730","sd":"11","ssbd":"10","lsbd":"School Board Lake Mountain 6"},{"vid":"70e9fc050a56f87fe0b5503dd35550aa3b7dc0b44bfb82a8c6b4347e1ff582f1","name":"Add Bailey-Friesen","party":"","address":"2377 E Marigold Dr, Eagle Mountain, UT 84005","precinct":"25EM31","hd":"50","v_score":"0","decile":"1","lat":40.298706593191675,"lng":-111.99856322926469,"phone":"(749) 745-5979","sd":"11","ssbd":"10","lsbd":"School Board Lake Mountain 6"},{"vid":"2259393","name":"Alijah O'Hara","party":"Rep","address":"2145 E Blossom St, Eagle Mountain, UT 84005","precinct":"25EM31","hd":"50","v_score":"4.064235245","decile":"6","lat":40.30021950576421,"lng":-112.00292028818174,"phone":"(909) 070-6827","sd":"11","ssbd":"10","lsbd":"School Board Lake Mountain 6"},{"vid":"9a5b8d7f55519d86f53276278f14e8b8cc181389e060d6837cecf2248b5da61c","name":"Fitzgerald Kuvalis-Gaylord","party":"Dem","address":"2095 E Autumn St, Eagle Mountain, UT 84005","precinct":"25EM31","hd":"50","v_score":"2.817000428","decile":"6","lat":40.30269826198162,"lng":-112.00383433889536,"phone":"(469) 590-0240","sd":"11","ssbd":"10","lsbd":"School Board Lake Mountain 6"},{"vid":"92a6884775214a65823e35cc29eab201c26b96ff5daaf923c9d81d43e7bb2bb2","name":"Nasir Padberg","party":"Rep","address":"2295 E Boxwood Ln, Eagle Mountain, UT 84005","precinct":"25EM31","hd":"50","v_score":"2.315214949","decile":"5","lat":40.30356348169328,"lng":-111.99992554487464,"phone":"(680) 865-7126","sd":"11","ssbd":"10","lsbd":"School Board Lake Mountain 6"},{"vid":"b4210790c4bc945686526777a9f54a519ec7dbd12b70c0355899ac2e9de5abdc","name":"Abigayle Kertzmann","party":"","address":"2079 E Easter Dr, Eagle Mountain, UT 84005","precinct":"25EM31","hd":"50","v_score":"1.121327652","decile":"3","lat":40.29886854825737,"lng":-112.004108620453,"phone":"(579) 203-6795","sd":"11","ssbd":"10","lsbd":"School Board Lake Mountain 6"},{"vid":"d3eb89b214dcdc5d55a28209b954eaf7d97cd114f3c1afe4ea2a492e73803a3b","name":"Dema Green","party":"","address":"1964 E Sunrise Dr, Eagle Mountain, UT 84005","precinct":"25EM31","hd":"50","v_score":"2.315214949","decile":"5","lat":40.299139327966905,"lng":-112.00641122671576,"phone":"(980) 838-9186","sd":"11","ssbd":"10","lsbd":"School Board Lake Mountain 6"},{"vid":"2277541","name":"Mickey Moen MD","party":"","address":"2312 E Woodbury Ln, Eagle Mountain, UT 84005","precinct":"25EM31","hd":"50","v_score":"1.121327652","decile":"3","lat":40.30179266670762,"lng":-111.9997964722397,"phone":"(313) 317-6198","sd":"11","ssbd":"10","lsbd":"School Board Lake Mountain 6"},{"vid":"2279017","name":"Susann Prohaska","party":"Dem","address":"2024 E Shadow Dr, Eagle Mountain, UT 84005","precinct":"25EM31","hd":"50","v_score":"8.211445228","decile":"8","lat":40.300509223713384,"lng":-112.00529714903612,"phone":"(229) 893-3306","sd":"11","ssbd":"10","lsbd":"School Board Lake Mountain 6"},{"vid":"c97e504ce4fc9fe4681cf79455aa41db00f5f9b738073bd03b0e8c91128ac7ab","name":"Miss Olivine Kuvalis DVM","party":"","address":"1976 E Sunrise Dr, Eagle Mountain, UT 84005","precinct":"25EM31","hd":"50","v_score":"0","decile":"1","lat":40.29913772573274,"lng":-112.0061603520504,"phone":"(742) 329-5661","sd":"11","ssbd":"10","lsbd":"School Board Lake Mountain 6"},{"vid":"1c0cbca8328ba5e06a055b131f96b171df1800eed11ac5abaa09aca7382386ec","name":"Dr. Elige Schiller","party":"Dem","address":"2115 E Blossom St, Eagle Mountain, UT 84005","precinct":"25EM31","hd":"50","v_score":"5.191257514","decile":"7","lat":40.30024135983643,"lng":-112.0034708324715,"phone":"(733) 305-1302","sd":"11","ssbd":"10","lsbd":"School Board Lake Mountain 6"},{"vid":"fe6e9a57e3ede0bafe34b6eb8c044df6e1225d35b0809f46ab1785efb391b5e3","name":"Fayette Lemke","party":"Dem","address":"2012 E Summer Way, Eagle Mountain, UT 84005","precinct":"25EM31","hd":"50","v_score":"2.817000428","decile":"6","lat":40.30446676246655,"lng":-112.00540764639958,"phone":"(969) 857-9329","sd":"11","ssbd":"10","lsbd":"School Board Lake Mountain 6"},{"vid":"2300090","name":"Karlie Torp-Hansen","party":"Dem","address":"2052 E Spring St, Eagle Mountain, UT 84005","precinct":"25EM31","hd":"50","v_score":"2.315214949","decile":"5","lat":40.30366167735841,"lng":-112.00466948195374,"phone":"(373) 154-4487","sd":"11","ssbd":"10","lsbd":"School Board Lake Mountain 6"},{"vid":"2300374","name":"Mr. Kenny Blick I","party":"","address":"2145 E Blossom St, Eagle Mountain, UT 84005","precinct":"25EM31","hd":"50","v_score":"6.814370645","decile":"8","lat":40.30021950576421,"lng":-112.00292028818174,"phone":"(684) 863-3397","sd":"11","ssbd":"10","lsbd":"School Board Lake Mountain 6"},{"vid":"2325825","name":"Toni Carroll","party":"Dem","address":"2160 E Autumn St, Eagle Mountain, UT 84005","precinct":"25EM31","hd":"50","v_score":"3.93832808","decile":"6","lat":40.30242357573393,"lng":-112.0025972010574,"phone":"(975) 705-9339","sd":"11","ssbd":"10","lsbd":"School Board Lake Mountain 6"},{"vid":"2333002","name":"Mrs. Tamica Stark MD","party":"Dem","address":"2021 E Blossom St, Eagle Mountain, UT 84005","precinct":"25EM31","hd":"50","v_score":"3.93832808","decile":"6","lat":40.30023480244852,"lng":-112.00530014240232,"phone":"(897) 841-6326","sd":"11","ssbd":"10","lsbd":"School Board Lake Mountain 6"},{"vid":"2333801","name":"Jovany Hettinger V","party":"","address":"3835 N Summer Way, Eagle Mountain, UT 84005","precinct":"25EM31","hd":"50","v_score":"1.121327652","decile":"3","lat":40.303040623726055,"lng":-112.00625917262894,"phone":"(318) 301-0528","sd":"11","ssbd":"10","lsbd":"School Board Lake Mountain 6"},{"vid":"2340648","name":"Ms. Donie Rohan","party":"Rep","address":"2079 E Fall St, Eagle Mountain, UT 84005","precinct":"25EM31","hd":"50","v_score":"5.429380732","decile":"7","lat":40.30338529051829,"lng":-112.00410442978227,"phone":"(705) 546-6052","sd":"11","ssbd":"10","lsbd":"School Board Lake Mountain 6"},{"vid":"2346044","name":"Wong McDermott-Rogahn","party":"Rep","address":"2001 E Summer Way, Eagle Mountain, UT 84005","precinct":"25EM31","hd":"50","v_score":"0","decile":"1","lat":40.30487313485457,"lng":-112.00564912922516,"phone":"(651) 319-7235","sd":"11","ssbd":"10","lsbd":"School Board Lake Mountain 6"},{"vid":"2364342","name":"Janel Cummerata PhD","party":"Dem","address":"3566 N Easter Dr, Eagle Mountain, UT 84005","precinct":"25EM31","hd":"50","v_score":"2.315214949","decile":"5","lat":40.299041590154246,"lng":-112.00220813568812,"phone":"(163) 110-4901","sd":"11","ssbd":"10","lsbd":"School Board Lake Mountain 6"},{"vid":"2365016","name":"Sherwin Bechtelar","party":"Rep","address":"2156 E Easter Dr, Eagle Mountain, UT 84005","precinct":"25EM31","hd":"50","v_score":"0","decile":"1","lat":40.29857714773476,"lng":-112.00261956601021,"phone":"(806) 504-9423","sd":"11","ssbd":"10","lsbd":"School Board Lake Mountain 6"},{"vid":"2371105","name":"Dr. Barron Witting","party":"","address":"3919 N Chapman Dr, Eagle Mountain, UT 84005","precinct":"25EM31","hd":"50","v_score":"2.315214949","decile":"5","lat":40.30420935601924,"lng":-112.00129286069776,"phone":"(896) 201-5093","sd":"11","ssbd":"10","lsbd":"School Board Lake Mountain 6"},{"vid":"2373150","name":"Rashad Bartell","party":"","address":"3906 N Dateman Dr, Eagle Mountain, UT 84005","precinct":"25EM31","hd":"50","v_score":"3.93832808","decile":"6","lat":40.304008447946224,"lng":-111.99721209911733,"phone":"(679) 220-7457","sd":"11","ssbd":"10","lsbd":"School Board Lake Mountain 6"},{"vid":"2387448","name":"Cosmo Durgan","party":"","address":"2027 E Easter Dr, Eagle Mountain, UT 84005","precinct":"25EM31","hd":"50","v_score":"2.315214949","decile":"5","lat":40.298784787152975,"lng":-112.00525092779552,"phone":"(120) 934-9306","sd":"11","ssbd":"10","lsbd":"School Board Lake Mountain 6"},{"vid":"2399237","name":"Menachem Mraz","party":"Rep","address":"2052 E Easter Dr, Eagle Mountain, UT 84005","precinct":"25EM31","hd":"50","v_score":"3.93832808","decile":"6","lat":40.29843682912387,"lng":-112.00468572061948,"phone":"(760) 773-8073","sd":"11","ssbd":"10","lsbd":"School Board Lake Mountain 6"},{"vid":"2405751","name":"Elton Balistreri PhD","party":"","address":"3803 N Summer Way, Eagle Mountain, UT 84005","precinct":"25EM31","hd":"50","v_score":"1.121327652","decile":"3","lat":40.30250875712194,"lng":-112.00637717373932,"phone":"(204) 240-5463","sd":"11","ssbd":"10","lsbd":"School Board Lake Mountain 6"},{"vid":"2408469","name":"Isreal Ratke-Cummerata","party":"Dem","address":"2052 E Easter Dr, Eagle Mountain, UT 84005","precinct":"25EM31","hd":"50","v_score":"2.315214949","decile":"5","lat":40.29843682912387,"lng":-112.00468572061948,"phone":"(930) 187-8330","sd":"11","ssbd":"10","lsbd":"School Board Lake Mountain 6"},{"vid":"2412053","name":"Clement Watsica I","party":"Dem","address":"2038 E Shadow Dr, Eagle Mountain, UT 84005","precinct":"25EM31","hd":"50","v_score":"18.77764457","decile":"10","lat":40.30050752696634,"lng":-112.00503193204864,"phone":"(241) 937-6648","sd":"11","ssbd":"10","lsbd":"School Board Lake Mountain 6"},{"vid":"2423007","name":"Edmonia Considine DDS","party":"Dem","address":"2033 E Partridge Ln, Eagle Mountain, UT 84005","precinct":"25EM31","hd":"50","v_score":"1.121327652","decile":"3","lat":40.3016053051789,"lng":-112.00503425599025,"phone":"(704) 553-1282","sd":"11","ssbd":"10","lsbd":"School Board Lake Mountain 6"},{"vid":"2423896","name":"Elby Mohr-Mitchell","party":"","address":"3566 N Easter Dr, Eagle Mountain, UT 84005","precinct":"25EM31","hd":"50","v_score":"1.121327652","decile":"3","lat":40.299041590154246,"lng":-112.00220813568812,"phone":"(615) 806-8491","sd":"11","ssbd":"10","lsbd":"School Board Lake Mountain 6"},{"vid":"2424835","name":"Teresa Bergnaum","party":"Rep","address":"2397 E Cinder Ln, Eagle Mountain, UT 84005","precinct":"25EM31","hd":"50","v_score":"22.48959706","decile":"10","lat":40.302876963714745,"lng":-111.99803148877992,"phone":"(759) 150-2352","sd":"11","ssbd":"10","lsbd":"School Board Lake Mountain 6"},{"vid":"2434465","name":"Mrs. Essence Bosco DDS","party":"Rep","address":"2066 E Spring St, Eagle Mountain, UT 84005","precinct":"25EM31","hd":"50","v_score":"1.121327652","decile":"3","lat":40.30366069331024,"lng":-112.00438267880929,"phone":"(967) 507-7867","sd":"11","ssbd":"10","lsbd":"School Board Lake Mountain 6"},{"vid":"2455320","name":"Jefferson Rosenbaum","party":"","address":"3671 N Summer Way, Eagle Mountain, UT 84005","precinct":"25EM31","hd":"50","v_score":"2.315214949","decile":"5","lat":40.30057822331937,"lng":-112.00655620283646,"phone":"(628) 527-0845","sd":"11","ssbd":"10","lsbd":"School Board Lake Mountain 6"},{"vid":"2455329","name":"Mr. Mcarthur Lang IV","party":"","address":"3671 N Summer Way, Eagle Mountain, UT 84005","precinct":"25EM31","hd":"50","v_score":"2.315214949","decile":"5","lat":40.30057822331937,"lng":-112.00655620283646,"phone":"(139) 162-6854","sd":"11","ssbd":"10","lsbd":"School Board Lake Mountain 6"},{"vid":"2457639","name":"Ovila Green","party":"","address":"2161 E Sunrise Dr, Eagle Mountain, UT 84005","precinct":"25EM31","hd":"50","v_score":"6.814370645","decile":"8","lat":40.29943992433619,"lng":-112.00253748697175,"phone":"(753) 933-7296","sd":"11","ssbd":"10","lsbd":"School Board Lake Mountain 6"},{"vid":"2474518","name":"Lia Predovic","party":"","address":"2159 E Winter Way, Eagle Mountain, UT 84005","precinct":"25EM31","hd":"50","v_score":"0","decile":"1","lat":40.30470468188177,"lng":-112.00253760741458,"phone":"(509) 856-4807","sd":"11","ssbd":"10","lsbd":"School Board Lake Mountain 6"},{"vid":"2484161","name":"Dr. Delaney Gleichner DDS","party":"","address":"3566 N Easter Dr, Eagle Mountain, UT 84005","precinct":"25EM31","hd":"50","v_score":"0","decile":"1","lat":40.299041590154246,"lng":-112.00220813568812,"phone":"(510) 734-9853","sd":"11","ssbd":"10","lsbd":"School Board Lake Mountain 6"},{"vid":"2485230","name":"Sky Wiegand","party":"","address":"2065 E Autumn St, Eagle Mountain, UT 84005","precinct":"25EM31","hd":"50","v_score":"0","decile":"1","lat":40.30270026079798,"lng":-112.0044078298406,"phone":"(231) 325-1146","sd":"11","ssbd":"10","lsbd":"School Board Lake Mountain 6"},{"vid":"2489213","name":"Jordan Durgan","party":"","address":"2055 E Sunrise Dr, Eagle Mountain, UT 84005","precinct":"25EM31","hd":"50","v_score":"0","decile":"1","lat":40.29955962543511,"lng":-112.0046390873064,"phone":"(762) 171-1090","sd":"11","ssbd":"10","lsbd":"School Board Lake Mountain 6"},{"vid":"2491703","name":"Ms. Audra Bergstrom","party":"Rep","address":"3866 N Dateman Dr, Eagle Mountain, UT 84005","precinct":"25EM31","hd":"50","v_score":"1.193887297","decile":"3","lat":40.30342795057884,"lng":-111.99712274962489,"phone":"(157) 397-0017","sd":"11","ssbd":"10","lsbd":"School Board Lake Mountain 6"},{"vid":"2505905","name":"Okey Lebsack","party":"Rep","address":"3744 N Summer Way, Eagle Mountain, UT 84005","precinct":"25EM31","hd":"50","v_score":"1.193887297","decile":"3","lat":40.301548853637904,"lng":-112.00614346998697,"phone":"(349) 858-0106","sd":"11","ssbd":"10","lsbd":"School Board Lake Mountain 6"},{"vid":"2514300","name":"Dr. Sadie Schroeder DVM","party":"Dem","address":"2019 E Spring St, Eagle Mountain, UT 84005","precinct":"25EM31","hd":"50","v_score":"0","decile":"1","lat":40.30412637292509,"lng":-112.0052693164567,"phone":"(200) 705-7248","sd":"11","ssbd":"10","lsbd":"School Board Lake Mountain 6"},{"vid":"2519828","name":"Jami Mohr","party":"","address":"2007 E Blossom St, Eagle Mountain, UT 84005","precinct":"25EM31","hd":"50","v_score":"1.193887297","decile":"4","lat":40.30025492235516,"lng":-112.00558550767342,"phone":"(326) 780-8568","sd":"11","ssbd":"10","lsbd":"School Board Lake Mountain 6"},{"vid":"2527486","name":"Landon Wyman","party":"Rep","address":"3919 N Chapman Dr, Eagle Mountain, UT 84005","precinct":"25EM31","hd":"50","v_score":"0","decile":"1","lat":40.30420935601924,"lng":-112.00129286069776,"phone":"(437) 490-8369","sd":"11","ssbd":"10","lsbd":"School Board Lake Mountain 6"},{"vid":"2527906","name":"Donta Miller","party":"Dem","address":"2131 E Partridge Ln, Eagle Mountain, UT 84005","precinct":"25EM31","hd":"50","v_score":"18.35167816","decile":"10","lat":40.3015935716014,"lng":-112.00320630494099,"phone":"(623) 639-4203","sd":"11","ssbd":"10","lsbd":"School Board Lake Mountain 6"},{"vid":"2528785","name":"Mohammed Corkery","party":"Dem","address":"2131 E Partridge Ln, Eagle Mountain, UT 84005","precinct":"25EM31","hd":"50","v_score":"18.35167816","decile":"10","lat":40.3015935716014,"lng":-112.00320630494099,"phone":"(464) 835-3234","sd":"11","ssbd":"10","lsbd":"School Board Lake Mountain 6"},{"vid":"2534678","name":"Neppie Bailey","party":"Rep","address":"2145 E Autumn St, Eagle Mountain, UT 84005","precinct":"25EM31","hd":"50","v_score":"0","decile":"1","lat":40.3026204501173,"lng":-112.00285930369044,"phone":"(427) 266-4860","sd":"11","ssbd":"10","lsbd":"School Board Lake Mountain 6"},{"vid":"2541566","name":"Sheree Fay-Mante","party":"","address":"2076 E Partridge Ln, Eagle Mountain, UT 84005","precinct":"25EM31","hd":"50","v_score":"2.817000428","decile":"6","lat":40.301160933342445,"lng":-112.00421348244305,"phone":"(149) 498-1378","sd":"11","ssbd":"10","lsbd":"School Board Lake Mountain 6"},{"vid":"2544588","name":"Rubin Kihn IV","party":"","address":"3835 N Summer Way, Eagle Mountain, UT 84005","precinct":"25EM31","hd":"50","v_score":"0","decile":"1","lat":40.303040623726055,"lng":-112.00625917262894,"phone":"(845) 719-9904","sd":"11","ssbd":"10","lsbd":"School Board Lake Mountain 6"},{"vid":"2563434","name":"Christiana Parker","party":"","address":"2040 E Sunrise Dr, Eagle Mountain, UT 84005","precinct":"25EM31","hd":"50","v_score":"0","decile":"1","lat":40.299129834047314,"lng":-112.0049081134801,"phone":"(911) 503-8520","sd":"11","ssbd":"10","lsbd":"School Board Lake Mountain 6"},{"vid":"2589580","name":"Colter Renner","party":"","address":"2094 E Sunrise Dr, Eagle Mountain, UT 84005","precinct":"25EM31","hd":"50","v_score":"0","decile":"1","lat":40.299096037919874,"lng":-112.00391582193065,"phone":"(436) 075-4553","sd":"11","ssbd":"10","lsbd":"School Board Lake Mountain 6"},{"vid":"2598985","name":"Lane Mohr","party":"Dem","address":"3936 N Summer Way, Eagle Mountain, UT 84005","precinct":"25EM31","hd":"50","v_score":"0","decile":"1","lat":40.30442790449338,"lng":-112.00580482803387,"phone":"(309) 074-5498","sd":"11","ssbd":"10","lsbd":"School Board Lake Mountain 6"},{"vid":"2616796","name":"Elwin Rau Sr.","party":"","address":"2121 E Sunrise Dr, Eagle Mountain, UT 84005","precinct":"25EM31","hd":"50","v_score":"0","decile":"1","lat":40.299551485967754,"lng":-112.00337272117115,"phone":"(917) 568-0255","sd":"11","ssbd":"10","lsbd":"School Board Lake Mountain 6"},{"vid":"2619532","name":"Che Wilkinson-Heathcote","party":"","address":"3802 N Winter Way, Eagle Mountain, UT 84005","precinct":"25EM31","hd":"50","v_score":"4.069929862","decile":"6","lat":40.30253557501598,"lng":-112.00227035030747,"phone":"(104) 827-1209","sd":"11","ssbd":"10","lsbd":"School Board Lake Mountain 6"},{"vid":"2624429","name":"Miss Ethelene McCullough","party":"Dem","address":"2065 E Autumn St, Eagle Mountain, UT 84005","precinct":"25EM31","hd":"50","v_score":"4.069929862","decile":"6","lat":40.30270026079798,"lng":-112.0044078298406,"phone":"(717) 122-8430","sd":"11","ssbd":"10","lsbd":"School Board Lake Mountain 6"},{"vid":"2625071","name":"Deetta McLaughlin","party":"","address":"2029 E Sunrise Dr, Eagle Mountain, UT 84005","precinct":"25EM31","hd":"50","v_score":"0","decile":"1","lat":40.299562835455646,"lng":-112.00514087544433,"phone":"(295) 249-2128","sd":"11","ssbd":"10","lsbd":"School Board Lake Mountain 6"},{"vid":"2650126","name":"Dr. Cortez Roberts DDS","party":"Dem","address":"2324 E Spring St, Eagle Mountain, UT 84005","precinct":"25EM31","hd":"50","v_score":"1.193887297","decile":"4","lat":40.30383777872837,"lng":-111.9994342551678,"phone":"(685) 084-0027","sd":"11","ssbd":"10","lsbd":"School Board Lake Mountain 6"},{"vid":"2652202","name":"Dr. Adline Toy","party":"","address":"3908 N Winter Way, Eagle Mountain, UT 84005","precinct":"25EM31","hd":"50","v_score":"16.72856503","decile":"9","lat":40.30396473101758,"lng":-112.00216160028053,"phone":"(452) 563-4769","sd":"11","ssbd":"10","lsbd":"School Board Lake Mountain 6"},{"vid":"2658162","name":"Dr. Sherrie Dickinson","party":"Rep","address":"2022 E Blossom St, Eagle Mountain, UT 84005","precinct":"25EM31","hd":"50","v_score":"1.193887297","decile":"4","lat":40.299794574284654,"lng":-112.00531132193602,"phone":"(764) 789-1875","sd":"11","ssbd":"10","lsbd":"School Board Lake Mountain 6"},{"vid":"2674975","name":"Dr. Delmus Satterfield","party":"Rep","address":"3582 N Easter Dr, Eagle Mountain, UT 84005","precinct":"25EM31","hd":"50","v_score":"1.193887297","decile":"4","lat":40.29924504382115,"lng":-112.00206299446506,"phone":"(603) 709-6775","sd":"11","ssbd":"10","lsbd":"School Board Lake Mountain 6"},{"vid":"2677028","name":"Cailyn Bernier","party":"","address":"2316 E Boxwood Ln, Eagle Mountain, UT 84005","precinct":"25EM31","hd":"50","v_score":"1.193887297","decile":"4","lat":40.303151790778614,"lng":-111.99968020149585,"phone":"(576) 500-2946","sd":"11","ssbd":"10","lsbd":"School Board Lake Mountain 6"},{"vid":"2685452","name":"Mr. Hamilton Wilkinson MD","party":"Rep","address":"2108 E Shadow Dr, Eagle Mountain, UT 84005","precinct":"25EM31","hd":"50","v_score":"0","decile":"2","lat":40.30047142203894,"lng":-112.00368337102307,"phone":"(390) 648-7614","sd":"11","ssbd":"10","lsbd":"School Board Lake Mountain 6"},{"vid":"2685476","name":"Madden Kunze III","party":"Dem","address":"2108 E Shadow Dr, Eagle Mountain, UT 84005","precinct":"25EM31","hd":"50","v_score":"0","decile":"2","lat":40.30047142203894,"lng":-112.00368337102307,"phone":"(535) 106-7583","sd":"11","ssbd":"10","lsbd":"School Board Lake Mountain 6"},{"vid":"2686333","name":"Shanice Sporer","party":"","address":"2012 E Summer Way, Eagle Mountain, UT 84005","precinct":"25EM31","hd":"50","v_score":"0","decile":"2","lat":40.30446676246655,"lng":-112.00540764639958,"phone":"(953) 820-4007","sd":"11","ssbd":"10","lsbd":"School Board Lake Mountain 6"},{"vid":"2687023","name":"Cap Hand","party":"Dem","address":"2040 E Sunrise Dr, Eagle Mountain, UT 84005","precinct":"25EM31","hd":"50","v_score":"0","decile":"2","lat":40.299129834047314,"lng":-112.0049081134801,"phone":"(299) 767-0813","sd":"11","ssbd":"10","lsbd":"School Board Lake Mountain 6"},{"vid":"2689467","name":"Elwood Howell-Schuster","party":"Dem","address":"2092 E Partridge Ln, Eagle Mountain, UT 84005","precinct":"25EM31","hd":"50","v_score":"13.85252246","decile":"9","lat":40.301186777182146,"lng":-112.00396349004308,"phone":"(372) 967-9131","sd":"11","ssbd":"10","lsbd":"School Board Lake Mountain 6"},{"vid":"2693087","name":"Mr. Hughes Legros","party":"Rep","address":"3879 N Summer Way, Eagle Mountain, UT 84005","precinct":"25EM31","hd":"50","v_score":"1.193887297","decile":"4","lat":40.30362223923113,"lng":-112.00636162377418,"phone":"(685) 340-0751","sd":"11","ssbd":"10","lsbd":"School Board Lake Mountain 6"},{"vid":"2700210","name":"Anabel Balistreri","party":"Dem","address":"2252 E Woodbury Ln, Eagle Mountain, UT 84005","precinct":"25EM31","hd":"50","v_score":"16.72856503","decile":"9","lat":40.301914803442514,"lng":-112.00080090451361,"phone":"(292) 907-5291","sd":"11","ssbd":"10","lsbd":"School Board Lake Mountain 6"},{"vid":"2703439","name":"Reino Batz II","party":"Rep","address":"2102 E Blossom St, Eagle Mountain, UT 84005","precinct":"25EM31","hd":"50","v_score":"2.876042565","decile":"6","lat":40.29978444206346,"lng":-112.00372831987524,"phone":"(186) 598-4656","sd":"11","ssbd":"10","lsbd":"School Board Lake Mountain 6"},{"vid":"2711636","name":"Edwardo Lebsack","party":"Dem","address":"1985 E Blossom St, Eagle Mountain, UT 84005","precinct":"25EM31","hd":"50","v_score":"1.193887297","decile":"4","lat":40.300153531077754,"lng":-112.0061934292657,"phone":"(321) 810-8701","sd":"11","ssbd":"10","lsbd":"School Board Lake Mountain 6"},{"vid":"2712622","name":"Dr. Alton Rutherford III","party":"","address":"2148 E Sunrise Dr, Eagle Mountain, UT 84005","precinct":"25EM31","hd":"50","v_score":"11.99595736","decile":"9","lat":40.29908953950151,"lng":-112.00290652323673,"phone":"(161) 411-9703","sd":"11","ssbd":"10","lsbd":"School Board Lake Mountain 6"},{"vid":"2723357","name":"Julious Hegmann","party":"","address":"2125 E Fall St, Eagle Mountain, UT 84005","precinct":"25EM31","hd":"50","v_score":"1.193887297","decile":"4","lat":40.30338230451859,"lng":-112.00324395225658,"phone":"(451) 464-5603","sd":"11","ssbd":"10","lsbd":"School Board Lake Mountain 6"},{"vid":"2725225","name":"Johanna Gottlieb","party":"","address":"2110 E Spring St, Eagle Mountain, UT 84005","precinct":"25EM31","hd":"50","v_score":"1.193887297","decile":"4","lat":40.303657708418804,"lng":-112.00352219769032,"phone":"(891) 306-8627","sd":"11","ssbd":"10","lsbd":"School Board Lake Mountain 6"},{"vid":"2728383","name":"Flo Morar","party":"Rep","address":"2076 E Partridge Ln, Eagle Mountain, UT 84005","precinct":"25EM31","hd":"50","v_score":"0","decile":"2","lat":40.301160933342445,"lng":-112.00421348244305,"phone":"(285) 558-1293","sd":"11","ssbd":"10","lsbd":"School Board Lake Mountain 6"},{"vid":"2729409","name":"Dr. Salomon Heathcote IV","party":"Dem","address":"2130 E Winter Way, Eagle Mountain, UT 84005","precinct":"25EM31","hd":"50","v_score":"0","decile":"2","lat":40.30443216670967,"lng":-112.0030868676871,"phone":"(245) 464-3561","sd":"11","ssbd":"10","lsbd":"School Board Lake Mountain 6"},{"vid":"2750296","name":"Jan Kiehn","party":"Dem","address":"3879 N Summer Way, Eagle Mountain, UT 84005","precinct":"25EM31","hd":"50","v_score":"0","decile":"2","lat":40.30362223923113,"lng":-112.00636162377418,"phone":"(788) 770-4797","sd":"11","ssbd":"10","lsbd":"School Board Lake Mountain 6"},{"vid":"2751478","name":"Christ Gulgowski","party":"Rep","address":"2035 E Spring St, Eagle Mountain, UT 84005","precinct":"25EM31","hd":"50","v_score":"1.193887297","decile":"4","lat":40.304110936215075,"lng":-112.00495982134628,"phone":"(870) 082-4317","sd":"11","ssbd":"10","lsbd":"School Board Lake Mountain 6"},{"vid":"2755341","name":"Mr. Hugh Schimmel","party":"","address":"3936 N Summer Way, Eagle Mountain, UT 84005","precinct":"25EM31","hd":"50","v_score":"0","decile":"2","lat":40.30442790449338,"lng":-112.00580482803387,"phone":"(943) 584-6031","sd":"11","ssbd":"10","lsbd":"School Board Lake Mountain 6"},{"vid":"2757959","name":"Haiden Hessel","party":"","address":"2159 E Blossom St, Eagle Mountain, UT 84005","precinct":"25EM31","hd":"50","v_score":"5.407962308","decile":"7","lat":40.30013017699155,"lng":-112.00253600882812,"phone":"(703) 323-3966","sd":"11","ssbd":"10","lsbd":"School Board Lake Mountain 6"},{"vid":"2774977","name":"Frances Kuphal","party":"Dem","address":"3692 N Partridge Ln, Eagle Mountain, UT 84005","precinct":"25EM31","hd":"50","v_score":"1.193887297","decile":"4","lat":40.30089464924425,"lng":-112.00214373812987,"phone":"(165) 213-4426","sd":"11","ssbd":"10","lsbd":"School Board Lake Mountain 6"},{"vid":"2780173","name":"Dr. Woody O'Connell","party":"","address":"2348 E Cinder Ln, Eagle Mountain, UT 84005","precinct":"25EM31","hd":"50","v_score":"1.193887297","decile":"4","lat":40.30246558663579,"lng":-111.99915903490059,"phone":"(587) 970-8703","sd":"11","ssbd":"10","lsbd":"School Board Lake Mountain 6"},{"vid":"2783341","name":"Dr. Lavon Willms Jr.","party":"Dem","address":"2156 E Easter Dr, Eagle Mountain, UT 84005","precinct":"25EM31","hd":"50","v_score":"0","decile":"2","lat":40.29857714773476,"lng":-112.00261956601021,"phone":"(994) 610-1619","sd":"11","ssbd":"10","lsbd":"School Board Lake Mountain 6"},{"vid":"2784470","name":"Dr. Conway Schowalter","party":"Rep","address":"2017 E Summer Way, Eagle Mountain, UT 84005","precinct":"25EM31","hd":"50","v_score":"1.193887297","decile":"4","lat":40.30492203729244,"lng":-112.00526042195473,"phone":"(643) 660-7894","sd":"11","ssbd":"10","lsbd":"School Board Lake Mountain 6"},{"vid":"2792254","name":"Kanisha Hirthe DDS","party":"","address":"2323 E Spring St, Eagle Mountain, UT 84005","precinct":"25EM31","hd":"50","v_score":"1.193887297","decile":"4","lat":40.30424943545612,"lng":-111.99944086353433,"phone":"(634) 905-0826","sd":"11","ssbd":"10","lsbd":"School Board Lake Mountain 6"},{"vid":"2792762","name":"Montel Metz","party":"","address":"2273 E Spring St, Eagle Mountain, UT 84005","precinct":"25EM31","hd":"50","v_score":"8.284004873","decile":"8","lat":40.30413097097905,"lng":-112.00050965912621,"phone":"(842) 958-5745","sd":"11","ssbd":"10","lsbd":"School Board Lake Mountain 6"},{"vid":"2792843","name":"Dicy Kshlerin DDS","party":"Rep","address":"2118 E Easter Dr, Eagle Mountain, UT 84005","precinct":"25EM31","hd":"50","v_score":"0","decile":"2","lat":40.298428794711945,"lng":-112.00343132393651,"phone":"(473) 267-2505","sd":"11","ssbd":"10","lsbd":"School Board Lake Mountain 6"},{"vid":"2795173","name":"Esker Blick","party":"Rep","address":"2299 E Woodbury Ln, Eagle Mountain, UT 84005","precinct":"25EM31","hd":"50","v_score":"0","decile":"2","lat":40.30219134198787,"lng":-111.99991741224673,"phone":"(447) 348-5370","sd":"11","ssbd":"10","lsbd":"School Board Lake Mountain 6"},{"vid":"2795571","name":"Sage Jaskolski","party":"Rep","address":"2156 E Easter Dr, Eagle Mountain, UT 84005","precinct":"25EM31","hd":"50","v_score":"0","decile":"2","lat":40.29857714773476,"lng":-112.00261956601021,"phone":"(378) 708-9492","sd":"11","ssbd":"10","lsbd":"School Board Lake Mountain 6"},{"vid":"2811593","name":"Gigi Emard","party":"Dem","address":"3692 N Partridge Ln, Eagle Mountain, UT 84005","precinct":"25EM31","hd":"50","v_score":"1.193887297","decile":"4","lat":40.30089464924425,"lng":-112.00214373812987,"phone":"(596) 482-8870","sd":"11","ssbd":"10","lsbd":"School Board Lake Mountain 6"},{"vid":"2816904","name":"Kylah Schroeder","party":"Rep","address":"2096 E Autumn St, Eagle Mountain, UT 84005","precinct":"25EM31","hd":"50","v_score":"1.193887297","decile":"4","lat":40.30227959592719,"lng":-112.00382387963081,"phone":"(105) 654-7791","sd":"11","ssbd":"10","lsbd":"School Board Lake Mountain 6"},{"vid":"2818245","name":"Mrs. Yamilex Marquardt PhD","party":"Rep","address":"2063 E Shadow Dr, Eagle Mountain, UT 84005","precinct":"25EM31","hd":"50","v_score":"1.193887297","decile":"4","lat":40.300934314781195,"lng":-112.0045385836427,"phone":"(374) 224-8513","sd":"11","ssbd":"10","lsbd":"School Board Lake Mountain 6"},{"vid":"2830892","name":"Shad Reinger-Little","party":"","address":"2273 E Spring St, Eagle Mountain, UT 84005","precinct":"25EM31","hd":"50","v_score":"8.284004873","decile":"8","lat":40.30413097097905,"lng":-112.00050965912621,"phone":"(992) 228-1371","sd":"11","ssbd":"10","lsbd":"School Board Lake Mountain 6"},{"vid":"2856816","name":"Mr. Amare Breitenberg Jr.","party":"","address":"2005 E Autumn St, Eagle Mountain, UT 84005","precinct":"25EM31","hd":"50","v_score":"4.069929862","decile":"7","lat":40.302704221709796,"lng":-112.00555481029379,"phone":"(866) 753-1742","sd":"11","ssbd":"10","lsbd":"School Board Lake Mountain 6"},{"vid":"2899390","name":"Chrissy Schuppe-Rempel","party":"","address":"2005 E Fall St, Eagle Mountain, UT 84005","precinct":"25EM31","hd":"50","v_score":"0","decile":"2","lat":40.30339023612716,"lng":-112.0055385471939,"phone":"(296) 032-4692","sd":"11","ssbd":"10","lsbd":"School Board Lake Mountain 6"},{"vid":"2908183","name":"Flem Spinka","party":"Rep","address":"2092 E Partridge Ln, Eagle Mountain, UT 84005","precinct":"25EM31","hd":"50","v_score":"7.090117576","decile":"8","lat":40.301186777182146,"lng":-112.00396349004308,"phone":"(689) 271-9941","sd":"11","ssbd":"10","lsbd":"School Board Lake Mountain 6"},{"vid":"2912217","name":"Leonidas Yost-Gorczany","party":"","address":"2286 E Boxwood Ln, Eagle Mountain, UT 84005","precinct":"25EM31","hd":"50","v_score":"0","decile":"2","lat":40.30315191286072,"lng":-112.00023938191929,"phone":"(378) 705-5296","sd":"11","ssbd":"10","lsbd":"School Board Lake Mountain 6"},{"vid":"2915951","name":"Yessenia Lakin","party":"","address":"2077 E Shadow Dr, Eagle Mountain, UT 84005","precinct":"25EM31","hd":"50","v_score":"0","decile":"2","lat":40.300914191468664,"lng":-112.00425325133976,"phone":"(571) 883-1811","sd":"11","ssbd":"10","lsbd":"School Board Lake Mountain 6"},{"vid":"2917280","name":"Gillian Christiansen PhD","party":"","address":"2022 E Blossom St, Eagle Mountain, UT 84005","precinct":"25EM31","hd":"50","v_score":"0","decile":"2","lat":40.299794574284654,"lng":-112.00531132193602,"phone":"(359) 793-6522","sd":"11","ssbd":"10","lsbd":"School Board Lake Mountain 6"},{"vid":"2925230","name":"Cohen Lubowitz-Daniel","party":"","address":"1984 E Shadow Dr, Eagle Mountain, UT 84005","precinct":"25EM31","hd":"50","v_score":"4.214075011","decile":"7","lat":40.300567699082016,"lng":-112.00616385390202,"phone":"(707) 733-3286","sd":"11","ssbd":"10","lsbd":"School Board Lake Mountain 6"},{"vid":"2925870","name":"Mr. Burke Nicolas","party":"Dem","address":"2105 E Shadow Dr, Eagle Mountain, UT 84005","precinct":"25EM31","hd":"50","v_score":"0","decile":"2","lat":40.30091074798204,"lng":-112.00371560820493,"phone":"(395) 082-9732","sd":"11","ssbd":"10","lsbd":"School Board Lake Mountain 6"},{"vid":"2944771","name":"Ambrose Glover","party":"Dem","address":"2387 E Cinder Ln, Eagle Mountain, UT 84005","precinct":"25EM31","hd":"50","v_score":"0","decile":"2","lat":40.302877029757184,"lng":-111.99831104216072,"phone":"(192) 631-2141","sd":"11","ssbd":"10","lsbd":"School Board Lake Mountain 6"},{"vid":"2944814","name":"Kylie Waters DDS","party":"","address":"2346 E Boxwood Ln, Eagle Mountain, UT 84005","precinct":"25EM31","hd":"50","v_score":"0","decile":"2","lat":40.303151656227996,"lng":-111.99917120491673,"phone":"(331) 581-6627","sd":"11","ssbd":"10","lsbd":"School Board Lake Mountain 6"},{"vid":"2945669","name":"Deliah Gottlieb","party":"Rep","address":"2294 E Spring St, Eagle Mountain, UT 84005","precinct":"25EM31","hd":"50","v_score":"0","decile":"2","lat":40.30388442507737,"lng":-111.99997766857452,"phone":"(227) 714-5417","sd":"11","ssbd":"10","lsbd":"School Board Lake Mountain 6"},{"vid":"2949190","name":"Ms. Kristian Koss DDS","party":"Rep","address":"3698 N Summer Way, Eagle Mountain, UT 84005","precinct":"25EM31","hd":"50","v_score":"7.090117576","decile":"8","lat":40.300839419421756,"lng":-112.00616073169078,"phone":"(834) 278-0268","sd":"11","ssbd":"10","lsbd":"School Board Lake Mountain 6"},{"vid":"2953461","name":"Orvil Schuppe-Grady","party":"","address":"2158 E Shadow Dr, Eagle Mountain, UT 84005","precinct":"25EM31","hd":"50","v_score":"0","decile":"2","lat":40.300544549898284,"lng":-112.00253145234963,"phone":"(848) 031-5570","sd":"11","ssbd":"10","lsbd":"School Board Lake Mountain 6"},{"vid":"2962898","name":"Mrs. Eboni Homenick","party":"","address":"3635 N Summer Way, Eagle Mountain, UT 84005","precinct":"25EM31","hd":"50","v_score":"0","decile":"2","lat":40.300041603124434,"lng":-112.00664149899919,"phone":"(953) 663-8144","sd":"11","ssbd":"10","lsbd":"School Board Lake Mountain 6"},{"vid":"2963083","name":"Mr. Ellison Larkin Sr.","party":"","address":"1985 E Blossom St, Eagle Mountain, UT 84005","precinct":"25EM31","hd":"50","v_score":"2.876042565","decile":"6","lat":40.300153531077754,"lng":-112.0061934292657,"phone":"(104) 719-5693","sd":"11","ssbd":"10","lsbd":"School Board Lake Mountain 6"},{"vid":"2984127","name":"Shaquan McClure-Wilkinson","party":"","address":"1964 E Sunrise Dr, Eagle Mountain, UT 84005","precinct":"25EM31","hd":"50","v_score":"0","decile":"2","lat":40.299139327966905,"lng":-112.00641122671576,"phone":"(504) 816-2457","sd":"11","ssbd":"10","lsbd":"School Board Lake Mountain 6"},{"vid":"3012453","name":"Saniya Cole-Marvin","party":"Dem","address":"1991 E Shadow Dr, Eagle Mountain, UT 84005","precinct":"25EM31","hd":"50","v_score":"12.49472132","decile":"9","lat":40.30092430639276,"lng":-112.00583026825522,"phone":"(626) 221-2370","sd":"11","ssbd":"10","lsbd":"School Board Lake Mountain 6"},{"vid":"3033207","name":"Anthony Stokes","party":"Rep","address":"2285 E Boxwood Ln, Eagle Mountain, UT 84005","precinct":"25EM31","hd":"50","v_score":"6.798081861","decile":"8","lat":40.303531709571374,"lng":-112.00034611686672,"phone":"(710) 122-4814","sd":"11","ssbd":"10","lsbd":"School Board Lake Mountain 6"},{"vid":"3036935","name":"Jaime Schmeler","party":"","address":"2143 E Partridge Ln, Eagle Mountain, UT 84005","precinct":"25EM31","hd":"50","v_score":"1.121327652","decile":"3","lat":40.30151308875833,"lng":-112.00289383522112,"phone":"(216) 742-8319","sd":"11","ssbd":"10","lsbd":"School Board Lake Mountain 6"},{"vid":"22208adc331de4c47eb143f474582b5e7ef15b5fb0fe623441c1d13d2c3d6dc5","name":"Kristi VonRueden","party":"","address":"2118 E Shadow Dr, Eagle Mountain, UT 84005","precinct":"25EM31","hd":"50","v_score":"11.37977487","decile":"9","lat":40.300497264680814,"lng":-112.00343338269548,"phone":"(437) 641-9316","sd":"11","ssbd":"10","lsbd":"School Board Lake Mountain 6"},{"vid":"3042160","name":"Dashawn Nienow","party":"Rep","address":"2063 E Shadow Dr, Eagle Mountain, UT 84005","precinct":"25EM31","hd":"50","v_score":"11.99259879","decile":"9","lat":40.300934314781195,"lng":-112.0045385836427,"phone":"(136) 223-5472","sd":"11","ssbd":"10","lsbd":"School Board Lake Mountain 6"},{"vid":"3045418","name":"Nile King","party":"","address":"2001 E Sunrise Dr, Eagle Mountain, UT 84005","precinct":"25EM31","hd":"50","v_score":"2.315214949","decile":"5","lat":40.29956608213006,"lng":-112.00564860249429,"phone":"(672) 838-9194","sd":"11","ssbd":"10","lsbd":"School Board Lake Mountain 6"},{"vid":"d1ef335157ccba6a6473e1c0a918ef19385899c702fc727acc2eb342a9895385","name":"Demarco Lang III","party":"Rep","address":"2024 E Shadow Dr, Eagle Mountain, UT 84005","precinct":"25EM31","hd":"50","v_score":"0","decile":"2","lat":40.300509223713384,"lng":-112.00529714903612,"phone":"(402) 991-6818","sd":"11","ssbd":"10","lsbd":"School Board Lake Mountain 6"},{"vid":"3051447","name":"Tamica Mueller","party":"","address":"2064 E Blossom St, Eagle Mountain, UT 84005","precinct":"25EM31","hd":"50","v_score":"2.744440783","decile":"5","lat":40.299789567779584,"lng":-112.00452878317266,"phone":"(319) 757-9494","sd":"11","ssbd":"10","lsbd":"School Board Lake Mountain 6"},{"vid":"f03831c761b45b76f50d985df6b3fd2dc7caaa730f9d49194a16d73644c670f0","name":"Kenna Auer","party":"Dem","address":"2389 E Woodbury Ln, Eagle Mountain, UT 84005","precinct":"25EM31","hd":"50","v_score":"5.191257514","decile":"7","lat":40.30219096285659,"lng":-111.99832544197506,"phone":"(733) 902-6470","sd":"11","ssbd":"10","lsbd":"School Board Lake Mountain 6"},{"vid":"3067769","name":"Adline Hahn","party":"","address":"2075 E Blossom St, Eagle Mountain, UT 84005","precinct":"25EM31","hd":"50","v_score":"15.00919004","decile":"9","lat":40.30022812450271,"lng":-112.00426074526554,"phone":"(190) 700-1169","sd":"11","ssbd":"10","lsbd":"School Board Lake Mountain 6"},{"vid":"3074558","name":"Dr. Clara Hahn","party":"Dem","address":"2103 E Blossom St, Eagle Mountain, UT 84005","precinct":"25EM31","hd":"50","v_score":"2.315214949","decile":"5","lat":40.300224680844074,"lng":-112.00372314327352,"phone":"(730) 235-2582","sd":"11","ssbd":"10","lsbd":"School Board Lake Mountain 6"},{"vid":"3074606","name":"Gil Kozey","party":"","address":"3892 N Dateman Dr, Eagle Mountain, UT 84005","precinct":"25EM31","hd":"50","v_score":"8.57906323","decile":"8","lat":40.303816264681956,"lng":-111.997216329823,"phone":"(749) 068-8518","sd":"11","ssbd":"10","lsbd":"School Board Lake Mountain 6"},{"vid":"3125255","name":"Shalon Ondricka","party":"","address":"2109 E Fall St, Eagle Mountain, UT 84005","precinct":"25EM31","hd":"50","v_score":"4.214075011","decile":"7","lat":40.30338329172221,"lng":-112.00353078989636,"phone":"(126) 294-2187","sd":"11","ssbd":"10","lsbd":"School Board Lake Mountain 6"},{"vid":"3207485","name":"Leigh Berge","party":"","address":"2022 E Blossom St, Eagle Mountain, UT 84005","precinct":"25EM31","hd":"50","v_score":"19.22326505","decile":"10","lat":40.299794574284654,"lng":-112.00531132193602,"phone":"(489) 698-0688","sd":"11","ssbd":"10","lsbd":"School Board Lake Mountain 6"},{"vid":"3228290","name":"Chad Gleason II","party":"Rep","address":"3619 N Summer Way, Eagle Mountain, UT 84005","precinct":"25EM31","hd":"50","v_score":"6.814370645","decile":"8","lat":40.299785184595194,"lng":-112.00665930618327,"phone":"(447) 248-2343","sd":"11","ssbd":"10","lsbd":"School Board Lake Mountain 6"},{"vid":"3245350","name":"Alexis Torp","party":"","address":"2096 E Autumn St, Eagle Mountain, UT 84005","precinct":"25EM31","hd":"50","v_score":"5.693042993","decile":"7","lat":40.30227959592719,"lng":-112.00382387963081,"phone":"(118) 490-2512","sd":"11","ssbd":"10","lsbd":"School Board Lake Mountain 6"},{"vid":"3281742","name":"Alf Hirthe-Lang","party":"Rep","address":"2379 E Sego Lily Dr, Eagle Mountain, UT 84005","precinct":"25EM31","hd":"50","v_score":"8.347511332","decile":"8","lat":40.29939236291841,"lng":-111.99848348923054,"phone":"(969) 195-6903","sd":"11","ssbd":"10","lsbd":"School Board Lake Mountain 6"},{"vid":"3336732","name":"Marc Steuber","party":"Dem","address":"2092 E Partridge Ln, Eagle Mountain, UT 84005","precinct":"25EM31","hd":"50","v_score":"38.99046514","decile":"10","lat":40.301186777182146,"lng":-112.00396349004308,"phone":"(990) 583-1021","sd":"11","ssbd":"10","lsbd":"School Board Lake Mountain 6"},{"vid":"3358293","name":"Mr. Pascal Becker Jr.","party":"Dem","address":"2377 E Marigold Dr, Eagle Mountain, UT 84005","precinct":"25EM31","hd":"50","v_score":"7.111403802","decile":"8","lat":40.298706593191675,"lng":-111.99856322926469,"phone":"(573) 854-5299","sd":"11","ssbd":"10","lsbd":"School Board Lake Mountain 6"},{"vid":"3358670","name":"Caleigh Littel","party":"Rep","address":"2132 E Easter Dr, Eagle Mountain, UT 84005","precinct":"25EM31","hd":"50","v_score":"2.587603312","decile":"5","lat":40.298427185883675,"lng":-112.00318045196612,"phone":"(903) 395-0475","sd":"11","ssbd":"10","lsbd":"School Board Lake Mountain 6"},{"vid":"3401380","name":"Redmond Fadel-Weissnat","party":"Dem","address":"2109 E Spring St, Eagle Mountain, UT 84005","precinct":"25EM31","hd":"50","v_score":"4.064235245","decile":"6","lat":40.304085889026155,"lng":-112.00353860775459,"phone":"(528) 668-6854","sd":"11","ssbd":"10","lsbd":"School Board Lake Mountain 6"},{"vid":"3403218","name":"Little Tillman","party":"Rep","address":"2103 E Blossom St, Eagle Mountain, UT 84005","precinct":"25EM31","hd":"50","v_score":"3.781490609","decile":"6","lat":40.300224680844074,"lng":-112.00372314327352,"phone":"(301) 915-7014","sd":"11","ssbd":"10","lsbd":"School Board Lake Mountain 6"},{"vid":"3456843","name":"Mr. Stevie Wuckert V","party":"","address":"2303 E Spring St, Eagle Mountain, UT 84005","precinct":"25EM31","hd":"50","v_score":"1.193887297","decile":"4","lat":40.304201468456455,"lng":-111.99996674344727,"phone":"(215) 587-8036","sd":"11","ssbd":"10","lsbd":"School Board Lake Mountain 6"},{"vid":"3490033","name":"Lauryn Bradtke MD","party":"Dem","address":"2019 E Autumn St, Eagle Mountain, UT 84005","precinct":"25EM31","hd":"50","v_score":"2.315214949","decile":"5","lat":40.30270323915487,"lng":-112.0052680836858,"phone":"(639) 127-1900","sd":"11","ssbd":"10","lsbd":"School Board Lake Mountain 6"},{"vid":"3520771","name":"Tammie Bernhard","party":"","address":"2075 E Blossom St, Eagle Mountain, UT 84005","precinct":"25EM31","hd":"50","v_score":"14.24014515","decile":"9","lat":40.30022812450271,"lng":-112.00426074526554,"phone":"(508) 137-3698","sd":"11","ssbd":"10","lsbd":"School Board Lake Mountain 6"},{"vid":"4904940","name":"Winford Kunde","party":"","address":"3599 N Columbine Way, Eagle Mountain, UT 84005","precinct":"25EM31","hd":"50","v_score":"7.856307211","decile":"8","lat":40.2995222364489,"lng":-112.00130608909834,"phone":"(662) 052-7006","sd":"11","ssbd":"10","lsbd":"School Board Lake Mountain 6"},{"vid":"5894536","name":"Lesley Wyman","party":"","address":"2126 E Autumn St, Eagle Mountain, UT 84005","precinct":"25EM31","hd":"50","v_score":"2.315214949","decile":"5","lat":40.30228013030015,"lng":-112.00324435991205,"phone":"(466) 253-2194","sd":"11","ssbd":"10","lsbd":"School Board Lake Mountain 6"},{"vid":"6089936","name":"Dalton Bashirian DVM","party":"Rep","address":"2022 E Blossom St, Eagle Mountain, UT 84005","precinct":"25EM31","hd":"50","v_score":"23.45875849","decile":"10","lat":40.299794574284654,"lng":-112.00531132193602,"phone":"(816) 612-6685","sd":"11","ssbd":"10","lsbd":"School Board Lake Mountain 6"},{"vid":"1acd05096354778442ceaa9c2fc7f639c5637c79981cb708a658684eaaf6ef6b","name":"Stetson Skiles","party":"","address":"2409 E Woodbury Ln, Eagle Mountain, UT 84005","precinct":"25EM31","hd":"50","v_score":"2.315214949","decile":"5","lat":40.302099787925115,"lng":-111.99800635318614,"phone":"(970) 654-0775","sd":"11","ssbd":"10","lsbd":"School Board Lake Mountain 6"},{"vid":"6148113","name":"Jagger Yost","party":"","address":"2080 E Fall St, Eagle Mountain, UT 84005","precinct":"25EM31","hd":"50","v_score":"5.191257514","decile":"7","lat":40.30297368977123,"lng":-112.00411946614282,"phone":"(943) 296-1068","sd":"11","ssbd":"10","lsbd":"School Board Lake Mountain 6"},{"vid":"6149051","name":"Marry Blick","party":"","address":"2019 E Spring St, Eagle Mountain, UT 84005","precinct":"25EM31","hd":"50","v_score":"0","decile":"3","lat":40.30412637292509,"lng":-112.0052693164567,"phone":"(627) 884-3413","sd":"11","ssbd":"10","lsbd":"School Board Lake Mountain 6"},{"vid":"6175065","name":"Nils Hettinger-Luettgen","party":"","address":"3935 N Summer Way, Eagle Mountain, UT 84005","precinct":"25EM31","hd":"50","v_score":"2.817000428","decile":"6","lat":40.30453057780123,"lng":-112.00616931113221,"phone":"(267) 853-9414","sd":"11","ssbd":"10","lsbd":"School Board Lake Mountain 6"},{"vid":"6260320","name":"Mattie Dickens","party":"Dem","address":"3935 N Summer Way, Eagle Mountain, UT 84005","precinct":"25EM31","hd":"50","v_score":"5.40460374","decile":"7","lat":40.30453057780123,"lng":-112.00616931113221,"phone":"(944) 157-2129","sd":"11","ssbd":"10","lsbd":"School Board Lake Mountain 6"},{"vid":"6274109","name":"Marolyn Feest","party":"Dem","address":"1995 E Blossom St, Eagle Mountain, UT 84005","precinct":"25EM31","hd":"50","v_score":"0","decile":"3","lat":40.300238239255485,"lng":-112.00583778176426,"phone":"(528) 361-6014","sd":"11","ssbd":"10","lsbd":"School Board Lake Mountain 6"},{"vid":"6274936","name":"Mrs. Hermina Kirlin","party":"Rep","address":"2021 E Blossom St, Eagle Mountain, UT 84005","precinct":"25EM31","hd":"50","v_score":"46.6170808","decile":"10","lat":40.30023480244852,"lng":-112.00530014240232,"phone":"(487) 588-5484","sd":"11","ssbd":"10","lsbd":"School Board Lake Mountain 6"},{"vid":"6277788","name":"Glynis Langworth MD","party":"","address":"2062 E Summer Way, Eagle Mountain, UT 84005","precinct":"25EM31","hd":"50","v_score":"1.193887297","decile":"4","lat":40.30446742231592,"lng":-112.00438144897568,"phone":"(370) 191-8181","sd":"11","ssbd":"10","lsbd":"School Board Lake Mountain 6"},{"vid":"6295125","name":"Dr. Jere Rice DDS","party":"Rep","address":"2012 E Summer Way, Eagle Mountain, UT 84005","precinct":"25EM31","hd":"50","v_score":"41.3483769","decile":"10","lat":40.30446676246655,"lng":-112.00540764639958,"phone":"(692) 375-4145","sd":"11","ssbd":"10","lsbd":"School Board Lake Mountain 6"},{"vid":"6298096","name":"Cinda D'Amore-Pollich","party":"Dem","address":"2125 E Fall St, Eagle Mountain, UT 84005","precinct":"25EM31","hd":"50","v_score":"2.315214949","decile":"5","lat":40.30338230451859,"lng":-112.00324395225658,"phone":"(360) 407-3430","sd":"11","ssbd":"10","lsbd":"School Board Lake Mountain 6"},{"vid":"6307266","name":"Gabrielle Feil","party":"","address":"1964 E Sunrise Dr, Eagle Mountain, UT 84005","precinct":"25EM31","hd":"50","v_score":"2.315214949","decile":"5","lat":40.299139327966905,"lng":-112.00641122671576,"phone":"(454) 453-9038","sd":"11","ssbd":"10","lsbd":"School Board Lake Mountain 6"},{"vid":"6310309","name":"Erich Bayer-Grant","party":"","address":"2298 E Cinder Ln, Eagle Mountain, UT 84005","precinct":"25EM31","hd":"50","v_score":"41.60720531","decile":"10","lat":40.30246578024264,"lng":-111.99997025348735,"phone":"(299) 386-7081","sd":"11","ssbd":"10","lsbd":"School Board Lake Mountain 6"},{"vid":"6310368","name":"Haven Goldner","party":"","address":"2377 E Marigold Dr, Eagle Mountain, UT 84005","precinct":"25EM31","hd":"50","v_score":"9.987446367","decile":"9","lat":40.298706593191675,"lng":-111.99856322926469,"phone":"(516) 002-8008","sd":"11","ssbd":"10","lsbd":"School Board Lake Mountain 6"},{"vid":"6319854","name":"Newell Kuhic","party":"","address":"2282 E Cobble Creek Ln, Eagle Mountain, UT 84005","precinct":"25EM31","hd":"50","v_score":"19.45964392","decile":"10","lat":40.30452403702864,"lng":-112.00022739605777,"phone":"(763) 535-1554","sd":"11","ssbd":"10","lsbd":"School Board Lake Mountain 6"},{"vid":"98bd335fc5b2b803a02eaade8e927cf1efdd09307f2d792a264adbe9a3be58a9","name":"Susie Rice","party":"","address":"3866 N Dateman Dr, Eagle Mountain, UT 84005","precinct":"25EM31","hd":"50","v_score":"35.57076271","decile":"10","lat":40.30342795057884,"lng":-111.99712274962489,"phone":"(879) 092-1242","sd":"11","ssbd":"10","lsbd":"School Board Lake Mountain 6"},{"vid":"fce5a3c340813212a142edcdcf8c01f6287e52ec827e8d323d05428a126d4e90","name":"Rosario Jerde","party":"Rep","address":"3542 N Easter Dr, Eagle Mountain, UT 84005","precinct":"25EM31","hd":"50","v_score":"20.35131456","decile":"10","lat":40.29861065838819,"lng":-112.00224353182102,"phone":"(635) 094-9941","sd":"11","ssbd":"10","lsbd":"School Board Lake Mountain 6"},{"vid":"6382733","name":"Hobert Zulauf","party":"Dem","address":"2035 E Fall St, Eagle Mountain, UT 84005","precinct":"25EM31","hd":"50","v_score":"15.4533012","decile":"9","lat":40.30338827062619,"lng":-112.0049649076673,"phone":"(192) 783-2127","sd":"11","ssbd":"10","lsbd":"School Board Lake Mountain 6"},{"vid":"6392131","name":"Angela Cummerata-Jerde","party":"Dem","address":"2065 E Blossom St, Eagle Mountain, UT 84005","precinct":"25EM31","hd":"50","v_score":"7.153624035","decile":"8","lat":40.30022973082168,"lng":-112.00451162478178,"phone":"(300) 573-5511","sd":"11","ssbd":"10","lsbd":"School Board Lake Mountain 6"},{"vid":"6393765","name":"Tito Morissette","party":"Rep","address":"2038 E Shadow Dr, Eagle Mountain, UT 84005","precinct":"25EM31","hd":"50","v_score":"21.73622446","decile":"10","lat":40.30050752696634,"lng":-112.00503193204864,"phone":"(665) 245-9073","sd":"11","ssbd":"10","lsbd":"School Board Lake Mountain 6"},{"vid":"6413659","name":"Kasandra Daugherty","party":"","address":"1984 E Shadow Dr, Eagle Mountain, UT 84005","precinct":"25EM31","hd":"50","v_score":"12.49472132","decile":"9","lat":40.300567699082016,"lng":-112.00616385390202,"phone":"(529) 573-7571","sd":"11","ssbd":"10","lsbd":"School Board Lake Mountain 6"},{"vid":"6425540","name":"Flor Blanda","party":"","address":"2066 E Spring St, Eagle Mountain, UT 84005","precinct":"25EM31","hd":"50","v_score":"1.121327652","decile":"3","lat":40.30366069331024,"lng":-112.00438267880929,"phone":"(573) 558-0473","sd":"11","ssbd":"10","lsbd":"School Board Lake Mountain 6"},{"vid":"6437152","name":"Jade Rosenbaum MD","party":"Dem","address":"2021 E Blossom St, Eagle Mountain, UT 84005","precinct":"25EM31","hd":"50","v_score":"46.6170808","decile":"10","lat":40.30023480244852,"lng":-112.00530014240232,"phone":"(709) 247-5650","sd":"11","ssbd":"10","lsbd":"School Board Lake Mountain 6"},{"vid":"6457994","name":"Dr. Nolen Mayert","party":"Dem","address":"1964 E Sunrise Dr, Eagle Mountain, UT 84005","precinct":"25EM31","hd":"50","v_score":"1.121327652","decile":"3","lat":40.299139327966905,"lng":-112.00641122671576,"phone":"(312) 851-6561","sd":"11","ssbd":"10","lsbd":"School Board Lake Mountain 6"},{"vid":"6467693","name":"Dakotah Brekke","party":"Dem","address":"2157 E Fall St, Eagle Mountain, UT 84005","precinct":"25EM31","hd":"50","v_score":"14.131145","decile":"9","lat":40.30330922628577,"lng":-112.00248198386046,"phone":"(372) 274-2827","sd":"11","ssbd":"10","lsbd":"School Board Lake Mountain 6"},{"vid":"6468274","name":"Jemal Berge","party":"","address":"3692 N Partridge Ln, Eagle Mountain, UT 84005","precinct":"25EM31","hd":"50","v_score":"0","decile":"3","lat":40.30089464924425,"lng":-112.00214373812987,"phone":"(396) 136-3554","sd":"11","ssbd":"10","lsbd":"School Board Lake Mountain 6"},{"vid":"6472154","name":"Murray Jakubowski","party":"","address":"2315 E Boxwood Ln, Eagle Mountain, UT 84005","precinct":"25EM31","hd":"50","v_score":"13.5493502","decile":"9","lat":40.3035634172957,"lng":-111.99964943545498,"phone":"(272) 822-1566","sd":"11","ssbd":"10","lsbd":"School Board Lake Mountain 6"},{"vid":"6472309","name":"Evelena Aufderhar-Dach","party":"","address":"2178 E Autumn St, Eagle Mountain, UT 84005","precinct":"25EM31","hd":"50","v_score":"2.315214949","decile":"5","lat":40.3023512120516,"lng":-112.0023577891541,"phone":"(906) 541-9078","sd":"11","ssbd":"10","lsbd":"School Board Lake Mountain 6"},{"vid":"f308ec5f47f42a9624a05905aecf8b14b9415dc558c7cd450bb80204d58d04ab","name":"Miss Vennie Gibson DVM","party":"Dem","address":"2178 E Autumn St, Eagle Mountain, UT 84005","precinct":"25EM31","hd":"50","v_score":"3.781490609","decile":"6","lat":40.3023512120516,"lng":-112.0023577891541,"phone":"(871) 953-8720","sd":"11","ssbd":"10","lsbd":"School Board Lake Mountain 6"},{"vid":"6528671","name":"Alena Heidenreich","party":"","address":"2142 E Spring St, Eagle Mountain, UT 84005","precinct":"25EM31","hd":"50","v_score":"6.657533174","decile":"7","lat":40.30365570647937,"lng":-112.00294855528911,"phone":"(390) 677-0686","sd":"11","ssbd":"10","lsbd":"School Board Lake Mountain 6"},{"vid":"6529788","name":"Ambers Rowe","party":"","address":"2142 E Spring St, Eagle Mountain, UT 84005","precinct":"25EM31","hd":"50","v_score":"6.657533174","decile":"7","lat":40.30365570647937,"lng":-112.00294855528911,"phone":"(849) 758-8578","sd":"11","ssbd":"10","lsbd":"School Board Lake Mountain 6"},{"vid":"6533234","name":"Cherilyn Muller-Yost","party":"Rep","address":"2021 E Blossom St, Eagle Mountain, UT 84005","precinct":"25EM31","hd":"50","v_score":"1.623113131","decile":"5","lat":40.30023480244852,"lng":-112.00530014240232,"phone":"(387) 740-9997","sd":"11","ssbd":"10","lsbd":"School Board Lake Mountain 6"}]