[{"id":"2088","name":"Fronia Mosciski PhD","party":"Dem","address":"3913 N Summer Way, Eagle Mountain, UT 84005","precinct":"25EM31","hd":"50","v_score":"4.192796624","decile":"7","lat":40.304049427547,"lng":-112.006150530568},{"id":"2266","name":"Mr. Silvio McGlynn","party":"","address":"2082 E Blossom St, Eagle Mountain, UT 84005","precinct":"25EM31","hd":"50","v_score":"0","decile":"1","lat":40.299929185702,"lng":-112.003922363471},{"id":"2325","name":"Ms. Esther Wyman MD","party":"Rep","address":"2093 E Easter Dr, Eagle Mountain, UT 84005","precinct":"25EM31","hd":"50","v_score":"20.33180184","decile":"10","lat":40.298673496876,"lng":-112.004025860854},{"id":"2466","name":"Darvin Bosco","party":"Rep","address":"1995 E Blossom St, Eagle Mountain, UT 84005","precinct":"25EM31","hd":"50","v_score":"26.41733837","decile":"10","lat":40.3000592695,"lng":-112.005050017333},{"id":"2759","name":"Tristian Hagenes","party":"Rep","address":"3706 N Partridge Ln, Eagle Mountain, UT 84005","precinct":"25EM31","hd":"50","v_score":"1.121327652","decile":"3","lat":40.300818724384,"lng":-112.002276176557},{"id":"3396","name":"Clarence Cummings","party":"","address":"2148 E Partridge Ln, Eagle Mountain, UT 84005","precinct":"25EM31","hd":"50","v_score":"3.93832808","decile":"6","lat":40.301297727361,"lng":-112.003138167958},{"id":"4342","name":"Dr. Salvatore Wuckert","party":"Rep","address":"3523 Flower St, Eagle Mountain, UT 84005","precinct":"25EM31","hd":"50","v_score":"12.49472132","decile":"9","lat":40.298413564501,"lng":-112.005459274626},{"id":"4392","name":"Darry McDermott","party":"Rep","address":"2065 E Autumn St, Eagle Mountain, UT 84005","precinct":"25EM31","hd":"50","v_score":"5.191257514","decile":"7","lat":40.302517087081,"lng":-112.004182253655},{"id":"4576","name":"Lupe Beier PhD","party":"Rep","address":"2036 E Fall St, Eagle Mountain, UT 84005","precinct":"25EM31","hd":"50","v_score":"2.587603312","decile":"5","lat":40.303095004493,"lng":-112.00532254431},{"id":"4941","name":"Savanna Shields","party":"","address":"2038 E Easter Dr, Eagle Mountain, UT 84005","precinct":"25EM31","hd":"50","v_score":"22.64413479","decile":"10","lat":40.298565467348,"lng":-112.004782964492},{"id":"5013","name":"Magdalene Brakus","party":"Dem","address":"2019 E Partridge Ln, Eagle Mountain, UT 84005","precinct":"25EM31","hd":"50","v_score":"5.40460374","decile":"7","lat":40.301426705753,"lng":-112.004763379362},{"id":"5530","name":"Dr. Kymani VonRueden","party":"Rep","address":"2080 E Fall St, Eagle Mountain, UT 84005","precinct":"25EM31","hd":"50","v_score":"8.15240309","decile":"8","lat":40.303092017048,"lng":-112.004518938197},{"id":"6686","name":"Cary Kuhn IV","party":"Dem","address":"3554 N Easter Dr, Eagle Mountain, UT 84005","precinct":"25EM31","hd":"50","v_score":"30.73460115","decile":"10","lat":40.299034386311,"lng":-112.00228904745},{"id":"8109","name":"Cain Wilderman","party":"Rep","address":"3780 N Summer Way, Eagle Mountain, UT 84005","precinct":"25EM31","hd":"50","v_score":"13.32779236","decile":"9","lat":40.302136021787,"lng":-112.006053254842},{"id":"8156","name":"Lea Leuschke","party":"","address":"2114 E Blossom St, Eagle Mountain, UT 84005","precinct":"25EM31","hd":"50","v_score":"1.121327652","decile":"3","lat":40.299923545343,"lng":-112.00351132464},{"id":"8407","name":"Chase Ferry","party":"Dem","address":"2096 E Spring St, Eagle Mountain, UT 84005","precinct":"25EM31","hd":"50","v_score":"3.781490609","decile":"6","lat":40.303780217109,"lng":-112.003631587314},{"id":"9203","name":"Dr. Onie Sauer PhD","party":"","address":"3706 N Partridge Ln, Eagle Mountain, UT 84005","precinct":"25EM31","hd":"50","v_score":"2.315214949","decile":"5","lat":40.300818724384,"lng":-112.002276176557},{"id":"9267","name":"Miss Milda Cummerata PhD","party":"Rep","address":"2068 E Partridge Ln, Eagle Mountain, UT 84005","precinct":"25EM31","hd":"50","v_score":"11.52389434","decile":"9","lat":40.301305137916,"lng":-112.004140089757},{"id":"9834","name":"Jaylen Hegmann","party":"Dem","address":"1995 E Blossom St, Eagle Mountain, UT 84005","precinct":"25EM31","hd":"50","v_score":"12.38789653","decile":"9","lat":40.3000592695,"lng":-112.005050017333},{"id":"10889","name":"Dwain Purdy V","party":"Rep","address":"3707 N Summer Way, Eagle Mountain, UT 84005","precinct":"25EM31","hd":"50","v_score":"0","decile":"1","lat":40.301087761644,"lng":-112.006392865856},{"id":"11469","name":"Gaven Ferry-Barrows","party":"","address":"2037 E Blossom St, Eagle Mountain, UT 84005","precinct":"25EM31","hd":"50","v_score":"18.35167816","decile":"10","lat":40.300051866529,"lng":-112.004510528866},{"id":"12686","name":"Jordy Hermiston","party":"Rep","address":"2267 E Marigold Dr, Eagle Mountain, UT 84005","precinct":"25EM31","hd":"50","v_score":"3.781490609","decile":"6","lat":40.298529421147,"lng":-112.000095776006},{"id":"13190","name":"Chesley Prohaska-Shanahan","party":"","address":"3714 N Summer Way, Eagle Mountain, UT 84005","precinct":"25EM31","hd":"50","v_score":"12.49472132","decile":"9","lat":40.301207209375,"lng":-112.006241824422},{"id":"13661","name":"Nona Lueilwitz","party":"","address":"2108 E Shadow Dr, Eagle Mountain, UT 84005","precinct":"25EM31","hd":"50","v_score":"1.121327652","decile":"3","lat":40.300618526376,"lng":-112.003802214376},{"id":"13832","name":"Mr. Esco Waelchi DVM","party":"Dem","address":"2036 E Spring St, Eagle Mountain, UT 84005","precinct":"25EM31","hd":"50","v_score":"11.04973188","decile":"9","lat":40.303781727173,"lng":-112.004355502132},{"id":"13992","name":"Mr. Orval Harris Jr.","party":"Rep","address":"2003 E Shadow Dr, Eagle Mountain, UT 84005","precinct":"25EM31","hd":"50","v_score":"2.315214949","decile":"5","lat":40.300745074234,"lng":-112.00493703631},{"id":"14018","name":"Joshuah Walter","party":"","address":"2037 E Blossom St, Eagle Mountain, UT 84005","precinct":"25EM31","hd":"50","v_score":"26.63697331","decile":"10","lat":40.300051866529,"lng":-112.004510528866},{"id":"14152","name":"Bayard Grady","party":"Rep","address":"2094 E Sunrise Dr, Eagle Mountain, UT 84005","precinct":"25EM31","hd":"50","v_score":"2.315214949","decile":"5","lat":40.29923606524,"lng":-112.003953488415},{"id":"14418","name":"Khalid Herman","party":"","address":"2393 E Spring St, Eagle Mountain, UT 84005","precinct":"25EM31","hd":"50","v_score":"15.66172","decile":"9","lat":40.303896318548,"lng":-112.004230093872},{"id":"14856","name":"Stan Trantow-Jast","party":"","address":"2019 E Fall St, Eagle Mountain, UT 84005","precinct":"25EM31","hd":"50","v_score":"0","decile":"1","lat":40.30320671553,"lng":-112.004547378766},{"id":"16298","name":"Lyla Graham MD","party":"Dem","address":"1992 E Partridge Ln, Eagle Mountain, UT 84005","precinct":"25EM31","hd":"50","v_score":"1.46627566","decile":"4","lat":40.301315760848,"lng":-112.005090835565},{"id":"16331","name":"Maliyah Wehner","party":"Dem","address":"3935 N Summer Way, Eagle Mountain, UT 84005","precinct":"25EM31","hd":"50","v_score":"5.40460374","decile":"7","lat":40.304177492521,"lng":-112.006145407952},{"id":"16874","name":"Audra O'Kon","party":"","address":"2062 E Shadow Dr, Eagle Mountain, UT 84005","precinct":"25EM31","hd":"50","v_score":"2.744440783","decile":"5","lat":40.300625922645,"lng":-112.00450485478},{"id":"17629","name":"Deric Ebert","party":"Dem","address":"1991 E Shadow Dr, Eagle Mountain, UT 84005","precinct":"25EM31","hd":"50","v_score":"12.49472132","decile":"9","lat":40.300746692909,"lng":-112.005090809378},{"id":"17717","name":"Mira Rolfson","party":"Rep","address":"3594 N Easter Dr, Eagle Mountain, UT 84005","precinct":"25EM31","hd":"50","v_score":"5.40460374","decile":"7","lat":40.299354741452,"lng":-112.002280677889},{"id":"17969","name":"Dr. Carolynn Upton PhD","party":"","address":"2092 E Partridge Ln, Eagle Mountain, UT 84005","precinct":"25EM31","hd":"50","v_score":"38.99046514","decile":"10","lat":40.301301783306,"lng":-112.003839854238},{"id":"18801","name":"Asa Streich","party":"Dem","address":"2033 E Partridge Ln, Eagle Mountain, UT 84005","precinct":"25EM31","hd":"50","v_score":"1.121327652","decile":"3","lat":40.301424748897,"lng":-112.004588241976},{"id":"19174","name":"Miss Delisa Jerde","party":"Dem","address":"2069 E Sunrise Dr, Eagle Mountain, UT 84005","precinct":"25EM31","hd":"50","v_score":"2.315214949","decile":"5","lat":40.299356302119,"lng":-112.004390686158},{"id":"19571","name":"Andon Zulauf-Howe","party":"Dem","address":"2041 E Sunrise Dr, Eagle Mountain, UT 84005","precinct":"25EM31","hd":"50","v_score":"6.814370645","decile":"8","lat":40.299361740315,"lng":-112.00481305012},{"id":"19642","name":"Dr. Alaina Tremblay","party":"Dem","address":"2109 E Fall St, Eagle Mountain, UT 84005","precinct":"25EM31","hd":"50","v_score":"11.55530256","decile":"9","lat":40.303203318567,"lng":-112.003455593626},{"id":"20289","name":"Dr. Gibson Hagenes","party":"Rep","address":"2030 E Summer Way, Eagle Mountain, UT 84005","precinct":"25EM31","hd":"50","v_score":"2.587603312","decile":"5","lat":40.304626630793,"lng":-112.005264613863},{"id":"20830","name":"Kristan Funk-Howell","party":"","address":"3952 N Winter Way, Eagle Mountain, UT 84005","precinct":"25EM31","hd":"50","v_score":"0","decile":"1","lat":40.304553693406,"lng":-112.002676852386},{"id":"20971","name":"Ms. Lauretta Mann MD","party":"Rep","address":"2114 E Blossom St, Eagle Mountain, UT 84005","precinct":"25EM31","hd":"50","v_score":"15.76947144","decile":"9","lat":40.299923545343,"lng":-112.00351132464},{"id":"21717","name":"Kyle Walter","party":"Dem","address":"2062 E Shadow Dr, Eagle Mountain, UT 84005","precinct":"25EM31","hd":"50","v_score":"4.210716443","decile":"7","lat":40.300625922645,"lng":-112.00450485478},{"id":"22134","name":"Heidi Predovic","party":"Rep","address":"2096 E Shadow Dr, Eagle Mountain, UT 84005","precinct":"25EM31","hd":"50","v_score":"2.817000428","decile":"6","lat":40.300620455837,"lng":-112.003985511873},{"id":"22325","name":"Miss Carrie Cormier PhD","party":"Rep","address":"2118 E Easter Dr, Eagle Mountain, UT 84005","precinct":"25EM31","hd":"50","v_score":"0","decile":"1","lat":40.298555757042,"lng":-112.003663861648},{"id":"22964","name":"Estevan Kunze DDS","party":"Dem","address":"3698 N Summer Way, Eagle Mountain, UT 84005","precinct":"25EM31","hd":"50","v_score":"23.99859859","decile":"10","lat":40.301073230556,"lng":-112.006242705879},{"id":"23062","name":"Octavio Lesch","party":"Rep","address":"3692 N Partridge Ln, Eagle Mountain, UT 84005","precinct":"25EM31","hd":"50","v_score":"0","decile":"1","lat":40.300765198277,"lng":-112.002276176564},{"id":"23540","name":"Dale Wunsch-Jacobson","party":"","address":"2062 E Summer Way, Eagle Mountain, UT 84005","precinct":"25EM31","hd":"50","v_score":"0","decile":"1","lat":40.304623118927,"lng":-112.004664092782},{"id":"23879","name":"Lindsay Streich","party":"Rep","address":"2126 E Fall St, Eagle Mountain, UT 84005","precinct":"25EM31","hd":"50","v_score":"11.2829142","decile":"9","lat":40.303088893809,"lng":-112.003678804533},{"id":"24571","name":"Mr. Dessie Barton V","party":"Dem","address":"2377 E Marigold Dr, Eagle Mountain, UT 84005","precinct":"25EM31","hd":"50","v_score":"18.84034033","decile":"10","lat":40.298519967944,"lng":-111.998852687301},{"id":"24767","name":"Ayleen Schmitt","party":"","address":"2377 E Marigold Dr, Eagle Mountain, UT 84005","precinct":"25EM31","hd":"50","v_score":"5.40460374","decile":"7","lat":40.298519967944,"lng":-111.998852687301},{"id":"24792","name":"Mr. Hermon Feeney III","party":"Dem","address":"2146 E Shadow Dr, Eagle Mountain, UT 84005","precinct":"25EM31","hd":"50","v_score":"0","decile":"1","lat":40.300612599623,"lng":-112.003221623818},{"id":"27633","name":"Reyna Jaskolski","party":"Rep","address":"2036 E Autumn St, Eagle Mountain, UT 84005","precinct":"25EM31","hd":"50","v_score":"15.96892118","decile":"9","lat":40.302404340792,"lng":-112.004495571845},{"id":"27639","name":"Vonda Von","party":"","address":"2091 E Partridge Ln, Eagle Mountain, UT 84005","precinct":"25EM31","hd":"50","v_score":"2.876042565","decile":"6","lat":40.301416641922,"lng":-112.003862672806},{"id":"28274","name":"Ms. Theodocia Veum DDS","party":"","address":"2035 E Autumn St, Eagle Mountain, UT 84005","precinct":"25EM31","hd":"50","v_score":"2.315214949","decile":"5","lat":40.302519060279,"lng":-112.004516706346},{"id":"29002","name":"Sammie Hegmann","party":"","address":"3927 N Summer Way, Eagle Mountain, UT 84005","precinct":"25EM31","hd":"50","v_score":"0","decile":"1","lat":40.30413092344,"lng":-112.006147270721},{"id":"29280","name":"Geneva Zulauf","party":"Dem","address":"3541 Flower St, Eagle Mountain, UT 84005","precinct":"25EM31","hd":"50","v_score":"10.52632313","decile":"9","lat":40.298530730538,"lng":-112.005461821698},{"id":"30352","name":"Dr. Cael Moore","party":"","address":"2012 E Summer Way, Eagle Mountain, UT 84005","precinct":"25EM31","hd":"50","v_score":"5.40460374","decile":"7","lat":40.304620458105,"lng":-112.005570406821},{"id":"31392","name":"Kylie Hayes","party":"Dem","address":"3582 N Easter Dr, Eagle Mountain, UT 84005","precinct":"25EM31","hd":"50","v_score":"1.193887297","decile":"3","lat":40.299188327473,"lng":-112.002280678681},{"id":"32477","name":"Ms. Zula Nikolaus","party":"Dem","address":"2142 E Fall St, Eagle Mountain, UT 84005","precinct":"25EM31","hd":"50","v_score":"1.193887297","decile":"3","lat":40.303088727177,"lng":-112.003386214991},{"id":"33197","name":"Devonta Bauch IV","party":"Rep","address":"2098 E Blossom St, Eagle Mountain, UT 84005","precinct":"25EM31","hd":"50","v_score":"5.40460374","decile":"7","lat":40.299926365523,"lng":-112.003716844056},{"id":"33677","name":"Juliann Hammes","party":"","address":"2047 E Summer Way, Eagle Mountain, UT 84005","precinct":"25EM31","hd":"50","v_score":"5.40460374","decile":"7","lat":40.304735632828,"lng":-112.004308270388},{"id":"33995","name":"Tilman Lockman-Langworth","party":"","address":"2047 E Summer Way, Eagle Mountain, UT 84005","precinct":"25EM31","hd":"50","v_score":"5.40460374","decile":"7","lat":40.304735632828,"lng":-112.004308270388},{"id":"35147","name":"Ariane Bechtelar-Hermann","party":"Dem","address":"2113 E Winter Way, Eagle Mountain, UT 84005","precinct":"25EM31","hd":"50","v_score":"2.315214949","decile":"5","lat":40.30473124348,"lng":-112.003685147683},{"id":"36001","name":"Mr. Darwin Zieme","party":"Rep","address":"2377 E Marigold Dr, Eagle Mountain, UT 84005","precinct":"25EM31","hd":"50","v_score":"7.511882601","decile":"8","lat":40.298519967944,"lng":-111.998852687301},{"id":"36815","name":"Dr. Samie Volkman","party":"","address":"2078 E Easter Dr, Eagle Mountain, UT 84005","precinct":"25EM31","hd":"50","v_score":"10.87160818","decile":"9","lat":40.298560612195,"lng":-112.00422341307},{"id":"40599","name":"Waymon Yundt DVM","party":"Dem","address":"2080 E Fall St, Eagle Mountain, UT 84005","precinct":"25EM31","hd":"50","v_score":"5.191257514","decile":"7","lat":40.303092017048,"lng":-112.004518938197},{"id":"41136","name":"Annemarie Hodkiewicz PhD","party":"Dem","address":"3620 N Summer Way, Eagle Mountain, UT 84005","precinct":"25EM31","hd":"50","v_score":"8.280646305","decile":"8","lat":40.299574091151,"lng":-112.006264343397},{"id":"41853","name":"Ananias Rolfson V","party":"","address":"2095 E Autumn St, Eagle Mountain, UT 84005","precinct":"25EM31","hd":"50","v_score":"1.46627566","decile":"4","lat":40.302515113883,"lng":-112.003847800964},{"id":"42682","name":"Dr. Gilbert Hoeger","party":"Dem","address":"2047 E Shadow Dr, Eagle Mountain, UT 84005","precinct":"25EM31","hd":"50","v_score":"6.657533174","decile":"7","lat":40.300739139089,"lng":-112.004373201729},{"id":"45788","name":"Cyndi Abshire","party":"Rep","address":"3744 N Summer Way, Eagle Mountain, UT 84005","precinct":"25EM31","hd":"50","v_score":"11.02844566","decile":"9","lat":40.301644335509,"lng":-112.006233569373},{"id":"46789","name":"Takisha Senger","party":"Rep","address":"2020 E Fall St, Eagle Mountain, UT 84005","precinct":"25EM31","hd":"50","v_score":"3.93832808","decile":"6","lat":40.303096090837,"lng":-112.005614764715},{"id":"48029","name":"Dr. Kelan Lebsack III","party":"","address":"2067 E Easter Dr, Eagle Mountain, UT 84005","precinct":"25EM31","hd":"50","v_score":"0","decile":"1","lat":40.298676652725,"lng":-112.004389569278},{"id":"48266","name":"Fanny Brakus","party":"","address":"3671 N Summer Way, Eagle Mountain, UT 84005","precinct":"25EM31","hd":"50","v_score":"5.40460374","decile":"7","lat":40.300483833925,"lng":-112.006399609109},{"id":"49326","name":"Ms. Frieda Gibson DDS","party":"Rep","address":"2159 E Winter Way, Eagle Mountain, UT 84005","precinct":"25EM31","hd":"50","v_score":"0","decile":"1","lat":40.304725935241,"lng":-112.003103900457},{"id":"49976","name":"Ms. Tisa Rolfson","party":"","address":"2096 E Fall St, Eagle Mountain, UT 84005","precinct":"25EM31","hd":"50","v_score":"15.51131257","decile":"9","lat":40.303090930704,"lng":-112.004226717792},{"id":"50410","name":"Ms. Amber Morissette PhD","party":"Dem","address":"2036 E Blossom St, Eagle Mountain, UT 84005","precinct":"25EM31","hd":"50","v_score":"0","decile":"1","lat":40.299937293719,"lng":-112.004513231792},{"id":"50884","name":"Markel Armstrong","party":"","address":"2006 E Fall St, Eagle Mountain, UT 84005","precinct":"25EM31","hd":"50","v_score":"3.781490609","decile":"6","lat":40.303097041387,"lng":-112.005870457569},{"id":"52531","name":"Mallorie Halvorson","party":"Dem","address":"1989 E Autumn St, Eagle Mountain, UT 84005","precinct":"25EM31","hd":"50","v_score":"2.587603312","decile":"5","lat":40.302522085849,"lng":-112.005029533805},{"id":"52635","name":"Rex Harber","party":"Rep","address":"2096 E Fall St, Eagle Mountain, UT 84005","precinct":"25EM31","hd":"50","v_score":"7.227307695","decile":"8","lat":40.303090930704,"lng":-112.004226717792},{"id":"52697","name":"Maleah Ernser","party":"Rep","address":"3648 N Partridge Ln, Eagle Mountain, UT 84005","precinct":"25EM31","hd":"50","v_score":"0","decile":"1","lat":40.300381978968,"lng":-112.002277994531},{"id":"54235","name":"Ellison Kertzmann","party":"","address":"2134 E Sunrise Dr, Eagle Mountain, UT 84005","precinct":"25EM31","hd":"50","v_score":"5.40460374","decile":"7","lat":40.299228531809,"lng":-112.003368395481},{"id":"55344","name":"Miss Latosha Streich MD","party":"Dem","address":"2053 E Blossom St, Eagle Mountain, UT 84005","precinct":"25EM31","hd":"50","v_score":"1.193887297","decile":"3","lat":40.300049046349,"lng":-112.00430500945},{"id":"55773","name":"Bill Larson","party":"Rep","address":"3863 N Summer Way, Eagle Mountain, UT 84005","precinct":"25EM31","hd":"50","v_score":"2.817000428","decile":"6","lat":40.303215837373,"lng":-112.006125014555},{"id":"56026","name":"Isai Bayer DVM","party":"","address":"2001 E Summer Way, Eagle Mountain, UT 84005","precinct":"25EM31","hd":"50","v_score":"2.744440783","decile":"5","lat":40.304737293009,"lng":-112.004592157661},{"id":"56037","name":"Shelley Rice-Hauck","party":"Rep","address":"2022 E Blossom St, Eagle Mountain, UT 84005","precinct":"25EM31","hd":"50","v_score":"1.121327652","decile":"3","lat":40.299939761376,"lng":-112.004693061281},{"id":"57216","name":"Xavier Stoltenberg-Collins","party":"Rep","address":"1998 E Sunrise Dr, Eagle Mountain, UT 84005","precinct":"25EM31","hd":"50","v_score":"1.623113131","decile":"5","lat":40.299255451123,"lng":-112.005478363715},{"id":"57939","name":"Mr. Judah Dietrich II","party":"Dem","address":"2129 E Winter Way, Eagle Mountain, UT 84005","precinct":"25EM31","hd":"50","v_score":"3.93832808","decile":"6","lat":40.304729397136,"lng":-112.003482974735},{"id":"57942","name":"Octa Heidenreich","party":"Dem","address":"2129 E Winter Way, Eagle Mountain, UT 84005","precinct":"25EM31","hd":"50","v_score":"3.93832808","decile":"6","lat":40.304729397136,"lng":-112.003482974735},{"id":"58874","name":"Alek Bergstrom","party":"Dem","address":"3662 N Daffodil Dr, Eagle Mountain, UT 84005","precinct":"25EM31","hd":"50","v_score":"2.315214949","decile":"5","lat":40.300383497615,"lng":-111.997541905698},{"id":"58913","name":"Edsel Hayes","party":"","address":"2063 E Shadow Dr, Eagle Mountain, UT 84005","precinct":"25EM31","hd":"50","v_score":"4.499155696","decile":"7","lat":40.300736980855,"lng":-112.004168170972},{"id":"59422","name":"Dr. Dylan Parisian DVM","party":"","address":"2039 E Easter Dr, Eagle Mountain, UT 84005","precinct":"25EM31","hd":"50","v_score":"0","decile":"1","lat":40.298680051333,"lng":-112.004781255274},{"id":"59648","name":"Qiana Russel-Ullrich","party":"Rep","address":"3744 N Summer Way, Eagle Mountain, UT 84005","precinct":"25EM31","hd":"50","v_score":"0","decile":"1","lat":40.301644335509,"lng":-112.006233569373},{"id":"60248","name":"Lady Satterfield","party":"","address":"1998 E Sunrise Dr, Eagle Mountain, UT 84005","precinct":"25EM31","hd":"50","v_score":"12.85640681","decile":"9","lat":40.299255451123,"lng":-112.005478363715},{"id":"60262","name":"Lon Ryan","party":"Dem","address":"2033 E Partridge Ln, Eagle Mountain, UT 84005","precinct":"25EM31","hd":"50","v_score":"1.121327652","decile":"3","lat":40.301424748897,"lng":-112.004588241976},{"id":"61676","name":"Marnie Reilly","party":"Rep","address":"3835 N Summer Way, Eagle Mountain, UT 84005","precinct":"25EM31","hd":"50","v_score":"1.121327652","decile":"3","lat":40.302746950379,"lng":-112.006151315842},{"id":"62277","name":"Add Bailey-Friesen","party":"","address":"2377 E Marigold Dr, Eagle Mountain, UT 84005","precinct":"25EM31","hd":"50","v_score":"0","decile":"1","lat":40.298519967944,"lng":-111.998852687301},{"id":"62310","name":"Alijah O'Hara","party":"Rep","address":"2145 E Blossom St, Eagle Mountain, UT 84005","precinct":"25EM31","hd":"50","v_score":"4.064235245","decile":"6","lat":40.300033601733,"lng":-112.003123675429},{"id":"62648","name":"Fitzgerald Kuvalis-Gaylord","party":"Dem","address":"2095 E Autumn St, Eagle Mountain, UT 84005","precinct":"25EM31","hd":"50","v_score":"2.817000428","decile":"6","lat":40.302515113883,"lng":-112.003847800964},{"id":"62906","name":"Abigayle Kertzmann","party":"","address":"2079 E Easter Dr, Eagle Mountain, UT 84005","precinct":"25EM31","hd":"50","v_score":"1.121327652","decile":"3","lat":40.298675196179,"lng":-112.004221703852},{"id":"63407","name":"Dema Green","party":"","address":"1964 E Sunrise Dr, Eagle Mountain, UT 84005","precinct":"25EM31","hd":"50","v_score":"2.315214949","decile":"5","lat":40.299263727845,"lng":-112.006466534177},{"id":"64138","name":"Susann Prohaska","party":"Dem","address":"2024 E Shadow Dr, Eagle Mountain, UT 84005","precinct":"25EM31","hd":"50","v_score":"8.211445228","decile":"8","lat":40.300632032607,"lng":-112.005085296852},{"id":"64417","name":"Miss Olivine Kuvalis DVM","party":"","address":"1976 E Sunrise Dr, Eagle Mountain, UT 84005","precinct":"25EM31","hd":"50","v_score":"0","decile":"1","lat":40.299261392994,"lng":-112.006099284284},{"id":"64575","name":"Dr. Elige Schiller","party":"Dem","address":"2115 E Blossom St, Eagle Mountain, UT 84005","precinct":"25EM31","hd":"50","v_score":"5.191257514","decile":"7","lat":40.300038118154,"lng":-112.003508621713},{"id":"66096","name":"Fayette Lemke","party":"Dem","address":"2012 E Summer Way, Eagle Mountain, UT 84005","precinct":"25EM31","hd":"50","v_score":"2.817000428","decile":"6","lat":40.304620458105,"lng":-112.005570406821},{"id":"66180","name":"Karlie Torp-Hansen","party":"Dem","address":"2052 E Spring St, Eagle Mountain, UT 84005","precinct":"25EM31","hd":"50","v_score":"2.315214949","decile":"5","lat":40.303781727159,"lng":-112.004162305647},{"id":"66245","name":"Mr. Kenny Blick I","party":"","address":"2145 E Blossom St, Eagle Mountain, UT 84005","precinct":"25EM31","hd":"50","v_score":"6.814370645","decile":"8","lat":40.300033601733,"lng":-112.003123675429},{"id":"68336","name":"Toni Carroll","party":"Dem","address":"2160 E Autumn St, Eagle Mountain, UT 84005","precinct":"25EM31","hd":"50","v_score":"3.93832808","decile":"6","lat":40.302396184907,"lng":-112.003113167389},{"id":"69129","name":"Mrs. Tamica Stark MD","party":"Dem","address":"2021 E Blossom St, Eagle Mountain, UT 84005","precinct":"25EM31","hd":"50","v_score":"3.93832808","decile":"6","lat":40.300054686708,"lng":-112.004716048282},{"id":"69251","name":"Jovany Hettinger V","party":"","address":"3835 N Summer Way, Eagle Mountain, UT 84005","precinct":"25EM31","hd":"50","v_score":"1.121327652","decile":"3","lat":40.302746950379,"lng":-112.006151315842},{"id":"69732","name":"Ms. Donie Rohan","party":"Rep","address":"2079 E Fall St, Eagle Mountain, UT 84005","precinct":"25EM31","hd":"50","v_score":"5.429380732","decile":"7","lat":40.303204008784,"lng":-112.003819279268},{"id":"70226","name":"Wong McDermott-Rogahn","party":"Rep","address":"2001 E Summer Way, Eagle Mountain, UT 84005","precinct":"25EM31","hd":"50","v_score":"0","decile":"1","lat":40.304737293009,"lng":-112.004592157661},{"id":"71758","name":"Janel Cummerata PhD","party":"Dem","address":"3566 N Easter Dr, Eagle Mountain, UT 84005","precinct":"25EM31","hd":"50","v_score":"2.315214949","decile":"5","lat":40.299107260656,"lng":-112.002280678691},{"id":"71833","name":"Sherwin Bechtelar","party":"Rep","address":"2156 E Easter Dr, Eagle Mountain, UT 84005","precinct":"25EM31","hd":"50","v_score":"0","decile":"1","lat":40.29855272767,"lng":-112.003131421385},{"id":"73576","name":"Cosmo Durgan","party":"","address":"2027 E Easter Dr, Eagle Mountain, UT 84005","precinct":"25EM31","hd":"50","v_score":"2.315214949","decile":"5","lat":40.298681507879,"lng":-112.004949120701},{"id":"74652","name":"Menachem Mraz","party":"Rep","address":"2052 E Easter Dr, Eagle Mountain, UT 84005","precinct":"25EM31","hd":"50","v_score":"3.93832808","decile":"6","lat":40.298563768045,"lng":-112.004587121495},{"id":"75251","name":"Elton Balistreri PhD","party":"","address":"3803 N Summer Way, Eagle Mountain, UT 84005","precinct":"25EM31","hd":"50","v_score":"1.121327652","decile":"3","lat":40.302262635659,"lng":-112.006177799716},{"id":"75526","name":"Isreal Ratke-Cummerata","party":"Dem","address":"2052 E Easter Dr, Eagle Mountain, UT 84005","precinct":"25EM31","hd":"50","v_score":"2.315214949","decile":"5","lat":40.298563768045,"lng":-112.004587121495},{"id":"75833","name":"Clement Watsica I","party":"Dem","address":"2038 E Shadow Dr, Eagle Mountain, UT 84005","precinct":"25EM31","hd":"50","v_score":"18.77764457","decile":"10","lat":40.300629781568,"lng":-112.004871449773},{"id":"76745","name":"Edmonia Considine DDS","party":"Dem","address":"2033 E Partridge Ln, Eagle Mountain, UT 84005","precinct":"25EM31","hd":"50","v_score":"1.121327652","decile":"3","lat":40.301424748897,"lng":-112.004588241976},{"id":"76817","name":"Elby Mohr-Mitchell","party":"","address":"3566 N Easter Dr, Eagle Mountain, UT 84005","precinct":"25EM31","hd":"50","v_score":"1.121327652","decile":"3","lat":40.299107260656,"lng":-112.002280678691},{"id":"77756","name":"Mrs. Essence Bosco DDS","party":"Rep","address":"2066 E Spring St, Eagle Mountain, UT 84005","precinct":"25EM31","hd":"50","v_score":"1.121327652","decile":"3","lat":40.303781727146,"lng":-112.003993258722},{"id":"80294","name":"Jefferson Rosenbaum","party":"","address":"3671 N Summer Way, Eagle Mountain, UT 84005","precinct":"25EM31","hd":"50","v_score":"2.315214949","decile":"5","lat":40.300483833925,"lng":-112.006399609109},{"id":"80295","name":"Mr. Mcarthur Lang IV","party":"","address":"3671 N Summer Way, Eagle Mountain, UT 84005","precinct":"25EM31","hd":"50","v_score":"2.315214949","decile":"5","lat":40.300483833925,"lng":-112.006399609109},{"id":"80579","name":"Ovila Green","party":"","address":"2161 E Sunrise Dr, Eagle Mountain, UT 84005","precinct":"25EM31","hd":"50","v_score":"6.814370645","decile":"8","lat":40.299339460174,"lng":-112.00300323377},{"id":"81327","name":"Henery Stoltenberg","party":"","address":"3555 Flower St, Eagle Mountain, UT 84005","precinct":"25EM31","hd":"50","v_score":"7.252084687","decile":"8","lat":40.29875300756,"lng":-112.005465769474},{"id":"82466","name":"Lia Predovic","party":"","address":"2159 E Winter Way, Eagle Mountain, UT 84005","precinct":"25EM31","hd":"50","v_score":"0","decile":"1","lat":40.304725935241,"lng":-112.003103900457},{"id":"83421","name":"Dr. Delaney Gleichner DDS","party":"","address":"3566 N Easter Dr, Eagle Mountain, UT 84005","precinct":"25EM31","hd":"50","v_score":"0","decile":"1","lat":40.299107260656,"lng":-112.002280678691},{"id":"83509","name":"Sky Wiegand","party":"","address":"2065 E Autumn St, Eagle Mountain, UT 84005","precinct":"25EM31","hd":"50","v_score":"0","decile":"1","lat":40.302517087081,"lng":-112.004182253655},{"id":"83913","name":"Jordan Durgan","party":"","address":"2055 E Sunrise Dr, Eagle Mountain, UT 84005","precinct":"25EM31","hd":"50","v_score":"0","decile":"1","lat":40.299359021217,"lng":-112.004601868139},{"id":"84648","name":"Craig Wehner-Funk","party":"Rep","address":"3881 N Winter Way, Eagle Mountain, UT 84005","precinct":"25EM31","hd":"50","v_score":"1.623113131","decile":"5","lat":40.303663159777,"lng":-112.00238954739},{"id":"85651","name":"Okey Lebsack","party":"Rep","address":"3744 N Summer Way, Eagle Mountain, UT 84005","precinct":"25EM31","hd":"50","v_score":"1.193887297","decile":"3","lat":40.301644335509,"lng":-112.006233569373},{"id":"86558","name":"Dr. Sadie Schroeder DVM","party":"Dem","address":"2019 E Spring St, Eagle Mountain, UT 84005","precinct":"25EM31","hd":"50","v_score":"0","decile":"1","lat":40.303896318677,"lng":-112.005916507928},{"id":"87081","name":"Jami Mohr","party":"","address":"2007 E Blossom St, Eagle Mountain, UT 84005","precinct":"25EM31","hd":"50","v_score":"1.193887297","decile":"4","lat":40.300057154365,"lng":-112.004895877771},{"id":"88051","name":"Donta Miller","party":"Dem","address":"2131 E Partridge Ln, Eagle Mountain, UT 84005","precinct":"25EM31","hd":"50","v_score":"18.35167816","decile":"10","lat":40.301412318762,"lng":-112.003363368702},{"id":"88168","name":"Mohammed Corkery","party":"Dem","address":"2131 E Partridge Ln, Eagle Mountain, UT 84005","precinct":"25EM31","hd":"50","v_score":"18.35167816","decile":"10","lat":40.301412318762,"lng":-112.003363368702},{"id":"88688","name":"Neppie Bailey","party":"Rep","address":"2145 E Autumn St, Eagle Mountain, UT 84005","precinct":"25EM31","hd":"50","v_score":"0","decile":"1","lat":40.30251182522,"lng":-112.003290379812},{"id":"89341","name":"Sheree Fay-Mante","party":"","address":"2076 E Partridge Ln, Eagle Mountain, UT 84005","precinct":"25EM31","hd":"50","v_score":"2.817000428","decile":"6","lat":40.301304019713,"lng":-112.00404001125},{"id":"89654","name":"Rubin Kihn IV","party":"","address":"3835 N Summer Way, Eagle Mountain, UT 84005","precinct":"25EM31","hd":"50","v_score":"0","decile":"1","lat":40.302746950379,"lng":-112.006151315842},{"id":"91631","name":"Christiana Parker","party":"","address":"2040 E Sunrise Dr, Eagle Mountain, UT 84005","precinct":"25EM31","hd":"50","v_score":"0","decile":"1","lat":40.299246235372,"lng":-112.004743363877},{"id":"93038","name":"Colter Renner","party":"","address":"2094 E Sunrise Dr, Eagle Mountain, UT 84005","precinct":"25EM31","hd":"50","v_score":"0","decile":"1","lat":40.29923606524,"lng":-112.003953488415},{"id":"95460","name":"Elwin Rau Sr.","party":"","address":"2121 E Sunrise Dr, Eagle Mountain, UT 84005","precinct":"25EM31","hd":"50","v_score":"0","decile":"1","lat":40.299346202613,"lng":-112.003606295942},{"id":"95629","name":"Che Wilkinson-Heathcote","party":"","address":"3802 N Winter Way, Eagle Mountain, UT 84005","precinct":"25EM31","hd":"50","v_score":"4.069929862","decile":"6","lat":40.304580299534,"lng":-112.002758931826},{"id":"95990","name":"Miss Ethelene McCullough","party":"Dem","address":"2065 E Autumn St, Eagle Mountain, UT 84005","precinct":"25EM31","hd":"50","v_score":"4.069929862","decile":"6","lat":40.302517087081,"lng":-112.004182253655},{"id":"96056","name":"Deetta McLaughlin","party":"","address":"2029 E Sunrise Dr, Eagle Mountain, UT 84005","precinct":"25EM31","hd":"50","v_score":"0","decile":"1","lat":40.29936407097,"lng":-112.004994063247},{"id":"98815","name":"Dr. Adline Toy","party":"","address":"3908 N Winter Way, Eagle Mountain, UT 84005","precinct":"25EM31","hd":"50","v_score":"16.72856503","decile":"9","lat":40.304563354415,"lng":-112.002702615067},{"id":"99492","name":"Dr. Sherrie Dickinson","party":"Rep","address":"2022 E Blossom St, Eagle Mountain, UT 84005","precinct":"25EM31","hd":"50","v_score":"1.193887297","decile":"4","lat":40.299939761376,"lng":-112.004693061281},{"id":"101374","name":"Dr. Delmus Satterfield","party":"Rep","address":"3582 N Easter Dr, Eagle Mountain, UT 84005","precinct":"25EM31","hd":"50","v_score":"1.193887297","decile":"4","lat":40.299188327473,"lng":-112.002280678681},{"id":"103023","name":"Elwood Howell-Schuster","party":"Dem","address":"2092 E Partridge Ln, Eagle Mountain, UT 84005","precinct":"25EM31","hd":"50","v_score":"13.85252246","decile":"9","lat":40.301301783306,"lng":-112.003839854238},{"id":"103471","name":"Mr. Hughes Legros","party":"Rep","address":"3879 N Summer Way, Eagle Mountain, UT 84005","precinct":"25EM31","hd":"50","v_score":"1.193887297","decile":"4","lat":40.303624363214,"lng":-112.006137917241},{"id":"104759","name":"Reino Batz II","party":"Rep","address":"2102 E Blossom St, Eagle Mountain, UT 84005","precinct":"25EM31","hd":"50","v_score":"2.876042565","decile":"6","lat":40.299925660478,"lng":-112.003665464202},{"id":"105723","name":"Edwardo Lebsack","party":"Dem","address":"1985 E Blossom St, Eagle Mountain, UT 84005","precinct":"25EM31","hd":"50","v_score":"1.193887297","decile":"4","lat":40.300061032112,"lng":-112.005178466968},{"id":"105963","name":"Dr. Alton Rutherford III","party":"","address":"2148 E Sunrise Dr, Eagle Mountain, UT 84005","precinct":"25EM31","hd":"50","v_score":"11.99595736","decile":"9","lat":40.299226376883,"lng":-112.003163269175},{"id":"106720","name":"Julious Hegmann","party":"","address":"2125 E Fall St, Eagle Mountain, UT 84005","precinct":"25EM31","hd":"50","v_score":"1.193887297","decile":"4","lat":40.303203318552,"lng":-112.003261431466},{"id":"106970","name":"Johanna Gottlieb","party":"","address":"2110 E Spring St, Eagle Mountain, UT 84005","precinct":"25EM31","hd":"50","v_score":"1.193887297","decile":"4","lat":40.303779248373,"lng":-112.003462545174},{"id":"107336","name":"Flo Morar","party":"Rep","address":"2076 E Partridge Ln, Eagle Mountain, UT 84005","precinct":"25EM31","hd":"50","v_score":"0","decile":"2","lat":40.301304019713,"lng":-112.00404001125},{"id":"107417","name":"Dr. Salomon Heathcote IV","party":"Dem","address":"2130 E Winter Way, Eagle Mountain, UT 84005","precinct":"25EM31","hd":"50","v_score":"0","decile":"2","lat":40.304617866328,"lng":-112.00381900382},{"id":"109668","name":"Jan Kiehn","party":"Dem","address":"3879 N Summer Way, Eagle Mountain, UT 84005","precinct":"25EM31","hd":"50","v_score":"0","decile":"2","lat":40.303624363214,"lng":-112.006137917241},{"id":"109821","name":"Christ Gulgowski","party":"Rep","address":"2035 E Spring St, Eagle Mountain, UT 84005","precinct":"25EM31","hd":"50","v_score":"1.193887297","decile":"4","lat":40.303896318672,"lng":-112.005844361872},{"id":"110390","name":"Haiden Hessel","party":"","address":"2159 E Blossom St, Eagle Mountain, UT 84005","precinct":"25EM31","hd":"50","v_score":"5.407962308","decile":"7","lat":40.30003189703,"lng":-112.002943830784},{"id":"111969","name":"Frances Kuphal","party":"Dem","address":"3692 N Partridge Ln, Eagle Mountain, UT 84005","precinct":"25EM31","hd":"50","v_score":"1.193887297","decile":"4","lat":40.300765198277,"lng":-112.002276176564},{"id":"112892","name":"Dr. Lavon Willms Jr.","party":"Dem","address":"2156 E Easter Dr, Eagle Mountain, UT 84005","precinct":"25EM31","hd":"50","v_score":"0","decile":"2","lat":40.29855272767,"lng":-112.003131421385},{"id":"113044","name":"Dr. Conway Schowalter","party":"Rep","address":"2017 E Summer Way, Eagle Mountain, UT 84005","precinct":"25EM31","hd":"50","v_score":"1.193887297","decile":"4","lat":40.304736715555,"lng":-112.004493414261},{"id":"113896","name":"Kanisha Hirthe DDS","party":"","address":"2323 E Spring St, Eagle Mountain, UT 84005","precinct":"25EM31","hd":"50","v_score":"1.193887297","decile":"4","lat":40.303896318572,"lng":-112.004545732867},{"id":"113984","name":"Montel Metz","party":"","address":"2273 E Spring St, Eagle Mountain, UT 84005","precinct":"25EM31","hd":"50","v_score":"8.284004873","decile":"8","lat":40.303896318589,"lng":-112.004771189291},{"id":"114009","name":"Dicy Kshlerin DDS","party":"Rep","address":"2118 E Easter Dr, Eagle Mountain, UT 84005","precinct":"25EM31","hd":"50","v_score":"0","decile":"2","lat":40.298555757042,"lng":-112.003663861648},{"id":"114514","name":"Sage Jaskolski","party":"Rep","address":"2156 E Easter Dr, Eagle Mountain, UT 84005","precinct":"25EM31","hd":"50","v_score":"0","decile":"2","lat":40.29855272767,"lng":-112.003131421385},{"id":"116162","name":"Gigi Emard","party":"Dem","address":"3692 N Partridge Ln, Eagle Mountain, UT 84005","precinct":"25EM31","hd":"50","v_score":"1.193887297","decile":"4","lat":40.300765198277,"lng":-112.002276176564},{"id":"116722","name":"Kylah Schroeder","party":"Rep","address":"2096 E Autumn St, Eagle Mountain, UT 84005","precinct":"25EM31","hd":"50","v_score":"1.193887297","decile":"4","lat":40.302400394396,"lng":-112.003826666463},{"id":"116832","name":"Mrs. Yamilex Marquardt PhD","party":"Rep","address":"2063 E Shadow Dr, Eagle Mountain, UT 84005","precinct":"25EM31","hd":"50","v_score":"1.193887297","decile":"4","lat":40.300736980855,"lng":-112.004168170972},{"id":"118275","name":"Shad Reinger-Little","party":"","address":"2273 E Spring St, Eagle Mountain, UT 84005","precinct":"25EM31","hd":"50","v_score":"8.284004873","decile":"8","lat":40.303896318589,"lng":-112.004771189291},{"id":"120502","name":"Mr. Amare Breitenberg Jr.","party":"","address":"2005 E Autumn St, Eagle Mountain, UT 84005","precinct":"25EM31","hd":"50","v_score":"4.069929862","decile":"7","lat":40.302521033477,"lng":-112.004851159037},{"id":"125334","name":"Chrissy Schuppe-Rempel","party":"","address":"2005 E Fall St, Eagle Mountain, UT 84005","precinct":"25EM31","hd":"50","v_score":"0","decile":"2","lat":40.303207347104,"lng":-112.004717268649},{"id":"126252","name":"Flem Spinka","party":"Rep","address":"2092 E Partridge Ln, Eagle Mountain, UT 84005","precinct":"25EM31","hd":"50","v_score":"7.090117576","decile":"8","lat":40.301301783306,"lng":-112.003839854238},{"id":"127072","name":"Yessenia Lakin","party":"","address":"2077 E Shadow Dr, Eagle Mountain, UT 84005","precinct":"25EM31","hd":"50","v_score":"0","decile":"2","lat":40.3007350924,"lng":-112.00398876906},{"id":"127263","name":"Gillian Christiansen PhD","party":"","address":"2022 E Blossom St, Eagle Mountain, UT 84005","precinct":"25EM31","hd":"50","v_score":"0","decile":"2","lat":40.299939761376,"lng":-112.004693061281},{"id":"128081","name":"Cohen Lubowitz-Daniel","party":"","address":"1984 E Shadow Dr, Eagle Mountain, UT 84005","precinct":"25EM31","hd":"50","v_score":"4.214075011","decile":"7","lat":40.300638464145,"lng":-112.005696288508},{"id":"128123","name":"Mr. Burke Nicolas","party":"Dem","address":"2105 E Shadow Dr, Eagle Mountain, UT 84005","precinct":"25EM31","hd":"50","v_score":"0","decile":"2","lat":40.300731315489,"lng":-112.003629965235},{"id":"128671","name":"Olevia Wiza","party":"","address":"3572 Flower St, Eagle Mountain, UT 84005","precinct":"25EM31","hd":"50","v_score":"0","decile":"2","lat":40.299104713155,"lng":-112.005322229694},{"id":"130723","name":"Ms. Kristian Koss DDS","party":"Rep","address":"3698 N Summer Way, Eagle Mountain, UT 84005","precinct":"25EM31","hd":"50","v_score":"7.090117576","decile":"8","lat":40.301073230556,"lng":-112.006242705879},{"id":"131261","name":"Orvil Schuppe-Grady","party":"","address":"2158 E Shadow Dr, Eagle Mountain, UT 84005","precinct":"25EM31","hd":"50","v_score":"0","decile":"2","lat":40.300610940767,"lng":-112.003038321816},{"id":"132064","name":"Mrs. Eboni Homenick","party":"","address":"3635 N Summer Way, Eagle Mountain, UT 84005","precinct":"25EM31","hd":"50","v_score":"0","decile":"2","lat":40.299734775223,"lng":-112.006412487301},{"id":"132097","name":"Mr. Ellison Larkin Sr.","party":"","address":"1985 E Blossom St, Eagle Mountain, UT 84005","precinct":"25EM31","hd":"50","v_score":"2.876042565","decile":"6","lat":40.300061032112,"lng":-112.005178466968},{"id":"134291","name":"Shaquan McClure-Wilkinson","party":"","address":"1964 E Sunrise Dr, Eagle Mountain, UT 84005","precinct":"25EM31","hd":"50","v_score":"0","decile":"2","lat":40.299263727845,"lng":-112.006466534177},{"id":"134686","name":"Saniya Cole-Marvin","party":"Dem","address":"1991 E Shadow Dr, Eagle Mountain, UT 84005","precinct":"25EM31","hd":"50","v_score":"12.49472132","decile":"9","lat":40.300746692909,"lng":-112.005090809378},{"id":"134972","name":"Jaime Schmeler","party":"","address":"2143 E Partridge Ln, Eagle Mountain, UT 84005","precinct":"25EM31","hd":"50","v_score":"1.121327652","decile":"3","lat":40.30141231875,"lng":-112.003213234863},{"id":"135008","name":"Kristi VonRueden","party":"","address":"2118 E Shadow Dr, Eagle Mountain, UT 84005","precinct":"25EM31","hd":"50","v_score":"11.37977487","decile":"9","lat":40.300616918491,"lng":-112.003649466462},{"id":"135029","name":"Dashawn Nienow","party":"Rep","address":"2063 E Shadow Dr, Eagle Mountain, UT 84005","precinct":"25EM31","hd":"50","v_score":"11.99259879","decile":"9","lat":40.300736980855,"lng":-112.004168170972},{"id":"135069","name":"Nile King","party":"","address":"2001 E Sunrise Dr, Eagle Mountain, UT 84005","precinct":"25EM31","hd":"50","v_score":"2.315214949","decile":"5","lat":40.299370324341,"lng":-112.00550687337},{"id":"135117","name":"Demarco Lang III","party":"Rep","address":"2024 E Shadow Dr, Eagle Mountain, UT 84005","precinct":"25EM31","hd":"50","v_score":"0","decile":"2","lat":40.300632032607,"lng":-112.005085296852},{"id":"135140","name":"Tamica Mueller","party":"","address":"2064 E Blossom St, Eagle Mountain, UT 84005","precinct":"25EM31","hd":"50","v_score":"2.744440783","decile":"5","lat":40.299932358404,"lng":-112.004153572814},{"id":"135320","name":"Adline Hahn","party":"","address":"2075 E Blossom St, Eagle Mountain, UT 84005","precinct":"25EM31","hd":"50","v_score":"15.00919004","decile":"9","lat":40.300045168602,"lng":-112.004022420253},{"id":"135409","name":"Dr. Clara Hahn","party":"Dem","address":"2103 E Blossom St, Eagle Mountain, UT 84005","precinct":"25EM31","hd":"50","v_score":"2.315214949","decile":"5","lat":40.300040233288,"lng":-112.003662761275},{"id":"136011","name":"Shalon Ondricka","party":"","address":"2109 E Fall St, Eagle Mountain, UT 84005","precinct":"25EM31","hd":"50","v_score":"4.214075011","decile":"7","lat":40.303203318567,"lng":-112.003455593626},{"id":"136961","name":"Leigh Berge","party":"","address":"2022 E Blossom St, Eagle Mountain, UT 84005","precinct":"25EM31","hd":"50","v_score":"19.22326505","decile":"10","lat":40.299939761376,"lng":-112.004693061281},{"id":"137192","name":"Chad Gleason II","party":"Rep","address":"3619 N Summer Way, Eagle Mountain, UT 84005","precinct":"25EM31","hd":"50","v_score":"6.814370645","decile":"8","lat":40.299544970454,"lng":-112.006414984757},{"id":"137372","name":"Alexis Torp","party":"","address":"2096 E Autumn St, Eagle Mountain, UT 84005","precinct":"25EM31","hd":"50","v_score":"5.693042993","decile":"7","lat":40.302400394396,"lng":-112.003826666463},{"id":"137834","name":"Alf Hirthe-Lang","party":"Rep","address":"2379 E Sego Lily Dr, Eagle Mountain, UT 84005","precinct":"25EM31","hd":"50","v_score":"8.347511332","decile":"8","lat":40.29921098158,"lng":-111.999063598149},{"id":"138399","name":"Marc Steuber","party":"Dem","address":"2092 E Partridge Ln, Eagle Mountain, UT 84005","precinct":"25EM31","hd":"50","v_score":"38.99046514","decile":"10","lat":40.301301783306,"lng":-112.003839854238},{"id":"138655","name":"Mr. Pascal Becker Jr.","party":"Dem","address":"2377 E Marigold Dr, Eagle Mountain, UT 84005","precinct":"25EM31","hd":"50","v_score":"7.111403802","decile":"8","lat":40.298519967944,"lng":-111.998852687301},{"id":"138660","name":"Caleigh Littel","party":"Rep","address":"2132 E Easter Dr, Eagle Mountain, UT 84005","precinct":"25EM31","hd":"50","v_score":"2.587603312","decile":"5","lat":40.298554057738,"lng":-112.00346801865},{"id":"139128","name":"Redmond Fadel-Weissnat","party":"Dem","address":"2109 E Spring St, Eagle Mountain, UT 84005","precinct":"25EM31","hd":"50","v_score":"4.064235245","decile":"6","lat":40.303896318646,"lng":-112.005510686364},{"id":"139145","name":"Little Tillman","party":"Rep","address":"2103 E Blossom St, Eagle Mountain, UT 84005","precinct":"25EM31","hd":"50","v_score":"3.781490609","decile":"6","lat":40.300040233288,"lng":-112.003662761275},{"id":"139719","name":"Mr. Stevie Wuckert V","party":"","address":"2303 E Spring St, Eagle Mountain, UT 84005","precinct":"25EM31","hd":"50","v_score":"1.193887297","decile":"4","lat":40.303896318579,"lng":-112.004635915437},{"id":"140084","name":"Lauryn Bradtke MD","party":"Dem","address":"2019 E Autumn St, Eagle Mountain, UT 84005","precinct":"25EM31","hd":"50","v_score":"2.315214949","decile":"5","lat":40.302520112651,"lng":-112.004695081114},{"id":"140433","name":"Tammie Bernhard","party":"","address":"2075 E Blossom St, Eagle Mountain, UT 84005","precinct":"25EM31","hd":"50","v_score":"14.24014515","decile":"9","lat":40.300045168602,"lng":-112.004022420253},{"id":"142317","name":"Winford Kunde","party":"","address":"3599 N Columbine Way, Eagle Mountain, UT 84005","precinct":"25EM31","hd":"50","v_score":"7.856307211","decile":"8","lat":40.299469184029,"lng":-112.00112699008},{"id":"143875","name":"Lesley Wyman","party":"","address":"2126 E Autumn St, Eagle Mountain, UT 84005","precinct":"25EM31","hd":"50","v_score":"2.315214949","decile":"5","lat":40.302398421198,"lng":-112.003492213772},{"id":"145077","name":"Dalton Bashirian DVM","party":"Rep","address":"2022 E Blossom St, Eagle Mountain, UT 84005","precinct":"25EM31","hd":"50","v_score":"23.45875849","decile":"10","lat":40.299939761376,"lng":-112.004693061281},{"id":"145536","name":"Jagger Yost","party":"","address":"2080 E Fall St, Eagle Mountain, UT 84005","precinct":"25EM31","hd":"50","v_score":"5.191257514","decile":"7","lat":40.303092017048,"lng":-112.004518938197},{"id":"145567","name":"Marry Blick","party":"","address":"2019 E Spring St, Eagle Mountain, UT 84005","precinct":"25EM31","hd":"50","v_score":"0","decile":"3","lat":40.303896318677,"lng":-112.005916507928},{"id":"146657","name":"Nils Hettinger-Luettgen","party":"","address":"3935 N Summer Way, Eagle Mountain, UT 84005","precinct":"25EM31","hd":"50","v_score":"2.817000428","decile":"6","lat":40.304177492521,"lng":-112.006145407952},{"id":"151541","name":"Mr. Tab Padberg","party":"Rep","address":"3881 N Winter Way, Eagle Mountain, UT 84005","precinct":"25EM31","hd":"50","v_score":"8.421194992","decile":"8","lat":40.303663159777,"lng":-112.00238954739},{"id":"152703","name":"Mattie Dickens","party":"Dem","address":"3935 N Summer Way, Eagle Mountain, UT 84005","precinct":"25EM31","hd":"50","v_score":"5.40460374","decile":"7","lat":40.304177492521,"lng":-112.006145407952},{"id":"154044","name":"Marolyn Feest","party":"Dem","address":"1995 E Blossom St, Eagle Mountain, UT 84005","precinct":"25EM31","hd":"50","v_score":"0","decile":"3","lat":40.3000592695,"lng":-112.005050017333},{"id":"154113","name":"Mrs. Hermina Kirlin","party":"Rep","address":"2021 E Blossom St, Eagle Mountain, UT 84005","precinct":"25EM31","hd":"50","v_score":"46.6170808","decile":"10","lat":40.300054686708,"lng":-112.004716048282},{"id":"154345","name":"Glynis Langworth MD","party":"","address":"2062 E Summer Way, Eagle Mountain, UT 84005","precinct":"25EM31","hd":"50","v_score":"1.193887297","decile":"4","lat":40.304623118927,"lng":-112.004664092782},{"id":"155757","name":"Dr. Jere Rice DDS","party":"Rep","address":"2012 E Summer Way, Eagle Mountain, UT 84005","precinct":"25EM31","hd":"50","v_score":"41.3483769","decile":"10","lat":40.304620458105,"lng":-112.005570406821},{"id":"156014","name":"Cinda D'Amore-Pollich","party":"Dem","address":"2125 E Fall St, Eagle Mountain, UT 84005","precinct":"25EM31","hd":"50","v_score":"2.315214949","decile":"5","lat":40.303203318552,"lng":-112.003261431466},{"id":"156818","name":"Gabrielle Feil","party":"","address":"1964 E Sunrise Dr, Eagle Mountain, UT 84005","precinct":"25EM31","hd":"50","v_score":"2.315214949","decile":"5","lat":40.299263727845,"lng":-112.006466534177},{"id":"157085","name":"Haven Goldner","party":"","address":"2377 E Marigold Dr, Eagle Mountain, UT 84005","precinct":"25EM31","hd":"50","v_score":"9.987446367","decile":"9","lat":40.298519967944,"lng":-111.998852687301},{"id":"158691","name":"Rosario Jerde","party":"Rep","address":"3542 N Easter Dr, Eagle Mountain, UT 84005","precinct":"25EM31","hd":"50","v_score":"20.35131456","decile":"10","lat":40.298975081592,"lng":-112.002306619225},{"id":"163582","name":"Hobert Zulauf","party":"Dem","address":"2035 E Fall St, Eagle Mountain, UT 84005","precinct":"25EM31","hd":"50","v_score":"15.4533012","decile":"9","lat":40.303205993731,"lng":-112.0043532189},{"id":"164615","name":"Angela Cummerata-Jerde","party":"Dem","address":"2065 E Blossom St, Eagle Mountain, UT 84005","precinct":"25EM31","hd":"50","v_score":"7.153624035","decile":"8","lat":40.300046931215,"lng":-112.004150869888},{"id":"164807","name":"Tito Morissette","party":"Rep","address":"2038 E Shadow Dr, Eagle Mountain, UT 84005","precinct":"25EM31","hd":"50","v_score":"21.73622446","decile":"10","lat":40.300629781568,"lng":-112.004871449773},{"id":"167027","name":"Kasandra Daugherty","party":"","address":"1984 E Shadow Dr, Eagle Mountain, UT 84005","precinct":"25EM31","hd":"50","v_score":"12.49472132","decile":"9","lat":40.300638464145,"lng":-112.005696288508},{"id":"168360","name":"Flor Blanda","party":"","address":"2066 E Spring St, Eagle Mountain, UT 84005","precinct":"25EM31","hd":"50","v_score":"1.121327652","decile":"3","lat":40.303781727146,"lng":-112.003993258722},{"id":"169714","name":"Jade Rosenbaum MD","party":"Dem","address":"2021 E Blossom St, Eagle Mountain, UT 84005","precinct":"25EM31","hd":"50","v_score":"46.6170808","decile":"10","lat":40.300054686708,"lng":-112.004716048282},{"id":"172341","name":"Dr. Nolen Mayert","party":"Dem","address":"1964 E Sunrise Dr, Eagle Mountain, UT 84005","precinct":"25EM31","hd":"50","v_score":"1.121327652","decile":"3","lat":40.299263727845,"lng":-112.006466534177},{"id":"173473","name":"Dakotah Brekke","party":"Dem","address":"2157 E Fall St, Eagle Mountain, UT 84005","precinct":"25EM31","hd":"50","v_score":"14.131145","decile":"9","lat":40.303203318522,"lng":-112.002873107146},{"id":"173556","name":"Jemal Berge","party":"","address":"3692 N Partridge Ln, Eagle Mountain, UT 84005","precinct":"25EM31","hd":"50","v_score":"0","decile":"3","lat":40.300765198277,"lng":-112.002276176564},{"id":"174048","name":"Evelena Aufderhar-Dach","party":"","address":"2178 E Autumn St, Eagle Mountain, UT 84005","precinct":"25EM31","hd":"50","v_score":"2.315214949","decile":"5","lat":40.302395727219,"lng":-112.002911910934},{"id":"174049","name":"Miss Vennie Gibson DVM","party":"Dem","address":"2178 E Autumn St, Eagle Mountain, UT 84005","precinct":"25EM31","hd":"50","v_score":"3.781490609","decile":"6","lat":40.302395727219,"lng":-112.002911910934},{"id":"180754","name":"Alena Heidenreich","party":"","address":"2142 E Spring St, Eagle Mountain, UT 84005","precinct":"25EM31","hd":"50","v_score":"6.657533174","decile":"7","lat":40.303777034119,"lng":-112.003076163138},{"id":"180913","name":"Ambers Rowe","party":"","address":"2142 E Spring St, Eagle Mountain, UT 84005","precinct":"25EM31","hd":"50","v_score":"6.657533174","decile":"7","lat":40.303777034119,"lng":-112.003076163138},{"id":"181361","name":"Cherilyn Muller-Yost","party":"Rep","address":"2021 E Blossom St, Eagle Mountain, UT 84005","precinct":"25EM31","hd":"50","v_score":"1.623113131","decile":"5","lat":40.300054686708,"lng":-112.004716048282}]