[{"id":"312","name":"Dr. Dominque Kuhlman DVM","party":"Dem","address":"6993 N South Pass Rd, Eagle Mountain, UT 84005","precinct":"25EM22","hd":"50","v_score":"9.907118004","decile":"8","lat":40.34675972443,"lng":-111.969302852639},{"id":"330","name":"Orilla Reinger","party":"Rep","address":"4072 E Chinook St, Eagle Mountain, UT 84005","precinct":"25EM22","hd":"50","v_score":"0","decile":"1","lat":40.348538719167,"lng":-111.965858374318},{"id":"392","name":"Stephania Medhurst-Johnston","party":"","address":"6952 N Kiowa Pkwy, Eagle Mountain, UT 84005","precinct":"25EM22","hd":"50","v_score":"2.587603312","decile":"5","lat":40.346668594511,"lng":-111.966413940721},{"id":"436","name":"Pratt Keebler","party":"","address":"4025 E Comanche St, Eagle Mountain, UT 84005","precinct":"25EM22","hd":"50","v_score":"0","decile":"1","lat":40.347245190699,"lng":-111.966796356366},{"id":"572","name":"Daunte Streich","party":"","address":"7156 N Skyview Ln, Eagle Mountain, UT 84005","precinct":"25EM22","hd":"50","v_score":"11.02844566","decile":"9","lat":40.349832457071,"lng":-111.972409156841},{"id":"783","name":"Rudolph Berge","party":"","address":"3964 E South Pass Rd, Eagle Mountain, UT 84005","precinct":"25EM22","hd":"50","v_score":"6.657533174","decile":"7","lat":40.3460091251,"lng":-111.967814230685},{"id":"1064","name":"Mr. Ray Medhurst DVM","party":"","address":"4052 E South Pass Rd, Eagle Mountain, UT 84005","precinct":"25EM22","hd":"50","v_score":"27.6390385","decile":"10","lat":40.345980871906,"lng":-111.966221433278},{"id":"1536","name":"Mr. Webster Bernier","party":"Rep","address":"7572 N Jacobs Way, Eagle Mountain, UT 84005","precinct":"25EM22","hd":"50","v_score":"17.76342521","decile":"10","lat":40.355358442091,"lng":-111.97678951635},{"id":"1674","name":"Idabelle Mitchell","party":"","address":"7548 N Jacobs Way, Eagle Mountain, UT 84005","precinct":"25EM22","hd":"50","v_score":"3.93832808","decile":"6","lat":40.356508489979,"lng":-111.977027412359},{"id":"2170","name":"Richie Orn","party":"","address":"3978 E Yakima Way, Eagle Mountain, UT 84005","precinct":"25EM22","hd":"50","v_score":"1.121327652","decile":"3","lat":40.345332311047,"lng":-111.967438516635},{"id":"2331","name":"Mrs. Enola Bogisich PhD","party":"","address":"7044 N Cherokee St, Eagle Mountain, UT 84005","precinct":"25EM22","hd":"50","v_score":"3.781490609","decile":"6","lat":40.348213675382,"lng":-111.964592658139},{"id":"3114","name":"Jared Murphy","party":"Rep","address":"3903 E Eagle Top Ct, Eagle Mountain, UT 84005","precinct":"25EM22","hd":"50","v_score":"1.193887297","decile":"3","lat":40.351661468149,"lng":-111.968791393471},{"id":"3306","name":"Jevon Runolfsdottir","party":"","address":"4025 E Sioux St, Eagle Mountain, UT 84005","precinct":"25EM22","hd":"50","v_score":"10.87160818","decile":"9","lat":40.350854257519,"lng":-111.966818042944},{"id":"3312","name":"Krystin Okuneva","party":"","address":"3843 E Pawnee Rd, Eagle Mountain, UT 84005","precinct":"25EM22","hd":"50","v_score":"23.20250012","decile":"10","lat":40.350783615459,"lng":-111.970450970455},{"id":"3342","name":"Efrem Gaylord","party":"","address":"4052 E Sioux St, Eagle Mountain, UT 84005","precinct":"25EM22","hd":"50","v_score":"5.40460374","decile":"7","lat":40.350731794856,"lng":-111.966325612708},{"id":"4952","name":"Mrs. Dollie Dietrich","party":"Rep","address":"4079 E Comanche St, Eagle Mountain, UT 84005","precinct":"25EM22","hd":"50","v_score":"8.347511332","decile":"8","lat":40.347240310708,"lng":-111.965832184194},{"id":"5508","name":"Miss Brooke Boehm","party":"","address":"3959 E Sioux St, Eagle Mountain, UT 84005","precinct":"25EM22","hd":"50","v_score":"5.191257514","decile":"7","lat":40.350866881167,"lng":-111.967904524902},{"id":"5778","name":"Mrs. Rosetta Gibson PhD","party":"","address":"3938 E Sioux St, Eagle Mountain, UT 84005","precinct":"25EM22","hd":"50","v_score":"23.30240532","decile":"10","lat":40.350745846955,"lng":-111.967994603084},{"id":"6081","name":"Valentino Christiansen","party":"Rep","address":"4001 E Yakima Way, Eagle Mountain, UT 84005","precinct":"25EM22","hd":"50","v_score":"13.85417219","decile":"9","lat":40.345217968772,"lng":-111.967252722362},{"id":"7091","name":"Lovina Bauch","party":"Rep","address":"7034 N Cherokee St, Eagle Mountain, UT 84005","precinct":"25EM22","hd":"50","v_score":"13.23991076","decile":"9","lat":40.348102866856,"lng":-111.964611913221},{"id":"7145","name":"Coty Hartmann","party":"Rep","address":"3903 Hollow Crest Dr, Eagle Mountain, UT 84005","precinct":"25EM22","hd":"50","v_score":"0","decile":"1","lat":40.348581310807,"lng":-111.969089484484},{"id":"7917","name":"Durwood Heller","party":"Rep","address":"7296 N Long Ridge Dr, Eagle Mountain, UT 84005","precinct":"25EM22","hd":"50","v_score":"1.193887297","decile":"3","lat":40.351161529082,"lng":-111.973621976362},{"id":"8110","name":"Lanita Kassulke","party":"","address":"6911 N Chippewa Dr, Eagle Mountain, UT 84005","precinct":"25EM22","hd":"50","v_score":"3.93832808","decile":"6","lat":40.34619189942,"lng":-111.965530509069},{"id":"8112","name":"Mr. Omar Mayert MD","party":"Rep","address":"6926 N Cherokee St, Eagle Mountain, UT 84005","precinct":"25EM22","hd":"50","v_score":"2.744440783","decile":"5","lat":40.346311820824,"lng":-111.964528544427},{"id":"8325","name":"Miss Shelby Will","party":"","address":"3971 E Golden Eagle Rd, Eagle Mountain, UT 84005","precinct":"25EM22","hd":"50","v_score":"8.15240309","decile":"8","lat":40.35013626104,"lng":-111.967876724811},{"id":"8713","name":"Mr. Ali Howe DDS","party":"","address":"7144 Ute Dr, Eagle Mountain, UT 84005","precinct":"25EM22","hd":"50","v_score":"9.61867875","decile":"8","lat":40.349701039496,"lng":-111.965580014717},{"id":"9434","name":"Ms. Sage Cruickshank DVM","party":"Dem","address":"6943 N Cherokee Dr, Eagle Mountain, UT 84005","precinct":"25EM22","hd":"50","v_score":"2.315214949","decile":"5","lat":40.346576428142,"lng":-111.964664943221},{"id":"9610","name":"Dr. Orland Howe III","party":"Dem","address":"7154 N Ute St, Eagle Mountain, UT 84005","precinct":"25EM22","hd":"50","v_score":"1.46627566","decile":"4","lat":40.349783018304,"lng":-111.965570725241},{"id":"9967","name":"Nira Walter","party":"","address":"3964 E Eagle Top Ct, Eagle Mountain, UT 84005","precinct":"25EM22","hd":"50","v_score":"2.315214949","decile":"5","lat":40.3517026928,"lng":-111.968255023257},{"id":"10128","name":"Adelle Crona-Monahan","party":"Dem","address":"4107 E Sioux St, Eagle Mountain, UT 84005","precinct":"25EM22","hd":"50","v_score":"6.814370645","decile":"8","lat":40.350840310272,"lng":-111.96543659687},{"id":"10251","name":"Yadiel Stroman","party":"Rep","address":"7035 N Cherokee St, Eagle Mountain, UT 84005","precinct":"25EM22","hd":"50","v_score":"10.87722212","decile":"9","lat":40.348248796077,"lng":-111.964738983504},{"id":"10316","name":"Iesha Schuster","party":"Dem","address":"7159 N Golden Ridge Dr, Eagle Mountain, UT 84005","precinct":"25EM22","hd":"50","v_score":"8.363183621","decile":"8","lat":40.349809363748,"lng":-111.970590030524},{"id":"10487","name":"Alcee Pagac","party":"","address":"4052 E Sioux St, Eagle Mountain, UT 84005","precinct":"25EM22","hd":"50","v_score":"2.315214949","decile":"5","lat":40.350731794856,"lng":-111.966325612708},{"id":"10686","name":"Jase Mosciski","party":"Rep","address":"3923 E Eagle Top Ct, Eagle Mountain, UT 84005","precinct":"25EM22","hd":"50","v_score":"8.15240309","decile":"8","lat":40.351728759581,"lng":-111.968627876457},{"id":"10817","name":"Dr. Domonique Wehner PhD","party":"Dem","address":"7105 Ute Dr, Eagle Mountain, UT 84005","precinct":"25EM22","hd":"50","v_score":"24.56552177","decile":"10","lat":40.3493774806,"lng":-111.965807655772},{"id":"11636","name":"Dr. Webster Herzog","party":"Dem","address":"7446 N Long Ridge Dr, Eagle Mountain, UT 84005","precinct":"25EM22","hd":"50","v_score":"10.04766669","decile":"9","lat":40.350645269835,"lng":-111.972613172149},{"id":"11663","name":"Trinidad Howe","party":"","address":"3502 E Jacobs Way, Eagle Mountain, UT 84005","precinct":"25EM22","hd":"50","v_score":"6.74007049","decile":"8","lat":40.355374245308,"lng":-111.977172836501},{"id":"11707","name":"Yair Hyatt","party":"Rep","address":"4052 E Chinook St, Eagle Mountain, UT 84005","precinct":"25EM22","hd":"50","v_score":"2.817000428","decile":"6","lat":40.34854303464,"lng":-111.966149173479},{"id":"11798","name":"Dr. Thornton Walsh","party":"Rep","address":"3612 E Jacobs Ct, Eagle Mountain, UT 84005","precinct":"25EM22","hd":"50","v_score":"5.40460374","decile":"7","lat":40.355222482994,"lng":-111.975384780882},{"id":"12034","name":"Joanie Harris","party":"Dem","address":"3959 E Sioux St, Eagle Mountain, UT 84005","precinct":"25EM22","hd":"50","v_score":"5.191257514","decile":"7","lat":40.350866881167,"lng":-111.967904524902},{"id":"12050","name":"Dr. Kendall Kreiger DVM","party":"Dem","address":"7045 N Cherokee St, Eagle Mountain, UT 84005","precinct":"25EM22","hd":"50","v_score":"2.744440783","decile":"5","lat":40.348334813112,"lng":-111.964738983493},{"id":"12286","name":"Layne O'Connell","party":"","address":"3938 E Sioux St, Eagle Mountain, UT 84005","precinct":"25EM22","hd":"50","v_score":"22.10816128","decile":"10","lat":40.350745846955,"lng":-111.967994603084},{"id":"12305","name":"Lenard Cassin","party":"","address":"3749 Hollow Crest Dr, Eagle Mountain, UT 84005","precinct":"25EM22","hd":"50","v_score":"10.87160818","decile":"9","lat":40.349903572673,"lng":-111.971871766615},{"id":"12590","name":"Treasure Cartwright","party":"","address":"4086 E Dakota Dr, Eagle Mountain, UT 84005","precinct":"25EM22","hd":"50","v_score":"2.315214949","decile":"5","lat":40.345271719498,"lng":-111.965375394821},{"id":"12723","name":"Koen Dicki","party":"Dem","address":"6943 N Cherokee Dr, Eagle Mountain, UT 84005","precinct":"25EM22","hd":"50","v_score":"2.315214949","decile":"5","lat":40.346576428142,"lng":-111.964664943221},{"id":"13154","name":"Ingrid Swaniawski","party":"Rep","address":"3955 E Pawnee Rd, Eagle Mountain, UT 84005","precinct":"25EM22","hd":"50","v_score":"2.315214949","decile":"5","lat":40.349196799997,"lng":-111.968125413718},{"id":"13456","name":"Knute Heidenreich DDS","party":"Dem","address":"3978 E Sioux St, Eagle Mountain, UT 84005","precinct":"25EM22","hd":"50","v_score":"2.744440783","decile":"5","lat":40.350761719044,"lng":-111.967532604758},{"id":"14113","name":"Mr. Daryl Farrell V","party":"Dem","address":"7156 N Skyview Ln, Eagle Mountain, UT 84005","precinct":"25EM22","hd":"50","v_score":"11.02844566","decile":"9","lat":40.349832457071,"lng":-111.972409156841},{"id":"14215","name":"Jammie Lakin","party":"Dem","address":"7145 Ute Dr, Eagle Mountain, UT 84005","precinct":"25EM22","hd":"50","v_score":"2.315214949","decile":"5","lat":40.349658726157,"lng":-111.965743659163},{"id":"14520","name":"Dr. Johnny Cole DDS","party":"Dem","address":"7114 Ute Dr, Eagle Mountain, UT 84005","precinct":"25EM22","hd":"50","v_score":"12.49472132","decile":"9","lat":40.349481010511,"lng":-111.965637948299},{"id":"14768","name":"Rubin Jacobi","party":"","address":"6864 N Cherokee St, Eagle Mountain, UT 84005","precinct":"25EM22","hd":"50","v_score":"35.30276996","decile":"10","lat":40.345557905268,"lng":-111.964586999662},{"id":"14800","name":"Clevie Barton","party":"Dem","address":"3558 E Jacobs Way, Eagle Mountain, UT 84005","precinct":"25EM22","hd":"50","v_score":"0","decile":"1","lat":40.355220614346,"lng":-111.976237969784},{"id":"15121","name":"Rutherford Schulist","party":"Dem","address":"7336 N Long Ridge Dr, Eagle Mountain, UT 84005","precinct":"25EM22","hd":"50","v_score":"16.67438","decile":"9","lat":40.351318599658,"lng":-111.973770685969},{"id":"15358","name":"Mr. Kamden Borer DVM","party":"Dem","address":"7189 Pawnee Rd, Eagle Mountain, UT 84005","precinct":"25EM22","hd":"50","v_score":"2.660162957","decile":"5","lat":40.350535686172,"lng":-111.971210864169},{"id":"15434","name":"Syed Lind PhD","party":"Rep","address":"6927 N Kiowa Pkwy, Eagle Mountain, UT 84005","precinct":"25EM22","hd":"50","v_score":"4.210716443","decile":"7","lat":40.346518014791,"lng":-111.966565274317},{"id":"15606","name":"Nigel Cronin III","party":"Dem","address":"4098 Cherokee St, Eagle Mountain, UT 84005","precinct":"25EM22","hd":"50","v_score":"27.05251889","decile":"10","lat":40.344656540513,"lng":-111.964539129045},{"id":"15972","name":"Joy Gusikowski PhD","party":"","address":"6927 N Kiowa Pkwy, Eagle Mountain, UT 84005","precinct":"25EM22","hd":"50","v_score":"2.744440783","decile":"5","lat":40.346518014791,"lng":-111.966565274317},{"id":"16063","name":"Nathen Ritchie","party":"","address":"7102 N Cherokee St, Eagle Mountain, UT 84005","precinct":"25EM22","hd":"50","v_score":"7.493443096","decile":"8","lat":40.348832853282,"lng":-111.964614088514},{"id":"16064","name":"Pierre Koss","party":"","address":"3934 E Eagle Top Ct, Eagle Mountain, UT 84005","precinct":"25EM22","hd":"50","v_score":"0","decile":"1","lat":40.351571780499,"lng":-111.968697801079},{"id":"16409","name":"Leva Gerlach","party":"Dem","address":"6902 N Cherokee St, Eagle Mountain, UT 84005","precinct":"25EM22","hd":"50","v_score":"25.24303225","decile":"10","lat":40.345905315511,"lng":-111.964562179094},{"id":"16525","name":"Hugh Glover-Leannon","party":"Rep","address":"3998 E Yakima Way, Eagle Mountain, UT 84005","precinct":"25EM22","hd":"50","v_score":"2.315214949","decile":"5","lat":40.345333778336,"lng":-111.967201363143},{"id":"16572","name":"Mrs. Alfreda Thompson DVM","party":"Rep","address":"7059 N Cherokee St, Eagle Mountain, UT 84005","precinct":"25EM22","hd":"50","v_score":"1.121327652","decile":"3","lat":40.34845523696,"lng":-111.964738983617},{"id":"16899","name":"Francisca Bernier","party":"Dem","address":"6966 N South Pass Rd, Eagle Mountain, UT 84005","precinct":"25EM22","hd":"50","v_score":"12.15816236","decile":"9","lat":40.347020321318,"lng":-111.969239137224},{"id":"17395","name":"Ryann Fritsch","party":"Dem","address":"4116 E Dakota Dr, Eagle Mountain, UT 84005","precinct":"25EM22","hd":"50","v_score":"1.46627566","decile":"4","lat":40.345271719484,"lng":-111.965197364559},{"id":"17567","name":"Dr. Zayden Kerluke","party":"Dem","address":"6864 N Cherokee St, Eagle Mountain, UT 84005","precinct":"25EM22","hd":"50","v_score":"35.30276996","decile":"10","lat":40.345557905268,"lng":-111.964586999662},{"id":"17835","name":"Alonzo Torp","party":"Rep","address":"3979 E Golden Eagle Rd, Eagle Mountain, UT 84005","precinct":"25EM22","hd":"50","v_score":"15.19851159","decile":"9","lat":40.350129310519,"lng":-111.967605437028},{"id":"18758","name":"Davante Labadie","party":"Rep","address":"3954 E Eagle Top Ct, Eagle Mountain, UT 84005","precinct":"25EM22","hd":"50","v_score":"0","decile":"1","lat":40.351692560497,"lng":-111.968315093364},{"id":"19135","name":"Lane Volkman","party":"Rep","address":"3678 E Long Ridge Dr, Eagle Mountain, UT 84005","precinct":"25EM22","hd":"50","v_score":"13.83018807","decile":"9","lat":40.350500495305,"lng":-111.972564203545},{"id":"20194","name":"Chauncy Sipes","party":"Dem","address":"7123 Pawnee Rd, Eagle Mountain, UT 84005","precinct":"25EM22","hd":"50","v_score":"2.587603312","decile":"5","lat":40.350412293916,"lng":-111.971273724388},{"id":"20611","name":"Marceline VonRueden","party":"","address":"6976 N South Pass Rd, Eagle Mountain, UT 84005","precinct":"25EM22","hd":"50","v_score":"5.40460374","decile":"7","lat":40.346933403586,"lng":-111.969211237588},{"id":"21093","name":"Orvin Maggio","party":"","address":"4052 E Chinook St, Eagle Mountain, UT 84005","precinct":"25EM22","hd":"50","v_score":"2.817000428","decile":"6","lat":40.34854303464,"lng":-111.966149173479},{"id":"23506","name":"Estes Christiansen","party":"Dem","address":"4025 E Sioux St, Eagle Mountain, UT 84005","precinct":"25EM22","hd":"50","v_score":"16.99089879","decile":"9","lat":40.350854257519,"lng":-111.966818042944},{"id":"23558","name":"Casen Nader","party":"","address":"7214 Ute Dr, Eagle Mountain, UT 84005","precinct":"25EM22","hd":"50","v_score":"16.31062954","decile":"9","lat":40.350516310318,"lng":-111.965569622012},{"id":"23627","name":"Tristen Howe PhD","party":"","address":"7214 Ute Dr, Eagle Mountain, UT 84005","precinct":"25EM22","hd":"50","v_score":"13.35204966","decile":"9","lat":40.350516310318,"lng":-111.965569622012},{"id":"23642","name":"Luther Langosh-Glover","party":"Dem","address":"4053 E Comanche St, Eagle Mountain, UT 84005","precinct":"25EM22","hd":"50","v_score":"1.193887297","decile":"3","lat":40.347240310737,"lng":-111.966212046837},{"id":"24339","name":"Armando Bruen","party":"","address":"4053 E Comanche St, Eagle Mountain, UT 84005","precinct":"25EM22","hd":"50","v_score":"1.193887297","decile":"3","lat":40.347240310737,"lng":-111.966212046837},{"id":"25271","name":"Samantha Ryan","party":"","address":"7164 N Golden Ridge Dr, Eagle Mountain, UT 84005","precinct":"25EM22","hd":"50","v_score":"9.61867875","decile":"8","lat":40.349993076151,"lng":-111.970332550724},{"id":"25362","name":"Dr. Esequiel Spencer","party":"","address":"7108 N Kiowa Pkwy, Eagle Mountain, UT 84005","precinct":"25EM22","hd":"50","v_score":"45.76919357","decile":"10","lat":40.349179255896,"lng":-111.96662097411},{"id":"25395","name":"Tamela Klocko MD","party":"Rep","address":"3983 E Sioux St, Eagle Mountain, UT 84005","precinct":"25EM22","hd":"50","v_score":"27.62906292","decile":"10","lat":40.350876310421,"lng":-111.967429401749},{"id":"25451","name":"Rodger Fadel","party":"Dem","address":"7094 Ute Dr, Eagle Mountain, UT 84005","precinct":"25EM22","hd":"50","v_score":"31.89859941","decile":"10","lat":40.349341356803,"lng":-111.965660471427},{"id":"25686","name":"Jereme Goyette","party":"Dem","address":"7035 N Cherokee St, Eagle Mountain, UT 84005","precinct":"25EM22","hd":"50","v_score":"17.23294292","decile":"9","lat":40.348248796077,"lng":-111.964738983504},{"id":"26049","name":"Ms. Mistie Schroeder","party":"","address":"3724 E Long Ridge Dr, Eagle Mountain, UT 84005","precinct":"25EM22","hd":"50","v_score":"7.583918848","decile":"8","lat":40.350580017458,"lng":-111.972760152206},{"id":"26337","name":"Celia Hoeger","party":"Rep","address":"7253 N Skyview Ln, Eagle Mountain, UT 84005","precinct":"25EM22","hd":"50","v_score":"6.954919332","decile":"8","lat":40.351198910597,"lng":-111.971693367857},{"id":"27173","name":"Deidre Schiller-Harvey","party":"","address":"3893 E Eagle Top Ct, Eagle Mountain, UT 84005","precinct":"25EM22","hd":"50","v_score":"1.121327652","decile":"3","lat":40.351621574058,"lng":-111.968857218728},{"id":"27246","name":"Miss Elayne Hettinger","party":"Rep","address":"4112 E Chinook St, Eagle Mountain, UT 84005","precinct":"25EM22","hd":"50","v_score":"3.781490609","decile":"6","lat":40.348570746176,"lng":-111.965354301557},{"id":"28242","name":"Jeremy Gleason","party":"Rep","address":"7162 N Mohican Dr, Eagle Mountain, UT 84005","precinct":"25EM22","hd":"50","v_score":"16.73021475","decile":"9","lat":40.349653373284,"lng":-111.967707125449},{"id":"28788","name":"Morgan Muller","party":"","address":"7103 N Golden Ridge Ct, Eagle Mountain, UT 84005","precinct":"25EM22","hd":"50","v_score":"3.781490609","decile":"6","lat":40.349302711669,"lng":-111.970929505835},{"id":"28803","name":"Malorie Weber","party":"Rep","address":"3908 E Eagle Top Ct, Eagle Mountain, UT 84005","precinct":"25EM22","hd":"50","v_score":"2.587603312","decile":"5","lat":40.351217843252,"lng":-111.969134310463},{"id":"29021","name":"Caden Quitzon","party":"Dem","address":"3846 Hollow Crest Dr, Eagle Mountain, UT 84005","precinct":"25EM22","hd":"50","v_score":"6.724398202","decile":"8","lat":40.348820517592,"lng":-111.969913856211},{"id":"29282","name":"Beda Abernathy","party":"Dem","address":"7402 Pawnee Rd, Eagle Mountain, UT 84005","precinct":"25EM22","hd":"50","v_score":"13.01325397","decile":"9","lat":40.351032900385,"lng":-111.971890795483},{"id":"29348","name":"Pedro Miller","party":"Dem","address":"6808 N Yakima Way, Eagle Mountain, UT 84005","precinct":"25EM22","hd":"50","v_score":"14.95117867","decile":"9","lat":40.344761242525,"lng":-111.965429755295},{"id":"29602","name":"Journey Bednar MD","party":"","address":"7074 N Mohican Dr, Eagle Mountain, UT 84005","precinct":"25EM22","hd":"50","v_score":"1.121327652","decile":"3","lat":40.348739834177,"lng":-111.967550239017},{"id":"29790","name":"Damaris Kuhlman","party":"","address":"3871 E Hopi Rd, Eagle Mountain, UT 84005","precinct":"25EM22","hd":"50","v_score":"7.153624035","decile":"8","lat":40.347900895383,"lng":-111.96913847586},{"id":"30801","name":"Ms. Nathaly Mertz","party":"","address":"3957 E Comanche St, Eagle Mountain, UT 84005","precinct":"25EM22","hd":"50","v_score":"0","decile":"1","lat":40.346648774963,"lng":-111.968478350897},{"id":"31751","name":"Dr. Toni Mayert","party":"","address":"6952 N Kiowa Pkwy, Eagle Mountain, UT 84005","precinct":"25EM22","hd":"50","v_score":"1.46627566","decile":"4","lat":40.346668594511,"lng":-111.966413940721},{"id":"32462","name":"Ms. Merrilee Weissnat DVM","party":"","address":"4126 E South Pass Rd, Eagle Mountain, UT 84005","precinct":"25EM22","hd":"50","v_score":"4.069929862","decile":"6","lat":40.345972487747,"lng":-111.965195569328},{"id":"33156","name":"Tilden Lebsack","party":"Dem","address":"4112 E Chinook St, Eagle Mountain, UT 84005","precinct":"25EM22","hd":"50","v_score":"0","decile":"1","lat":40.348570746176,"lng":-111.965354301557},{"id":"33210","name":"Griffin Trantow-Kirlin","party":"Rep","address":"4112 E Sioux St, Eagle Mountain, UT 84005","precinct":"25EM22","hd":"50","v_score":"15.51131257","decile":"9","lat":40.350725718892,"lng":-111.965490892844},{"id":"33514","name":"Henriette Kulas","party":"","address":"4001 E Eagle Top Ct, Eagle Mountain, UT 84005","precinct":"25EM22","hd":"50","v_score":"1.121327652","decile":"3","lat":40.351856328526,"lng":-111.968023923879},{"id":"33896","name":"Sandi Boehm","party":"Rep","address":"7134 N Skyview Ct, Eagle Mountain, UT 84005","precinct":"25EM22","hd":"50","v_score":"1.121327652","decile":"3","lat":40.349770701064,"lng":-111.972448857137},{"id":"34164","name":"Fronnie Hamill-Weimann","party":"","address":"3964 E Eagle Top Ct, Eagle Mountain, UT 84005","precinct":"25EM22","hd":"50","v_score":"1.121327652","decile":"3","lat":40.3517026928,"lng":-111.968255023257},{"id":"34176","name":"Keila Hoppe","party":"","address":"3611 E Jacobs Way, Eagle Mountain, UT 84005","precinct":"25EM22","hd":"50","v_score":"42.23570152","decile":"10","lat":40.355338344966,"lng":-111.975360482617},{"id":"34703","name":"Ferd Larkin","party":"","address":"3582 E Jacobs Ct, Eagle Mountain, UT 84005","precinct":"25EM22","hd":"50","v_score":"5.40460374","decile":"7","lat":40.355239801137,"lng":-111.975841197873},{"id":"35137","name":"Oneal Cummings","party":"Dem","address":"4114 Cherokee St, Eagle Mountain, UT 84005","precinct":"25EM22","hd":"50","v_score":"1.121327652","decile":"3","lat":40.344754563591,"lng":-111.964527157713},{"id":"35159","name":"Eustace Bogisich","party":"Rep","address":"6912 N Kiowa Pkwy, Eagle Mountain, UT 84005","precinct":"25EM22","hd":"50","v_score":"11.24932271","decile":"9","lat":40.346202708371,"lng":-111.966422404919},{"id":"35449","name":"Elois Langosh MD","party":"","address":"7139 N Hollow Crest Cir, Eagle Mountain, UT 84005","precinct":"25EM22","hd":"50","v_score":"7.090117576","decile":"8","lat":40.349504565136,"lng":-111.9717829206},{"id":"36335","name":"Guillermo Bayer","party":"","address":"4061 E Golden Eagle Rd, Eagle Mountain, UT 84005","precinct":"25EM22","hd":"50","v_score":"5.40460374","decile":"7","lat":40.35013831041,"lng":-111.966205815859},{"id":"36541","name":"Tavaris Turcotte","party":"Dem","address":"6968 N Comanche St, Eagle Mountain, UT 84005","precinct":"25EM22","hd":"50","v_score":"2.315214949","decile":"5","lat":40.347152719501,"lng":-111.968172725832},{"id":"36947","name":"Eldon Pfannerstill","party":"Rep","address":"3531 E Jacobs Way, Eagle Mountain, UT 84005","precinct":"25EM22","hd":"50","v_score":"24.5006999","decile":"10","lat":40.355339595471,"lng":-111.976701689025},{"id":"38063","name":"Sunshine Shanahan","party":"Dem","address":"3831 Hollow Crest Dr, Eagle Mountain, UT 84005","precinct":"25EM22","hd":"50","v_score":"2.587603312","decile":"5","lat":40.349317305541,"lng":-111.970307331959},{"id":"38437","name":"Grafton Bechtelar","party":"","address":"4112 E Sioux St, Eagle Mountain, UT 84005","precinct":"25EM22","hd":"50","v_score":"15.51131257","decile":"9","lat":40.350725718892,"lng":-111.965490892844},{"id":"38498","name":"Winston Frami","party":"","address":"3612 E Jacobs Ct, Eagle Mountain, UT 84005","precinct":"25EM22","hd":"50","v_score":"5.40460374","decile":"7","lat":40.355222482994,"lng":-111.975384780882},{"id":"38512","name":"Matilde Schiller","party":"Dem","address":"7095 Ute Dr, Eagle Mountain, UT 84005","precinct":"25EM22","hd":"50","v_score":"6.798081861","decile":"8","lat":40.349298035415,"lng":-111.96581370215},{"id":"39694","name":"Unknown Hammes","party":"Rep","address":"4126 E South Pass Rd, Eagle Mountain, UT 84005","precinct":"25EM22","hd":"50","v_score":"14.6049791","decile":"9","lat":40.345972487747,"lng":-111.965195569328},{"id":"39952","name":"Ms. Della Walker","party":"","address":"4005 E Sioux St, Eagle Mountain, UT 84005","precinct":"25EM22","hd":"50","v_score":"0","decile":"1","lat":40.35086517596,"lng":-111.96710738101},{"id":"40162","name":"Tennille Jakubowski","party":"Dem","address":"7144 Ute Dr, Eagle Mountain, UT 84005","precinct":"25EM22","hd":"50","v_score":"3.93832808","decile":"6","lat":40.349701039496,"lng":-111.965580014717},{"id":"40433","name":"Oma Weimann","party":"Dem","address":"6798 N Yakima Way, Eagle Mountain, UT 84005","precinct":"25EM22","hd":"50","v_score":"2.315214949","decile":"5","lat":40.344775609,"lng":-111.965449652731},{"id":"40518","name":"Brittani Weimann","party":"Dem","address":"4076 E South Pass Rd, Eagle Mountain, UT 84005","precinct":"25EM22","hd":"50","v_score":"0","decile":"1","lat":40.345973719456,"lng":-111.965854817764},{"id":"41177","name":"Lynsey Schaefer","party":"Dem","address":"3957 E Comanche St, Eagle Mountain, UT 84005","precinct":"25EM22","hd":"50","v_score":"0","decile":"1","lat":40.346648774963,"lng":-111.968478350897},{"id":"41540","name":"Kiera Ernser","party":"Dem","address":"7054 N Hollow View Ct, Eagle Mountain, UT 84005","precinct":"25EM22","hd":"50","v_score":"6.74007049","decile":"8","lat":40.348619324963,"lng":-111.969960362813},{"id":"42224","name":"Braelyn Renner-Yundt","party":"","address":"3945 E Eagle Top Ct, Eagle Mountain, UT 84005","precinct":"25EM22","hd":"50","v_score":"0","decile":"1","lat":40.351805729265,"lng":-111.968339969287},{"id":"43034","name":"Elois Skiles-Gibson","party":"Dem","address":"6884 N Cherokee St, Eagle Mountain, UT 84005","precinct":"25EM22","hd":"50","v_score":"12.34824012","decile":"9","lat":40.345737050664,"lng":-111.964575463182},{"id":"43838","name":"Nevin Rosenbaum","party":"Rep","address":"6884 N Cherokee St, Eagle Mountain, UT 84005","precinct":"25EM22","hd":"50","v_score":"1.121327652","decile":"3","lat":40.345737050664,"lng":-111.964575463182},{"id":"43885","name":"Trilby O'Kon-Champlin","party":"","address":"6962 N Kiowa Pkwy, Eagle Mountain, UT 84005","precinct":"25EM22","hd":"50","v_score":"2.315214949","decile":"5","lat":40.346769878473,"lng":-111.96641328302},{"id":"44370","name":"Brittani Rowe","party":"","address":"3686 E Long Ridge Dr, Eagle Mountain, UT 84005","precinct":"25EM22","hd":"50","v_score":"3.781490609","decile":"6","lat":40.350512720378,"lng":-111.972597822485},{"id":"45176","name":"Jereme Berge","party":"Dem","address":"3981 E Eagle Top Ct, Eagle Mountain, UT 84005","precinct":"25EM22","hd":"50","v_score":"0","decile":"1","lat":40.35183953656,"lng":-111.968139540246},{"id":"45757","name":"Dr. Kathryne Kuhn DDS","party":"","address":"3945 E Comanche St, Eagle Mountain, UT 84005","precinct":"25EM22","hd":"50","v_score":"9.567299636","decile":"8","lat":40.346327315438,"lng":-111.96868752545},{"id":"46781","name":"Ms. Ermine Franecki","party":"Dem","address":"7069 N Kiowa Pkwy, Eagle Mountain, UT 84005","precinct":"25EM22","hd":"50","v_score":"7.385975436","decile":"8","lat":40.348519987584,"lng":-111.966580243477},{"id":"46917","name":"Dr. Osborn Mosciski","party":"Rep","address":"3887 E Pawnee Rd, Eagle Mountain, UT 84005","precinct":"25EM22","hd":"50","v_score":"28.19698009","decile":"10","lat":40.34950185997,"lng":-111.969241643432},{"id":"48489","name":"Merlene Metz","party":"","address":"3704 E Long Ridge Dr, Eagle Mountain, UT 84005","precinct":"25EM22","hd":"50","v_score":"1.193887297","decile":"3","lat":40.350540226793,"lng":-111.972673465101},{"id":"48732","name":"Cecil Nicolas","party":"Dem","address":"7073 N Hollow View Ct, Eagle Mountain, UT 84005","precinct":"25EM22","hd":"50","v_score":"1.193887297","decile":"3","lat":40.348746092243,"lng":-111.970001009613},{"id":"48877","name":"Reanna Goldner","party":"","address":"3593 E Jacobs Way, Eagle Mountain, UT 84005","precinct":"25EM22","hd":"50","v_score":"0","decile":"1","lat":40.355364715253,"lng":-111.975689178225},{"id":"48879","name":"Calvin Jakubowski","party":"Dem","address":"7036 N Sierra Way, Eagle Mountain, UT 84005","precinct":"25EM22","hd":"50","v_score":"30.0165504","decile":"10","lat":40.348276114566,"lng":-111.968552398122},{"id":"48880","name":"Leila Roberts","party":"Dem","address":"7036 N Sierra Way, Eagle Mountain, UT 84005","precinct":"25EM22","hd":"50","v_score":"30.0165504","decile":"10","lat":40.348276114566,"lng":-111.968552398122},{"id":"50624","name":"Dr. Bryon Kling","party":"Dem","address":"6822 N Cherokee St, Eagle Mountain, UT 84005","precinct":"25EM22","hd":"50","v_score":"2.660162957","decile":"5","lat":40.344635725503,"lng":-111.964541021321},{"id":"50635","name":"Octavia Wiegand","party":"Rep","address":"7123 Pawnee Rd, Eagle Mountain, UT 84005","precinct":"25EM22","hd":"50","v_score":"2.587603312","decile":"5","lat":40.350412293916,"lng":-111.971273724388},{"id":"50666","name":"Todd Beatty I","party":"Dem","address":"7104 Ute Dr, Eagle Mountain, UT 84005","precinct":"25EM22","hd":"50","v_score":"0","decile":"1","lat":40.349415514606,"lng":-111.965653055638},{"id":"50834","name":"Alver Bailey-Kulas","party":"Rep","address":"7103 N Golden Ridge Ct, Eagle Mountain, UT 84005","precinct":"25EM22","hd":"50","v_score":"2.315214949","decile":"5","lat":40.349302711669,"lng":-111.970929505835},{"id":"51024","name":"Laverne Boyer MD","party":"","address":"6988 N South Pass Rd, Eagle Mountain, UT 84005","precinct":"25EM22","hd":"50","v_score":"1.193887297","decile":"3","lat":40.346840161705,"lng":-111.969178133399},{"id":"51487","name":"Shan Goyette","party":"Dem","address":"3485 E Jacobs Way, Eagle Mountain, UT 84005","precinct":"25EM22","hd":"50","v_score":"2.587603312","decile":"5","lat":40.355615378186,"lng":-111.977264959744},{"id":"51641","name":"Millie Hoppe","party":"","address":"4132 E Sioux St, Eagle Mountain, UT 84005","precinct":"25EM22","hd":"50","v_score":"12.56158634","decile":"9","lat":40.350725718881,"lng":-111.96535967761},{"id":"52656","name":"Osbaldo Conroy","party":"Rep","address":"4115 E Comanche St, Eagle Mountain, UT 84005","precinct":"25EM22","hd":"50","v_score":"1.121327652","decile":"3","lat":40.347241597483,"lng":-111.965298774726},{"id":"53049","name":"Dr. Avery Watsica DVM","party":"Dem","address":"3485 E Jacobs Way, Eagle Mountain, UT 84005","precinct":"25EM22","hd":"50","v_score":"2.587603312","decile":"5","lat":40.355615378186,"lng":-111.977264959744},{"id":"53323","name":"Johanna Hoeger","party":"","address":"7162 N Mohican Dr, Eagle Mountain, UT 84005","precinct":"25EM22","hd":"50","v_score":"13.909617859999999","decile":"9","lat":40.349653373284,"lng":-111.967707125449},{"id":"53411","name":"Benson Stoltenberg","party":"","address":"3831 Hollow Crest Dr, Eagle Mountain, UT 84005","precinct":"25EM22","hd":"50","v_score":"2.587603312","decile":"5","lat":40.349317305541,"lng":-111.970307331959},{"id":"53541","name":"Giovani Halvorson","party":"Rep","address":"3986 E Sioux St, Eagle Mountain, UT 84005","precinct":"25EM22","hd":"50","v_score":"1.46627566","decile":"4","lat":40.350761719035,"lng":-111.967409485397},{"id":"54030","name":"Willaim Conroy","party":"","address":"7188 Ute Dr, Eagle Mountain, UT 84005","precinct":"25EM22","hd":"50","v_score":"25.08237493","decile":"10","lat":40.350138310361,"lng":-111.965569622423},{"id":"56300","name":"Mr. Zack Pfannerstill DDS","party":"","address":"7107 N Kiowa Pkwy, Eagle Mountain, UT 84005","precinct":"25EM22","hd":"50","v_score":"2.744440783","decile":"5","lat":40.348881514529,"lng":-111.966680109385},{"id":"56485","name":"Lanita Miller","party":"Rep","address":"7084 N Mohican Dr, Eagle Mountain, UT 84005","precinct":"25EM22","hd":"50","v_score":"1.121327652","decile":"3","lat":40.348825101153,"lng":-111.967565286118},{"id":"57291","name":"Parley Bernier","party":"","address":"7117 N Hollow Crest Cir, Eagle Mountain, UT 84005","precinct":"25EM22","hd":"50","v_score":"1.121327652","decile":"3","lat":40.349434662477,"lng":-111.971828509298},{"id":"58905","name":"Cristy Hickle DDS","party":"","address":"3763 Hollow Crest Dr, Eagle Mountain, UT 84005","precinct":"25EM22","hd":"50","v_score":"1.193887297","decile":"3","lat":40.349860017918,"lng":-111.971756474654},{"id":"60363","name":"Ms. Brittni Nolan","party":"Rep","address":"3989 E Yakima Way, Eagle Mountain, UT 84005","precinct":"25EM22","hd":"50","v_score":"0","decile":"1","lat":40.345217719659,"lng":-111.967389035813},{"id":"62402","name":"Harris Little","party":"Dem","address":"3945 E Comanche St, Eagle Mountain, UT 84005","precinct":"25EM22","hd":"50","v_score":"0","decile":"1","lat":40.346327315438,"lng":-111.96868752545},{"id":"62478","name":"Malaya Pacocha","party":"","address":"7053 N Sierra Way, Eagle Mountain, UT 84005","precinct":"25EM22","hd":"50","v_score":"0","decile":"1","lat":40.348476365106,"lng":-111.968699819993},{"id":"63338","name":"Brion Mosciski","party":"Dem","address":"7098 N Golden Ridge Ct, Eagle Mountain, UT 84005","precinct":"25EM22","hd":"50","v_score":"0","decile":"1","lat":40.349245371238,"lng":-111.970799309031},{"id":"63777","name":"Noemie Hickle DDS","party":"","address":"6959 N Mohawk St, Eagle Mountain, UT 84005","precinct":"25EM22","hd":"50","v_score":"2.315214949","decile":"5","lat":40.346763142711,"lng":-111.96753713804},{"id":"64218","name":"Dr. Lissette Thiel MD","party":"Rep","address":"6966 N South Pass Rd, Eagle Mountain, UT 84005","precinct":"25EM22","hd":"50","v_score":"6.027167436","decile":"7","lat":40.347020321318,"lng":-111.969239137224},{"id":"65069","name":"Emmalee Farrell","party":"","address":"4008 E Sioux St, Eagle Mountain, UT 84005","precinct":"25EM22","hd":"50","v_score":"2.942907593","decile":"6","lat":40.350749223535,"lng":-111.967075033339},{"id":"65331","name":"Alver Murphy","party":"Rep","address":"3887 E Eagle Top Ct, Eagle Mountain, UT 84005","precinct":"25EM22","hd":"50","v_score":"3.93832808","decile":"6","lat":40.351597637604,"lng":-111.968896713882},{"id":"66121","name":"Dr. Ronaldo Gibson V","party":"Rep","address":"4115 E Comanche St, Eagle Mountain, UT 84005","precinct":"25EM22","hd":"50","v_score":"2.315214949","decile":"5","lat":40.347241597483,"lng":-111.965298774726},{"id":"67113","name":"Blanch Grady","party":"Dem","address":"4129 E Sioux St, Eagle Mountain, UT 84005","precinct":"25EM22","hd":"50","v_score":"0","decile":"1","lat":40.350840310262,"lng":-111.965314657195},{"id":"67147","name":"Dorsey Stoltenberg MD","party":"Dem","address":"7107 N Kiowa Pkwy, Eagle Mountain, UT 84005","precinct":"25EM22","hd":"50","v_score":"3.93832808","decile":"6","lat":40.348881514529,"lng":-111.966680109385},{"id":"67288","name":"Ola Wolff","party":"Rep","address":"6809 N Cherokee St, Eagle Mountain, UT 84005","precinct":"25EM22","hd":"50","v_score":"4.069929862","decile":"6","lat":40.344430533872,"lng":-111.965171400915},{"id":"67500","name":"Colvin Harvey PhD","party":"Dem","address":"3712 E Long Ridge Dr, Eagle Mountain, UT 84005","precinct":"25EM22","hd":"50","v_score":"2.315214949","decile":"5","lat":40.350557644925,"lng":-111.972712610588},{"id":"68258","name":"Dr. Paris Reilly DVM","party":"","address":"3968 E Hopi Rd, Eagle Mountain, UT 84005","precinct":"25EM22","hd":"50","v_score":"2.315214949","decile":"5","lat":40.347832504884,"lng":-111.967946647543},{"id":"68601","name":"Miss Jerrica Spinka DVM","party":"","address":"6977 N South Pass Rd, Eagle Mountain, UT 84005","precinct":"25EM22","hd":"50","v_score":"3.93832808","decile":"6","lat":40.346896488461,"lng":-111.969354495857},{"id":"69400","name":"Mrs. Karis Hayes DDS","party":"Rep","address":"6808 N Yakima Way, Eagle Mountain, UT 84005","precinct":"25EM22","hd":"50","v_score":"1.121327652","decile":"3","lat":40.344761242525,"lng":-111.965429755295},{"id":"69509","name":"Freeman Gorczany","party":"Dem","address":"7202 N Golden Ridge Dr, Eagle Mountain, UT 84005","precinct":"25EM22","hd":"50","v_score":"14.88094683","decile":"9","lat":40.350403201949,"lng":-111.970240886658},{"id":"69700","name":"Andres Prosacco","party":"","address":"4072 E Sioux St, Eagle Mountain, UT 84005","precinct":"25EM22","hd":"50","v_score":"2.744440783","decile":"5","lat":40.350728841676,"lng":-111.966062781526},{"id":"69929","name":"Antonina Kozey","party":"Rep","address":"4062 E Sioux St, Eagle Mountain, UT 84005","precinct":"25EM22","hd":"50","v_score":"5.356821087","decile":"7","lat":40.350730318266,"lng":-111.966194197117},{"id":"70472","name":"Mrs. Bree Kerluke DVM","party":"","address":"4119 E Sioux St, Eagle Mountain, UT 84005","precinct":"25EM22","hd":"50","v_score":"14.04503691","decile":"9","lat":40.350840310267,"lng":-111.96537008432},{"id":"70473","name":"Jovanni Mohr I","party":"Dem","address":"4119 E Sioux St, Eagle Mountain, UT 84005","precinct":"25EM22","hd":"50","v_score":"14.04503691","decile":"9","lat":40.350840310267,"lng":-111.96537008432},{"id":"70864","name":"Dr. Elnora Johnson PhD","party":"Dem","address":"6954 N Chippewa Dr, Eagle Mountain, UT 84005","precinct":"25EM22","hd":"50","v_score":"0","decile":"1","lat":40.346662733362,"lng":-111.965406018281},{"id":"71331","name":"Everett Baumbach","party":"Rep","address":"6954 N Chippewa Dr, Eagle Mountain, UT 84005","precinct":"25EM22","hd":"50","v_score":"0","decile":"1","lat":40.346662733362,"lng":-111.965406018281},{"id":"73474","name":"Marisa Gislason","party":"Rep","address":"3965 E Pawnee Rd, Eagle Mountain, UT 84005","precinct":"25EM22","hd":"50","v_score":"2.315214949","decile":"5","lat":40.349201002309,"lng":-111.968047670848},{"id":"73772","name":"Lashonda Cruickshank","party":"Dem","address":"3712 E Long Ridge Dr, Eagle Mountain, UT 84005","precinct":"25EM22","hd":"50","v_score":"2.315214949","decile":"5","lat":40.350557644925,"lng":-111.972712610588},{"id":"76081","name":"Mr. Wally Larkin","party":"Dem","address":"4115 E Dakota Dr, Eagle Mountain, UT 84005","precinct":"25EM22","hd":"50","v_score":"1.121327652","decile":"3","lat":40.34538631087,"lng":-111.965209233228},{"id":"76558","name":"Bethel Beahan","party":"","address":"6940 N Comanche St, Eagle Mountain, UT 84005","precinct":"25EM22","hd":"50","v_score":"6.979934218","decile":"8","lat":40.346875828189,"lng":-111.968325788751},{"id":"77015","name":"Lupe Willms-Herman","party":"","address":"6993 N South Pass Rd, Eagle Mountain, UT 84005","precinct":"25EM22","hd":"50","v_score":"11.02844566","decile":"9","lat":40.34675972443,"lng":-111.969302852639},{"id":"77361","name":"Hilliard Parker","party":"","address":"3871 E Hopi Rd, Eagle Mountain, UT 84005","precinct":"25EM22","hd":"50","v_score":"3.93832808","decile":"6","lat":40.347900895383,"lng":-111.96913847586},{"id":"77925","name":"Jeanette Ernser","party":"","address":"7114 Ute Dr, Eagle Mountain, UT 84005","precinct":"25EM22","hd":"50","v_score":"1.121327652","decile":"3","lat":40.349481010511,"lng":-111.965637948299},{"id":"78354","name":"Ezekiel Kertzmann","party":"","address":"3943 E Sioux St, Eagle Mountain, UT 84005","precinct":"25EM22","hd":"50","v_score":"8.284004873","decile":"8","lat":40.350861979055,"lng":-111.967978056672},{"id":"78934","name":"Enrico Kuvalis","party":"Rep","address":"3843 E Pawnee Rd, Eagle Mountain, UT 84005","precinct":"25EM22","hd":"50","v_score":"2.744440783","decile":"5","lat":40.350783615459,"lng":-111.970450970455},{"id":"79644","name":"Esteban Ledner","party":"","address":"3983 E Sioux St, Eagle Mountain, UT 84005","precinct":"25EM22","hd":"50","v_score":"8.670935747","decile":"8","lat":40.350876310421,"lng":-111.967429401749},{"id":"80884","name":"Ona Deckow","party":"Dem","address":"4114 Cherokee St, Eagle Mountain, UT 84005","precinct":"25EM22","hd":"50","v_score":"1.193887297","decile":"3","lat":40.344754563591,"lng":-111.964527157713},{"id":"81044","name":"Reatha Schmidt","party":"","address":"7062 N Cherokee St, Eagle Mountain, UT 84005","precinct":"25EM22","hd":"50","v_score":"1.193887297","decile":"3","lat":40.348417270809,"lng":-111.964588625044},{"id":"81710","name":"Mrs. Rinda Kemmer DVM","party":"Dem","address":"7188 N Pawnee Ct, Eagle Mountain, UT 84005","precinct":"25EM22","hd":"50","v_score":"0","decile":"1","lat":40.350494213166,"lng":-111.971070694737},{"id":"82025","name":"Mr. Robb Boyer V","party":"Rep","address":"7044 N Cherokee St, Eagle Mountain, UT 84005","precinct":"25EM22","hd":"50","v_score":"1.193887297","decile":"3","lat":40.348213675382,"lng":-111.964592658139},{"id":"82417","name":"Turner Lemke","party":"","address":"7134 Ute Dr, Eagle Mountain, UT 84005","precinct":"25EM22","hd":"50","v_score":"2.817000428","decile":"6","lat":40.349627980858,"lng":-111.965598279385},{"id":"82993","name":"Miss Kate Rolfson DDS","party":"Rep","address":"7184 Notah Ct, Eagle Mountain, UT 84005","precinct":"25EM22","hd":"50","v_score":"1.193887297","decile":"3","lat":40.350508442194,"lng":-111.973277401307},{"id":"83308","name":"Dr. Ezell Schultz II","party":"Dem","address":"7163 Ute Dr, Eagle Mountain, UT 84005","precinct":"25EM22","hd":"50","v_score":"2.817000428","decile":"6","lat":40.349774963284,"lng":-111.96572176066},{"id":"83898","name":"Dr. Leda Wiegand","party":"","address":"7068 N Sierra Way, Eagle Mountain, UT 84005","precinct":"25EM22","hd":"50","v_score":"8.943086216","decile":"8","lat":40.348671058026,"lng":-111.968546558955},{"id":"84144","name":"Nia Borer","party":"Dem","address":"7202 N Golden Ridge Dr, Eagle Mountain, UT 84005","precinct":"25EM22","hd":"50","v_score":"5.407962308","decile":"7","lat":40.350403201949,"lng":-111.970240886658},{"id":"84402","name":"Clementina Koch MD","party":"Dem","address":"4092 E South Pass Rd, Eagle Mountain, UT 84005","precinct":"25EM22","hd":"50","v_score":"0","decile":"1","lat":40.345973719437,"lng":-111.965612754697},{"id":"84439","name":"Lucious Bednar-Okuneva","party":"Rep","address":"6951 N Chippewa Dr, Eagle Mountain, UT 84005","precinct":"25EM22","hd":"50","v_score":"0","decile":"1","lat":40.346615408979,"lng":-111.965553824172},{"id":"84492","name":"Mr. Demarco Berge Jr.","party":"Dem","address":"3872 Hollow Crest Dr, Eagle Mountain, UT 84005","precinct":"25EM22","hd":"50","v_score":"11.78510153","decile":"9","lat":40.348661868401,"lng":-111.969748020177},{"id":"84972","name":"Olan Lindgren Sr.","party":"Rep","address":"6915 N Kiowa Pkwy, Eagle Mountain, UT 84005","precinct":"25EM22","hd":"50","v_score":"0","decile":"1","lat":40.346298928931,"lng":-111.966568979299},{"id":"85767","name":"Janet Beier","party":"Dem","address":"6946 N Cherokee St, Eagle Mountain, UT 84005","precinct":"25EM22","hd":"50","v_score":"0","decile":"1","lat":40.346612968306,"lng":-111.964513854847},{"id":"86302","name":"Shanta Sawayn","party":"Dem","address":"3726 E Pawnee Rd, Eagle Mountain, UT 84005","precinct":"25EM22","hd":"50","v_score":"0","decile":"1","lat":40.351068735983,"lng":-111.971972545414},{"id":"88321","name":"Tawana Kreiger","party":"Dem","address":"7104 Ute Dr, Eagle Mountain, UT 84005","precinct":"25EM22","hd":"50","v_score":"1.193887297","decile":"4","lat":40.349415514606,"lng":-111.965653055638},{"id":"89256","name":"Miss Ofelia Howe MD","party":"","address":"7151 N Mohican Dr, Eagle Mountain, UT 84005","precinct":"25EM22","hd":"50","v_score":"1.623113131","decile":"5","lat":40.349629455181,"lng":-111.967855107553},{"id":"89303","name":"Dr. Alverda Koelpin DDS","party":"Rep","address":"3998 E Yakima Way, Eagle Mountain, UT 84005","precinct":"25EM22","hd":"50","v_score":"0","decile":"1","lat":40.345333778336,"lng":-111.967201363143},{"id":"89886","name":"Marsh Schultz","party":"Dem","address":"6954 N Chippewa Dr, Eagle Mountain, UT 84005","precinct":"25EM22","hd":"50","v_score":"0","decile":"1","lat":40.346662733362,"lng":-111.965406018281},{"id":"90405","name":"Dr. Buddie Greenholt II","party":"","address":"4112 E Chinook St, Eagle Mountain, UT 84005","precinct":"25EM22","hd":"50","v_score":"0","decile":"1","lat":40.348570746176,"lng":-111.965354301557},{"id":"91195","name":"Miss Alex Kuvalis DVM","party":"Dem","address":"7092 N Cherokee St, Eagle Mountain, UT 84005","precinct":"25EM22","hd":"50","v_score":"0","decile":"1","lat":40.348777540723,"lng":-111.964608850341},{"id":"91196","name":"Cecelia Mann","party":"Dem","address":"7092 N Cherokee St, Eagle Mountain, UT 84005","precinct":"25EM22","hd":"50","v_score":"1.193887297","decile":"4","lat":40.348777540723,"lng":-111.964608850341},{"id":"91305","name":"Bilal Dickens-Raynor","party":"","address":"7118 N Kiowa Pkwy, Eagle Mountain, UT 84005","precinct":"25EM22","hd":"50","v_score":"1.193887297","decile":"4","lat":40.349228560844,"lng":-111.966628678001},{"id":"91330","name":"Shaylee Fadel MD","party":"Rep","address":"7181 N Skyview Ln, Eagle Mountain, UT 84005","precinct":"25EM22","hd":"50","v_score":"4.069929862","decile":"6","lat":40.350326749335,"lng":-111.972268660414},{"id":"91360","name":"Mahlon Eichmann","party":"Rep","address":"7014 N Cherokee St, Eagle Mountain, UT 84005","precinct":"25EM22","hd":"50","v_score":"0","decile":"1","lat":40.347763431222,"lng":-111.964688115869},{"id":"93346","name":"Kyree Corkery","party":"Rep","address":"6809 N Cherokee St, Eagle Mountain, UT 84005","precinct":"25EM22","hd":"50","v_score":"4.069929862","decile":"6","lat":40.344430533872,"lng":-111.965171400915},{"id":"93551","name":"Thea Cronin","party":"Dem","address":"3997 E Comanche St, Eagle Mountain, UT 84005","precinct":"25EM22","hd":"50","v_score":"4.069929862","decile":"6","lat":40.347244454527,"lng":-111.967326265476},{"id":"94244","name":"Dr. Johnny Abernathy IV","party":"Rep","address":"6941 N Chippewa Dr, Eagle Mountain, UT 84005","precinct":"25EM22","hd":"50","v_score":"1.193887297","decile":"4","lat":40.346509491945,"lng":-111.965547806174},{"id":"95775","name":"Mrs. Krystin Bednar","party":"Dem","address":"6977 N South Pass Rd, Eagle Mountain, UT 84005","precinct":"25EM22","hd":"50","v_score":"9.907118004","decile":"8","lat":40.346896488461,"lng":-111.969354495857},{"id":"96416","name":"Dr. Brain Predovic Sr.","party":"Rep","address":"6946 N Cherokee St, Eagle Mountain, UT 84005","precinct":"25EM22","hd":"50","v_score":"2.817000428","decile":"6","lat":40.346612968306,"lng":-111.964513854847},{"id":"97817","name":"Darryn Bergstrom","party":"Dem","address":"7138 N Kiowa Pkwy, Eagle Mountain, UT 84005","precinct":"25EM22","hd":"50","v_score":"0","decile":"1","lat":40.349322715193,"lng":-111.966634864956},{"id":"98613","name":"Davon Nienow","party":"Dem","address":"3953 E Eagle Top Ct, Eagle Mountain, UT 84005","precinct":"25EM22","hd":"50","v_score":"0","decile":"1","lat":40.351813241997,"lng":-111.9682954295},{"id":"100966","name":"Orrie VonRueden","party":"","address":"7014 N Cherokee St, Eagle Mountain, UT 84005","precinct":"25EM22","hd":"50","v_score":"4.214075011","decile":"7","lat":40.347763431222,"lng":-111.964688115869},{"id":"101021","name":"May Simonis Jr.","party":"Rep","address":"3965 E Yakima Way, Eagle Mountain, UT 84005","precinct":"25EM22","hd":"50","v_score":"0","decile":"2","lat":40.34518582408,"lng":-111.967607637288},{"id":"102962","name":"Dr. Leonidas Shields DDS","party":"Dem","address":"4098 Cherokee St, Eagle Mountain, UT 84005","precinct":"25EM22","hd":"50","v_score":"1.193887297","decile":"4","lat":40.344656540513,"lng":-111.964539129045},{"id":"103729","name":"Lelia Swaniawski","party":"Rep","address":"4052 E Sioux St, Eagle Mountain, UT 84005","precinct":"25EM22","hd":"50","v_score":"0","decile":"2","lat":40.350731794856,"lng":-111.966325612708},{"id":"103771","name":"Mr. Lawson Prohaska","party":"Dem","address":"3986 E Yakima Way, Eagle Mountain, UT 84005","precinct":"25EM22","hd":"50","v_score":"1.46627566","decile":"4","lat":40.345332311039,"lng":-111.967342747274},{"id":"104835","name":"Makai Waelchi-Stehr","party":"Dem","address":"7139 N Skyview Ct, Eagle Mountain, UT 84005","precinct":"25EM22","hd":"50","v_score":"0","decile":"2","lat":40.349832345021,"lng":-111.972576666529},{"id":"104836","name":"Cindi Ankunding-Crona","party":"Rep","address":"7139 N Skyview Ct, Eagle Mountain, UT 84005","precinct":"25EM22","hd":"50","v_score":"1.193887297","decile":"4","lat":40.349832345021,"lng":-111.972576666529},{"id":"105013","name":"Cherri Hammes","party":"Dem","address":"3704 E Long Ridge Dr, Eagle Mountain, UT 84005","precinct":"25EM22","hd":"50","v_score":"1.193887297","decile":"4","lat":40.350540226793,"lng":-111.972673465101},{"id":"105315","name":"Tawana Cruickshank","party":"","address":"6966 N Mohawk St, Eagle Mountain, UT 84005","precinct":"25EM22","hd":"50","v_score":"1.193887297","decile":"4","lat":40.346843192876,"lng":-111.967392433538},{"id":"105450","name":"Kandace Daniel","party":"","address":"7434 Pawnee Rd, Eagle Mountain, UT 84005","precinct":"25EM22","hd":"50","v_score":"0","decile":"2","lat":40.35102357266,"lng":-111.971869516617},{"id":"105451","name":"Guilford Macejkovic","party":"","address":"7434 Pawnee Rd, Eagle Mountain, UT 84005","precinct":"25EM22","hd":"50","v_score":"0","decile":"2","lat":40.35102357266,"lng":-111.971869516617},{"id":"105995","name":"Miss Shenna Block DVM","party":"Dem","address":"3566 E Jacobs Ct, Eagle Mountain, UT 84005","precinct":"25EM22","hd":"50","v_score":"0","decile":"2","lat":40.355226595347,"lng":-111.976105314058},{"id":"106011","name":"Tomie Reynolds","party":"","address":"3763 Hollow Crest Dr, Eagle Mountain, UT 84005","precinct":"25EM22","hd":"50","v_score":"1.193887297","decile":"4","lat":40.349860017918,"lng":-111.971756474654},{"id":"106958","name":"Mr. Stonewall Muller","party":"","address":"6808 N Yakima Way, Eagle Mountain, UT 84005","precinct":"25EM22","hd":"50","v_score":"0","decile":"2","lat":40.344761242525,"lng":-111.965429755295},{"id":"107723","name":"Isom Treutel","party":"Rep","address":"7059 N Cherokee St, Eagle Mountain, UT 84005","precinct":"25EM22","hd":"50","v_score":"0","decile":"2","lat":40.34845523696,"lng":-111.964738983617},{"id":"109308","name":"Chelsy Gleichner MD","party":"","address":"7117 N Hollow Crest Cir, Eagle Mountain, UT 84005","precinct":"25EM22","hd":"50","v_score":"0","decile":"2","lat":40.349434662477,"lng":-111.971828509298},{"id":"110767","name":"Makala Borer MD","party":"Dem","address":"4115 E Comanche St, Eagle Mountain, UT 84005","precinct":"25EM22","hd":"50","v_score":"0","decile":"2","lat":40.347241597483,"lng":-111.965298774726},{"id":"111024","name":"Brice Upton DVM","party":"Rep","address":"7097 N Kiowa Pkwy, Eagle Mountain, UT 84005","precinct":"25EM22","hd":"50","v_score":"1.193887297","decile":"4","lat":40.348805887895,"lng":-111.966648872311},{"id":"111513","name":"Dr. Berton Prosacco II","party":"Rep","address":"3686 E Long Ridge Dr, Eagle Mountain, UT 84005","precinct":"25EM22","hd":"50","v_score":"1.193887297","decile":"4","lat":40.350512720378,"lng":-111.972597822485},{"id":"111665","name":"Blanchard Hudson","party":"Rep","address":"6931 N Chippewa Dr, Eagle Mountain, UT 84005","precinct":"25EM22","hd":"50","v_score":"0","decile":"2","lat":40.346403574911,"lng":-111.965541788175},{"id":"111954","name":"Velvet Lubowitz","party":"Dem","address":"3954 E Eagle Top Ct, Eagle Mountain, UT 84005","precinct":"25EM22","hd":"50","v_score":"0","decile":"2","lat":40.351692560497,"lng":-111.968315093364},{"id":"112316","name":"Almeda Smith","party":"Dem","address":"3593 E Jacobs Way, Eagle Mountain, UT 84005","precinct":"25EM22","hd":"50","v_score":"0","decile":"2","lat":40.355364715253,"lng":-111.975689178225},{"id":"112903","name":"Ms. Leala Langworth","party":"Dem","address":"4049 E Sioux St, Eagle Mountain, UT 84005","precinct":"25EM22","hd":"50","v_score":"1.193887297","decile":"4","lat":40.350846007585,"lng":-111.966290804977},{"id":"112906","name":"Diana Zieme","party":"Dem","address":"4049 E Sioux St, Eagle Mountain, UT 84005","precinct":"25EM22","hd":"50","v_score":"1.193887297","decile":"4","lat":40.350846007585,"lng":-111.966290804977},{"id":"112911","name":"Ms. Dayna Collier PhD","party":"","address":"7022 N Cherokee St, Eagle Mountain, UT 84005","precinct":"25EM22","hd":"50","v_score":"0","decile":"2","lat":40.347970135613,"lng":-111.964637993036},{"id":"113309","name":"Elliott Brakus-Schuster","party":"Dem","address":"4115 E Comanche St, Eagle Mountain, UT 84005","precinct":"25EM22","hd":"50","v_score":"1.193887297","decile":"4","lat":40.347241597483,"lng":-111.965298774726},{"id":"113927","name":"Palma Schuppe","party":"Dem","address":"3997 E Golden Eagle Rd, Eagle Mountain, UT 84005","precinct":"25EM22","hd":"50","v_score":"0","decile":"2","lat":40.350128091174,"lng":-111.967285777806},{"id":"114218","name":"Dr. Kimber Stehr DDS","party":"Dem","address":"7176 N Golden Ridge Dr, Eagle Mountain, UT 84005","precinct":"25EM22","hd":"50","v_score":"0","decile":"2","lat":40.350222939508,"lng":-111.97027045425},{"id":"114222","name":"Randi Kiehn","party":"Dem","address":"7184 Notah Ct, Eagle Mountain, UT 84005","precinct":"25EM22","hd":"50","v_score":"0","decile":"2","lat":40.350508442194,"lng":-111.973277401307},{"id":"115404","name":"Arron Blick-Crona","party":"","address":"3908 E Eagle Top Ct, Eagle Mountain, UT 84005","precinct":"25EM22","hd":"50","v_score":"0","decile":"2","lat":40.351217843252,"lng":-111.969134310463},{"id":"115463","name":"Darryle Bergnaum MD","party":"Rep","address":"3558 E Jacobs Way, Eagle Mountain, UT 84005","precinct":"25EM22","hd":"50","v_score":"0","decile":"2","lat":40.355220614346,"lng":-111.976237969784},{"id":"115604","name":"Phoebe Yundt DVM","party":"Rep","address":"3949 E Sioux St, Eagle Mountain, UT 84005","precinct":"25EM22","hd":"50","v_score":"1.193887297","decile":"4","lat":40.350863817347,"lng":-111.967950482258},{"id":"115765","name":"Lisbeth Cartwright-Roob","party":"","address":"3957 E Comanche St, Eagle Mountain, UT 84005","precinct":"25EM22","hd":"50","v_score":"0","decile":"2","lat":40.346648774963,"lng":-111.968478350897},{"id":"115826","name":"Chyna Kirlin","party":"Dem","address":"4008 E Sioux St, Eagle Mountain, UT 84005","precinct":"25EM22","hd":"50","v_score":"0","decile":"2","lat":40.350749223535,"lng":-111.967075033339},{"id":"115849","name":"Kayden McLaughlin","party":"Dem","address":"3893 E Hopi Rd, Eagle Mountain, UT 84005","precinct":"25EM22","hd":"50","v_score":"1.193887297","decile":"4","lat":40.347962324019,"lng":-111.968931696468},{"id":"115962","name":"Dr. Marlen Johnson","party":"Dem","address":"7134 Ute Dr, Eagle Mountain, UT 84005","precinct":"25EM22","hd":"50","v_score":"1.193887297","decile":"4","lat":40.349627980858,"lng":-111.965598279385},{"id":"116049","name":"Calhoun Mitchell-Yundt","party":"","address":"6941 N Chippewa Dr, Eagle Mountain, UT 84005","precinct":"25EM22","hd":"50","v_score":"0","decile":"2","lat":40.346509491945,"lng":-111.965547806174},{"id":"116266","name":"Mr. Palmer Zboncak IV","party":"Dem","address":"7154 Ute Dr, Eagle Mountain, UT 84005","precinct":"25EM22","hd":"50","v_score":"1.193887297","decile":"4","lat":40.349783018304,"lng":-111.965570725241},{"id":"116282","name":"Tavion Homenick","party":"Rep","address":"4115 E Dakota Dr, Eagle Mountain, UT 84005","precinct":"25EM22","hd":"50","v_score":"0","decile":"2","lat":40.34538631087,"lng":-111.965209233228},{"id":"116523","name":"Deborah Abernathy","party":"Dem","address":"4072 E Chinook St, Eagle Mountain, UT 84005","precinct":"25EM22","hd":"50","v_score":"0","decile":"2","lat":40.348538719167,"lng":-111.965858374318},{"id":"117240","name":"Mr. Rupert Stamm","party":"Rep","address":"7188 Ute Dr, Eagle Mountain, UT 84005","precinct":"25EM22","hd":"50","v_score":"8.284004873","decile":"8","lat":40.350138310361,"lng":-111.965569622423},{"id":"118287","name":"Florrie Anderson","party":"Dem","address":"7214 Ute Dr, Eagle Mountain, UT 84005","precinct":"25EM22","hd":"50","v_score":"1.193887297","decile":"4","lat":40.350516310318,"lng":-111.965569622012},{"id":"118894","name":"Diego Hessel","party":"Rep","address":"6932 N Kiowa Pkwy, Eagle Mountain, UT 84005","precinct":"25EM22","hd":"50","v_score":"1.193887297","decile":"4","lat":40.346466026587,"lng":-111.966415256124},{"id":"119354","name":"Savannah Langworth","party":"","address":"7182 Notah Ct, Eagle Mountain, UT 84005","precinct":"25EM22","hd":"50","v_score":"5.407962308","decile":"7","lat":40.350504719824,"lng":-111.973281196665},{"id":"119434","name":"Ursula Cartwright","party":"Dem","address":"3686 E Long Ridge Dr, Eagle Mountain, UT 84005","precinct":"25EM22","hd":"50","v_score":"1.193887297","decile":"4","lat":40.350512720378,"lng":-111.972597822485},{"id":"119682","name":"Sophronia Osinski","party":"","address":"7151 N Mohican Dr, Eagle Mountain, UT 84005","precinct":"25EM22","hd":"50","v_score":"0","decile":"2","lat":40.349629455181,"lng":-111.967855107553},{"id":"119868","name":"Tennille McLaughlin","party":"Dem","address":"7107 N Kiowa Pkwy, Eagle Mountain, UT 84005","precinct":"25EM22","hd":"50","v_score":"8.284004873","decile":"8","lat":40.348881514529,"lng":-111.966680109385},{"id":"120649","name":"Slade Cremin-Tremblay","party":"Rep","address":"4126 E South Pass Rd, Eagle Mountain, UT 84005","precinct":"25EM22","hd":"50","v_score":"1.193887297","decile":"4","lat":40.345972487747,"lng":-111.965195569328},{"id":"120829","name":"Willis Howell-Nicolas","party":"","address":"4001 E Eagle Top Ct, Eagle Mountain, UT 84005","precinct":"25EM22","hd":"50","v_score":"1.193887297","decile":"4","lat":40.351856328526,"lng":-111.968023923879},{"id":"120866","name":"Mr. Bedford Senger","party":"","address":"3936 E Hopi Rd, Eagle Mountain, UT 84005","precinct":"25EM22","hd":"50","v_score":"4.069929862","decile":"7","lat":40.347853287364,"lng":-111.96857443959},{"id":"121072","name":"Merl Lebsack","party":"Dem","address":"4112 E Chinook St, Eagle Mountain, UT 84005","precinct":"25EM22","hd":"50","v_score":"1.193887297","decile":"4","lat":40.348570746176,"lng":-111.965354301557},{"id":"123246","name":"Dawne Cummings","party":"Rep","address":"7095 Ute Dr, Eagle Mountain, UT 84005","precinct":"25EM22","hd":"50","v_score":"1.193887297","decile":"4","lat":40.349298035415,"lng":-111.96581370215},{"id":"123441","name":"Dr. Columbus Jerde","party":"Dem","address":"7127 N Cherokee St, Eagle Mountain, UT 84005","precinct":"25EM22","hd":"50","v_score":"1.193887297","decile":"4","lat":40.348991966809,"lng":-111.964782115076},{"id":"123574","name":"Ryland Reinger","party":"Dem","address":"6988 N South Pass Rd, Eagle Mountain, UT 84005","precinct":"25EM22","hd":"50","v_score":"2.660162957","decile":"5","lat":40.346840161705,"lng":-111.969178133399},{"id":"123650","name":"Babette Crona","party":"Rep","address":"7127 N Cherokee St, Eagle Mountain, UT 84005","precinct":"25EM22","hd":"50","v_score":"1.193887297","decile":"4","lat":40.348991966809,"lng":-111.964782115076},{"id":"123676","name":"Ermina Reinger","party":"Rep","address":"4007 E Golden Eagle Rd, Eagle Mountain, UT 84005","precinct":"25EM22","hd":"50","v_score":"1.193887297","decile":"4","lat":40.350121219331,"lng":-111.967110546152},{"id":"124118","name":"Mattye Harris DVM","party":"","address":"6956 N Comanche St, Eagle Mountain, UT 84005","precinct":"25EM22","hd":"50","v_score":"0","decile":"2","lat":40.347101962714,"lng":-111.968313878791},{"id":"124281","name":"Maria Fadel","party":"","address":"6918 N Mohawk St, Eagle Mountain, UT 84005","precinct":"25EM22","hd":"50","v_score":"0","decile":"2","lat":40.346399899901,"lng":-111.967405587779},{"id":"124963","name":"Mr. Latrell Murray","party":"Rep","address":"3632 E Jacobs Ct, Eagle Mountain, UT 84005","precinct":"25EM22","hd":"50","v_score":"0","decile":"2","lat":40.35510240207,"lng":-111.975122945527},{"id":"125044","name":"Stephan Thompson","party":"Dem","address":"4052 E Sioux St, Eagle Mountain, UT 84005","precinct":"25EM22","hd":"50","v_score":"0","decile":"2","lat":40.350731794856,"lng":-111.966325612708},{"id":"125072","name":"Ali Moen","party":"Rep","address":"3936 E Hopi Rd, Eagle Mountain, UT 84005","precinct":"25EM22","hd":"50","v_score":"2.876042565","decile":"6","lat":40.347853287364,"lng":-111.96857443959},{"id":"125586","name":"Loren Wehner","party":"","address":"6964 N Chippewa Dr, Eagle Mountain, UT 84005","precinct":"25EM22","hd":"50","v_score":"7.090117576","decile":"8","lat":40.346768650397,"lng":-111.96541203628},{"id":"125591","name":"Delila Lindgren","party":"Rep","address":"6964 N Chippewa Dr, Eagle Mountain, UT 84005","precinct":"25EM22","hd":"50","v_score":"7.090117576","decile":"8","lat":40.346768650397,"lng":-111.96541203628},{"id":"125929","name":"Kailey Wolf","party":"Dem","address":"3558 E Jacobs Way, Eagle Mountain, UT 84005","precinct":"25EM22","hd":"50","v_score":"0","decile":"2","lat":40.355220614346,"lng":-111.976237969784},{"id":"125969","name":"Orvin Schumm","party":"","address":"7118 N Hollow Crest Cir, Eagle Mountain, UT 84005","precinct":"25EM22","hd":"50","v_score":"0","decile":"2","lat":40.349390014739,"lng":-111.971689717911},{"id":"126052","name":"Hugo Reichert","party":"","address":"7097 N Kiowa Pkwy, Eagle Mountain, UT 84005","precinct":"25EM22","hd":"50","v_score":"0","decile":"2","lat":40.348805887895,"lng":-111.966648872311},{"id":"126191","name":"Brandon Kessler","party":"Dem","address":"3558 E Jacobs Way, Eagle Mountain, UT 84005","precinct":"25EM22","hd":"50","v_score":"0","decile":"2","lat":40.355220614346,"lng":-111.976237969784},{"id":"126324","name":"Miss Yoselin Denesik","party":"","address":"7119 N Golden Ridge Ct, Eagle Mountain, UT 84005","precinct":"25EM22","hd":"50","v_score":"7.090117576","decile":"8","lat":40.349341951599,"lng":-111.970898849636},{"id":"127146","name":"Leopold Reynolds","party":"Dem","address":"7087 N Mohican Dr, Eagle Mountain, UT 84005","precinct":"25EM22","hd":"50","v_score":"0","decile":"2","lat":40.348991497964,"lng":-111.967746362834},{"id":"127885","name":"Skylar Lang","party":"Rep","address":"3793 Hollow Crest Dr, Eagle Mountain, UT 84005","precinct":"25EM22","hd":"50","v_score":"2.876042565","decile":"6","lat":40.34965807437,"lng":-111.971235430916},{"id":"128149","name":"Roselyn Langworth","party":"","address":"3887 E Pawnee Rd, Eagle Mountain, UT 84005","precinct":"25EM22","hd":"50","v_score":"0","decile":"2","lat":40.34950185997,"lng":-111.969241643432},{"id":"128902","name":"Cornelius Ankunding","party":"Rep","address":"4138 Cherokee St, Eagle Mountain, UT 84005","precinct":"25EM22","hd":"50","v_score":"2.876042565","decile":"6","lat":40.344919058057,"lng":-111.964542051236},{"id":"129467","name":"Makala Lang","party":"Rep","address":"6996 N Cherokee St, Eagle Mountain, UT 84005","precinct":"25EM22","hd":"50","v_score":"0","decile":"2","lat":40.347447553243,"lng":-111.96469491085},{"id":"129652","name":"Unique Friesen","party":"","address":"7181 N Skyview Ln, Eagle Mountain, UT 84005","precinct":"25EM22","hd":"50","v_score":"7.090117576","decile":"8","lat":40.350326749335,"lng":-111.972268660414},{"id":"130549","name":"Ms. Terrie Herzog","party":"Dem","address":"3989 E Yakima Way, Eagle Mountain, UT 84005","precinct":"25EM22","hd":"50","v_score":"0","decile":"2","lat":40.345217719659,"lng":-111.967389035813},{"id":"130829","name":"Corene Mante-King","party":"Rep","address":"4098 Cherokee St, Eagle Mountain, UT 84005","precinct":"25EM22","hd":"50","v_score":"2.876042565","decile":"6","lat":40.344656540513,"lng":-111.964539129045},{"id":"130903","name":"Ashlynn Harvey-Powlowski","party":"Rep","address":"7156 N Skyview Ln, Eagle Mountain, UT 84005","precinct":"25EM22","hd":"50","v_score":"0","decile":"2","lat":40.349832457071,"lng":-111.972409156841},{"id":"131528","name":"Matie Prosacco","party":"","address":"7164 N Golden Ridge Dr, Eagle Mountain, UT 84005","precinct":"25EM22","hd":"50","v_score":"0","decile":"2","lat":40.349993076151,"lng":-111.970332550724},{"id":"131573","name":"Texanna Baumbach DVM","party":"Rep","address":"3566 E Jacobs Ct, Eagle Mountain, UT 84005","precinct":"25EM22","hd":"50","v_score":"0","decile":"2","lat":40.355226595347,"lng":-111.976105314058},{"id":"132039","name":"Melinda Moore","party":"","address":"7058 N Hollow View Ct, Eagle Mountain, UT 84005","precinct":"25EM22","hd":"50","v_score":"0","decile":"2","lat":40.348628665943,"lng":-111.969946900811},{"id":"132763","name":"Arnett Miller","party":"","address":"3986 E Eagle Top Ct, Eagle Mountain, UT 84005","precinct":"25EM22","hd":"50","v_score":"0","decile":"2","lat":40.351724983867,"lng":-111.968122869021},{"id":"133551","name":"Jailene Adams","party":"Rep","address":"7147 N Skyview Ct, Eagle Mountain, UT 84005","precinct":"25EM22","hd":"50","v_score":"0","decile":"2","lat":40.34985480175,"lng":-111.972562230058},{"id":"134275","name":"Kristen Rolfson","party":"","address":"7107 N Kiowa Pkwy, Eagle Mountain, UT 84005","precinct":"25EM22","hd":"50","v_score":"0","decile":"2","lat":40.348881514529,"lng":-111.966680109385},{"id":"134587","name":"Red Feeney","party":"","address":"4134 E Sioux St, Eagle Mountain, UT 84005","precinct":"25EM22","hd":"50","v_score":"12.94405289","decile":"9","lat":40.350725718881,"lng":-111.965346556086},{"id":"134807","name":"Arlie Lindgren","party":"","address":"4102 E South Pass Rd, Eagle Mountain, UT 84005","precinct":"25EM22","hd":"50","v_score":"3.93832808","decile":"6","lat":40.345973719417,"lng":-111.965357979927},{"id":"134891","name":"Robyn Kerluke","party":"Rep","address":"4079 E Comanche St, Eagle Mountain, UT 84005","precinct":"25EM22","hd":"50","v_score":"8.347511332","decile":"8","lat":40.347240310708,"lng":-111.965832184194},{"id":"135152","name":"Ricki Kuphal","party":"Rep","address":"7127 N Hollow Crest Cir, Eagle Mountain, UT 84005","precinct":"25EM22","hd":"50","v_score":"9.405332525","decile":"8","lat":40.349466436413,"lng":-111.971807787162},{"id":"135368","name":"Orla Howe-Lowe","party":"Rep","address":"4008 E Sioux St, Eagle Mountain, UT 84005","precinct":"25EM22","hd":"50","v_score":"7.493443096","decile":"8","lat":40.350749223535,"lng":-111.967075033339},{"id":"135506","name":"Toy Herzog","party":"","address":"3962 E Sioux St, Eagle Mountain, UT 84005","precinct":"25EM22","hd":"50","v_score":"2.744440783","decile":"5","lat":40.350752725726,"lng":-111.967891421406},{"id":"135557","name":"Dayami Hilll","party":"","address":"7152 N Golden Ridge Dr, Eagle Mountain, UT 84005","precinct":"25EM22","hd":"50","v_score":"10.87160818","decile":"9","lat":40.349773097805,"lng":-111.970445772338},{"id":"135576","name":"Garrison Beatty-Pouros","party":"Rep","address":"6946 N Cherokee St, Eagle Mountain, UT 84005","precinct":"25EM22","hd":"50","v_score":"9.55742766","decile":"8","lat":40.346612968306,"lng":-111.964513854847},{"id":"135580","name":"Mr. Damond Ryan","party":"","address":"6946 N Cherokee St, Eagle Mountain, UT 84005","precinct":"25EM22","hd":"50","v_score":"3.93832808","decile":"6","lat":40.346612968306,"lng":-111.964513854847},{"id":"135705","name":"Dr. Trevor Ankunding","party":"Rep","address":"3923 E Eagle Top Ct, Eagle Mountain, UT 84005","precinct":"25EM22","hd":"50","v_score":"8.15240309","decile":"8","lat":40.351728759581,"lng":-111.968627876457},{"id":"135813","name":"Isidro Hessel","party":"Rep","address":"6923 N Cherokee St, Eagle Mountain, UT 84005","precinct":"25EM22","hd":"50","v_score":"2.587603312","decile":"5","lat":40.346343730664,"lng":-111.964675929654},{"id":"136177","name":"Gaige Marvin","party":"Dem","address":"7062 N Cherokee St, Eagle Mountain, UT 84005","precinct":"25EM22","hd":"50","v_score":"5.40460374","decile":"7","lat":40.348417270809,"lng":-111.964588625044},{"id":"136179","name":"Darrel Baumbach","party":"","address":"6959 N Mohawk St, Eagle Mountain, UT 84005","precinct":"25EM22","hd":"50","v_score":"0","decile":"2","lat":40.346763142711,"lng":-111.96753713804},{"id":"136417","name":"Monserrat Zulauf","party":"Rep","address":"4146 Cherokee St, Eagle Mountain, UT 84005","precinct":"25EM22","hd":"50","v_score":"8.601979876","decile":"8","lat":40.344963751063,"lng":-111.964545443817},{"id":"136433","name":"Yoselin Lynch MD","party":"Rep","address":"3917 E Hopi Rd, Eagle Mountain, UT 84005","precinct":"25EM22","hd":"50","v_score":"11.02844566","decile":"9","lat":40.347993315031,"lng":-111.968680804871},{"id":"136491","name":"Dr. Shiloh Reynolds","party":"","address":"3892 E South Pass Cv, Eagle Mountain, UT 84005","precinct":"25EM22","hd":"50","v_score":"1.193887297","decile":"4","lat":40.346357677991,"lng":-111.968958772806},{"id":"136613","name":"Tawanda Herman","party":"Dem","address":"3867 Hollow Crest Dr, Eagle Mountain, UT 84005","precinct":"25EM22","hd":"50","v_score":"2.315214949","decile":"5","lat":40.348926466538,"lng":-111.969822010219},{"id":"136629","name":"Forrest Bogisich MD","party":"","address":"6996 N Cherokee St, Eagle Mountain, UT 84005","precinct":"25EM22","hd":"50","v_score":"5.40460374","decile":"7","lat":40.347447553243,"lng":-111.96469491085},{"id":"136630","name":"Mr. Vinson Thiel","party":"Dem","address":"6996 N Cherokee St, Eagle Mountain, UT 84005","precinct":"25EM22","hd":"50","v_score":"7.282185415","decile":"8","lat":40.347447553243,"lng":-111.96469491085},{"id":"136858","name":"Jace McLaughlin V","party":"","address":"7114 Ute Dr, Eagle Mountain, UT 84005","precinct":"25EM22","hd":"50","v_score":"0","decile":"2","lat":40.349481010511,"lng":-111.965637948299},{"id":"136957","name":"Richie Corkery","party":"","address":"4115 E Dakota Dr, Eagle Mountain, UT 84005","precinct":"25EM22","hd":"50","v_score":"8.363183621","decile":"8","lat":40.34538631087,"lng":-111.965209233228},{"id":"137067","name":"Shirley Dickens","party":"Rep","address":"4115 E Comanche St, Eagle Mountain, UT 84005","precinct":"25EM22","hd":"50","v_score":"2.817000428","decile":"6","lat":40.347241597483,"lng":-111.965298774726},{"id":"137111","name":"Harper Schaefer","party":"","address":"4115 E Dakota Dr, Eagle Mountain, UT 84005","precinct":"25EM22","hd":"50","v_score":"8.363183621","decile":"8","lat":40.34538631087,"lng":-111.965209233228},{"id":"137229","name":"Mr. Pate McGlynn Sr.","party":"","address":"3793 Hollow Crest Dr, Eagle Mountain, UT 84005","precinct":"25EM22","hd":"50","v_score":"5.191257514","decile":"7","lat":40.34965807437,"lng":-111.971235430916},{"id":"137244","name":"Christophe Trantow","party":"Rep","address":"3677 E Long Ridge Dr, Eagle Mountain, UT 84005","precinct":"25EM22","hd":"50","v_score":"22.64413479","decile":"10","lat":40.351208738814,"lng":-111.973479460792},{"id":"137265","name":"Auther Goodwin-Bogan","party":"Dem","address":"7058 N Hollow View Ct, Eagle Mountain, UT 84005","precinct":"25EM22","hd":"50","v_score":"5.40460374","decile":"7","lat":40.348628665943,"lng":-111.969946900811},{"id":"137328","name":"Mrs. Ronnie West PhD","party":"Dem","address":"7151 N Mohican Dr, Eagle Mountain, UT 84005","precinct":"25EM22","hd":"50","v_score":"6.814370645","decile":"8","lat":40.349629455181,"lng":-111.967855107553},{"id":"137500","name":"Shaniqua Upton PhD","party":"","address":"7082 N Kiowa Pkwy, Eagle Mountain, UT 84005","precinct":"25EM22","hd":"50","v_score":"9.493615977","decile":"8","lat":40.349058695644,"lng":-111.966594108977},{"id":"137711","name":"Jaimie Keebler","party":"Dem","address":"3997 E Comanche St, Eagle Mountain, UT 84005","precinct":"25EM22","hd":"50","v_score":"13.83018807","decile":"9","lat":40.347244454527,"lng":-111.967326265476},{"id":"137732","name":"Ms. Zela Heidenreich","party":"","address":"3997 E Comanche St, Eagle Mountain, UT 84005","precinct":"25EM22","hd":"50","v_score":"13.83018807","decile":"9","lat":40.347244454527,"lng":-111.967326265476},{"id":"137761","name":"Jaime Gislason","party":"Dem","address":"4079 E Dakota Dr, Eagle Mountain, UT 84005","precinct":"25EM22","hd":"50","v_score":"5.40460374","decile":"7","lat":40.345385334062,"lng":-111.965427878996},{"id":"137768","name":"Perley Kshlerin","party":"Rep","address":"3677 E Long Ridge Dr, Eagle Mountain, UT 84005","precinct":"25EM22","hd":"50","v_score":"19.76809223","decile":"10","lat":40.351208738814,"lng":-111.973479460792},{"id":"138158","name":"Tabatha Goyette","party":"Dem","address":"3954 E Hopi Rd, Eagle Mountain, UT 84005","precinct":"25EM22","hd":"50","v_score":"1.121327652","decile":"3","lat":40.347830478108,"lng":-111.968219656674},{"id":"138282","name":"Mr. Khari Bins DDS","party":"","address":"3986 E Eagle Top Ct, Eagle Mountain, UT 84005","precinct":"25EM22","hd":"50","v_score":"0","decile":"2","lat":40.351724983867,"lng":-111.968122869021},{"id":"138316","name":"Nyah Rempel","party":"","address":"6964 Chippewa Dr, Eagle Mountain, UT 84005","precinct":"25EM22","hd":"50","v_score":"18.46989245","decile":"10","lat":40.346768650397,"lng":-111.96541203628},{"id":"138325","name":"Davina Hermann","party":"Dem","address":"3986 E Eagle Top Ct, Eagle Mountain, UT 84005","precinct":"25EM22","hd":"50","v_score":"1.121327652","decile":"3","lat":40.351724983867,"lng":-111.968122869021},{"id":"138373","name":"Jonnie Reilly DVM","party":"","address":"7324 Pawnee Rd, Eagle Mountain, UT 84005","precinct":"25EM22","hd":"50","v_score":"33.46007006","decile":"10","lat":40.351055636715,"lng":-111.97194266272},{"id":"138374","name":"Melville Bergnaum","party":"Dem","address":"7324 Pawnee Rd, Eagle Mountain, UT 84005","precinct":"25EM22","hd":"50","v_score":"33.46007006","decile":"10","lat":40.351055636715,"lng":-111.97194266272},{"id":"138701","name":"Dr. Mylie Kub","party":"Rep","address":"7134 N Skyview Ct, Eagle Mountain, UT 84005","precinct":"25EM22","hd":"50","v_score":"1.121327652","decile":"3","lat":40.349770701064,"lng":-111.972448857137},{"id":"138726","name":"Yetta O'Reilly-Smitham","party":"","address":"7077 N Mohican Dr, Eagle Mountain, UT 84005","precinct":"25EM22","hd":"50","v_score":"2.315214949","decile":"5","lat":40.348887089421,"lng":-111.967727937813},{"id":"139031","name":"Knute Harber","party":"Dem","address":"7179 N Pawnee Ct, Eagle Mountain, UT 84005","precinct":"25EM22","hd":"50","v_score":"3.93832808","decile":"6","lat":40.350516990375,"lng":-111.971220388444},{"id":"139058","name":"Arlington Rogahn","party":"Dem","address":"3878 Hollow Crest Dr, Eagle Mountain, UT 84005","precinct":"25EM22","hd":"50","v_score":"24.49196895","decile":"10","lat":40.348648858858,"lng":-111.969730457299},{"id":"139082","name":"Ms. Marjory Abshire DVM","party":"","address":"6951 N South Pass Rd, Eagle Mountain, UT 84005","precinct":"25EM22","hd":"50","v_score":"28.19136616","decile":"10","lat":40.347103460984,"lng":-111.969436257255},{"id":"139204","name":"Miss Vira Boehm","party":"","address":"7112 N Golden Ridge Ct, Eagle Mountain, UT 84005","precinct":"25EM22","hd":"50","v_score":"0","decile":"2","lat":40.349281290865,"lng":-111.970771246818},{"id":"139273","name":"Nataly Rogahn DDS","party":"Rep","address":"7178 Pawnee Rd, Eagle Mountain, UT 84005","precinct":"25EM22","hd":"50","v_score":"5.40460374","decile":"7","lat":40.35047551737,"lng":-111.971080219013},{"id":"139334","name":"Brandon Sawayn II","party":"","address":"7164 N Golden Ridge Dr, Eagle Mountain, UT 84005","precinct":"25EM22","hd":"50","v_score":"9.61867875","decile":"8","lat":40.349993076151,"lng":-111.970332550724},{"id":"139757","name":"Colin Hermann-Steuber","party":"Dem","address":"4086 E Dakota Dr, Eagle Mountain, UT 84005","precinct":"25EM22","hd":"50","v_score":"3.781490609","decile":"6","lat":40.345271719498,"lng":-111.965375394821},{"id":"139773","name":"Keesha Weissnat PhD","party":"Rep","address":"6941 N Chippewa Dr, Eagle Mountain, UT 84005","precinct":"25EM22","hd":"50","v_score":"3.781490609","decile":"6","lat":40.346509491945,"lng":-111.965547806174},{"id":"139862","name":"Cale Trantow DVM","party":"","address":"7181 N Skyview Ln, Eagle Mountain, UT 84005","precinct":"25EM22","hd":"50","v_score":"9.923865181","decile":"9","lat":40.350326749335,"lng":-111.972268660414},{"id":"139961","name":"Darby Howell","party":"Dem","address":"3843 E Pawnee Rd, Eagle Mountain, UT 84005","precinct":"25EM22","hd":"50","v_score":"26.9144526","decile":"10","lat":40.350783615459,"lng":-111.970450970455},{"id":"139964","name":"Jocelyne Leffler","party":"Rep","address":"7227 N Skyview Ln, Eagle Mountain, UT 84005","precinct":"25EM22","hd":"50","v_score":"8.280646305","decile":"8","lat":40.350856764922,"lng":-111.971921464406},{"id":"140035","name":"Elmer Veum","party":"Rep","address":"4079 E Dakota Dr, Eagle Mountain, UT 84005","precinct":"25EM22","hd":"50","v_score":"5.40460374","decile":"7","lat":40.345385334062,"lng":-111.965427878996},{"id":"140235","name":"Miss Roni Connelly DDS","party":"Dem","address":"6969 N Mohawk St, Eagle Mountain, UT 84005","precinct":"25EM22","hd":"50","v_score":"2.315214949","decile":"5","lat":40.346855190915,"lng":-111.967543906278},{"id":"140344","name":"Brett Reichel","party":"Rep","address":"3705 E Long Ridge Dr, Eagle Mountain, UT 84005","precinct":"25EM22","hd":"50","v_score":"23.89962992","decile":"10","lat":40.350801759012,"lng":-111.972938737214},{"id":"140392","name":"Stacia Berge","party":"","address":"3705 E Long Ridge Dr, Eagle Mountain, UT 84005","precinct":"25EM22","hd":"50","v_score":"38.40546931","decile":"10","lat":40.350801759012,"lng":-111.972938737214},{"id":"140593","name":"Alex Glover","party":"Dem","address":"3886 E South Pass Cv, Eagle Mountain, UT 84005","precinct":"25EM22","hd":"50","v_score":"5.815909755","decile":"7","lat":40.346505348463,"lng":-111.969114004351},{"id":"140656","name":"Flo Turner","party":"Rep","address":"6938 N Mohawk St, Eagle Mountain, UT 84005","precinct":"25EM22","hd":"50","v_score":"2.744440783","decile":"5","lat":40.346578679531,"lng":-111.967394336771},{"id":"140658","name":"Cherrelle Kohler PhD","party":"","address":"6938 N Mohawk St, Eagle Mountain, UT 84005","precinct":"25EM22","hd":"50","v_score":"2.744440783","decile":"5","lat":40.346578679531,"lng":-111.967394336771},{"id":"140736","name":"Mauro Bernhard","party":"Dem","address":"4107 E Sioux St, Eagle Mountain, UT 84005","precinct":"25EM22","hd":"50","v_score":"6.814370645","decile":"8","lat":40.350840310272,"lng":-111.96543659687},{"id":"140841","name":"Shyheim Kris-DuBuque","party":"Rep","address":"4130 E Dakota Dr, Eagle Mountain, UT 84005","precinct":"25EM22","hd":"50","v_score":"5.40460374","decile":"7","lat":40.345271719478,"lng":-111.96511428377},{"id":"140917","name":"Adolphus Wisoky Sr.","party":"","address":"4064 E South Pass Rd, Eagle Mountain, UT 84005","precinct":"25EM22","hd":"50","v_score":"5.40460374","decile":"7","lat":40.345973964426,"lng":-111.966040112319},{"id":"140918","name":"Winter Cremin","party":"","address":"4064 E South Pass Rd, Eagle Mountain, UT 84005","precinct":"25EM22","hd":"50","v_score":"5.40460374","decile":"7","lat":40.345973964426,"lng":-111.966040112319},{"id":"141887","name":"Mr. Duff Gottlieb MD","party":"Dem","address":"4073 E Sioux St, Eagle Mountain, UT 84005","precinct":"25EM22","hd":"50","v_score":"14.04503691","decile":"9","lat":40.350841187996,"lng":-111.965861864488},{"id":"142175","name":"Angeles Wiza","party":"Rep","address":"3917 E Hopi Rd, Eagle Mountain, UT 84005","precinct":"25EM22","hd":"50","v_score":"11.02844566","decile":"9","lat":40.347993315031,"lng":-111.968680804871},{"id":"142285","name":"Mittie Gerlach","party":"Dem","address":"7572 N Jacobs Way, Eagle Mountain, UT 84005","precinct":"25EM22","hd":"50","v_score":"20.70633281","decile":"10","lat":40.355358442091,"lng":-111.97678951635},{"id":"142286","name":"Loriann Murphy","party":"Dem","address":"7181 N Skyview Ln, Eagle Mountain, UT 84005","precinct":"25EM22","hd":"50","v_score":"9.923865181","decile":"9","lat":40.350326749335,"lng":-111.972268660414},{"id":"142447","name":"Dean Denesik V","party":"Dem","address":"6977 N South Pass Rd, Eagle Mountain, UT 84005","precinct":"25EM22","hd":"50","v_score":"12.49472132","decile":"9","lat":40.346896488461,"lng":-111.969354495857},{"id":"142527","name":"Aniya Wolf","party":"","address":"6977 N South Pass Rd, Eagle Mountain, UT 84005","precinct":"25EM22","hd":"50","v_score":"12.49472132","decile":"9","lat":40.346896488461,"lng":-111.969354495857},{"id":"142579","name":"Joycelyn Jones","party":"Dem","address":"7112 N Mohican Dr, Eagle Mountain, UT 84005","precinct":"25EM22","hd":"50","v_score":"18.44108562","decile":"10","lat":40.349063848687,"lng":-111.967607418},{"id":"142719","name":"Deron Murazik-Denesik","party":"Rep","address":"7099 N Cherokee St, Eagle Mountain, UT 84005","precinct":"25EM22","hd":"50","v_score":"10.96719457","decile":"9","lat":40.348855105023,"lng":-111.964767355491},{"id":"143174","name":"Hattie Glover","party":"","address":"4062 E Chinook St, Eagle Mountain, UT 84005","precinct":"25EM22","hd":"50","v_score":"1.193887297","decile":"4","lat":40.348541193409,"lng":-111.966092095462},{"id":"143806","name":"Mrs. Jo Toy DVM","party":"","address":"7102 N Cherokee St, Eagle Mountain, UT 84005","precinct":"25EM22","hd":"50","v_score":"18.52100983","decile":"10","lat":40.348832853282,"lng":-111.964614088514},{"id":"144160","name":"Mr. Enrico Dooley","party":"","address":"3945 Eagle Top Ct, Eagle Mountain, UT 84005","precinct":"25EM22","hd":"50","v_score":"24.61981187","decile":"10","lat":40.351805729265,"lng":-111.968339969287},{"id":"144641","name":"Jerrod Little","party":"","address":"3964 E South Pass Rd, Eagle Mountain, UT 84005","precinct":"25EM22","hd":"50","v_score":"12.42192378","decile":"9","lat":40.3460091251,"lng":-111.967814230685},{"id":"144686","name":"Celestia Hayes","party":"","address":"4098 Cherokee St, Eagle Mountain, UT 84005","precinct":"25EM22","hd":"50","v_score":"12.85997759","decile":"9","lat":40.344656540513,"lng":-111.964539129045},{"id":"145395","name":"Julianne Goldner-Cassin","party":"Rep","address":"7092 N Cherokee St, Eagle Mountain, UT 84005","precinct":"25EM22","hd":"50","v_score":"6.724398202","decile":"8","lat":40.348777540723,"lng":-111.964608850341},{"id":"145794","name":"Harlow Nader","party":"","address":"7159 N Golden Ridge Dr, Eagle Mountain, UT 84005","precinct":"25EM22","hd":"50","v_score":"8.363183621","decile":"8","lat":40.349809363748,"lng":-111.970590030524},{"id":"145996","name":"Agness Berge","party":"Dem","address":"7068 N Sierra Way, Eagle Mountain, UT 84005","precinct":"25EM22","hd":"50","v_score":"4.210478549","decile":"7","lat":40.348671058026,"lng":-111.968546558955},{"id":"146143","name":"Demetrios Jast-Windler","party":"","address":"4134 E Sioux St, Eagle Mountain, UT 84005","precinct":"25EM22","hd":"50","v_score":"12.94405289","decile":"9","lat":40.350725718881,"lng":-111.965346556086},{"id":"146239","name":"Michaele Kling","party":"Dem","address":"3724 E Long Ridge Dr, Eagle Mountain, UT 84005","precinct":"25EM22","hd":"50","v_score":"7.583918848","decile":"8","lat":40.350580017458,"lng":-111.972760152206},{"id":"146256","name":"Eugenio Kutch","party":"","address":"3946 E South Pass Rd, Eagle Mountain, UT 84005","precinct":"25EM22","hd":"50","v_score":"9.830961897","decile":"8","lat":40.34600261759,"lng":-111.967944381077},{"id":"146285","name":"Ms. Annie Wisoky","party":"Dem","address":"4052 E South Pass Rd, Eagle Mountain, UT 84005","precinct":"25EM22","hd":"50","v_score":"27.6390385","decile":"10","lat":40.345980871906,"lng":-111.966221433278},{"id":"146741","name":"Coletta Wehner-Mitchell","party":"Dem","address":"4115 E Comanche St, Eagle Mountain, UT 84005","precinct":"25EM22","hd":"50","v_score":"1.193887297","decile":"4","lat":40.347241597483,"lng":-111.965298774726},{"id":"151053","name":"Dr. Benny Robel","party":"Dem","address":"3971 E Golden Eagle Rd, Eagle Mountain, UT 84005","precinct":"25EM22","hd":"50","v_score":"3.711952487","decile":"6","lat":40.35013626104,"lng":-111.967876724811},{"id":"153039","name":"Caden Mayert","party":"","address":"7098 N Kiowa Pkwy, Eagle Mountain, UT 84005","precinct":"25EM22","hd":"50","v_score":"4.069929862","decile":"7","lat":40.349129950947,"lng":-111.966613270219},{"id":"154352","name":"Paulina Johnson","party":"Rep","address":"6939 N Mohawk St, Eagle Mountain, UT 84005","precinct":"25EM22","hd":"50","v_score":"2.315214949","decile":"5","lat":40.346585942828,"lng":-111.967544388583},{"id":"154487","name":"Josue Hettinger","party":"Rep","address":"3984 E South Pass Rd, Eagle Mountain, UT 84005","precinct":"25EM22","hd":"50","v_score":"4.069929862","decile":"7","lat":40.346002743154,"lng":-111.967671243511},{"id":"154733","name":"Gabriel Greenfelder","party":"","address":"4105 E Comanche St, Eagle Mountain, UT 84005","precinct":"25EM22","hd":"50","v_score":"4.064235245","decile":"6","lat":40.347240310672,"lng":-111.965362998425},{"id":"156201","name":"Hillard Schinner","party":"","address":"4092 E South Pass Rd, Eagle Mountain, UT 84005","precinct":"25EM22","hd":"50","v_score":"0","decile":"3","lat":40.345973719437,"lng":-111.965612754697},{"id":"156607","name":"Ruthann Schimmel","party":"","address":"3847 Hollow Crest Dr, Eagle Mountain, UT 84005","precinct":"25EM22","hd":"50","v_score":"19.86299297","decile":"10","lat":40.349167337571,"lng":-111.970064290184},{"id":"157250","name":"Ellar Raynor","party":"","address":"6809 N Cherokee St, Eagle Mountain, UT 84005","precinct":"25EM22","hd":"50","v_score":"6.814370645","decile":"8","lat":40.344430533872,"lng":-111.965171400915},{"id":"160559","name":"Dr. Zeb Little","party":"Dem","address":"3936 E Hopi Rd, Eagle Mountain, UT 84005","precinct":"25EM22","hd":"50","v_score":"5.693042993","decile":"7","lat":40.347853287364,"lng":-111.96857443959},{"id":"161089","name":"Gunner Boyer-Kuhn","party":"Dem","address":"4006 E Golden Eagle Rd, Eagle Mountain, UT 84005","precinct":"25EM22","hd":"50","v_score":"2.817000428","decile":"6","lat":40.350014719124,"lng":-111.967465066238},{"id":"161696","name":"Mercer Orn","party":"Rep","address":"3945 E Comanche St, Eagle Mountain, UT 84005","precinct":"25EM22","hd":"50","v_score":"6.954919332","decile":"8","lat":40.346327315438,"lng":-111.96868752545},{"id":"162300","name":"Duwayne Kirlin","party":"","address":"3558 E Jacobs Way, Eagle Mountain, UT 84005","precinct":"25EM22","hd":"50","v_score":"1.121327652","decile":"3","lat":40.355220614346,"lng":-111.976237969784},{"id":"162567","name":"Demetrios Baumbach-McCullough","party":"","address":"4092 E South Pass Rd, Eagle Mountain, UT 84005","precinct":"25EM22","hd":"50","v_score":"1.193887297","decile":"4","lat":40.345973719437,"lng":-111.965612754697},{"id":"162657","name":"Mr. Jamison Denesik DVM","party":"Rep","address":"4091 E Dakota Dr, Eagle Mountain, UT 84005","precinct":"25EM22","hd":"50","v_score":"1.193887297","decile":"4","lat":40.345386310881,"lng":-111.965351657438},{"id":"163378","name":"Sanaa Renner-Roberts","party":"Dem","address":"6951 N South Pass Rd, Eagle Mountain, UT 84005","precinct":"25EM22","hd":"50","v_score":"38.24567755","decile":"10","lat":40.347103460984,"lng":-111.969436257255},{"id":"164318","name":"Alleen Lind","party":"Rep","address":"4091 E Dakota Dr, Eagle Mountain, UT 84005","precinct":"25EM22","hd":"50","v_score":"4.152467179","decile":"7","lat":40.345386310881,"lng":-111.965351657438},{"id":"164375","name":"Tamisha Reynolds","party":"Rep","address":"6809 N Cherokee St, Eagle Mountain, UT 84005","precinct":"25EM22","hd":"50","v_score":"6.814370645","decile":"8","lat":40.344430533872,"lng":-111.965171400915},{"id":"165552","name":"Ryker Brekke","party":"","address":"6918 N Mohawk St, Eagle Mountain, UT 84005","precinct":"25EM22","hd":"50","v_score":"0","decile":"3","lat":40.346399899901,"lng":-111.967405587779},{"id":"165621","name":"Mr. Maddox Quigley III","party":"Rep","address":"7107 N Kiowa Pkwy, Eagle Mountain, UT 84005","precinct":"25EM22","hd":"50","v_score":"16.73021475","decile":"9","lat":40.348881514529,"lng":-111.966680109385},{"id":"165622","name":"Miss Lesa Schumm","party":"Dem","address":"7107 N Kiowa Pkwy, Eagle Mountain, UT 84005","precinct":"25EM22","hd":"50","v_score":"9.61867875","decile":"8","lat":40.348881514529,"lng":-111.966680109385},{"id":"165877","name":"Britton Schinner","party":"Dem","address":"7548 N Jacobs Way, Eagle Mountain, UT 84005","precinct":"25EM22","hd":"50","v_score":"5.40460374","decile":"7","lat":40.356508489979,"lng":-111.977027412359},{"id":"165961","name":"Hunter Dare","party":"","address":"7085 Ute Dr, Eagle Mountain, UT 84005","precinct":"25EM22","hd":"50","v_score":"19.08833031","decile":"10","lat":40.34921018667,"lng":-111.96579807429},{"id":"166330","name":"Dr. Alexus Gleichner PhD","party":"Rep","address":"6942 N Kiowa Pkwy, Eagle Mountain, UT 84005","precinct":"25EM22","hd":"50","v_score":"3.781490609","decile":"6","lat":40.346567310549,"lng":-111.966414598423},{"id":"168684","name":"Delora Nitzsche","party":"","address":"4138 Cherokee St, Eagle Mountain, UT 84005","precinct":"25EM22","hd":"50","v_score":"2.876042565","decile":"6","lat":40.344919058057,"lng":-111.964542051236},{"id":"168685","name":"Cori Spinka","party":"","address":"3502 E Jacobs Way, Eagle Mountain, UT 84005","precinct":"25EM22","hd":"50","v_score":"3.781490609","decile":"6","lat":40.355374245308,"lng":-111.977172836501},{"id":"169665","name":"Woodie Schaefer","party":"Rep","address":"7606 N Jacobs Way, Eagle Mountain, UT 84005","precinct":"25EM22","hd":"50","v_score":"11.23922619","decile":"9","lat":40.354986565364,"lng":-111.974066425462},{"id":"169771","name":"Mrs. Elvira Schmidt DDS","party":"Dem","address":"6925 N Mohawk St, Eagle Mountain, UT 84005","precinct":"25EM22","hd":"50","v_score":"2.315214949","decile":"5","lat":40.346455420379,"lng":-111.967553507666},{"id":"169894","name":"Sharif Schaden","party":"Dem","address":"3952 E Sioux St, Eagle Mountain, UT 84005","precinct":"25EM22","hd":"50","v_score":"5.761032035","decile":"7","lat":40.350749859571,"lng":-111.967934413772},{"id":"170044","name":"Randle Rice","party":"Dem","address":"7125 Ute Dr, Eagle Mountain, UT 84005","precinct":"25EM22","hd":"50","v_score":"3.711952487","decile":"6","lat":40.34952309697,"lng":-111.965779887725},{"id":"170395","name":"Rhoda Hills","party":"Rep","address":"6930 N Comanche St, Eagle Mountain, UT 84005","precinct":"25EM22","hd":"50","v_score":"1.193887297","decile":"4","lat":40.34671613098,"lng":-111.968326284831},{"id":"170650","name":"Basil Metz","party":"Rep","address":"7157 N Skyview Ct, Eagle Mountain, UT 84005","precinct":"25EM22","hd":"50","v_score":"1.193887297","decile":"4","lat":40.349882872663,"lng":-111.972544184468},{"id":"171017","name":"Ethyl Prohaska","party":"Dem","address":"4112 E Chinook St, Eagle Mountain, UT 84005","precinct":"25EM22","hd":"50","v_score":"1.121327652","decile":"3","lat":40.348570746176,"lng":-111.965354301557},{"id":"171030","name":"Riley Feest","party":"Rep","address":"3984 E South Pass Rd, Eagle Mountain, UT 84005","precinct":"25EM22","hd":"50","v_score":"4.069929862","decile":"7","lat":40.346002743154,"lng":-111.967671243511},{"id":"171249","name":"Felicitas Green","party":"","address":"3952 E Sioux St, Eagle Mountain, UT 84005","precinct":"25EM22","hd":"50","v_score":"10.29877667","decile":"9","lat":40.350749859571,"lng":-111.967934413772},{"id":"171556","name":"Gussie Weber","party":"Rep","address":"7189 Notah Ct, Eagle Mountain, UT 84005","precinct":"25EM22","hd":"50","v_score":"2.315214949","decile":"5","lat":40.350586197414,"lng":-111.973388542959},{"id":"173217","name":"Deron Douglas","party":"","address":"3946 E South Pass Rd, Eagle Mountain, UT 84005","precinct":"25EM22","hd":"50","v_score":"18.11188939","decile":"10","lat":40.34600261759,"lng":-111.967944381077},{"id":"174041","name":"Rishi Wyman-Schoen","party":"Rep","address":"7206 N Skyview Ln, Eagle Mountain, UT 84005","precinct":"25EM22","hd":"50","v_score":"3.781490609","decile":"6","lat":40.350608030891,"lng":-111.971918630292},{"id":"175119","name":"Miss Tilda Dietrich","party":"Rep","address":"7118 N Kiowa Pkwy, Eagle Mountain, UT 84005","precinct":"25EM22","hd":"50","v_score":"0","decile":"3","lat":40.349228560844,"lng":-111.966628678001},{"id":"175497","name":"Shantel Lowe MD","party":"","address":"6783 N Yakima Way, Eagle Mountain, UT 84005","precinct":"25EM22","hd":"50","v_score":"0","decile":"3","lat":40.344784876592,"lng":-111.965618040998},{"id":"175624","name":"Dr. Zona Botsford","party":"Rep","address":"7296 N Long Ridge Dr, Eagle Mountain, UT 84005","precinct":"25EM22","hd":"50","v_score":"3.781490609","decile":"6","lat":40.351161529082,"lng":-111.973621976362},{"id":"176119","name":"Lovisa Collins","party":"Dem","address":"7014 N Cherokee St, Eagle Mountain, UT 84005","precinct":"25EM22","hd":"50","v_score":"15.51131257","decile":"9","lat":40.347763431222,"lng":-111.964688115869},{"id":"176891","name":"Sherrill O'Connell IV","party":"Rep","address":"6966 N Mohawk St, Eagle Mountain, UT 84005","precinct":"25EM22","hd":"50","v_score":"7.995565619","decile":"8","lat":40.346843192876,"lng":-111.967392433538},{"id":"177870","name":"Leana Sawayn","party":"Dem","address":"6963 N South Pass Rd, Eagle Mountain, UT 84005","precinct":"25EM22","hd":"50","v_score":"33.51306988","decile":"10","lat":40.34700823938,"lng":-111.969391857472},{"id":"180285","name":"Burgess Schuster","party":"Dem","address":"7366 Pawnee Rd, Eagle Mountain, UT 84005","precinct":"25EM22","hd":"50","v_score":"13.01325397","decile":"9","lat":40.351043394076,"lng":-111.971914734208},{"id":"180520","name":"Karrie Padberg","party":"","address":"7125 Ute Dr, Eagle Mountain, UT 84005","precinct":"25EM22","hd":"50","v_score":"2.587603312","decile":"5","lat":40.34952309697,"lng":-111.965779887725},{"id":"180900","name":"Linn Beier","party":"Rep","address":"7058 N Hollow View Ct, Eagle Mountain, UT 84005","precinct":"25EM22","hd":"50","v_score":"14.37230299","decile":"9","lat":40.348628665943,"lng":-111.969946900811}]