[{"vid":"1224643","name":"Carleigh Ruecker-Lind","party":"","address":"2315 E Boxwood Ln, Eagle Mountain, UT 84005","precinct":"25EM31","hd":"50","v_score":"8.280646305","decile":"8","lat":40.3035634172957,"lng":-111.99964943545498},{"vid":"1275434","name":"Fronia Mosciski PhD","party":"Dem","address":"3913 N Summer Way, Eagle Mountain, UT 84005","precinct":"25EM31","hd":"50","v_score":"4.192796624","decile":"7","lat":40.30409548610669,"lng":-112.00632269073768},{"vid":"1279637","name":"Mr. Silvio McGlynn","party":"","address":"2082 E Blossom St, Eagle Mountain, UT 84005","precinct":"25EM31","hd":"50","v_score":"0","decile":"1","lat":40.29978777105565,"lng":-112.00424799871065},{"vid":"bb1be92a4f80e923b9ba43df73ccbdfb87fdc419a4d314ab8db82f920d5fc6fd","name":"Ms. Esther Wyman MD","party":"Rep","address":"2093 E Easter Dr, Eagle Mountain, UT 84005","precinct":"25EM31","hd":"50","v_score":"20.33180184","decile":"10","lat":40.29886690543439,"lng":-112.00385049404771},{"vid":"1285592","name":"Darvin Bosco","party":"Rep","address":"1995 E Blossom St, Eagle Mountain, UT 84005","precinct":"25EM31","hd":"50","v_score":"26.41733837","decile":"10","lat":40.300238239255485,"lng":-112.00583778176426},{"vid":"79734e9211867d1a02b80016cdad8df083fa6b802ab2e3658cfe1ed227c5033e","name":"Tristian Hagenes","party":"Rep","address":"3706 N Partridge Ln, Eagle Mountain, UT 84005","precinct":"25EM31","hd":"50","v_score":"1.121327652","decile":"3","lat":40.301114849945726,"lng":-112.0022260194699},{"vid":"3119235e73cdc401f69de4e39b290eda765f4c8334e192dc734b792ecbd21373","name":"Clarence Cummings","party":"","address":"2148 E Partridge Ln, Eagle Mountain, UT 84005","precinct":"25EM31","hd":"50","v_score":"3.93832808","decile":"6","lat":40.30122065023632,"lng":-112.0028495030047},{"vid":"1335946","name":"Darry McDermott","party":"Rep","address":"2065 E Autumn St, Eagle Mountain, UT 84005","precinct":"25EM31","hd":"50","v_score":"5.191257514","decile":"7","lat":40.30270026079798,"lng":-112.0044078298406},{"vid":"1340663","name":"Lupe Beier PhD","party":"Rep","address":"2036 E Fall St, Eagle Mountain, UT 84005","precinct":"25EM31","hd":"50","v_score":"2.587603312","decile":"5","lat":40.302976671130445,"lng":-112.00497972340162},{"vid":"1348039","name":"Savanna Shields","party":"","address":"2038 E Easter Dr, Eagle Mountain, UT 84005","precinct":"25EM31","hd":"50","v_score":"22.64413479","decile":"10","lat":40.29843843425219,"lng":-112.00493659402719},{"vid":"b0854f3252b81b98772714341b434aeb0ba8f7fdbba12fa4a1a90c9ba22baa65","name":"Magdalene Brakus","party":"Dem","address":"2019 E Partridge Ln, Eagle Mountain, UT 84005","precinct":"25EM31","hd":"50","v_score":"5.40460374","decile":"7","lat":40.30160704725203,"lng":-112.0053066480016},{"vid":"1350816","name":"Alycia Purdy MD","party":"Dem","address":"3946 N Dateman Dr, Eagle Mountain, UT 84005","precinct":"25EM31","hd":"50","v_score":"2.315214949","decile":"5","lat":40.3045728567497,"lng":-111.99742465725447},{"vid":"1361186","name":"Dr. Kymani VonRueden","party":"Rep","address":"2080 E Fall St, Eagle Mountain, UT 84005","precinct":"25EM31","hd":"50","v_score":"8.15240309","decile":"8","lat":40.30297368977123,"lng":-112.00411946614282},{"vid":"1390311","name":"Cary Kuhn IV","party":"Dem","address":"3554 N Easter Dr, Eagle Mountain, UT 84005","precinct":"25EM31","hd":"50","v_score":"30.73460115","decile":"10","lat":40.29880422022516,"lng":-112.00229974326233},{"vid":"1400452","name":"Mr. Carroll Heidenreich","party":"Rep","address":"2414 E Spring St, Eagle Mountain, UT 84005","precinct":"25EM31","hd":"50","v_score":"1.121327652","decile":"3","lat":40.30389056585052,"lng":-111.99769959182258},{"vid":"1414803","name":"Gianna Gottlieb DVM","party":"Dem","address":"2311 E Cobble Creek Ln, Eagle Mountain, UT 84005","precinct":"25EM31","hd":"50","v_score":"9.907118004","decile":"8","lat":40.3049355381746,"lng":-111.99970614394292},{"vid":"1415714","name":"Cain Wilderman","party":"Rep","address":"3780 N Summer Way, Eagle Mountain, UT 84005","precinct":"25EM31","hd":"50","v_score":"13.32779236","decile":"9","lat":40.302318693331756,"lng":-112.00595679679948},{"vid":"1416123","name":"Lea Leuschke","party":"","address":"2114 E Blossom St, Eagle Mountain, UT 84005","precinct":"25EM31","hd":"50","v_score":"1.121327652","decile":"3","lat":40.29978280622814,"lng":-112.00347744257482},{"vid":"5c7912514c29721096fcacbd0ae773a9abbe32e7b0a599046cdf3ef783f9961c","name":"Chase Ferry","party":"Dem","address":"2096 E Spring St, Eagle Mountain, UT 84005","precinct":"25EM31","hd":"50","v_score":"3.781490609","decile":"6","lat":40.30365869452228,"lng":-112.00380903658773},{"vid":"491339ffbcf530047ce5458137dd8da9b23f3776db38d9afed9f46ca5909053b","name":"Dr. Onie Sauer PhD","party":"","address":"3706 N Partridge Ln, Eagle Mountain, UT 84005","precinct":"25EM31","hd":"50","v_score":"2.315214949","decile":"5","lat":40.301114849945726,"lng":-112.0022260194699},{"vid":"a05509d9888987bd39d35a38836bed75db1f7c1e645a840faf2061df7655ae79","name":"Miss Milda Cummerata PhD","party":"Rep","address":"2068 E Partridge Ln, Eagle Mountain, UT 84005","precinct":"25EM31","hd":"50","v_score":"11.52389434","decile":"9","lat":40.301190219695556,"lng":-112.0045011376695},{"vid":"1457135","name":"Jaylen Hegmann","party":"Dem","address":"1995 E Blossom St, Eagle Mountain, UT 84005","precinct":"25EM31","hd":"50","v_score":"12.38789653","decile":"9","lat":40.300238239255485,"lng":-112.00583778176426},{"vid":"1458568","name":"Watt Legros","party":"Rep","address":"2329 E Woodbury Ln, Eagle Mountain, UT 84005","precinct":"25EM31","hd":"50","v_score":"9.405332525","decile":"8","lat":40.30219122744009,"lng":-111.99938138050983},{"vid":"1482292","name":"Dwain Purdy V","party":"Rep","address":"3707 N Summer Way, Eagle Mountain, UT 84005","precinct":"25EM31","hd":"50","v_score":"0","decile":"1","lat":40.300829271049444,"lng":-112.00653491206998},{"vid":"1491817","name":"Trisha Sauer","party":"Dem","address":"2418 E Cinder Ln, Eagle Mountain, UT 84005","precinct":"25EM31","hd":"50","v_score":"1.121327652","decile":"3","lat":40.3024333395672,"lng":-111.99768590283868},{"vid":"1492594","name":"Gaven Ferry-Barrows","party":"","address":"2037 E Blossom St, Eagle Mountain, UT 84005","precinct":"25EM31","hd":"50","v_score":"18.35167816","decile":"10","lat":40.300233105968644,"lng":-112.00503492631313},{"vid":"a9c86ad9c490ddb7dc30092a2c9c0a3c77047e0952e28bf9ea50ee2e666121f8","name":"Jordy Hermiston","party":"Rep","address":"2267 E Marigold Dr, Eagle Mountain, UT 84005","precinct":"25EM31","hd":"50","v_score":"3.781490609","decile":"6","lat":40.29865047939284,"lng":-112.00060772932171},{"vid":"1527953","name":"Chesley Prohaska-Shanahan","party":"","address":"3714 N Summer Way, Eagle Mountain, UT 84005","precinct":"25EM31","hd":"50","v_score":"12.49472132","decile":"9","lat":40.30125389341474,"lng":-112.00617526377124},{"vid":"1538320","name":"Nona Lueilwitz","party":"","address":"2108 E Shadow Dr, Eagle Mountain, UT 84005","precinct":"25EM31","hd":"50","v_score":"1.121327652","decile":"3","lat":40.30047142203894,"lng":-112.00368337102307},{"vid":"1541866","name":"Mr. Esco Waelchi DVM","party":"Dem","address":"2036 E Spring St, Eagle Mountain, UT 84005","precinct":"25EM31","hd":"50","v_score":"11.04973188","decile":"9","lat":40.303662660858514,"lng":-112.00495632049184},{"vid":"1544373","name":"Mr. Orval Harris Jr.","party":"Rep","address":"2003 E Shadow Dr, Eagle Mountain, UT 84005","precinct":"25EM31","hd":"50","v_score":"2.315214949","decile":"5","lat":40.30094106708265,"lng":-112.00558993861354},{"vid":"1544811","name":"Joshuah Walter","party":"","address":"2037 E Blossom St, Eagle Mountain, UT 84005","precinct":"25EM31","hd":"50","v_score":"26.63697331","decile":"10","lat":40.300233105968644,"lng":-112.00503492631313},{"vid":"1547481","name":"Bayard Grady","party":"Rep","address":"2094 E Sunrise Dr, Eagle Mountain, UT 84005","precinct":"25EM31","hd":"50","v_score":"2.315214949","decile":"5","lat":40.299096037919874,"lng":-112.00391582193065},{"vid":"06a03dea2d8e8d344eef1b7c32f22d4b779a2f67f7ed514d8f2a26bfb0a9142a","name":"Khalid Herman","party":"","address":"2393 E Spring St, Eagle Mountain, UT 84005","precinct":"25EM31","hd":"50","v_score":"15.66172","decile":"9","lat":40.30424913854529,"lng":-111.99812108530907},{"vid":"1560735","name":"Stan Trantow-Jast","party":"","address":"2019 E Fall St, Eagle Mountain, UT 84005","precinct":"25EM31","hd":"50","v_score":"0","decile":"1","lat":40.303389253993245,"lng":-112.00525170973378},{"vid":"1587086","name":"Lyla Graham MD","party":"Dem","address":"1992 E Partridge Ln, Eagle Mountain, UT 84005","precinct":"25EM31","hd":"50","v_score":"1.46627566","decile":"4","lat":40.30117104880051,"lng":-112.00579053900415},{"vid":"1587395","name":"Maliyah Wehner","party":"Dem","address":"3935 N Summer Way, Eagle Mountain, UT 84005","precinct":"25EM31","hd":"50","v_score":"5.40460374","decile":"7","lat":40.30453057780123,"lng":-112.00616931113221},{"vid":"1598011","name":"Audra O'Kon","party":"","address":"2062 E Shadow Dr, Eagle Mountain, UT 84005","precinct":"25EM31","hd":"50","v_score":"2.744440783","decile":"5","lat":40.300504179922676,"lng":-112.004508628002},{"vid":"f56513e34bef1199b8c68947871e0c32849903d52c67ac90be229b7a89c91352","name":"Mr. Reagan Waelchi PhD","party":"","address":"2327 E Cinder Ln, Eagle Mountain, UT 84005","precinct":"25EM31","hd":"50","v_score":"10.87160818","decile":"9","lat":40.30287729351583,"lng":-111.99937921467168},{"vid":"1616298","name":"Deric Ebert","party":"Dem","address":"1991 E Shadow Dr, Eagle Mountain, UT 84005","precinct":"25EM31","hd":"50","v_score":"12.49472132","decile":"9","lat":40.30092430639276,"lng":-112.00583026825522},{"vid":"1618296","name":"Mira Rolfson","party":"Rep","address":"3594 N Easter Dr, Eagle Mountain, UT 84005","precinct":"25EM31","hd":"50","v_score":"5.40460374","decile":"7","lat":40.299437130470245,"lng":-112.00206089025133},{"vid":"1624347","name":"Dr. Carolynn Upton PhD","party":"","address":"2092 E Partridge Ln, Eagle Mountain, UT 84005","precinct":"25EM31","hd":"50","v_score":"38.99046514","decile":"10","lat":40.301186777182146,"lng":-112.00396349004308},{"vid":"1635229","name":"Asa Streich","party":"Dem","address":"2033 E Partridge Ln, Eagle Mountain, UT 84005","precinct":"25EM31","hd":"50","v_score":"1.121327652","decile":"3","lat":40.3016053051789,"lng":-112.00503425599025},{"vid":"e75d30241c955fe19307b6d161bca658f21f82e6ccf280fd7dd613f676f96cef","name":"Miss Delisa Jerde","party":"Dem","address":"2069 E Sunrise Dr, Eagle Mountain, UT 84005","precinct":"25EM31","hd":"50","v_score":"2.315214949","decile":"5","lat":40.299557954196395,"lng":-112.00438223650877},{"vid":"1645043","name":"Dr. Latrell Kilback","party":"Dem","address":"2359 E Woodbury Ln, Eagle Mountain, UT 84005","precinct":"25EM31","hd":"50","v_score":"12.8500256","decile":"9","lat":40.302191095627904,"lng":-111.9988344310083},{"vid":"1646497","name":"Ms. Shannon Murray","party":"","address":"2302 E Woodbury Ln, Eagle Mountain, UT 84005","precinct":"25EM31","hd":"50","v_score":"1.193887297","decile":"3","lat":40.30179306940851,"lng":-112.00004737888506},{"vid":"1649653","name":"Andon Zulauf-Howe","party":"Dem","address":"2041 E Sunrise Dr, Eagle Mountain, UT 84005","precinct":"25EM31","hd":"50","v_score":"6.814370645","decile":"8","lat":40.29956123067378,"lng":-112.0048899637085},{"vid":"1650971","name":"Dr. Alaina Tremblay","party":"Dem","address":"2109 E Fall St, Eagle Mountain, UT 84005","precinct":"25EM31","hd":"50","v_score":"11.55530256","decile":"9","lat":40.30338329172221,"lng":-112.00353078989636},{"vid":"1658372","name":"Dr. Gibson Hagenes","party":"Rep","address":"2030 E Summer Way, Eagle Mountain, UT 84005","precinct":"25EM31","hd":"50","v_score":"2.587603312","decile":"5","lat":40.304415550326915,"lng":-112.00508943087434},{"vid":"1660350","name":"Eloisa Kihn","party":"Rep","address":"2257 E Cinder Ln, Eagle Mountain, UT 84005","precinct":"25EM31","hd":"50","v_score":"12.51449002","decile":"9","lat":40.30279065454312,"lng":-112.00086036188924},{"vid":"1668601","name":"Kristan Funk-Howell","party":"","address":"3952 N Winter Way, Eagle Mountain, UT 84005","precinct":"25EM31","hd":"50","v_score":"0","decile":"1","lat":40.304664967807966,"lng":-112.00226787878535},{"vid":"538afb965651f428b9deb72e664546cf7f81b60301fc5dbba69533ea338dd718","name":"Ms. Lauretta Mann MD","party":"Rep","address":"2114 E Blossom St, Eagle Mountain, UT 84005","precinct":"25EM31","hd":"50","v_score":"15.76947144","decile":"9","lat":40.29978280622814,"lng":-112.00347744257482},{"vid":"1687072","name":"Kyle Walter","party":"Dem","address":"2062 E Shadow Dr, Eagle Mountain, UT 84005","precinct":"25EM31","hd":"50","v_score":"4.210716443","decile":"7","lat":40.300504179922676,"lng":-112.004508628002},{"vid":"1694485","name":"Heidi Predovic","party":"Rep","address":"2096 E Shadow Dr, Eagle Mountain, UT 84005","precinct":"25EM31","hd":"50","v_score":"2.817000428","decile":"6","lat":40.3005007091477,"lng":-112.00397102241674},{"vid":"1698078","name":"Miss Carrie Cormier PhD","party":"Rep","address":"2118 E Easter Dr, Eagle Mountain, UT 84005","precinct":"25EM31","hd":"50","v_score":"0","decile":"1","lat":40.298428794711945,"lng":-112.00343132393651},{"vid":"1709387","name":"Hubbard Graham","party":"","address":"3906 N Dateman Dr, Eagle Mountain, UT 84005","precinct":"25EM31","hd":"50","v_score":"3.93832808","decile":"6","lat":40.304008447946224,"lng":-111.99721209911733},{"vid":"1710576","name":"Estevan Kunze DDS","party":"Dem","address":"3698 N Summer Way, Eagle Mountain, UT 84005","precinct":"25EM31","hd":"50","v_score":"23.99859859","decile":"10","lat":40.300839419421756,"lng":-112.00616073169078},{"vid":"1713144","name":"Octavio Lesch","party":"Rep","address":"3692 N Partridge Ln, Eagle Mountain, UT 84005","precinct":"25EM31","hd":"50","v_score":"0","decile":"1","lat":40.30089464924425,"lng":-112.00214373812987},{"vid":"4a98eeba16a6ed0a64861e80d8ff72441ac96613055b45fb01ad003b9251a1b8","name":"Wilmer Ziemann IV","party":"","address":"2301 E Cobble Creek Ln, Eagle Mountain, UT 84005","precinct":"25EM31","hd":"50","v_score":"25.27566718","decile":"10","lat":40.304935590102644,"lng":-111.99995707807675},{"vid":"1722450","name":"Dale Wunsch-Jacobson","party":"","address":"2062 E Summer Way, Eagle Mountain, UT 84005","precinct":"25EM31","hd":"50","v_score":"0","decile":"1","lat":40.30446742231592,"lng":-112.00438144897568},{"vid":"1729386","name":"Lindsay Streich","party":"Rep","address":"2126 E Fall St, Eagle Mountain, UT 84005","precinct":"25EM31","hd":"50","v_score":"11.2829142","decile":"9","lat":40.30297070334227,"lng":-112.00325920888403},{"vid":"1743488","name":"Mr. Dessie Barton V","party":"Dem","address":"2377 E Marigold Dr, Eagle Mountain, UT 84005","precinct":"25EM31","hd":"50","v_score":"18.84034033","decile":"10","lat":40.298706593191675,"lng":-111.99856322926469},{"vid":"1748242","name":"Ayleen Schmitt","party":"","address":"2377 E Marigold Dr, Eagle Mountain, UT 84005","precinct":"25EM31","hd":"50","v_score":"5.40460374","decile":"7","lat":40.298706593191675,"lng":-111.99856322926469},{"vid":"1749035","name":"Mr. Hermon Feeney III","party":"Dem","address":"2146 E Shadow Dr, Eagle Mountain, UT 84005","precinct":"25EM31","hd":"50","v_score":"0","decile":"1","lat":40.30049395476972,"lng":-112.00291724936078},{"vid":"e97840048cc4b6b81a72e350995b2c26c343cd59f5037894651ef6a36933d58d","name":"Brandin Baumbach","party":"Dem","address":"2394 E Spring St, Eagle Mountain, UT 84005","precinct":"25EM31","hd":"50","v_score":"2.315214949","decile":"5","lat":40.303837478116314,"lng":-111.9980829266724},{"vid":"1798559","name":"Reyna Jaskolski","party":"Rep","address":"2036 E Autumn St, Eagle Mountain, UT 84005","precinct":"25EM31","hd":"50","v_score":"15.96892118","decile":"9","lat":40.302276695652296,"lng":-112.00498690848659},{"vid":"1798794","name":"Vonda Von","party":"","address":"2091 E Partridge Ln, Eagle Mountain, UT 84005","precinct":"25EM31","hd":"50","v_score":"2.876042565","decile":"6","lat":40.301598395804604,"lng":-112.00395899289711},{"vid":"1800427","name":"Ms. Hertha Medhurst MD","party":"Dem","address":"2312 E Woodbury Ln, Eagle Mountain, UT 84005","precinct":"25EM31","hd":"50","v_score":"1.121327652","decile":"3","lat":40.30179266670762,"lng":-111.9997964722397},{"vid":"1810608","name":"Ms. Theodocia Veum DDS","party":"","address":"2035 E Autumn St, Eagle Mountain, UT 84005","precinct":"25EM31","hd":"50","v_score":"2.315214949","decile":"5","lat":40.302702228922314,"lng":-112.00498132042652},{"vid":"1820441","name":"Sammie Hegmann","party":"","address":"3927 N Summer Way, Eagle Mountain, UT 84005","precinct":"25EM31","hd":"50","v_score":"0","decile":"1","lat":40.30429430763828,"lng":-112.00624134154175},{"vid":"1840363","name":"Andra Ledner","party":"","address":"2325 E Boxwood Ln, Eagle Mountain, UT 84005","precinct":"25EM31","hd":"50","v_score":"7.295495972","decile":"8","lat":40.303563361393124,"lng":-111.99938421756917},{"vid":"ffb4385c16abe2ddad5b9b8d0b98ea2dc2e02f5bd351269d272e5ed9fb35f7fa","name":"Dr. Cael Moore","party":"","address":"2012 E Summer Way, Eagle Mountain, UT 84005","precinct":"25EM31","hd":"50","v_score":"5.40460374","decile":"7","lat":40.30446676246655,"lng":-112.00540764639958},{"vid":"b520a8ac61dd39d03ac0d9dadddf7184087da11d64848048b193ab568e4f8cf4","name":"Edrie Gottlieb","party":"","address":"3866 N Dateman Dr, Eagle Mountain, UT 84005","precinct":"25EM31","hd":"50","v_score":"17.89408627","decile":"10","lat":40.30342795057884,"lng":-111.99712274962489},{"vid":"4aad7de95c960c5ddc819bd603cb3bbdb857427a3d80e24f4caf576c926f96a1","name":"Kylie Hayes","party":"Dem","address":"3582 N Easter Dr, Eagle Mountain, UT 84005","precinct":"25EM31","hd":"50","v_score":"1.193887297","decile":"3","lat":40.29924504382115,"lng":-112.00206299446506},{"vid":"1855860","name":"Alwina Walsh","party":"","address":"3813 N Chapman Dr, Eagle Mountain, UT 84005","precinct":"25EM31","hd":"50","v_score":"4.210716443","decile":"7","lat":40.30264436420723,"lng":-112.00134400339321},{"vid":"1868256","name":"Genaro Schowalter","party":"","address":"2287 E Cinder Ln, Eagle Mountain, UT 84005","precinct":"25EM31","hd":"50","v_score":"8.347511332","decile":"8","lat":40.30287746369155,"lng":-112.00018213605914},{"vid":"1874115","name":"Ms. Zula Nikolaus","party":"Dem","address":"2142 E Fall St, Eagle Mountain, UT 84005","precinct":"25EM31","hd":"50","v_score":"1.193887297","decile":"3","lat":40.30296952129403,"lng":-112.00291564407138},{"vid":"1881164","name":"Devonta Bauch IV","party":"Rep","address":"2098 E Blossom St, Eagle Mountain, UT 84005","precinct":"25EM31","hd":"50","v_score":"5.40460374","decile":"7","lat":40.299786049580526,"lng":-112.00397919762483},{"vid":"1889689","name":"Juliann Hammes","party":"","address":"2047 E Summer Way, Eagle Mountain, UT 84005","precinct":"25EM31","hd":"50","v_score":"5.40460374","decile":"7","lat":40.30491977424306,"lng":-112.00474329759862},{"vid":"1892888","name":"Tilman Lockman-Langworth","party":"","address":"2047 E Summer Way, Eagle Mountain, UT 84005","precinct":"25EM31","hd":"50","v_score":"5.40460374","decile":"7","lat":40.30491977424306,"lng":-112.00474329759862},{"vid":"b836b9b0d81cd22993d8afd532d589146aba0fca670c92b58f49762145e52645","name":"Ariane Bechtelar-Hermann","party":"Dem","address":"2113 E Winter Way, Eagle Mountain, UT 84005","precinct":"25EM31","hd":"50","v_score":"2.315214949","decile":"5","lat":40.30483802036393,"lng":-112.00345885053852},{"vid":"1916740","name":"Blane Kiehn","party":"","address":"3945 N Chapman Dr, Eagle Mountain, UT 84005","precinct":"25EM31","hd":"50","v_score":"0","decile":"1","lat":40.30456592216936,"lng":-112.00112112082948},{"vid":"1919632","name":"Mr. Darwin Zieme","party":"Rep","address":"2377 E Marigold Dr, Eagle Mountain, UT 84005","precinct":"25EM31","hd":"50","v_score":"7.511882601","decile":"8","lat":40.298706593191675,"lng":-111.99856322926469},{"vid":"1929023","name":"Tomeka Lueilwitz MD","party":"Rep","address":"2288 E Cinder Ln, Eagle Mountain, UT 84005","precinct":"25EM31","hd":"50","v_score":"2.315214949","decile":"5","lat":40.302465813127064,"lng":-112.00023315138414},{"vid":"1931804","name":"Dr. Samie Volkman","party":"","address":"2078 E Easter Dr, Eagle Mountain, UT 84005","precinct":"25EM31","hd":"50","v_score":"10.87160818","decile":"9","lat":40.298433616674664,"lng":-112.00418397649901},{"vid":"464d9f4c9b6e9a877de6d5b1a3ea516f3c6cd76537269d4196b34e67b41368ea","name":"Dameon Nicolas","party":"","address":"2312 E Cobble Creek Ln, Eagle Mountain, UT 84005","precinct":"25EM31","hd":"50","v_score":"5.40460374","decile":"7","lat":40.304568713272246,"lng":-111.99967619772873},{"vid":"1948714","name":"Bethann Ritchie","party":"Rep","address":"2278 E Cinder Ln, Eagle Mountain, UT 84005","precinct":"25EM31","hd":"50","v_score":"2.315214949","decile":"5","lat":40.302465863960876,"lng":-112.00048836365465},{"vid":"1960152","name":"Buddy Huel","party":"Dem","address":"2422 E Woodbury Ln, Eagle Mountain, UT 84005","precinct":"25EM31","hd":"50","v_score":"1.193887297","decile":"3","lat":40.30187834968253,"lng":-111.99761179957312},{"vid":"1987328","name":"Waymon Yundt DVM","party":"Dem","address":"2080 E Fall St, Eagle Mountain, UT 84005","precinct":"25EM31","hd":"50","v_score":"5.191257514","decile":"7","lat":40.30297368977123,"lng":-112.00411946614282},{"vid":"1992156","name":"Annemarie Hodkiewicz PhD","party":"Dem","address":"3620 N Summer Way, Eagle Mountain, UT 84005","precinct":"25EM31","hd":"50","v_score":"8.280646305","decile":"8","lat":40.299870431866864,"lng":-112.00617714923092},{"vid":"1994893","name":"Delisa Bogisich","party":"Rep","address":"3945 N Chapman Dr, Eagle Mountain, UT 84005","precinct":"25EM31","hd":"50","v_score":"1.121327652","decile":"3","lat":40.30456592216936,"lng":-112.00112112082948},{"vid":"2001414","name":"Ananias Rolfson V","party":"","address":"2095 E Autumn St, Eagle Mountain, UT 84005","precinct":"25EM31","hd":"50","v_score":"1.46627566","decile":"4","lat":40.30269826198162,"lng":-112.00383433889536},{"vid":"2013079","name":"Dr. Gilbert Hoeger","party":"Dem","address":"2047 E Shadow Dr, Eagle Mountain, UT 84005","precinct":"25EM31","hd":"50","v_score":"6.657533174","decile":"7","lat":40.30091763303682,"lng":-112.00479085997931},{"vid":"2014905","name":"Lonie Ernser-D'Amore","party":"","address":"2359 E Woodbury Ln, Eagle Mountain, UT 84005","precinct":"25EM31","hd":"50","v_score":"12.49472132","decile":"9","lat":40.302191095627904,"lng":-111.9988344310083},{"vid":"2019909","name":"Kenyatta Schaden","party":"Dem","address":"2269 E Woodbury Ln, Eagle Mountain, UT 84005","precinct":"25EM31","hd":"50","v_score":"1.193887297","decile":"3","lat":40.30212099969884,"lng":-112.0005373300029},{"vid":"2028186","name":"Mandi Kreiger-Konopelski","party":"Dem","address":"3881 N Chapman Dr, Eagle Mountain, UT 84005","precinct":"25EM31","hd":"50","v_score":"0","decile":"1","lat":40.303708105766205,"lng":-112.00123808749403},{"vid":"9615f8916bf8de3cdfd99d122f7977a557f0c4f5c2bb23376bd1bea4b172ad7d","name":"Tate Beatty","party":"Rep","address":"2287 E Cinder Ln, Eagle Mountain, UT 84005","precinct":"25EM31","hd":"50","v_score":"3.781490609","decile":"6","lat":40.30287746369155,"lng":-112.00018213605914},{"vid":"2057624","name":"Cyndi Abshire","party":"Rep","address":"3744 N Summer Way, Eagle Mountain, UT 84005","precinct":"25EM31","hd":"50","v_score":"11.02844566","decile":"9","lat":40.301548853637904,"lng":-112.00614346998697},{"vid":"2059790","name":"Ms. Sky West","party":"Rep","address":"2368 E Cinder Ln, Eagle Mountain, UT 84005","precinct":"25EM31","hd":"50","v_score":"2.315214949","decile":"5","lat":40.3024654587977,"lng":-111.99863072310559},{"vid":"2069857","name":"Takisha Senger","party":"Rep","address":"2020 E Fall St, Eagle Mountain, UT 84005","precinct":"25EM31","hd":"50","v_score":"3.93832808","decile":"6","lat":40.30297765381841,"lng":-112.00526645216559},{"vid":"2075770","name":"Trudi Brakus-Fisher","party":"Rep","address":"2397 E Cinder Ln, Eagle Mountain, UT 84005","precinct":"25EM31","hd":"50","v_score":"17.75698939","decile":"10","lat":40.302876963714745,"lng":-111.99803148877992},{"vid":"2077116","name":"Reece Herzog","party":"","address":"2242 E Woodbury Ln, Eagle Mountain, UT 84005","precinct":"25EM31","hd":"50","v_score":"10.06121514","decile":"9","lat":40.30185319534609,"lng":-112.0010017708411},{"vid":"2085049","name":"Dr. Kelan Lebsack III","party":"","address":"2067 E Easter Dr, Eagle Mountain, UT 84005","precinct":"25EM31","hd":"50","v_score":"0","decile":"1","lat":40.298870217571945,"lng":-112.00436672395129},{"vid":"2088370","name":"Fanny Brakus","party":"","address":"3671 N Summer Way, Eagle Mountain, UT 84005","precinct":"25EM31","hd":"50","v_score":"5.40460374","decile":"7","lat":40.30057822331937,"lng":-112.00655620283646},{"vid":"2101101","name":"Ms. Frieda Gibson DDS","party":"Rep","address":"2159 E Winter Way, Eagle Mountain, UT 84005","precinct":"25EM31","hd":"50","v_score":"0","decile":"1","lat":40.30470468188177,"lng":-112.00253760741458},{"vid":"2112198","name":"Ms. Tisa Rolfson","party":"","address":"2096 E Fall St, Eagle Mountain, UT 84005","precinct":"25EM31","hd":"50","v_score":"15.51131257","decile":"9","lat":40.30297270420586,"lng":-112.00383270162591},{"vid":"2118538","name":"Ms. Amber Morissette PhD","party":"Dem","address":"2036 E Blossom St, Eagle Mountain, UT 84005","precinct":"25EM31","hd":"50","v_score":"0","decile":"1","lat":40.29979285509345,"lng":-112.00504248551648},{"vid":"121a7e0ac0368b4984407b53d4211d196e1d55c1e0211dd27c64fc98b45d5d84","name":"Markel Armstrong","party":"","address":"2006 E Fall St, Eagle Mountain, UT 84005","precinct":"25EM31","hd":"50","v_score":"3.781490609","decile":"6","lat":40.302978636506346,"lng":-112.00555321632316},{"vid":"2145269","name":"Mallorie Halvorson","party":"Dem","address":"1989 E Autumn St, Eagle Mountain, UT 84005","precinct":"25EM31","hd":"50","v_score":"2.587603312","decile":"5","lat":40.30261938954318,"lng":-112.00594275213321},{"vid":"2146527","name":"Rex Harber","party":"Rep","address":"2096 E Fall St, Eagle Mountain, UT 84005","precinct":"25EM31","hd":"50","v_score":"7.227307695","decile":"8","lat":40.30297270420586,"lng":-112.00383270162591},{"vid":"ec934ab645b37c7ee2a4d22fc4a02bcbee769138bdb60e34dbff50760ac4c2d2","name":"Maleah Ernser","party":"Rep","address":"3648 N Partridge Ln, Eagle Mountain, UT 84005","precinct":"25EM31","hd":"50","v_score":"0","decile":"1","lat":40.300116566093074,"lng":-112.00213284850757},{"vid":"6bb2fdd1709140c74aa838d7b72ac949ef750f27b6b57e7035ae76cd5a5a88ae","name":"Ellison Kertzmann","party":"","address":"2134 E Sunrise Dr, Eagle Mountain, UT 84005","precinct":"25EM31","hd":"50","v_score":"5.40460374","decile":"7","lat":40.29909115788292,"lng":-112.00315883754216},{"vid":"2179142","name":"Miss Latosha Streich MD","party":"Dem","address":"2053 E Blossom St, Eagle Mountain, UT 84005","precinct":"25EM31","hd":"50","v_score":"1.193887297","decile":"3","lat":40.30023136317495,"lng":-112.00476253897301},{"vid":"d142ad99d23a8c419194aec0001c1b7ba9707e62a90dd9f012134fee1628dcd8","name":"Bill Larson","party":"Rep","address":"3863 N Summer Way, Eagle Mountain, UT 84005","precinct":"25EM31","hd":"50","v_score":"2.817000428","decile":"6","lat":40.303297690156825,"lng":-112.00628105360897},{"vid":"6e973841532add37cdb291ce4834c22800f9a0ed4ab5b0bae7e89c4af3607341","name":"Isai Bayer DVM","party":"","address":"2001 E Summer Way, Eagle Mountain, UT 84005","precinct":"25EM31","hd":"50","v_score":"2.744440783","decile":"5","lat":40.30487313485457,"lng":-112.00564912922516},{"vid":"27784ee5d61195bf8214f5a6e2aa00e4f041e38fba2bb1b4325977753fc808d4","name":"Shelley Rice-Hauck","party":"Rep","address":"2022 E Blossom St, Eagle Mountain, UT 84005","precinct":"25EM31","hd":"50","v_score":"1.121327652","decile":"3","lat":40.299794574284654,"lng":-112.00531132193602},{"vid":"dc71e0830a1f9fe44a6b9a550c84bc047e5f38276b440d1a74f5c40bb67ee201","name":"Xavier Stoltenberg-Collins","party":"Rep","address":"1998 E Sunrise Dr, Eagle Mountain, UT 84005","precinct":"25EM31","hd":"50","v_score":"1.623113131","decile":"5","lat":40.29918709419241,"lng":-112.00555991705414},{"vid":"5d946e1b270d99fe2f3ece3181395cdb72cc4a461b3e0cb8bae33563878f28af","name":"Mr. Judah Dietrich II","party":"Dem","address":"2129 E Winter Way, Eagle Mountain, UT 84005","precinct":"25EM31","hd":"50","v_score":"3.93832808","decile":"6","lat":40.304878192712444,"lng":-112.00313717676516},{"vid":"c5e7205b9e7e93b9af1c893c83a53ab41176100250a62d76733b627ddcca06c9","name":"Octa Heidenreich","party":"Dem","address":"2129 E Winter Way, Eagle Mountain, UT 84005","precinct":"25EM31","hd":"50","v_score":"3.93832808","decile":"6","lat":40.304878192712444,"lng":-112.00313717676516},{"vid":"2219431","name":"Alek Bergstrom","party":"Dem","address":"3662 N Daffodil Dr, Eagle Mountain, UT 84005","precinct":"25EM31","hd":"50","v_score":"2.315214949","decile":"5","lat":40.30041203852849,"lng":-111.99728530875872},{"vid":"8e8ecd10382829a9f1bcbf4a1986ffff3ad05de46f97ffd87eddb6533297d2b6","name":"Edsel Hayes","party":"","address":"2063 E Shadow Dr, Eagle Mountain, UT 84005","precinct":"25EM31","hd":"50","v_score":"4.499155696","decile":"7","lat":40.300934314781195,"lng":-112.0045385836427},{"vid":"2225674","name":"Dr. Dylan Parisian DVM","party":"","address":"2039 E Easter Dr, Eagle Mountain, UT 84005","precinct":"25EM31","hd":"50","v_score":"0","decile":"1","lat":40.29887352788234,"lng":-112.0048829647844},{"vid":"6dafa6bd9de1dede3195c883e0aeb088bc24cb09a6f7047e9bfc1d3f9e1e4565","name":"Qiana Russel-Ullrich","party":"Rep","address":"3744 N Summer Way, Eagle Mountain, UT 84005","precinct":"25EM31","hd":"50","v_score":"0","decile":"1","lat":40.301548853637904,"lng":-112.00614346998697},{"vid":"2229854","name":"Mercedes Gorczany","party":"","address":"2344 E Spring St, Eagle Mountain, UT 84005","precinct":"25EM31","hd":"50","v_score":"2.315214949","decile":"5","lat":40.3038377259774,"lng":-111.99918337475322},{"vid":"97071053a9e31443185efbcbd7079e053ab4af349c2b230a6f8ff3caeca02de9","name":"Lady Satterfield","party":"","address":"1998 E Sunrise Dr, Eagle Mountain, UT 84005","precinct":"25EM31","hd":"50","v_score":"12.85640681","decile":"9","lat":40.29918709419241,"lng":-112.00555991705414},{"vid":"6deb4ff8356e5fa2db2fb861236732dbdb715eee4ca311bfc86854c7257b9e3b","name":"Lon Ryan","party":"Dem","address":"2033 E Partridge Ln, Eagle Mountain, UT 84005","precinct":"25EM31","hd":"50","v_score":"1.121327652","decile":"3","lat":40.3016053051789,"lng":-112.00503425599025},{"vid":"297e61627c520ea0c4442a0726192a4382d8645e939379b8fd108531fd06ba4a","name":"Marilou Gutmann","party":"","address":"2312 E Woodbury Ln, Eagle Mountain, UT 84005","precinct":"25EM31","hd":"50","v_score":"1.121327652","decile":"3","lat":40.30179266670762,"lng":-111.9997964722397},{"vid":"cefecb1a01b5eb440f33a4632ae4985e69ede4f7422590757f1fae9e89136d21","name":"Marnie Reilly","party":"Rep","address":"3835 N Summer Way, Eagle Mountain, UT 84005","precinct":"25EM31","hd":"50","v_score":"1.121327652","decile":"3","lat":40.303040623726055,"lng":-112.00625917262894},{"vid":"70e9fc050a56f87fe0b5503dd35550aa3b7dc0b44bfb82a8c6b4347e1ff582f1","name":"Add Bailey-Friesen","party":"","address":"2377 E Marigold Dr, Eagle Mountain, UT 84005","precinct":"25EM31","hd":"50","v_score":"0","decile":"1","lat":40.298706593191675,"lng":-111.99856322926469},{"vid":"2259393","name":"Alijah O'Hara","party":"Rep","address":"2145 E Blossom St, Eagle Mountain, UT 84005","precinct":"25EM31","hd":"50","v_score":"4.064235245","decile":"6","lat":40.30021950576421,"lng":-112.00292028818174},{"vid":"9a5b8d7f55519d86f53276278f14e8b8cc181389e060d6837cecf2248b5da61c","name":"Fitzgerald Kuvalis-Gaylord","party":"Dem","address":"2095 E Autumn St, Eagle Mountain, UT 84005","precinct":"25EM31","hd":"50","v_score":"2.817000428","decile":"6","lat":40.30269826198162,"lng":-112.00383433889536},{"vid":"92a6884775214a65823e35cc29eab201c26b96ff5daaf923c9d81d43e7bb2bb2","name":"Nasir Padberg","party":"Rep","address":"2295 E Boxwood Ln, Eagle Mountain, UT 84005","precinct":"25EM31","hd":"50","v_score":"2.315214949","decile":"5","lat":40.30356348169328,"lng":-111.99992554487464},{"vid":"b4210790c4bc945686526777a9f54a519ec7dbd12b70c0355899ac2e9de5abdc","name":"Abigayle Kertzmann","party":"","address":"2079 E Easter Dr, Eagle Mountain, UT 84005","precinct":"25EM31","hd":"50","v_score":"1.121327652","decile":"3","lat":40.29886854825737,"lng":-112.004108620453},{"vid":"d3eb89b214dcdc5d55a28209b954eaf7d97cd114f3c1afe4ea2a492e73803a3b","name":"Dema Green","party":"","address":"1964 E Sunrise Dr, Eagle Mountain, UT 84005","precinct":"25EM31","hd":"50","v_score":"2.315214949","decile":"5","lat":40.299139327966905,"lng":-112.00641122671576},{"vid":"2277541","name":"Mickey Moen MD","party":"","address":"2312 E Woodbury Ln, Eagle Mountain, UT 84005","precinct":"25EM31","hd":"50","v_score":"1.121327652","decile":"3","lat":40.30179266670762,"lng":-111.9997964722397},{"vid":"2279017","name":"Susann Prohaska","party":"Dem","address":"2024 E Shadow Dr, Eagle Mountain, UT 84005","precinct":"25EM31","hd":"50","v_score":"8.211445228","decile":"8","lat":40.300509223713384,"lng":-112.00529714903612},{"vid":"c97e504ce4fc9fe4681cf79455aa41db00f5f9b738073bd03b0e8c91128ac7ab","name":"Miss Olivine Kuvalis DVM","party":"","address":"1976 E Sunrise Dr, Eagle Mountain, UT 84005","precinct":"25EM31","hd":"50","v_score":"0","decile":"1","lat":40.29913772573274,"lng":-112.0061603520504},{"vid":"1c0cbca8328ba5e06a055b131f96b171df1800eed11ac5abaa09aca7382386ec","name":"Dr. Elige Schiller","party":"Dem","address":"2115 E Blossom St, Eagle Mountain, UT 84005","precinct":"25EM31","hd":"50","v_score":"5.191257514","decile":"7","lat":40.30024135983643,"lng":-112.0034708324715},{"vid":"fe6e9a57e3ede0bafe34b6eb8c044df6e1225d35b0809f46ab1785efb391b5e3","name":"Fayette Lemke","party":"Dem","address":"2012 E Summer Way, Eagle Mountain, UT 84005","precinct":"25EM31","hd":"50","v_score":"2.817000428","decile":"6","lat":40.30446676246655,"lng":-112.00540764639958},{"vid":"2300090","name":"Karlie Torp-Hansen","party":"Dem","address":"2052 E Spring St, Eagle Mountain, UT 84005","precinct":"25EM31","hd":"50","v_score":"2.315214949","decile":"5","lat":40.30366167735841,"lng":-112.00466948195374},{"vid":"2300374","name":"Mr. Kenny Blick I","party":"","address":"2145 E Blossom St, Eagle Mountain, UT 84005","precinct":"25EM31","hd":"50","v_score":"6.814370645","decile":"8","lat":40.30021950576421,"lng":-112.00292028818174},{"vid":"2325825","name":"Toni Carroll","party":"Dem","address":"2160 E Autumn St, Eagle Mountain, UT 84005","precinct":"25EM31","hd":"50","v_score":"3.93832808","decile":"6","lat":40.30242357573393,"lng":-112.0025972010574},{"vid":"2333002","name":"Mrs. Tamica Stark MD","party":"Dem","address":"2021 E Blossom St, Eagle Mountain, UT 84005","precinct":"25EM31","hd":"50","v_score":"3.93832808","decile":"6","lat":40.30023480244852,"lng":-112.00530014240232},{"vid":"2333801","name":"Jovany Hettinger V","party":"","address":"3835 N Summer Way, Eagle Mountain, UT 84005","precinct":"25EM31","hd":"50","v_score":"1.121327652","decile":"3","lat":40.303040623726055,"lng":-112.00625917262894},{"vid":"2340648","name":"Ms. Donie Rohan","party":"Rep","address":"2079 E Fall St, Eagle Mountain, UT 84005","precinct":"25EM31","hd":"50","v_score":"5.429380732","decile":"7","lat":40.30338529051829,"lng":-112.00410442978227},{"vid":"2346044","name":"Wong McDermott-Rogahn","party":"Rep","address":"2001 E Summer Way, Eagle Mountain, UT 84005","precinct":"25EM31","hd":"50","v_score":"0","decile":"1","lat":40.30487313485457,"lng":-112.00564912922516},{"vid":"2364342","name":"Janel Cummerata PhD","party":"Dem","address":"3566 N Easter Dr, Eagle Mountain, UT 84005","precinct":"25EM31","hd":"50","v_score":"2.315214949","decile":"5","lat":40.299041590154246,"lng":-112.00220813568812},{"vid":"2365016","name":"Sherwin Bechtelar","party":"Rep","address":"2156 E Easter Dr, Eagle Mountain, UT 84005","precinct":"25EM31","hd":"50","v_score":"0","decile":"1","lat":40.29857714773476,"lng":-112.00261956601021},{"vid":"2371105","name":"Dr. Barron Witting","party":"","address":"3919 N Chapman Dr, Eagle Mountain, UT 84005","precinct":"25EM31","hd":"50","v_score":"2.315214949","decile":"5","lat":40.30420935601924,"lng":-112.00129286069776},{"vid":"2373150","name":"Rashad Bartell","party":"","address":"3906 N Dateman Dr, Eagle Mountain, UT 84005","precinct":"25EM31","hd":"50","v_score":"3.93832808","decile":"6","lat":40.304008447946224,"lng":-111.99721209911733},{"vid":"2387448","name":"Cosmo Durgan","party":"","address":"2027 E Easter Dr, Eagle Mountain, UT 84005","precinct":"25EM31","hd":"50","v_score":"2.315214949","decile":"5","lat":40.298784787152975,"lng":-112.00525092779552},{"vid":"2399237","name":"Menachem Mraz","party":"Rep","address":"2052 E Easter Dr, Eagle Mountain, UT 84005","precinct":"25EM31","hd":"50","v_score":"3.93832808","decile":"6","lat":40.29843682912387,"lng":-112.00468572061948},{"vid":"2405751","name":"Elton Balistreri PhD","party":"","address":"3803 N Summer Way, Eagle Mountain, UT 84005","precinct":"25EM31","hd":"50","v_score":"1.121327652","decile":"3","lat":40.30250875712194,"lng":-112.00637717373932},{"vid":"2408469","name":"Isreal Ratke-Cummerata","party":"Dem","address":"2052 E Easter Dr, Eagle Mountain, UT 84005","precinct":"25EM31","hd":"50","v_score":"2.315214949","decile":"5","lat":40.29843682912387,"lng":-112.00468572061948},{"vid":"2412053","name":"Clement Watsica I","party":"Dem","address":"2038 E Shadow Dr, Eagle Mountain, UT 84005","precinct":"25EM31","hd":"50","v_score":"18.77764457","decile":"10","lat":40.30050752696634,"lng":-112.00503193204864},{"vid":"2423007","name":"Edmonia Considine DDS","party":"Dem","address":"2033 E Partridge Ln, Eagle Mountain, UT 84005","precinct":"25EM31","hd":"50","v_score":"1.121327652","decile":"3","lat":40.3016053051789,"lng":-112.00503425599025},{"vid":"2423896","name":"Elby Mohr-Mitchell","party":"","address":"3566 N Easter Dr, Eagle Mountain, UT 84005","precinct":"25EM31","hd":"50","v_score":"1.121327652","decile":"3","lat":40.299041590154246,"lng":-112.00220813568812},{"vid":"2424835","name":"Teresa Bergnaum","party":"Rep","address":"2397 E Cinder Ln, Eagle Mountain, UT 84005","precinct":"25EM31","hd":"50","v_score":"22.48959706","decile":"10","lat":40.302876963714745,"lng":-111.99803148877992},{"vid":"2434465","name":"Mrs. Essence Bosco DDS","party":"Rep","address":"2066 E Spring St, Eagle Mountain, UT 84005","precinct":"25EM31","hd":"50","v_score":"1.121327652","decile":"3","lat":40.30366069331024,"lng":-112.00438267880929},{"vid":"2455320","name":"Jefferson Rosenbaum","party":"","address":"3671 N Summer Way, Eagle Mountain, UT 84005","precinct":"25EM31","hd":"50","v_score":"2.315214949","decile":"5","lat":40.30057822331937,"lng":-112.00655620283646},{"vid":"2455329","name":"Mr. Mcarthur Lang IV","party":"","address":"3671 N Summer Way, Eagle Mountain, UT 84005","precinct":"25EM31","hd":"50","v_score":"2.315214949","decile":"5","lat":40.30057822331937,"lng":-112.00655620283646},{"vid":"2457639","name":"Ovila Green","party":"","address":"2161 E Sunrise Dr, Eagle Mountain, UT 84005","precinct":"25EM31","hd":"50","v_score":"6.814370645","decile":"8","lat":40.29943992433619,"lng":-112.00253748697175},{"vid":"2474518","name":"Lia Predovic","party":"","address":"2159 E Winter Way, Eagle Mountain, UT 84005","precinct":"25EM31","hd":"50","v_score":"0","decile":"1","lat":40.30470468188177,"lng":-112.00253760741458},{"vid":"2484161","name":"Dr. Delaney Gleichner DDS","party":"","address":"3566 N Easter Dr, Eagle Mountain, UT 84005","precinct":"25EM31","hd":"50","v_score":"0","decile":"1","lat":40.299041590154246,"lng":-112.00220813568812},{"vid":"2485230","name":"Sky Wiegand","party":"","address":"2065 E Autumn St, Eagle Mountain, UT 84005","precinct":"25EM31","hd":"50","v_score":"0","decile":"1","lat":40.30270026079798,"lng":-112.0044078298406},{"vid":"2489213","name":"Jordan Durgan","party":"","address":"2055 E Sunrise Dr, Eagle Mountain, UT 84005","precinct":"25EM31","hd":"50","v_score":"0","decile":"1","lat":40.29955962543511,"lng":-112.0046390873064},{"vid":"2491703","name":"Ms. Audra Bergstrom","party":"Rep","address":"3866 N Dateman Dr, Eagle Mountain, UT 84005","precinct":"25EM31","hd":"50","v_score":"1.193887297","decile":"3","lat":40.30342795057884,"lng":-111.99712274962489},{"vid":"2505905","name":"Okey Lebsack","party":"Rep","address":"3744 N Summer Way, Eagle Mountain, UT 84005","precinct":"25EM31","hd":"50","v_score":"1.193887297","decile":"3","lat":40.301548853637904,"lng":-112.00614346998697},{"vid":"2514300","name":"Dr. Sadie Schroeder DVM","party":"Dem","address":"2019 E Spring St, Eagle Mountain, UT 84005","precinct":"25EM31","hd":"50","v_score":"0","decile":"1","lat":40.30412637292509,"lng":-112.0052693164567},{"vid":"2519828","name":"Jami Mohr","party":"","address":"2007 E Blossom St, Eagle Mountain, UT 84005","precinct":"25EM31","hd":"50","v_score":"1.193887297","decile":"4","lat":40.30025492235516,"lng":-112.00558550767342},{"vid":"2527486","name":"Landon Wyman","party":"Rep","address":"3919 N Chapman Dr, Eagle Mountain, UT 84005","precinct":"25EM31","hd":"50","v_score":"0","decile":"1","lat":40.30420935601924,"lng":-112.00129286069776},{"vid":"2527906","name":"Donta Miller","party":"Dem","address":"2131 E Partridge Ln, Eagle Mountain, UT 84005","precinct":"25EM31","hd":"50","v_score":"18.35167816","decile":"10","lat":40.3015935716014,"lng":-112.00320630494099},{"vid":"2528785","name":"Mohammed Corkery","party":"Dem","address":"2131 E Partridge Ln, Eagle Mountain, UT 84005","precinct":"25EM31","hd":"50","v_score":"18.35167816","decile":"10","lat":40.3015935716014,"lng":-112.00320630494099},{"vid":"2534678","name":"Neppie Bailey","party":"Rep","address":"2145 E Autumn St, Eagle Mountain, UT 84005","precinct":"25EM31","hd":"50","v_score":"0","decile":"1","lat":40.3026204501173,"lng":-112.00285930369044},{"vid":"2541566","name":"Sheree Fay-Mante","party":"","address":"2076 E Partridge Ln, Eagle Mountain, UT 84005","precinct":"25EM31","hd":"50","v_score":"2.817000428","decile":"6","lat":40.301160933342445,"lng":-112.00421348244305},{"vid":"2544588","name":"Rubin Kihn IV","party":"","address":"3835 N Summer Way, Eagle Mountain, UT 84005","precinct":"25EM31","hd":"50","v_score":"0","decile":"1","lat":40.303040623726055,"lng":-112.00625917262894},{"vid":"2563434","name":"Christiana Parker","party":"","address":"2040 E Sunrise Dr, Eagle Mountain, UT 84005","precinct":"25EM31","hd":"50","v_score":"0","decile":"1","lat":40.299129834047314,"lng":-112.0049081134801},{"vid":"2589580","name":"Colter Renner","party":"","address":"2094 E Sunrise Dr, Eagle Mountain, UT 84005","precinct":"25EM31","hd":"50","v_score":"0","decile":"1","lat":40.299096037919874,"lng":-112.00391582193065},{"vid":"2598985","name":"Lane Mohr","party":"Dem","address":"3936 N Summer Way, Eagle Mountain, UT 84005","precinct":"25EM31","hd":"50","v_score":"0","decile":"1","lat":40.30442790449338,"lng":-112.00580482803387},{"vid":"2616796","name":"Elwin Rau Sr.","party":"","address":"2121 E Sunrise Dr, Eagle Mountain, UT 84005","precinct":"25EM31","hd":"50","v_score":"0","decile":"1","lat":40.299551485967754,"lng":-112.00337272117115},{"vid":"2619532","name":"Che Wilkinson-Heathcote","party":"","address":"3802 N Winter Way, Eagle Mountain, UT 84005","precinct":"25EM31","hd":"50","v_score":"4.069929862","decile":"6","lat":40.30253557501598,"lng":-112.00227035030747},{"vid":"2624429","name":"Miss Ethelene McCullough","party":"Dem","address":"2065 E Autumn St, Eagle Mountain, UT 84005","precinct":"25EM31","hd":"50","v_score":"4.069929862","decile":"6","lat":40.30270026079798,"lng":-112.0044078298406},{"vid":"2625071","name":"Deetta McLaughlin","party":"","address":"2029 E Sunrise Dr, Eagle Mountain, UT 84005","precinct":"25EM31","hd":"50","v_score":"0","decile":"1","lat":40.299562835455646,"lng":-112.00514087544433},{"vid":"2650126","name":"Dr. Cortez Roberts DDS","party":"Dem","address":"2324 E Spring St, Eagle Mountain, UT 84005","precinct":"25EM31","hd":"50","v_score":"1.193887297","decile":"4","lat":40.30383777872837,"lng":-111.9994342551678},{"vid":"2652202","name":"Dr. Adline Toy","party":"","address":"3908 N Winter Way, Eagle Mountain, UT 84005","precinct":"25EM31","hd":"50","v_score":"16.72856503","decile":"9","lat":40.30396473101758,"lng":-112.00216160028053},{"vid":"2658162","name":"Dr. Sherrie Dickinson","party":"Rep","address":"2022 E Blossom St, Eagle Mountain, UT 84005","precinct":"25EM31","hd":"50","v_score":"1.193887297","decile":"4","lat":40.299794574284654,"lng":-112.00531132193602},{"vid":"2674975","name":"Dr. Delmus Satterfield","party":"Rep","address":"3582 N Easter Dr, Eagle Mountain, UT 84005","precinct":"25EM31","hd":"50","v_score":"1.193887297","decile":"4","lat":40.29924504382115,"lng":-112.00206299446506},{"vid":"2677028","name":"Cailyn Bernier","party":"","address":"2316 E Boxwood Ln, Eagle Mountain, UT 84005","precinct":"25EM31","hd":"50","v_score":"1.193887297","decile":"4","lat":40.303151790778614,"lng":-111.99968020149585},{"vid":"2685452","name":"Mr. Hamilton Wilkinson MD","party":"Rep","address":"2108 E Shadow Dr, Eagle Mountain, UT 84005","precinct":"25EM31","hd":"50","v_score":"0","decile":"2","lat":40.30047142203894,"lng":-112.00368337102307},{"vid":"2685476","name":"Madden Kunze III","party":"Dem","address":"2108 E Shadow Dr, Eagle Mountain, UT 84005","precinct":"25EM31","hd":"50","v_score":"0","decile":"2","lat":40.30047142203894,"lng":-112.00368337102307},{"vid":"2686333","name":"Shanice Sporer","party":"","address":"2012 E Summer Way, Eagle Mountain, UT 84005","precinct":"25EM31","hd":"50","v_score":"0","decile":"2","lat":40.30446676246655,"lng":-112.00540764639958},{"vid":"2687023","name":"Cap Hand","party":"Dem","address":"2040 E Sunrise Dr, Eagle Mountain, UT 84005","precinct":"25EM31","hd":"50","v_score":"0","decile":"2","lat":40.299129834047314,"lng":-112.0049081134801},{"vid":"2689467","name":"Elwood Howell-Schuster","party":"Dem","address":"2092 E Partridge Ln, Eagle Mountain, UT 84005","precinct":"25EM31","hd":"50","v_score":"13.85252246","decile":"9","lat":40.301186777182146,"lng":-112.00396349004308},{"vid":"2693087","name":"Mr. Hughes Legros","party":"Rep","address":"3879 N Summer Way, Eagle Mountain, UT 84005","precinct":"25EM31","hd":"50","v_score":"1.193887297","decile":"4","lat":40.30362223923113,"lng":-112.00636162377418},{"vid":"2700210","name":"Anabel Balistreri","party":"Dem","address":"2252 E Woodbury Ln, Eagle Mountain, UT 84005","precinct":"25EM31","hd":"50","v_score":"16.72856503","decile":"9","lat":40.301914803442514,"lng":-112.00080090451361},{"vid":"2703439","name":"Reino Batz II","party":"Rep","address":"2102 E Blossom St, Eagle Mountain, UT 84005","precinct":"25EM31","hd":"50","v_score":"2.876042565","decile":"6","lat":40.29978444206346,"lng":-112.00372831987524},{"vid":"2711636","name":"Edwardo Lebsack","party":"Dem","address":"1985 E Blossom St, Eagle Mountain, UT 84005","precinct":"25EM31","hd":"50","v_score":"1.193887297","decile":"4","lat":40.300153531077754,"lng":-112.0061934292657},{"vid":"2712622","name":"Dr. Alton Rutherford III","party":"","address":"2148 E Sunrise Dr, Eagle Mountain, UT 84005","precinct":"25EM31","hd":"50","v_score":"11.99595736","decile":"9","lat":40.29908953950151,"lng":-112.00290652323673},{"vid":"2723357","name":"Julious Hegmann","party":"","address":"2125 E Fall St, Eagle Mountain, UT 84005","precinct":"25EM31","hd":"50","v_score":"1.193887297","decile":"4","lat":40.30338230451859,"lng":-112.00324395225658},{"vid":"2725225","name":"Johanna Gottlieb","party":"","address":"2110 E Spring St, Eagle Mountain, UT 84005","precinct":"25EM31","hd":"50","v_score":"1.193887297","decile":"4","lat":40.303657708418804,"lng":-112.00352219769032},{"vid":"2728383","name":"Flo Morar","party":"Rep","address":"2076 E Partridge Ln, Eagle Mountain, UT 84005","precinct":"25EM31","hd":"50","v_score":"0","decile":"2","lat":40.301160933342445,"lng":-112.00421348244305},{"vid":"2729409","name":"Dr. Salomon Heathcote IV","party":"Dem","address":"2130 E Winter Way, Eagle Mountain, UT 84005","precinct":"25EM31","hd":"50","v_score":"0","decile":"2","lat":40.30443216670967,"lng":-112.0030868676871},{"vid":"2750296","name":"Jan Kiehn","party":"Dem","address":"3879 N Summer Way, Eagle Mountain, UT 84005","precinct":"25EM31","hd":"50","v_score":"0","decile":"2","lat":40.30362223923113,"lng":-112.00636162377418},{"vid":"2751478","name":"Christ Gulgowski","party":"Rep","address":"2035 E Spring St, Eagle Mountain, UT 84005","precinct":"25EM31","hd":"50","v_score":"1.193887297","decile":"4","lat":40.304110936215075,"lng":-112.00495982134628},{"vid":"2755341","name":"Mr. Hugh Schimmel","party":"","address":"3936 N Summer Way, Eagle Mountain, UT 84005","precinct":"25EM31","hd":"50","v_score":"0","decile":"2","lat":40.30442790449338,"lng":-112.00580482803387},{"vid":"2757959","name":"Haiden Hessel","party":"","address":"2159 E Blossom St, Eagle Mountain, UT 84005","precinct":"25EM31","hd":"50","v_score":"5.407962308","decile":"7","lat":40.30013017699155,"lng":-112.00253600882812},{"vid":"2774977","name":"Frances Kuphal","party":"Dem","address":"3692 N Partridge Ln, Eagle Mountain, UT 84005","precinct":"25EM31","hd":"50","v_score":"1.193887297","decile":"4","lat":40.30089464924425,"lng":-112.00214373812987},{"vid":"2780173","name":"Dr. Woody O'Connell","party":"","address":"2348 E Cinder Ln, Eagle Mountain, UT 84005","precinct":"25EM31","hd":"50","v_score":"1.193887297","decile":"4","lat":40.30246558663579,"lng":-111.99915903490059},{"vid":"2783341","name":"Dr. Lavon Willms Jr.","party":"Dem","address":"2156 E Easter Dr, Eagle Mountain, UT 84005","precinct":"25EM31","hd":"50","v_score":"0","decile":"2","lat":40.29857714773476,"lng":-112.00261956601021},{"vid":"2784470","name":"Dr. Conway Schowalter","party":"Rep","address":"2017 E Summer Way, Eagle Mountain, UT 84005","precinct":"25EM31","hd":"50","v_score":"1.193887297","decile":"4","lat":40.30492203729244,"lng":-112.00526042195473},{"vid":"2792254","name":"Kanisha Hirthe DDS","party":"","address":"2323 E Spring St, Eagle Mountain, UT 84005","precinct":"25EM31","hd":"50","v_score":"1.193887297","decile":"4","lat":40.30424943545612,"lng":-111.99944086353433},{"vid":"2792762","name":"Montel Metz","party":"","address":"2273 E Spring St, Eagle Mountain, UT 84005","precinct":"25EM31","hd":"50","v_score":"8.284004873","decile":"8","lat":40.30413097097905,"lng":-112.00050965912621},{"vid":"2792843","name":"Dicy Kshlerin DDS","party":"Rep","address":"2118 E Easter Dr, Eagle Mountain, UT 84005","precinct":"25EM31","hd":"50","v_score":"0","decile":"2","lat":40.298428794711945,"lng":-112.00343132393651},{"vid":"2795173","name":"Esker Blick","party":"Rep","address":"2299 E Woodbury Ln, Eagle Mountain, UT 84005","precinct":"25EM31","hd":"50","v_score":"0","decile":"2","lat":40.30219134198787,"lng":-111.99991741224673},{"vid":"2795571","name":"Sage Jaskolski","party":"Rep","address":"2156 E Easter Dr, Eagle Mountain, UT 84005","precinct":"25EM31","hd":"50","v_score":"0","decile":"2","lat":40.29857714773476,"lng":-112.00261956601021},{"vid":"2811593","name":"Gigi Emard","party":"Dem","address":"3692 N Partridge Ln, Eagle Mountain, UT 84005","precinct":"25EM31","hd":"50","v_score":"1.193887297","decile":"4","lat":40.30089464924425,"lng":-112.00214373812987},{"vid":"2816904","name":"Kylah Schroeder","party":"Rep","address":"2096 E Autumn St, Eagle Mountain, UT 84005","precinct":"25EM31","hd":"50","v_score":"1.193887297","decile":"4","lat":40.30227959592719,"lng":-112.00382387963081},{"vid":"2818245","name":"Mrs. Yamilex Marquardt PhD","party":"Rep","address":"2063 E Shadow Dr, Eagle Mountain, UT 84005","precinct":"25EM31","hd":"50","v_score":"1.193887297","decile":"4","lat":40.300934314781195,"lng":-112.0045385836427},{"vid":"2830892","name":"Shad Reinger-Little","party":"","address":"2273 E Spring St, Eagle Mountain, UT 84005","precinct":"25EM31","hd":"50","v_score":"8.284004873","decile":"8","lat":40.30413097097905,"lng":-112.00050965912621},{"vid":"2856816","name":"Mr. Amare Breitenberg Jr.","party":"","address":"2005 E Autumn St, Eagle Mountain, UT 84005","precinct":"25EM31","hd":"50","v_score":"4.069929862","decile":"7","lat":40.302704221709796,"lng":-112.00555481029379},{"vid":"2899390","name":"Chrissy Schuppe-Rempel","party":"","address":"2005 E Fall St, Eagle Mountain, UT 84005","precinct":"25EM31","hd":"50","v_score":"0","decile":"2","lat":40.30339023612716,"lng":-112.0055385471939},{"vid":"2908183","name":"Flem Spinka","party":"Rep","address":"2092 E Partridge Ln, Eagle Mountain, UT 84005","precinct":"25EM31","hd":"50","v_score":"7.090117576","decile":"8","lat":40.301186777182146,"lng":-112.00396349004308},{"vid":"2912217","name":"Leonidas Yost-Gorczany","party":"","address":"2286 E Boxwood Ln, Eagle Mountain, UT 84005","precinct":"25EM31","hd":"50","v_score":"0","decile":"2","lat":40.30315191286072,"lng":-112.00023938191929},{"vid":"2915951","name":"Yessenia Lakin","party":"","address":"2077 E Shadow Dr, Eagle Mountain, UT 84005","precinct":"25EM31","hd":"50","v_score":"0","decile":"2","lat":40.300914191468664,"lng":-112.00425325133976},{"vid":"2917280","name":"Gillian Christiansen PhD","party":"","address":"2022 E Blossom St, Eagle Mountain, UT 84005","precinct":"25EM31","hd":"50","v_score":"0","decile":"2","lat":40.299794574284654,"lng":-112.00531132193602},{"vid":"2925230","name":"Cohen Lubowitz-Daniel","party":"","address":"1984 E Shadow Dr, Eagle Mountain, UT 84005","precinct":"25EM31","hd":"50","v_score":"4.214075011","decile":"7","lat":40.300567699082016,"lng":-112.00616385390202},{"vid":"2925870","name":"Mr. Burke Nicolas","party":"Dem","address":"2105 E Shadow Dr, Eagle Mountain, UT 84005","precinct":"25EM31","hd":"50","v_score":"0","decile":"2","lat":40.30091074798204,"lng":-112.00371560820493},{"vid":"2944771","name":"Ambrose Glover","party":"Dem","address":"2387 E Cinder Ln, Eagle Mountain, UT 84005","precinct":"25EM31","hd":"50","v_score":"0","decile":"2","lat":40.302877029757184,"lng":-111.99831104216072},{"vid":"2944814","name":"Kylie Waters DDS","party":"","address":"2346 E Boxwood Ln, Eagle Mountain, UT 84005","precinct":"25EM31","hd":"50","v_score":"0","decile":"2","lat":40.303151656227996,"lng":-111.99917120491673},{"vid":"2945669","name":"Deliah Gottlieb","party":"Rep","address":"2294 E Spring St, Eagle Mountain, UT 84005","precinct":"25EM31","hd":"50","v_score":"0","decile":"2","lat":40.30388442507737,"lng":-111.99997766857452},{"vid":"2949190","name":"Ms. Kristian Koss DDS","party":"Rep","address":"3698 N Summer Way, Eagle Mountain, UT 84005","precinct":"25EM31","hd":"50","v_score":"7.090117576","decile":"8","lat":40.300839419421756,"lng":-112.00616073169078},{"vid":"2953461","name":"Orvil Schuppe-Grady","party":"","address":"2158 E Shadow Dr, Eagle Mountain, UT 84005","precinct":"25EM31","hd":"50","v_score":"0","decile":"2","lat":40.300544549898284,"lng":-112.00253145234963},{"vid":"2962898","name":"Mrs. Eboni Homenick","party":"","address":"3635 N Summer Way, Eagle Mountain, UT 84005","precinct":"25EM31","hd":"50","v_score":"0","decile":"2","lat":40.300041603124434,"lng":-112.00664149899919},{"vid":"2963083","name":"Mr. Ellison Larkin Sr.","party":"","address":"1985 E Blossom St, Eagle Mountain, UT 84005","precinct":"25EM31","hd":"50","v_score":"2.876042565","decile":"6","lat":40.300153531077754,"lng":-112.0061934292657},{"vid":"2984127","name":"Shaquan McClure-Wilkinson","party":"","address":"1964 E Sunrise Dr, Eagle Mountain, UT 84005","precinct":"25EM31","hd":"50","v_score":"0","decile":"2","lat":40.299139327966905,"lng":-112.00641122671576},{"vid":"3012453","name":"Saniya Cole-Marvin","party":"Dem","address":"1991 E Shadow Dr, Eagle Mountain, UT 84005","precinct":"25EM31","hd":"50","v_score":"12.49472132","decile":"9","lat":40.30092430639276,"lng":-112.00583026825522},{"vid":"3033207","name":"Anthony Stokes","party":"Rep","address":"2285 E Boxwood Ln, Eagle Mountain, UT 84005","precinct":"25EM31","hd":"50","v_score":"6.798081861","decile":"8","lat":40.303531709571374,"lng":-112.00034611686672},{"vid":"3036935","name":"Jaime Schmeler","party":"","address":"2143 E Partridge Ln, Eagle Mountain, UT 84005","precinct":"25EM31","hd":"50","v_score":"1.121327652","decile":"3","lat":40.30151308875833,"lng":-112.00289383522112},{"vid":"22208adc331de4c47eb143f474582b5e7ef15b5fb0fe623441c1d13d2c3d6dc5","name":"Kristi VonRueden","party":"","address":"2118 E Shadow Dr, Eagle Mountain, UT 84005","precinct":"25EM31","hd":"50","v_score":"11.37977487","decile":"9","lat":40.300497264680814,"lng":-112.00343338269548},{"vid":"3042160","name":"Dashawn Nienow","party":"Rep","address":"2063 E Shadow Dr, Eagle Mountain, UT 84005","precinct":"25EM31","hd":"50","v_score":"11.99259879","decile":"9","lat":40.300934314781195,"lng":-112.0045385836427},{"vid":"3045418","name":"Nile King","party":"","address":"2001 E Sunrise Dr, Eagle Mountain, UT 84005","precinct":"25EM31","hd":"50","v_score":"2.315214949","decile":"5","lat":40.29956608213006,"lng":-112.00564860249429},{"vid":"d1ef335157ccba6a6473e1c0a918ef19385899c702fc727acc2eb342a9895385","name":"Demarco Lang III","party":"Rep","address":"2024 E Shadow Dr, Eagle Mountain, UT 84005","precinct":"25EM31","hd":"50","v_score":"0","decile":"2","lat":40.300509223713384,"lng":-112.00529714903612},{"vid":"3051447","name":"Tamica Mueller","party":"","address":"2064 E Blossom St, Eagle Mountain, UT 84005","precinct":"25EM31","hd":"50","v_score":"2.744440783","decile":"5","lat":40.299789567779584,"lng":-112.00452878317266},{"vid":"f03831c761b45b76f50d985df6b3fd2dc7caaa730f9d49194a16d73644c670f0","name":"Kenna Auer","party":"Dem","address":"2389 E Woodbury Ln, Eagle Mountain, UT 84005","precinct":"25EM31","hd":"50","v_score":"5.191257514","decile":"7","lat":40.30219096285659,"lng":-111.99832544197506},{"vid":"3067769","name":"Adline Hahn","party":"","address":"2075 E Blossom St, Eagle Mountain, UT 84005","precinct":"25EM31","hd":"50","v_score":"15.00919004","decile":"9","lat":40.30022812450271,"lng":-112.00426074526554},{"vid":"3074558","name":"Dr. Clara Hahn","party":"Dem","address":"2103 E Blossom St, Eagle Mountain, UT 84005","precinct":"25EM31","hd":"50","v_score":"2.315214949","decile":"5","lat":40.300224680844074,"lng":-112.00372314327352},{"vid":"3074606","name":"Gil Kozey","party":"","address":"3892 N Dateman Dr, Eagle Mountain, UT 84005","precinct":"25EM31","hd":"50","v_score":"8.57906323","decile":"8","lat":40.303816264681956,"lng":-111.997216329823},{"vid":"3125255","name":"Shalon Ondricka","party":"","address":"2109 E Fall St, Eagle Mountain, UT 84005","precinct":"25EM31","hd":"50","v_score":"4.214075011","decile":"7","lat":40.30338329172221,"lng":-112.00353078989636},{"vid":"3207485","name":"Leigh Berge","party":"","address":"2022 E Blossom St, Eagle Mountain, UT 84005","precinct":"25EM31","hd":"50","v_score":"19.22326505","decile":"10","lat":40.299794574284654,"lng":-112.00531132193602},{"vid":"3228290","name":"Chad Gleason II","party":"Rep","address":"3619 N Summer Way, Eagle Mountain, UT 84005","precinct":"25EM31","hd":"50","v_score":"6.814370645","decile":"8","lat":40.299785184595194,"lng":-112.00665930618327},{"vid":"3245350","name":"Alexis Torp","party":"","address":"2096 E Autumn St, Eagle Mountain, UT 84005","precinct":"25EM31","hd":"50","v_score":"5.693042993","decile":"7","lat":40.30227959592719,"lng":-112.00382387963081},{"vid":"3281742","name":"Alf Hirthe-Lang","party":"Rep","address":"2379 E Sego Lily Dr, Eagle Mountain, UT 84005","precinct":"25EM31","hd":"50","v_score":"8.347511332","decile":"8","lat":40.29939236291841,"lng":-111.99848348923054},{"vid":"3336732","name":"Marc Steuber","party":"Dem","address":"2092 E Partridge Ln, Eagle Mountain, UT 84005","precinct":"25EM31","hd":"50","v_score":"38.99046514","decile":"10","lat":40.301186777182146,"lng":-112.00396349004308},{"vid":"3358293","name":"Mr. Pascal Becker Jr.","party":"Dem","address":"2377 E Marigold Dr, Eagle Mountain, UT 84005","precinct":"25EM31","hd":"50","v_score":"7.111403802","decile":"8","lat":40.298706593191675,"lng":-111.99856322926469},{"vid":"3358670","name":"Caleigh Littel","party":"Rep","address":"2132 E Easter Dr, Eagle Mountain, UT 84005","precinct":"25EM31","hd":"50","v_score":"2.587603312","decile":"5","lat":40.298427185883675,"lng":-112.00318045196612},{"vid":"3401380","name":"Redmond Fadel-Weissnat","party":"Dem","address":"2109 E Spring St, Eagle Mountain, UT 84005","precinct":"25EM31","hd":"50","v_score":"4.064235245","decile":"6","lat":40.304085889026155,"lng":-112.00353860775459},{"vid":"3403218","name":"Little Tillman","party":"Rep","address":"2103 E Blossom St, Eagle Mountain, UT 84005","precinct":"25EM31","hd":"50","v_score":"3.781490609","decile":"6","lat":40.300224680844074,"lng":-112.00372314327352},{"vid":"3456843","name":"Mr. Stevie Wuckert V","party":"","address":"2303 E Spring St, Eagle Mountain, UT 84005","precinct":"25EM31","hd":"50","v_score":"1.193887297","decile":"4","lat":40.304201468456455,"lng":-111.99996674344727},{"vid":"3490033","name":"Lauryn Bradtke MD","party":"Dem","address":"2019 E Autumn St, Eagle Mountain, UT 84005","precinct":"25EM31","hd":"50","v_score":"2.315214949","decile":"5","lat":40.30270323915487,"lng":-112.0052680836858},{"vid":"3520771","name":"Tammie Bernhard","party":"","address":"2075 E Blossom St, Eagle Mountain, UT 84005","precinct":"25EM31","hd":"50","v_score":"14.24014515","decile":"9","lat":40.30022812450271,"lng":-112.00426074526554},{"vid":"4904940","name":"Winford Kunde","party":"","address":"3599 N Columbine Way, Eagle Mountain, UT 84005","precinct":"25EM31","hd":"50","v_score":"7.856307211","decile":"8","lat":40.2995222364489,"lng":-112.00130608909834},{"vid":"5894536","name":"Lesley Wyman","party":"","address":"2126 E Autumn St, Eagle Mountain, UT 84005","precinct":"25EM31","hd":"50","v_score":"2.315214949","decile":"5","lat":40.30228013030015,"lng":-112.00324435991205},{"vid":"6089936","name":"Dalton Bashirian DVM","party":"Rep","address":"2022 E Blossom St, Eagle Mountain, UT 84005","precinct":"25EM31","hd":"50","v_score":"23.45875849","decile":"10","lat":40.299794574284654,"lng":-112.00531132193602},{"vid":"1acd05096354778442ceaa9c2fc7f639c5637c79981cb708a658684eaaf6ef6b","name":"Stetson Skiles","party":"","address":"2409 E Woodbury Ln, Eagle Mountain, UT 84005","precinct":"25EM31","hd":"50","v_score":"2.315214949","decile":"5","lat":40.302099787925115,"lng":-111.99800635318614},{"vid":"6148113","name":"Jagger Yost","party":"","address":"2080 E Fall St, Eagle Mountain, UT 84005","precinct":"25EM31","hd":"50","v_score":"5.191257514","decile":"7","lat":40.30297368977123,"lng":-112.00411946614282},{"vid":"6149051","name":"Marry Blick","party":"","address":"2019 E Spring St, Eagle Mountain, UT 84005","precinct":"25EM31","hd":"50","v_score":"0","decile":"3","lat":40.30412637292509,"lng":-112.0052693164567},{"vid":"6175065","name":"Nils Hettinger-Luettgen","party":"","address":"3935 N Summer Way, Eagle Mountain, UT 84005","precinct":"25EM31","hd":"50","v_score":"2.817000428","decile":"6","lat":40.30453057780123,"lng":-112.00616931113221},{"vid":"6260320","name":"Mattie Dickens","party":"Dem","address":"3935 N Summer Way, Eagle Mountain, UT 84005","precinct":"25EM31","hd":"50","v_score":"5.40460374","decile":"7","lat":40.30453057780123,"lng":-112.00616931113221},{"vid":"6274109","name":"Marolyn Feest","party":"Dem","address":"1995 E Blossom St, Eagle Mountain, UT 84005","precinct":"25EM31","hd":"50","v_score":"0","decile":"3","lat":40.300238239255485,"lng":-112.00583778176426},{"vid":"6274936","name":"Mrs. Hermina Kirlin","party":"Rep","address":"2021 E Blossom St, Eagle Mountain, UT 84005","precinct":"25EM31","hd":"50","v_score":"46.6170808","decile":"10","lat":40.30023480244852,"lng":-112.00530014240232},{"vid":"6277788","name":"Glynis Langworth MD","party":"","address":"2062 E Summer Way, Eagle Mountain, UT 84005","precinct":"25EM31","hd":"50","v_score":"1.193887297","decile":"4","lat":40.30446742231592,"lng":-112.00438144897568},{"vid":"6295125","name":"Dr. Jere Rice DDS","party":"Rep","address":"2012 E Summer Way, Eagle Mountain, UT 84005","precinct":"25EM31","hd":"50","v_score":"41.3483769","decile":"10","lat":40.30446676246655,"lng":-112.00540764639958},{"vid":"6298096","name":"Cinda D'Amore-Pollich","party":"Dem","address":"2125 E Fall St, Eagle Mountain, UT 84005","precinct":"25EM31","hd":"50","v_score":"2.315214949","decile":"5","lat":40.30338230451859,"lng":-112.00324395225658},{"vid":"6307266","name":"Gabrielle Feil","party":"","address":"1964 E Sunrise Dr, Eagle Mountain, UT 84005","precinct":"25EM31","hd":"50","v_score":"2.315214949","decile":"5","lat":40.299139327966905,"lng":-112.00641122671576},{"vid":"6310309","name":"Erich Bayer-Grant","party":"","address":"2298 E Cinder Ln, Eagle Mountain, UT 84005","precinct":"25EM31","hd":"50","v_score":"41.60720531","decile":"10","lat":40.30246578024264,"lng":-111.99997025348735},{"vid":"6310368","name":"Haven Goldner","party":"","address":"2377 E Marigold Dr, Eagle Mountain, UT 84005","precinct":"25EM31","hd":"50","v_score":"9.987446367","decile":"9","lat":40.298706593191675,"lng":-111.99856322926469},{"vid":"6319854","name":"Newell Kuhic","party":"","address":"2282 E Cobble Creek Ln, Eagle Mountain, UT 84005","precinct":"25EM31","hd":"50","v_score":"19.45964392","decile":"10","lat":40.30452403702864,"lng":-112.00022739605777},{"vid":"98bd335fc5b2b803a02eaade8e927cf1efdd09307f2d792a264adbe9a3be58a9","name":"Susie Rice","party":"","address":"3866 N Dateman Dr, Eagle Mountain, UT 84005","precinct":"25EM31","hd":"50","v_score":"35.57076271","decile":"10","lat":40.30342795057884,"lng":-111.99712274962489},{"vid":"fce5a3c340813212a142edcdcf8c01f6287e52ec827e8d323d05428a126d4e90","name":"Rosario Jerde","party":"Rep","address":"3542 N Easter Dr, Eagle Mountain, UT 84005","precinct":"25EM31","hd":"50","v_score":"20.35131456","decile":"10","lat":40.29861065838819,"lng":-112.00224353182102},{"vid":"6382733","name":"Hobert Zulauf","party":"Dem","address":"2035 E Fall St, Eagle Mountain, UT 84005","precinct":"25EM31","hd":"50","v_score":"15.4533012","decile":"9","lat":40.30338827062619,"lng":-112.0049649076673},{"vid":"6392131","name":"Angela Cummerata-Jerde","party":"Dem","address":"2065 E Blossom St, Eagle Mountain, UT 84005","precinct":"25EM31","hd":"50","v_score":"7.153624035","decile":"8","lat":40.30022973082168,"lng":-112.00451162478178},{"vid":"6393765","name":"Tito Morissette","party":"Rep","address":"2038 E Shadow Dr, Eagle Mountain, UT 84005","precinct":"25EM31","hd":"50","v_score":"21.73622446","decile":"10","lat":40.30050752696634,"lng":-112.00503193204864},{"vid":"6413659","name":"Kasandra Daugherty","party":"","address":"1984 E Shadow Dr, Eagle Mountain, UT 84005","precinct":"25EM31","hd":"50","v_score":"12.49472132","decile":"9","lat":40.300567699082016,"lng":-112.00616385390202},{"vid":"6425540","name":"Flor Blanda","party":"","address":"2066 E Spring St, Eagle Mountain, UT 84005","precinct":"25EM31","hd":"50","v_score":"1.121327652","decile":"3","lat":40.30366069331024,"lng":-112.00438267880929},{"vid":"6437152","name":"Jade Rosenbaum MD","party":"Dem","address":"2021 E Blossom St, Eagle Mountain, UT 84005","precinct":"25EM31","hd":"50","v_score":"46.6170808","decile":"10","lat":40.30023480244852,"lng":-112.00530014240232},{"vid":"6457994","name":"Dr. Nolen Mayert","party":"Dem","address":"1964 E Sunrise Dr, Eagle Mountain, UT 84005","precinct":"25EM31","hd":"50","v_score":"1.121327652","decile":"3","lat":40.299139327966905,"lng":-112.00641122671576},{"vid":"6467693","name":"Dakotah Brekke","party":"Dem","address":"2157 E Fall St, Eagle Mountain, UT 84005","precinct":"25EM31","hd":"50","v_score":"14.131145","decile":"9","lat":40.30330922628577,"lng":-112.00248198386046},{"vid":"6468274","name":"Jemal Berge","party":"","address":"3692 N Partridge Ln, Eagle Mountain, UT 84005","precinct":"25EM31","hd":"50","v_score":"0","decile":"3","lat":40.30089464924425,"lng":-112.00214373812987},{"vid":"6472154","name":"Murray Jakubowski","party":"","address":"2315 E Boxwood Ln, Eagle Mountain, UT 84005","precinct":"25EM31","hd":"50","v_score":"13.5493502","decile":"9","lat":40.3035634172957,"lng":-111.99964943545498},{"vid":"6472309","name":"Evelena Aufderhar-Dach","party":"","address":"2178 E Autumn St, Eagle Mountain, UT 84005","precinct":"25EM31","hd":"50","v_score":"2.315214949","decile":"5","lat":40.3023512120516,"lng":-112.0023577891541},{"vid":"f308ec5f47f42a9624a05905aecf8b14b9415dc558c7cd450bb80204d58d04ab","name":"Miss Vennie Gibson DVM","party":"Dem","address":"2178 E Autumn St, Eagle Mountain, UT 84005","precinct":"25EM31","hd":"50","v_score":"3.781490609","decile":"6","lat":40.3023512120516,"lng":-112.0023577891541},{"vid":"6528671","name":"Alena Heidenreich","party":"","address":"2142 E Spring St, Eagle Mountain, UT 84005","precinct":"25EM31","hd":"50","v_score":"6.657533174","decile":"7","lat":40.30365570647937,"lng":-112.00294855528911},{"vid":"6529788","name":"Ambers Rowe","party":"","address":"2142 E Spring St, Eagle Mountain, UT 84005","precinct":"25EM31","hd":"50","v_score":"6.657533174","decile":"7","lat":40.30365570647937,"lng":-112.00294855528911},{"vid":"6533234","name":"Cherilyn Muller-Yost","party":"Rep","address":"2021 E Blossom St, Eagle Mountain, UT 84005","precinct":"25EM31","hd":"50","v_score":"1.623113131","decile":"5","lat":40.30023480244852,"lng":-112.00530014240232}]