[{"vid":"802466","name":"Dr. Dominque Kuhlman DVM","party":"Dem","address":"6993 N South Pass Rd, Eagle Mountain, UT 84005","precinct":"25EM22","hd":"50","v_score":"9.907118004","decile":"8","lat":40.347464145981846,"lng":-111.96990837277198,"phone":"(204) 545-4888","sd":"22","ssbd":"10","lsbd":"School Board Lake Mountain 3"},{"vid":"d395d76ce065dbf3c4979d9b0cfa16c35e7a1f21bc9efb1ab8a9fa47194196dc","name":"Orilla Reinger","party":"Rep","address":"4072 E Chinook St, Eagle Mountain, UT 84005","precinct":"25EM22","hd":"50","v_score":"0","decile":"1","lat":40.34841912770593,"lng":-111.96592990464102,"phone":"(791) 143-0453","sd":"22","ssbd":"10","lsbd":"School Board Lake Mountain 3"},{"vid":"0ab7a5a3cf0b7a45d7e3f80c6cbb0d09b683b0cfe7b32bf2b40be17961738ade","name":"Stephania Medhurst-Johnston","party":"","address":"6952 N Kiowa Pkwy, Eagle Mountain, UT 84005","precinct":"25EM22","hd":"50","v_score":"2.587603312","decile":"5","lat":40.34690839510247,"lng":-111.9662804097969,"phone":"(637) 602-4470","sd":"22","ssbd":"10","lsbd":"School Board Lake Mountain 3"},{"vid":"a1d84aebb8bd15ac7f82fd92efe7aeba3af3ce22e2f7300a3651befd8735a15d","name":"Garey Lehner-Armstrong","party":"","address":"4051 E Mohican Dr, Eagle Mountain, UT 84005","precinct":"25EM22","hd":"50","v_score":"15.51131257","decile":"9","lat":40.348055912533,"lng":-111.96633496631694,"phone":"(178) 876-2794","sd":"22","ssbd":"10","lsbd":"School Board Lake Mountain 3"},{"vid":"831514","name":"Pratt Keebler","party":"","address":"4025 E Comanche St, Eagle Mountain, UT 84005","precinct":"25EM22","hd":"50","v_score":"0","decile":"1","lat":40.34732028032086,"lng":-111.96668173709777,"phone":"(155) 240-9774","sd":"22","ssbd":"10","lsbd":"School Board Lake Mountain 3"},{"vid":"1224716","name":"Daunte Streich","party":"","address":"7156 N Skyview Ln, Eagle Mountain, UT 84005","precinct":"25EM22","hd":"50","v_score":"11.02844566","decile":"9","lat":40.34987758883297,"lng":-111.97229301173908,"phone":"(963) 794-0345","sd":"22","ssbd":"10","lsbd":"School Board Lake Mountain 3"},{"vid":"1230311","name":"Rudolph Berge","party":"","address":"3964 E South Pass Rd, Eagle Mountain, UT 84005","precinct":"25EM22","hd":"50","v_score":"6.657533174","decile":"7","lat":40.34592915273094,"lng":-111.96797208175818,"phone":"(847) 962-5532","sd":"22","ssbd":"10","lsbd":"School Board Lake Mountain 3"},{"vid":"1239245","name":"Mr. Ray Medhurst DVM","party":"","address":"4052 E South Pass Rd, Eagle Mountain, UT 84005","precinct":"25EM22","hd":"50","v_score":"27.6390385","decile":"10","lat":40.34592193260231,"lng":-111.96635682098058,"phone":"(933) 154-3057","sd":"22","ssbd":"10","lsbd":"School Board Lake Mountain 3"},{"vid":"1277355","name":"Richie Orn","party":"","address":"3978 E Yakima Way, Eagle Mountain, UT 84005","precinct":"25EM22","hd":"50","v_score":"1.121327652","decile":"3","lat":40.34478694301602,"lng":-111.96764496852205,"phone":"(465) 693-5749","sd":"22","ssbd":"10","lsbd":"School Board Lake Mountain 3"},{"vid":"1280655","name":"Mrs. Enola Bogisich PhD","party":"","address":"7044 N Cherokee St, Eagle Mountain, UT 84005","precinct":"25EM22","hd":"50","v_score":"3.781490609","decile":"6","lat":40.34816913132092,"lng":-111.96436013615988,"phone":"(457) 254-8621","sd":"22","ssbd":"10","lsbd":"School Board Lake Mountain 3"},{"vid":"1301100","name":"Dr. Gladys Strosin","party":"Rep","address":"4054 E Mohican Dr, Eagle Mountain, UT 84005","precinct":"25EM22","hd":"50","v_score":"2.315214949","decile":"5","lat":40.34776401510033,"lng":-111.96634941057593,"phone":"(729) 061-1538","sd":"22","ssbd":"10","lsbd":"School Board Lake Mountain 3"},{"vid":"1302584","name":"Jared Murphy","party":"Rep","address":"3903 E Eagle Top Ct, Eagle Mountain, UT 84005","precinct":"25EM22","hd":"50","v_score":"1.193887297","decile":"3","lat":40.3516074204819,"lng":-111.96917054809158,"phone":"(533) 676-1719","sd":"22","ssbd":"10","lsbd":"School Board Lake Mountain 3"},{"vid":"1308050","name":"Mr. Odie Gibson Jr.","party":"","address":"3956 E Pawnee Rd, Eagle Mountain, UT 84005","precinct":"25EM22","hd":"50","v_score":"17.72450457","decile":"10","lat":40.34898703975085,"lng":-111.96812972673695,"phone":"(804) 833-7310","sd":"22","ssbd":"10","lsbd":"School Board Lake Mountain 3"},{"vid":"1313522","name":"Jevon Runolfsdottir","party":"","address":"4025 E Sioux St, Eagle Mountain, UT 84005","precinct":"25EM22","hd":"50","v_score":"10.87160818","decile":"9","lat":40.35106383033618,"lng":-111.9667220343873,"phone":"(125) 786-2538","sd":"22","ssbd":"10","lsbd":"School Board Lake Mountain 3"},{"vid":"1313600","name":"Krystin Okuneva","party":"","address":"3843 E Pawnee Rd, Eagle Mountain, UT 84005","precinct":"25EM22","hd":"50","v_score":"23.20250012","decile":"10","lat":40.350868049947714,"lng":-111.9703128763896,"phone":"(167) 586-9464","sd":"22","ssbd":"10","lsbd":"School Board Lake Mountain 3"},{"vid":"1315508","name":"Efrem Gaylord","party":"","address":"4052 E Sioux St, Eagle Mountain, UT 84005","precinct":"25EM22","hd":"50","v_score":"5.40460374","decile":"7","lat":40.35065588232065,"lng":-111.96630535102243,"phone":"(870) 557-4601","sd":"22","ssbd":"10","lsbd":"School Board Lake Mountain 3"},{"vid":"1316113","name":"Camryn Reynolds","party":"Rep","address":"4051 E Mohican Dr, Eagle Mountain, UT 84005","precinct":"25EM22","hd":"50","v_score":"15.51131257","decile":"9","lat":40.348055912533,"lng":-111.96633496631694,"phone":"(947) 385-0153","sd":"22","ssbd":"10","lsbd":"School Board Lake Mountain 3"},{"vid":"1321069","name":"Jerusha Stark","party":"Rep","address":"4015 E Mohican Dr, Eagle Mountain, UT 84005","precinct":"25EM22","hd":"50","v_score":"2.315214949","decile":"5","lat":40.34810425936677,"lng":-111.96695577308091,"phone":"(276) 376-8790","sd":"22","ssbd":"10","lsbd":"School Board Lake Mountain 3"},{"vid":"1348347","name":"Mrs. Dollie Dietrich","party":"Rep","address":"4079 E Comanche St, Eagle Mountain, UT 84005","precinct":"25EM22","hd":"50","v_score":"8.347511332","decile":"8","lat":40.347429476402766,"lng":-111.96580164084914,"phone":"(723) 252-9886","sd":"22","ssbd":"10","lsbd":"School Board Lake Mountain 3"},{"vid":"1355732","name":"Karli Doyle","party":"","address":"6957 N Comanche St, Eagle Mountain, UT 84005","precinct":"25EM22","hd":"50","v_score":"23.45875849","decile":"10","lat":40.34685279621805,"lng":-111.96873588693371,"phone":"(259) 586-9746","sd":"22","ssbd":"10","lsbd":"School Board Lake Mountain 3"},{"vid":"f204deaa54d9af8aae9ffa77aa4b51b2b8bd405c107249674484f1d61efcdf02","name":"Miss Brooke Boehm","party":"","address":"3959 E Sioux St, Eagle Mountain, UT 84005","precinct":"25EM22","hd":"50","v_score":"5.191257514","decile":"7","lat":40.351041978198886,"lng":-111.96803429446226,"phone":"(523) 239-4039","sd":"22","ssbd":"10","lsbd":"School Board Lake Mountain 3"},{"vid":"9b248ac315a0e1570c23a51178a6b8d1f158b26cd040b221cb7a44105679880f","name":"Mrs. Rosetta Gibson PhD","party":"","address":"3938 E Sioux St, Eagle Mountain, UT 84005","precinct":"25EM22","hd":"50","v_score":"23.30240532","decile":"10","lat":40.35084069022904,"lng":-111.96855466966747,"phone":"(843) 405-1356","sd":"22","ssbd":"10","lsbd":"School Board Lake Mountain 3"},{"vid":"618a22a8e4d6b4d60d32d1194290a8fa3cdb72ec47f286f12b8895de8b2f734f","name":"Valentino Christiansen","party":"Rep","address":"4001 E Yakima Way, Eagle Mountain, UT 84005","precinct":"25EM22","hd":"50","v_score":"13.85417219","decile":"9","lat":40.34557114928328,"lng":-111.96727478718523,"phone":"(905) 932-5392","sd":"22","ssbd":"10","lsbd":"School Board Lake Mountain 3"},{"vid":"1381809","name":"Olena Abbott MD","party":"Dem","address":"3639 E Owahee St, Eagle Mountain, UT 84005","precinct":"25EM22","hd":"50","v_score":"2.315214949","decile":"5","lat":40.35141912466812,"lng":-111.97436722225096,"phone":"(327) 031-0627","sd":"22","ssbd":"10","lsbd":"School Board Lake Mountain 3"},{"vid":"924d828e07dcb6203e8f832300523267da8f62100fe21764000719a39f8ed4e5","name":"Beverly Carter","party":"","address":"3532 E Golden Cir, Eagle Mountain, UT 84005","precinct":"25EM22","hd":"50","v_score":"1.46627566","decile":"4","lat":40.35594797230675,"lng":-111.97612223715413,"phone":"(745) 522-5170","sd":"22","ssbd":"10","lsbd":"School Board Lake Mountain 3"},{"vid":"1394815","name":"Lovina Bauch","party":"Rep","address":"7034 N Cherokee St, Eagle Mountain, UT 84005","precinct":"25EM22","hd":"50","v_score":"13.23991076","decile":"9","lat":40.34803079790571,"lng":-111.96429098841259,"phone":"(788) 669-1976","sd":"22","ssbd":"10","lsbd":"School Board Lake Mountain 3"},{"vid":"1413238","name":"Durwood Heller","party":"Rep","address":"7296 N Long Ridge Dr, Eagle Mountain, UT 84005","precinct":"25EM22","hd":"50","v_score":"1.193887297","decile":"3","lat":40.351843142393044,"lng":-111.97382307926605,"phone":"(653) 758-4706","sd":"22","ssbd":"10","lsbd":"School Board Lake Mountain 3"},{"vid":"1415718","name":"Lanita Kassulke","party":"","address":"6911 N Chippewa Dr, Eagle Mountain, UT 84005","precinct":"25EM22","hd":"50","v_score":"3.93832808","decile":"6","lat":40.34617047456589,"lng":-111.96568057642006,"phone":"(525) 005-1370","sd":"22","ssbd":"10","lsbd":"School Board Lake Mountain 3"},{"vid":"1415727","name":"Mr. Omar Mayert MD","party":"Rep","address":"6926 N Cherokee St, Eagle Mountain, UT 84005","precinct":"25EM22","hd":"50","v_score":"2.744440783","decile":"5","lat":40.34641759738966,"lng":-111.96439928902092,"phone":"(869) 874-8743","sd":"22","ssbd":"10","lsbd":"School Board Lake Mountain 3"},{"vid":"1418561","name":"Miss Shelby Will","party":"","address":"3971 E Golden Eagle Rd, Eagle Mountain, UT 84005","precinct":"25EM22","hd":"50","v_score":"8.15240309","decile":"8","lat":40.350360906283974,"lng":-111.96781368359395,"phone":"(727) 518-3149","sd":"22","ssbd":"10","lsbd":"School Board Lake Mountain 3"},{"vid":"1430762","name":"Carnell Brakus","party":"","address":"4108 E Mohican Dr, Eagle Mountain, UT 84005","precinct":"25EM22","hd":"50","v_score":"2.587603312","decile":"5","lat":40.34770266413827,"lng":-111.96523911312327,"phone":"(226) 933-6101","sd":"22","ssbd":"10","lsbd":"School Board Lake Mountain 3"},{"vid":"1460614","name":"Nira Walter","party":"","address":"3964 E Eagle Top Ct, Eagle Mountain, UT 84005","precinct":"25EM22","hd":"50","v_score":"2.315214949","decile":"5","lat":40.351513481953994,"lng":-111.96788200007776,"phone":"(259) 368-3933","sd":"22","ssbd":"10","lsbd":"School Board Lake Mountain 3"},{"vid":"1462835","name":"Adelle Crona-Monahan","party":"Dem","address":"4107 E Sioux St, Eagle Mountain, UT 84005","precinct":"25EM22","hd":"50","v_score":"6.814370645","decile":"8","lat":40.3510048197134,"lng":-111.96518142860891,"phone":"(154) 541-1090","sd":"22","ssbd":"10","lsbd":"School Board Lake Mountain 3"},{"vid":"e4dfc7370eb5808dcdbbde9a9f27b46ea1344001fa2ff171b3e18fb4a1c8ba81","name":"Yadiel Stroman","party":"Rep","address":"7035 N Cherokee St, Eagle Mountain, UT 84005","precinct":"25EM22","hd":"50","v_score":"10.87722212","decile":"9","lat":40.34802496093046,"lng":-111.9648571407651,"phone":"(954) 352-5791","sd":"22","ssbd":"10","lsbd":"School Board Lake Mountain 3"},{"vid":"1466443","name":"Iesha Schuster","party":"Dem","address":"7159 N Golden Ridge Dr, Eagle Mountain, UT 84005","precinct":"25EM22","hd":"50","v_score":"8.363183621","decile":"8","lat":40.349917500646974,"lng":-111.97069246423123,"phone":"(231) 207-0579","sd":"22","ssbd":"10","lsbd":"School Board Lake Mountain 3"},{"vid":"1470436","name":"Alcee Pagac","party":"","address":"4052 E Sioux St, Eagle Mountain, UT 84005","precinct":"25EM22","hd":"50","v_score":"2.315214949","decile":"5","lat":40.35065588232065,"lng":-111.96630535102243,"phone":"(440) 884-5233","sd":"22","ssbd":"10","lsbd":"School Board Lake Mountain 3"},{"vid":"64bc0a5da640ad05424096b712c9ed73f1d2daa085cc7eee579004ad8172c686","name":"Jase Mosciski","party":"Rep","address":"3923 E Eagle Top Ct, Eagle Mountain, UT 84005","precinct":"25EM22","hd":"50","v_score":"8.15240309","decile":"8","lat":40.35182770810743,"lng":-111.96874572365364,"phone":"(417) 873-9372","sd":"22","ssbd":"10","lsbd":"School Board Lake Mountain 3"},{"vid":"1496141","name":"Yair Hyatt","party":"Rep","address":"4052 E Chinook St, Eagle Mountain, UT 84005","precinct":"25EM22","hd":"50","v_score":"2.817000428","decile":"6","lat":40.34847754609223,"lng":-111.96634437393972,"phone":"(816) 520-3691","sd":"22","ssbd":"10","lsbd":"School Board Lake Mountain 3"},{"vid":"1502369","name":"Joanie Harris","party":"Dem","address":"3959 E Sioux St, Eagle Mountain, UT 84005","precinct":"25EM22","hd":"50","v_score":"5.191257514","decile":"7","lat":40.351041978198886,"lng":-111.96803429446226,"phone":"(501) 745-4819","sd":"22","ssbd":"10","lsbd":"School Board Lake Mountain 3"},{"vid":"1502973","name":"Dr. Kendall Kreiger DVM","party":"Dem","address":"7045 N Cherokee St, Eagle Mountain, UT 84005","precinct":"25EM22","hd":"50","v_score":"2.744440783","decile":"5","lat":40.348236568089284,"lng":-111.96487065823783,"phone":"(350) 613-3928","sd":"22","ssbd":"10","lsbd":"School Board Lake Mountain 3"},{"vid":"1505832","name":"Humphrey Ryan I","party":"Rep","address":"3956 E Pawnee Rd, Eagle Mountain, UT 84005","precinct":"25EM22","hd":"50","v_score":"19.19078023","decile":"10","lat":40.34898703975085,"lng":-111.96812972673695,"phone":"(586) 423-8253","sd":"22","ssbd":"10","lsbd":"School Board Lake Mountain 3"},{"vid":"1508364","name":"Layne O'Connell","party":"","address":"3938 E Sioux St, Eagle Mountain, UT 84005","precinct":"25EM22","hd":"50","v_score":"22.10816128","decile":"10","lat":40.35084069022904,"lng":-111.96855466966747,"phone":"(623) 994-0320","sd":"22","ssbd":"10","lsbd":"School Board Lake Mountain 3"},{"vid":"1514081","name":"Treasure Cartwright","party":"","address":"4086 E Dakota Dr, Eagle Mountain, UT 84005","precinct":"25EM22","hd":"50","v_score":"2.315214949","decile":"5","lat":40.34519773241872,"lng":-111.96566830372146,"phone":"(153) 088-2725","sd":"22","ssbd":"10","lsbd":"School Board Lake Mountain 3"},{"vid":"1517245","name":"Bradley Treutel","party":"Dem","address":"3627 E Owahee St, Eagle Mountain, UT 84005","precinct":"25EM22","hd":"50","v_score":"3.93832808","decile":"6","lat":40.35127688902993,"lng":-111.97452434085375,"phone":"(304) 124-2723","sd":"22","ssbd":"10","lsbd":"School Board Lake Mountain 3"},{"vid":"8e60dfd772a0fca81908229a4fb5892d8add84b5fe98e2274bc74058f366f44d","name":"Thekla Kerluke","party":"Dem","address":"4081 E Mohican Dr, Eagle Mountain, UT 84005","precinct":"25EM22","hd":"50","v_score":"25.71087114","decile":"10","lat":40.348143803683264,"lng":-111.96571664620953,"phone":"(744) 871-1458","sd":"22","ssbd":"10","lsbd":"School Board Lake Mountain 3"},{"vid":"5be624d5f215e0f88e9debc3731ea1308f9f24e0838bbad10fa9fb3299f5f904","name":"Ingrid Swaniawski","party":"Rep","address":"3955 E Pawnee Rd, Eagle Mountain, UT 84005","precinct":"25EM22","hd":"50","v_score":"2.315214949","decile":"5","lat":40.349364324723425,"lng":-111.96820658627847,"phone":"(955) 773-1407","sd":"22","ssbd":"10","lsbd":"School Board Lake Mountain 3"},{"vid":"cf580159543e4443a1737fd84ad60c22ccf4ecff50e3450c5f9552bfee854c63","name":"Knute Heidenreich DDS","party":"Dem","address":"3978 E Sioux St, Eagle Mountain, UT 84005","precinct":"25EM22","hd":"50","v_score":"2.744440783","decile":"5","lat":40.35062228302713,"lng":-111.96772924335163,"phone":"(427) 097-6999","sd":"22","ssbd":"10","lsbd":"School Board Lake Mountain 3"},{"vid":"1546864","name":"Mr. Daryl Farrell V","party":"Dem","address":"7156 N Skyview Ln, Eagle Mountain, UT 84005","precinct":"25EM22","hd":"50","v_score":"11.02844566","decile":"9","lat":40.34987758883297,"lng":-111.97229301173908,"phone":"(637) 775-8771","sd":"22","ssbd":"10","lsbd":"School Board Lake Mountain 3"},{"vid":"1559306","name":"Rubin Jacobi","party":"","address":"6864 N Cherokee St, Eagle Mountain, UT 84005","precinct":"25EM22","hd":"50","v_score":"35.30276996","decile":"10","lat":40.34543611230068,"lng":-111.96443332556986,"phone":"(850) 761-0166","sd":"22","ssbd":"10","lsbd":"School Board Lake Mountain 3"},{"vid":"1564310","name":"Rutherford Schulist","party":"Dem","address":"7336 N Long Ridge Dr, Eagle Mountain, UT 84005","precinct":"25EM22","hd":"50","v_score":"16.67438","decile":"9","lat":40.35241984329678,"lng":-111.9744434137122,"phone":"(774) 441-4146","sd":"22","ssbd":"10","lsbd":"School Board Lake Mountain 3"},{"vid":"1571433","name":"Syed Lind PhD","party":"Rep","address":"6927 N Kiowa Pkwy, Eagle Mountain, UT 84005","precinct":"25EM22","hd":"50","v_score":"4.210716443","decile":"7","lat":40.34635869848338,"lng":-111.96674869841009,"phone":"(539) 743-2175","sd":"22","ssbd":"10","lsbd":"School Board Lake Mountain 3"},{"vid":"1579366","name":"Joy Gusikowski PhD","party":"","address":"6927 N Kiowa Pkwy, Eagle Mountain, UT 84005","precinct":"25EM22","hd":"50","v_score":"2.744440783","decile":"5","lat":40.34635869848338,"lng":-111.96674869841009,"phone":"(800) 058-3352","sd":"22","ssbd":"10","lsbd":"School Board Lake Mountain 3"},{"vid":"1581295","name":"Nathen Ritchie","party":"","address":"7102 N Cherokee St, Eagle Mountain, UT 84005","precinct":"25EM22","hd":"50","v_score":"7.493443096","decile":"8","lat":40.34904217649606,"lng":-111.96428391058649,"phone":"(581) 708-5505","sd":"22","ssbd":"10","lsbd":"School Board Lake Mountain 3"},{"vid":"1581360","name":"Pierre Koss","party":"","address":"3934 E Eagle Top Ct, Eagle Mountain, UT 84005","precinct":"25EM22","hd":"50","v_score":"0","decile":"1","lat":40.351510245438675,"lng":-111.96849005943861,"phone":"(346) 441-7983","sd":"22","ssbd":"10","lsbd":"School Board Lake Mountain 3"},{"vid":"1589349","name":"Leva Gerlach","party":"Dem","address":"6902 N Cherokee St, Eagle Mountain, UT 84005","precinct":"25EM22","hd":"50","v_score":"25.24303225","decile":"10","lat":40.34602506188323,"lng":-111.96442270415298,"phone":"(707) 358-5558","sd":"22","ssbd":"10","lsbd":"School Board Lake Mountain 3"},{"vid":"1591786","name":"Hugh Glover-Leannon","party":"Rep","address":"3998 E Yakima Way, Eagle Mountain, UT 84005","precinct":"25EM22","hd":"50","v_score":"2.315214949","decile":"5","lat":40.345017895284286,"lng":-111.96735312882484,"phone":"(858) 376-7545","sd":"22","ssbd":"10","lsbd":"School Board Lake Mountain 3"},{"vid":"e5229f4a3bea822bcac24c75d1ce0c21b665e66707ad2075e3e1df67c486ed00","name":"Mrs. Alfreda Thompson DVM","party":"Rep","address":"7059 N Cherokee St, Eagle Mountain, UT 84005","precinct":"25EM22","hd":"50","v_score":"1.121327652","decile":"3","lat":40.34837737827966,"lng":-111.96488997174899,"phone":"(451) 959-2443","sd":"22","ssbd":"10","lsbd":"School Board Lake Mountain 3"},{"vid":"1598381","name":"Francisca Bernier","party":"Dem","address":"6966 N South Pass Rd, Eagle Mountain, UT 84005","precinct":"25EM22","hd":"50","v_score":"12.15816236","decile":"9","lat":40.347081977028985,"lng":-111.96916631740193,"phone":"(645) 325-7726","sd":"22","ssbd":"10","lsbd":"School Board Lake Mountain 3"},{"vid":"1611274","name":"Ryann Fritsch","party":"Dem","address":"4116 E Dakota Dr, Eagle Mountain, UT 84005","precinct":"25EM22","hd":"50","v_score":"1.46627566","decile":"4","lat":40.34517354861867,"lng":-111.9650939561018,"phone":"(890) 742-1974","sd":"22","ssbd":"10","lsbd":"School Board Lake Mountain 3"},{"vid":"1614913","name":"Dr. Zayden Kerluke","party":"Dem","address":"6864 N Cherokee St, Eagle Mountain, UT 84005","precinct":"25EM22","hd":"50","v_score":"35.30276996","decile":"10","lat":40.34543611230068,"lng":-111.96443332556986,"phone":"(220) 690-7573","sd":"22","ssbd":"10","lsbd":"School Board Lake Mountain 3"},{"vid":"3c707cdc04dedb29be8f0a2ad8e2f1c01039dc22362563a0d603efe94d91376e","name":"Alonzo Torp","party":"Rep","address":"3979 E Golden Eagle Rd, Eagle Mountain, UT 84005","precinct":"25EM22","hd":"50","v_score":"15.19851159","decile":"9","lat":40.350384559429344,"lng":-111.967663151152,"phone":"(425) 938-3170","sd":"22","ssbd":"10","lsbd":"School Board Lake Mountain 3"},{"vid":"1621384","name":"Mrs. Joana Donnelly","party":"","address":"7313 N Long Ridge Dr, Eagle Mountain, UT 84005","precinct":"25EM22","hd":"50","v_score":"2.315214949","decile":"5","lat":40.351950979063005,"lng":-111.97479981070795,"phone":"(850) 487-2165","sd":"22","ssbd":"10","lsbd":"School Board Lake Mountain 3"},{"vid":"1634373","name":"Davante Labadie","party":"Rep","address":"3954 E Eagle Top Ct, Eagle Mountain, UT 84005","precinct":"25EM22","hd":"50","v_score":"0","decile":"1","lat":40.35149772796192,"lng":-111.96805774468332,"phone":"(746) 894-3382","sd":"22","ssbd":"10","lsbd":"School Board Lake Mountain 3"},{"vid":"e45309fef33f98d87ccaec8ded1b0d2ecd99e3f8313a75aa614054839bd955aa","name":"Maida Ruecker","party":"Dem","address":"4065 E Yakima Way, Eagle Mountain, UT 84005","precinct":"25EM22","hd":"50","v_score":"9.830961897","decile":"8","lat":40.34539289967753,"lng":-111.96602870523604,"phone":"(693) 966-1433","sd":"22","ssbd":"10","lsbd":"School Board Lake Mountain 3"},{"vid":"1f524f9da9acedb92477e53efb04d82dd0c324cd356bde7bc87a4b0f1193606c","name":"Lane Volkman","party":"Rep","address":"3678 E Long Ridge Dr, Eagle Mountain, UT 84005","precinct":"25EM22","hd":"50","v_score":"13.83018807","decile":"9","lat":40.350897866256425,"lng":-111.97356352050384,"phone":"(601) 848-9778","sd":"22","ssbd":"10","lsbd":"School Board Lake Mountain 3"},{"vid":"1647298","name":"Zandra Swaniawski","party":"Rep","address":"4074 E Mohican Dr, Eagle Mountain, UT 84005","precinct":"25EM22","hd":"50","v_score":"10.8238813","decile":"9","lat":40.34770533598557,"lng":-111.96588473034166,"phone":"(742) 245-9412","sd":"22","ssbd":"10","lsbd":"School Board Lake Mountain 3"},{"vid":"1663598","name":"Marceline VonRueden","party":"","address":"6976 N South Pass Rd, Eagle Mountain, UT 84005","precinct":"25EM22","hd":"50","v_score":"5.40460374","decile":"7","lat":40.34729863963648,"lng":-111.96916104666734,"phone":"(444) 104-4374","sd":"22","ssbd":"10","lsbd":"School Board Lake Mountain 3"},{"vid":"1674890","name":"Orvin Maggio","party":"","address":"4052 E Chinook St, Eagle Mountain, UT 84005","precinct":"25EM22","hd":"50","v_score":"2.817000428","decile":"6","lat":40.34847754609223,"lng":-111.96634437393972,"phone":"(324) 263-5400","sd":"22","ssbd":"10","lsbd":"School Board Lake Mountain 3"},{"vid":"1721993","name":"Estes Christiansen","party":"Dem","address":"4025 E Sioux St, Eagle Mountain, UT 84005","precinct":"25EM22","hd":"50","v_score":"16.99089879","decile":"9","lat":40.35106383033618,"lng":-111.9667220343873,"phone":"(375) 932-4162","sd":"22","ssbd":"10","lsbd":"School Board Lake Mountain 3"},{"vid":"1741011","name":"Donovan Pouros","party":"Dem","address":"3692 E Owahee St, Eagle Mountain, UT 84005","precinct":"25EM22","hd":"50","v_score":"7.169296324","decile":"8","lat":40.35157190318602,"lng":-111.97302095020585,"phone":"(669) 783-6715","sd":"22","ssbd":"10","lsbd":"School Board Lake Mountain 3"},{"vid":"1758462","name":"Samantha Ryan","party":"","address":"7164 N Golden Ridge Dr, Eagle Mountain, UT 84005","precinct":"25EM22","hd":"50","v_score":"9.61867875","decile":"8","lat":40.34989666426094,"lng":-111.97017545807793,"phone":"(881) 705-5578","sd":"22","ssbd":"10","lsbd":"School Board Lake Mountain 3"},{"vid":"5a2d758ce93a467f4008a7221f6108b4ef4486d467d46c6ea07bc2168f86da48","name":"Dr. Esequiel Spencer","party":"","address":"7108 N Kiowa Pkwy, Eagle Mountain, UT 84005","precinct":"25EM22","hd":"50","v_score":"45.76919357","decile":"10","lat":40.349148763157686,"lng":-111.9664650565863,"phone":"(162) 740-9188","sd":"22","ssbd":"10","lsbd":"School Board Lake Mountain 3"},{"vid":"1759867","name":"Tamela Klocko MD","party":"Rep","address":"3983 E Sioux St, Eagle Mountain, UT 84005","precinct":"25EM22","hd":"50","v_score":"27.62906292","decile":"10","lat":40.351067470346436,"lng":-111.9675828748324,"phone":"(370) 752-3794","sd":"22","ssbd":"10","lsbd":"School Board Lake Mountain 3"},{"vid":"1764494","name":"Jereme Goyette","party":"Dem","address":"7035 N Cherokee St, Eagle Mountain, UT 84005","precinct":"25EM22","hd":"50","v_score":"17.23294292","decile":"9","lat":40.34802496093046,"lng":-111.9648571407651,"phone":"(520) 043-6302","sd":"22","ssbd":"10","lsbd":"School Board Lake Mountain 3"},{"vid":"18953fa679bbe9e6b9a955aa10ce7d49caaf3dba9518e41d7082d3a134804ce6","name":"Ms. Mistie Schroeder","party":"","address":"3724 E Long Ridge Dr, Eagle Mountain, UT 84005","precinct":"25EM22","hd":"50","v_score":"7.583918848","decile":"8","lat":40.350400094906846,"lng":-111.97264960423122,"phone":"(359) 620-5971","sd":"22","ssbd":"10","lsbd":"School Board Lake Mountain 3"},{"vid":"1774785","name":"Celia Hoeger","party":"Rep","address":"7253 N Skyview Ln, Eagle Mountain, UT 84005","precinct":"25EM22","hd":"50","v_score":"6.954919332","decile":"8","lat":40.35117953109153,"lng":-111.97179602649621,"phone":"(829) 556-8597","sd":"22","ssbd":"10","lsbd":"School Board Lake Mountain 3"},{"vid":"1791062","name":"Deidre Schiller-Harvey","party":"","address":"3893 E Eagle Top Ct, Eagle Mountain, UT 84005","precinct":"25EM22","hd":"50","v_score":"1.121327652","decile":"3","lat":40.35151054625205,"lng":-111.96937445191517,"phone":"(134) 884-8861","sd":"22","ssbd":"10","lsbd":"School Board Lake Mountain 3"},{"vid":"1792237","name":"Miss Elayne Hettinger","party":"Rep","address":"4112 E Chinook St, Eagle Mountain, UT 84005","precinct":"25EM22","hd":"50","v_score":"3.781490609","decile":"6","lat":40.34841601088043,"lng":-111.96518179940182,"phone":"(688) 271-1854","sd":"22","ssbd":"10","lsbd":"School Board Lake Mountain 3"},{"vid":"69d1eb995afc9bcb05f7dba41e8942476d4c9ef05e0916117675846ae91e1785","name":"Jeremy Gleason","party":"Rep","address":"7162 N Mohican Dr, Eagle Mountain, UT 84005","precinct":"25EM22","hd":"50","v_score":"16.73021475","decile":"9","lat":40.349950304719265,"lng":-111.96763507226154,"phone":"(937) 052-7091","sd":"22","ssbd":"10","lsbd":"School Board Lake Mountain 3"},{"vid":"1813160","name":"Kamden Ebert","party":"Rep","address":"4001 E Mohican Dr, Eagle Mountain, UT 84005","precinct":"25EM22","hd":"50","v_score":"6.724398202","decile":"8","lat":40.348218411495644,"lng":-111.96716147634997,"phone":"(206) 976-0928","sd":"22","ssbd":"10","lsbd":"School Board Lake Mountain 3"},{"vid":"1817860","name":"Morgan Muller","party":"","address":"7103 N Golden Ridge Ct, Eagle Mountain, UT 84005","precinct":"25EM22","hd":"50","v_score":"3.781490609","decile":"6","lat":40.34912865350485,"lng":-111.97118367412732,"phone":"(129) 527-9926","sd":"22","ssbd":"10","lsbd":"School Board Lake Mountain 3"},{"vid":"1817924","name":"Malorie Weber","party":"Rep","address":"3908 E Eagle Top Ct, Eagle Mountain, UT 84005","precinct":"25EM22","hd":"50","v_score":"2.587603312","decile":"5","lat":40.35121491613132,"lng":-111.96880616986391,"phone":"(667) 196-0733","sd":"22","ssbd":"10","lsbd":"School Board Lake Mountain 3"},{"vid":"35de29118a6353f2efeaba5d1470253f6290aa59941365ef2a8d602dac3ba59c","name":"Pedro Miller","party":"Dem","address":"6808 N Yakima Way, Eagle Mountain, UT 84005","precinct":"25EM22","hd":"50","v_score":"14.95117867","decile":"9","lat":40.34477509961552,"lng":-111.96517060801891,"phone":"(867) 109-2736","sd":"22","ssbd":"10","lsbd":"School Board Lake Mountain 3"},{"vid":"1833382","name":"Journey Bednar MD","party":"","address":"7074 N Mohican Dr, Eagle Mountain, UT 84005","precinct":"25EM22","hd":"50","v_score":"1.121327652","decile":"3","lat":40.34866820463481,"lng":-111.96739574731454,"phone":"(485) 714-9495","sd":"22","ssbd":"10","lsbd":"School Board Lake Mountain 3"},{"vid":"1834994","name":"Damaris Kuhlman","party":"","address":"3871 E Hopi Rd, Eagle Mountain, UT 84005","precinct":"25EM22","hd":"50","v_score":"7.153624035","decile":"8","lat":40.34772655277847,"lng":-111.96988552566381,"phone":"(910) 571-9650","sd":"22","ssbd":"10","lsbd":"School Board Lake Mountain 3"},{"vid":"1842077","name":"Miss Estelle Lynch","party":"","address":"3546 E Golden Cir, Eagle Mountain, UT 84005","precinct":"25EM22","hd":"50","v_score":"11.2829142","decile":"9","lat":40.3562211987378,"lng":-111.97598622867415,"phone":"(958) 619-6961","sd":"22","ssbd":"10","lsbd":"School Board Lake Mountain 3"},{"vid":"1846863","name":"Ms. Nathaly Mertz","party":"","address":"3957 E Comanche St, Eagle Mountain, UT 84005","precinct":"25EM22","hd":"50","v_score":"0","decile":"1","lat":40.347411243167144,"lng":-111.96815834132266,"phone":"(133) 266-2533","sd":"22","ssbd":"10","lsbd":"School Board Lake Mountain 3"},{"vid":"8348385a84d1ff5d055aea84461de75c1383063628f59f76514be3da65ef1d46","name":"Dr. Toni Mayert","party":"","address":"6952 N Kiowa Pkwy, Eagle Mountain, UT 84005","precinct":"25EM22","hd":"50","v_score":"1.46627566","decile":"4","lat":40.34690839510247,"lng":-111.9662804097969,"phone":"(465) 477-6095","sd":"22","ssbd":"10","lsbd":"School Board Lake Mountain 3"},{"vid":"1873983","name":"Ms. Merrilee Weissnat DVM","party":"","address":"4126 E South Pass Rd, Eagle Mountain, UT 84005","precinct":"25EM22","hd":"50","v_score":"4.069929862","decile":"6","lat":40.34591602625176,"lng":-111.96481904447153,"phone":"(189) 508-4761","sd":"22","ssbd":"10","lsbd":"School Board Lake Mountain 3"},{"vid":"1880764","name":"Tilden Lebsack","party":"Dem","address":"4112 E Chinook St, Eagle Mountain, UT 84005","precinct":"25EM22","hd":"50","v_score":"0","decile":"1","lat":40.34841601088043,"lng":-111.96518179940182,"phone":"(318) 449-3872","sd":"22","ssbd":"10","lsbd":"School Board Lake Mountain 3"},{"vid":"1881246","name":"Griffin Trantow-Kirlin","party":"Rep","address":"4112 E Sioux St, Eagle Mountain, UT 84005","precinct":"25EM22","hd":"50","v_score":"15.51131257","decile":"9","lat":40.350528753402045,"lng":-111.96512027034342,"phone":"(283) 954-3616","sd":"22","ssbd":"10","lsbd":"School Board Lake Mountain 3"},{"vid":"08025406fc85d74f1c0c7e2dce53e1b3d2eaf14ebd481ec15027ebe3769985cc","name":"Henriette Kulas","party":"","address":"4001 E Eagle Top Ct, Eagle Mountain, UT 84005","precinct":"25EM22","hd":"50","v_score":"1.121327652","decile":"3","lat":40.35202078510505,"lng":-111.96718003683995,"phone":"(727) 904-5568","sd":"22","ssbd":"10","lsbd":"School Board Lake Mountain 3"},{"vid":"1891819","name":"Sandi Boehm","party":"Rep","address":"7134 N Skyview Ct, Eagle Mountain, UT 84005","precinct":"25EM22","hd":"50","v_score":"1.121327652","decile":"3","lat":40.34939682406929,"lng":-111.97259302792746,"phone":"(546) 252-6013","sd":"22","ssbd":"10","lsbd":"School Board Lake Mountain 3"},{"vid":"1895126","name":"Fronnie Hamill-Weimann","party":"","address":"3964 E Eagle Top Ct, Eagle Mountain, UT 84005","precinct":"25EM22","hd":"50","v_score":"1.121327652","decile":"3","lat":40.351513481953994,"lng":-111.96788200007776,"phone":"(659) 712-5512","sd":"22","ssbd":"10","lsbd":"School Board Lake Mountain 3"},{"vid":"f75d8862bc0051106bdfc3718f14e9b490a88a3476ffe0d48c2da4c002828f8d","name":"Eustace Bogisich","party":"Rep","address":"6912 N Kiowa Pkwy, Eagle Mountain, UT 84005","precinct":"25EM22","hd":"50","v_score":"11.24932271","decile":"9","lat":40.346187776352984,"lng":-111.96631231391527,"phone":"(310) 573-7027","sd":"22","ssbd":"10","lsbd":"School Board Lake Mountain 3"},{"vid":"1912870","name":"Elois Langosh MD","party":"","address":"7139 N Hollow Crest Cir, Eagle Mountain, UT 84005","precinct":"25EM22","hd":"50","v_score":"7.090117576","decile":"8","lat":40.34969527330374,"lng":-111.97180891751967,"phone":"(150) 428-7321","sd":"22","ssbd":"10","lsbd":"School Board Lake Mountain 3"},{"vid":"1924804","name":"Guillermo Bayer","party":"","address":"4061 E Golden Eagle Rd, Eagle Mountain, UT 84005","precinct":"25EM22","hd":"50","v_score":"5.40460374","decile":"7","lat":40.35032847495817,"lng":-111.96610683915497,"phone":"(342) 153-9532","sd":"22","ssbd":"10","lsbd":"School Board Lake Mountain 3"},{"vid":"1927255","name":"Tavaris Turcotte","party":"Dem","address":"6968 N Comanche St, Eagle Mountain, UT 84005","precinct":"25EM22","hd":"50","v_score":"2.315214949","decile":"5","lat":40.34707209221019,"lng":-111.9682168812728,"phone":"(112) 261-9742","sd":"22","ssbd":"10","lsbd":"School Board Lake Mountain 3"},{"vid":"1958185","name":"Grafton Bechtelar","party":"","address":"4112 E Sioux St, Eagle Mountain, UT 84005","precinct":"25EM22","hd":"50","v_score":"15.51131257","decile":"9","lat":40.350528753402045,"lng":-111.96512027034342,"phone":"(617) 862-0722","sd":"22","ssbd":"10","lsbd":"School Board Lake Mountain 3"},{"vid":"1960541","name":"Aaliyah Kunze","party":"Rep","address":"7282 N Long Ridge Dr, Eagle Mountain, UT 84005","precinct":"25EM22","hd":"50","v_score":"2.315214949","decile":"5","lat":40.3515702270353,"lng":-111.97369240382334,"phone":"(210) 115-5400","sd":"22","ssbd":"10","lsbd":"School Board Lake Mountain 3"},{"vid":"82fe155fa9bf8c7a395095e65cd739a5601947f9e620953f86841636c185dfeb","name":"Unknown Hammes","party":"Rep","address":"4126 E South Pass Rd, Eagle Mountain, UT 84005","precinct":"25EM22","hd":"50","v_score":"14.6049791","decile":"9","lat":40.34591602625176,"lng":-111.96481904447153,"phone":"(503) 083-5439","sd":"22","ssbd":"10","lsbd":"School Board Lake Mountain 3"},{"vid":"1972762","name":"Ms. Della Walker","party":"","address":"4005 E Sioux St, Eagle Mountain, UT 84005","precinct":"25EM22","hd":"50","v_score":"0","decile":"1","lat":40.35106565123129,"lng":-111.96715245460985,"phone":"(359) 626-0920","sd":"22","ssbd":"10","lsbd":"School Board Lake Mountain 3"},{"vid":"1980878","name":"Oma Weimann","party":"Dem","address":"6798 N Yakima Way, Eagle Mountain, UT 84005","precinct":"25EM22","hd":"50","v_score":"2.315214949","decile":"5","lat":40.3445326646374,"lng":-111.9651984595547,"phone":"(499) 525-1316","sd":"22","ssbd":"10","lsbd":"School Board Lake Mountain 3"},{"vid":"1985750","name":"Brittani Weimann","party":"Dem","address":"4076 E South Pass Rd, Eagle Mountain, UT 84005","precinct":"25EM22","hd":"50","v_score":"0","decile":"1","lat":40.34586650219241,"lng":-111.96583765125459,"phone":"(856) 818-5823","sd":"22","ssbd":"10","lsbd":"School Board Lake Mountain 3"},{"vid":"1912b5938a73c8cdb95cb03b172ce6ff19f9028965003ff6a14f0a7da9fe01a5","name":"Lynsey Schaefer","party":"Dem","address":"3957 E Comanche St, Eagle Mountain, UT 84005","precinct":"25EM22","hd":"50","v_score":"0","decile":"1","lat":40.347411243167144,"lng":-111.96815834132266,"phone":"(378) 521-7749","sd":"22","ssbd":"10","lsbd":"School Board Lake Mountain 3"},{"vid":"1995387","name":"Kiera Ernser","party":"Dem","address":"7054 N Hollow View Ct, Eagle Mountain, UT 84005","precinct":"25EM22","hd":"50","v_score":"6.74007049","decile":"8","lat":40.34832966876899,"lng":-111.97029667332215,"phone":"(165) 394-2668","sd":"22","ssbd":"10","lsbd":"School Board Lake Mountain 3"},{"vid":"2005903","name":"Braelyn Renner-Yundt","party":"","address":"3945 E Eagle Top Ct, Eagle Mountain, UT 84005","precinct":"25EM22","hd":"50","v_score":"0","decile":"1","lat":40.35197373221544,"lng":-111.96839688175984,"phone":"(836) 043-0753","sd":"22","ssbd":"10","lsbd":"School Board Lake Mountain 3"},{"vid":"2017412","name":"Elois Skiles-Gibson","party":"Dem","address":"6884 N Cherokee St, Eagle Mountain, UT 84005","precinct":"25EM22","hd":"50","v_score":"12.34824012","decile":"9","lat":40.345826832664095,"lng":-111.96437621894978,"phone":"(629) 623-6334","sd":"22","ssbd":"10","lsbd":"School Board Lake Mountain 3"},{"vid":"2028427","name":"Nevin Rosenbaum","party":"Rep","address":"6884 N Cherokee St, Eagle Mountain, UT 84005","precinct":"25EM22","hd":"50","v_score":"1.121327652","decile":"3","lat":40.345826832664095,"lng":-111.96437621894978,"phone":"(725) 575-4266","sd":"22","ssbd":"10","lsbd":"School Board Lake Mountain 3"},{"vid":"2028722","name":"Trilby O'Kon-Champlin","party":"","address":"6962 N Kiowa Pkwy, Eagle Mountain, UT 84005","precinct":"25EM22","hd":"50","v_score":"2.315214949","decile":"5","lat":40.34707538454015,"lng":-111.96630619610333,"phone":"(264) 157-1456","sd":"22","ssbd":"10","lsbd":"School Board Lake Mountain 3"},{"vid":"2028930","name":"Ashly Stamm","party":"Dem","address":"7313 N Long Ridge Dr, Eagle Mountain, UT 84005","precinct":"25EM22","hd":"50","v_score":"2.315214949","decile":"5","lat":40.351950979063005,"lng":-111.97479981070795,"phone":"(398) 862-1892","sd":"22","ssbd":"10","lsbd":"School Board Lake Mountain 3"},{"vid":"2034936","name":"Brittani Rowe","party":"","address":"3686 E Long Ridge Dr, Eagle Mountain, UT 84005","precinct":"25EM22","hd":"50","v_score":"3.781490609","decile":"6","lat":40.35078041688427,"lng":-111.97329711046521,"phone":"(364) 350-3934","sd":"22","ssbd":"10","lsbd":"School Board Lake Mountain 3"},{"vid":"2050549","name":"Jereme Berge","party":"Dem","address":"3981 E Eagle Top Ct, Eagle Mountain, UT 84005","precinct":"25EM22","hd":"50","v_score":"0","decile":"1","lat":40.352065381318106,"lng":-111.96760438686773,"phone":"(518) 419-3897","sd":"22","ssbd":"10","lsbd":"School Board Lake Mountain 3"},{"vid":"ecb3060253a42a4b6adcdd25bddb293139d785134216bc0c462a501c4a9c9bc1","name":"Dr. Kathryne Kuhn DDS","party":"","address":"3945 E Comanche St, Eagle Mountain, UT 84005","precinct":"25EM22","hd":"50","v_score":"9.567299636","decile":"8","lat":40.34729649494238,"lng":-111.96838598195957,"phone":"(757) 924-3497","sd":"22","ssbd":"10","lsbd":"School Board Lake Mountain 3"},{"vid":"2069788","name":"Ms. Ermine Franecki","party":"Dem","address":"7069 N Kiowa Pkwy, Eagle Mountain, UT 84005","precinct":"25EM22","hd":"50","v_score":"7.385975436","decile":"8","lat":40.348539123741524,"lng":-111.966787068067,"phone":"(609) 569-8933","sd":"22","ssbd":"10","lsbd":"School Board Lake Mountain 3"},{"vid":"ae93cd3fee5645ca7aa113c18fc9d7a7028d4c06808024fce917bf5e05349893","name":"Dr. Osborn Mosciski","party":"Rep","address":"3887 E Pawnee Rd, Eagle Mountain, UT 84005","precinct":"25EM22","hd":"50","v_score":"28.19698009","decile":"10","lat":40.35071097489354,"lng":-111.96941777455241,"phone":"(423) 115-6191","sd":"22","ssbd":"10","lsbd":"School Board Lake Mountain 3"},{"vid":"eab73d8ef761339a505e3ea4e1a10cce8f6bd7a03a8580c861ff57302a972151","name":"Merlene Metz","party":"","address":"3704 E Long Ridge Dr, Eagle Mountain, UT 84005","precinct":"25EM22","hd":"50","v_score":"1.193887297","decile":"3","lat":40.350640530657934,"lng":-111.97305994801995,"phone":"(874) 675-1012","sd":"22","ssbd":"10","lsbd":"School Board Lake Mountain 3"},{"vid":"071d562bae404a0518d9758a68a3dc58c790b66468b032bddefd8eea91f1b6ba","name":"Breana Carroll","party":"","address":"3620 E Owahee St, Eagle Mountain, UT 84005","precinct":"25EM22","hd":"50","v_score":"28.05068527","decile":"10","lat":40.35077443239485,"lng":-111.97448617248963,"phone":"(189) 854-0116","sd":"22","ssbd":"10","lsbd":"School Board Lake Mountain 3"},{"vid":"2093495","name":"Cecil Nicolas","party":"Dem","address":"7073 N Hollow View Ct, Eagle Mountain, UT 84005","precinct":"25EM22","hd":"50","v_score":"1.193887297","decile":"3","lat":40.34869301463038,"lng":-111.9704311573339,"phone":"(151) 592-6961","sd":"22","ssbd":"10","lsbd":"School Board Lake Mountain 3"},{"vid":"ea09a3e6fac690b767127da33f8185c70afbb0a7e346b25ddf6c78f8823383bd","name":"Calvin Jakubowski","party":"Dem","address":"7036 N Sierra Way, Eagle Mountain, UT 84005","precinct":"25EM22","hd":"50","v_score":"30.0165504","decile":"10","lat":40.34803698486344,"lng":-111.96841181557625,"phone":"(566) 768-9394","sd":"22","ssbd":"10","lsbd":"School Board Lake Mountain 3"},{"vid":"d4055e93fa56d06ba61fddcd65733c50c1a22c891cf3953e73b3d880fd6dfb44","name":"Leila Roberts","party":"Dem","address":"7036 N Sierra Way, Eagle Mountain, UT 84005","precinct":"25EM22","hd":"50","v_score":"30.0165504","decile":"10","lat":40.34803698486344,"lng":-111.96841181557625,"phone":"(802) 322-5290","sd":"22","ssbd":"10","lsbd":"School Board Lake Mountain 3"},{"vid":"2102131","name":"Len Abbott","party":"","address":"4053 E Yakima Way, Eagle Mountain, UT 84005","precinct":"25EM22","hd":"50","v_score":"7.047822616","decile":"8","lat":40.34547275396381,"lng":-111.96640842104479,"phone":"(360) 212-6336","sd":"22","ssbd":"10","lsbd":"School Board Lake Mountain 3"},{"vid":"2120416","name":"Dr. Bryon Kling","party":"Dem","address":"6822 N Cherokee St, Eagle Mountain, UT 84005","precinct":"25EM22","hd":"50","v_score":"2.660162957","decile":"5","lat":40.34488597137991,"lng":-111.96433103215789,"phone":"(713) 615-6262","sd":"22","ssbd":"10","lsbd":"School Board Lake Mountain 3"},{"vid":"2124271","name":"Alver Bailey-Kulas","party":"Rep","address":"7103 N Golden Ridge Ct, Eagle Mountain, UT 84005","precinct":"25EM22","hd":"50","v_score":"2.315214949","decile":"5","lat":40.34912865350485,"lng":-111.97118367412732,"phone":"(221) 029-0822","sd":"22","ssbd":"10","lsbd":"School Board Lake Mountain 3"},{"vid":"a33702aa6f1ade970a9475178e64f2e508198a434f8173691eaee5ba0b4540bd","name":"Laverne Boyer MD","party":"","address":"6988 N South Pass Rd, Eagle Mountain, UT 84005","precinct":"25EM22","hd":"50","v_score":"1.193887297","decile":"3","lat":40.34746812305021,"lng":-111.96944996838741,"phone":"(169) 676-3510","sd":"22","ssbd":"10","lsbd":"School Board Lake Mountain 3"},{"vid":"d8665b196f6a095295c2c991d30d2aa1e86a88de701e95b8e73a9c58ea71b879","name":"Millie Hoppe","party":"","address":"4132 E Sioux St, Eagle Mountain, UT 84005","precinct":"25EM22","hd":"50","v_score":"12.56158634","decile":"9","lat":40.35052481344149,"lng":-111.9645621421681,"phone":"(333) 698-6071","sd":"22","ssbd":"10","lsbd":"School Board Lake Mountain 3"},{"vid":"2146675","name":"Osbaldo Conroy","party":"Rep","address":"4115 E Comanche St, Eagle Mountain, UT 84005","precinct":"25EM22","hd":"50","v_score":"1.121327652","decile":"3","lat":40.34733588892463,"lng":-111.96493203061632,"phone":"(698) 017-7209","sd":"22","ssbd":"10","lsbd":"School Board Lake Mountain 3"},{"vid":"f583c5e905e0f99f68e5a9361e38d83a7d402d2e60ac8b727370084a27617078","name":"Johanna Hoeger","party":"","address":"7162 N Mohican Dr, Eagle Mountain, UT 84005","precinct":"25EM22","hd":"50","v_score":"13.909617859999999","decile":"9","lat":40.349950304719265,"lng":-111.96763507226154,"phone":"(611) 834-0495","sd":"22","ssbd":"10","lsbd":"School Board Lake Mountain 3"},{"vid":"2163768","name":"Giovani Halvorson","party":"Rep","address":"3986 E Sioux St, Eagle Mountain, UT 84005","precinct":"25EM22","hd":"50","v_score":"1.46627566","decile":"4","lat":40.35066094345101,"lng":-111.96749975210219,"phone":"(985) 784-1192","sd":"22","ssbd":"10","lsbd":"School Board Lake Mountain 3"},{"vid":"43177f12d99d13c7403663eced3c536d60a0e0d2d7c382f026daf7ef7b2a0c8c","name":"Mr. Zack Pfannerstill DDS","party":"","address":"7107 N Kiowa Pkwy, Eagle Mountain, UT 84005","precinct":"25EM22","hd":"50","v_score":"2.744440783","decile":"5","lat":40.34908537777703,"lng":-111.96697224452377,"phone":"(853) 322-1329","sd":"22","ssbd":"10","lsbd":"School Board Lake Mountain 3"},{"vid":"5725e0aef977b8b4acd5c08783638d95b82c0beaab45692d777e1f418a72849e","name":"Lanita Miller","party":"Rep","address":"7084 N Mohican Dr, Eagle Mountain, UT 84005","precinct":"25EM22","hd":"50","v_score":"1.121327652","decile":"3","lat":40.348803973970305,"lng":-111.96742171114153,"phone":"(614) 955-2636","sd":"22","ssbd":"10","lsbd":"School Board Lake Mountain 3"},{"vid":"0169d1a31f18d228782ff8b3babef8a48cfcd0c46f745abdbb667bd07595ad36","name":"Maxie Wyman","party":"Dem","address":"3518 E Golden Cir, Eagle Mountain, UT 84005","precinct":"25EM22","hd":"50","v_score":"1.121327652","decile":"3","lat":40.356275194604414,"lng":-111.97641327132857,"phone":"(349) 531-3702","sd":"22","ssbd":"10","lsbd":"School Board Lake Mountain 3"},{"vid":"eda9ea0f2e6a58018315d64c7c07309c5ab73bebf06cfb36a3c4cfd29ce42b6b","name":"Parley Bernier","party":"","address":"7117 N Hollow Crest Cir, Eagle Mountain, UT 84005","precinct":"25EM22","hd":"50","v_score":"1.121327652","decile":"3","lat":40.34921936579577,"lng":-111.97215937388432,"phone":"(172) 430-8807","sd":"22","ssbd":"10","lsbd":"School Board Lake Mountain 3"},{"vid":"b867e0644fdbf82653e66edd8d2a4bbf1b44bebbee179215aec0a76044b8e6dc","name":"Ms. Brittni Nolan","party":"Rep","address":"3989 E Yakima Way, Eagle Mountain, UT 84005","precinct":"25EM22","hd":"50","v_score":"0","decile":"1","lat":40.34549590830348,"lng":-111.96750121950522,"phone":"(781) 845-8052","sd":"22","ssbd":"10","lsbd":"School Board Lake Mountain 3"},{"vid":"032bb9a0962ccafc6ea078e552a9441cc6bb03f81010a288d8db62c4d4b4118b","name":"Harris Little","party":"Dem","address":"3945 E Comanche St, Eagle Mountain, UT 84005","precinct":"25EM22","hd":"50","v_score":"0","decile":"1","lat":40.34729649494238,"lng":-111.96838598195957,"phone":"(190) 835-8388","sd":"22","ssbd":"10","lsbd":"School Board Lake Mountain 3"},{"vid":"6853d65002ab23b8e2b8f7101b88a015f61ea12e302a527075e3c145dd06e473","name":"Malaya Pacocha","party":"","address":"7053 N Sierra Way, Eagle Mountain, UT 84005","precinct":"25EM22","hd":"50","v_score":"0","decile":"1","lat":40.34840759960361,"lng":-111.96880281583427,"phone":"(103) 480-7797","sd":"22","ssbd":"10","lsbd":"School Board Lake Mountain 3"},{"vid":"2269582","name":"Brion Mosciski","party":"Dem","address":"7098 N Golden Ridge Ct, Eagle Mountain, UT 84005","precinct":"25EM22","hd":"50","v_score":"0","decile":"1","lat":40.348999520887986,"lng":-111.97086158449453,"phone":"(615) 866-6071","sd":"22","ssbd":"10","lsbd":"School Board Lake Mountain 3"},{"vid":"1ac6d8afd73fbdf7ca47b57f98350ad19ed969b2faa1b27fd45113a7b4eec97f","name":"Dr. Lissette Thiel MD","party":"Rep","address":"6966 N South Pass Rd, Eagle Mountain, UT 84005","precinct":"25EM22","hd":"50","v_score":"6.027167436","decile":"7","lat":40.347081977028985,"lng":-111.96916631740193,"phone":"(917) 021-8430","sd":"22","ssbd":"10","lsbd":"School Board Lake Mountain 3"},{"vid":"2288991","name":"Authur Sporer","party":"","address":"3873 E South Pass Cv, Eagle Mountain, UT 84005","precinct":"25EM22","hd":"50","v_score":"1.121327652","decile":"3","lat":40.34608011481673,"lng":-111.96959810828498,"phone":"(706) 824-3012","sd":"22","ssbd":"10","lsbd":"School Board Lake Mountain 3"},{"vid":"2289186","name":"Emmalee Farrell","party":"","address":"4008 E Sioux St, Eagle Mountain, UT 84005","precinct":"25EM22","hd":"50","v_score":"2.942907593","decile":"6","lat":40.35065941336419,"lng":-111.96714107618914,"phone":"(300) 105-1922","sd":"22","ssbd":"10","lsbd":"School Board Lake Mountain 3"},{"vid":"2291586","name":"Alver Murphy","party":"Rep","address":"3887 E Eagle Top Ct, Eagle Mountain, UT 84005","precinct":"25EM22","hd":"50","v_score":"3.93832808","decile":"6","lat":40.35127064717046,"lng":-111.96942699527436,"phone":"(519) 354-1124","sd":"22","ssbd":"10","lsbd":"School Board Lake Mountain 3"},{"vid":"c3f7b017ed0e1eb32aafafa814761d0d27ef14e09d52084a7ef4e8efaa204974","name":"Dr. Ronaldo Gibson V","party":"Rep","address":"4115 E Comanche St, Eagle Mountain, UT 84005","precinct":"25EM22","hd":"50","v_score":"2.315214949","decile":"5","lat":40.34733588892463,"lng":-111.96493203061632,"phone":"(503) 063-7648","sd":"22","ssbd":"10","lsbd":"School Board Lake Mountain 3"},{"vid":"99d8d5b5380d5e32d9df924ebd2d63b4ff8a663630ee8cbdf5029c8af6db044e","name":"Blanch Grady","party":"Dem","address":"4129 E Sioux St, Eagle Mountain, UT 84005","precinct":"25EM22","hd":"50","v_score":"0","decile":"1","lat":40.350928118235224,"lng":-111.96466241727784,"phone":"(757) 184-4795","sd":"22","ssbd":"10","lsbd":"School Board Lake Mountain 3"},{"vid":"2311458","name":"Dorsey Stoltenberg MD","party":"Dem","address":"7107 N Kiowa Pkwy, Eagle Mountain, UT 84005","precinct":"25EM22","hd":"50","v_score":"3.93832808","decile":"6","lat":40.34908537777703,"lng":-111.96697224452377,"phone":"(343) 008-7230","sd":"22","ssbd":"10","lsbd":"School Board Lake Mountain 3"},{"vid":"446c3e6b8d3eebafc3c5311d8db0a10a704261463349b8633e521bc1bf43f7bb","name":"Ola Wolff","party":"Rep","address":"6809 N Cherokee St, Eagle Mountain, UT 84005","precinct":"25EM22","hd":"50","v_score":"4.069929862","decile":"6","lat":40.34471904525923,"lng":-111.96475223624498,"phone":"(835) 154-1169","sd":"22","ssbd":"10","lsbd":"School Board Lake Mountain 3"},{"vid":"2315556","name":"Colvin Harvey PhD","party":"Dem","address":"3712 E Long Ridge Dr, Eagle Mountain, UT 84005","precinct":"25EM22","hd":"50","v_score":"2.315214949","decile":"5","lat":40.3504944812638,"lng":-111.97283947199064,"phone":"(288) 790-7422","sd":"22","ssbd":"10","lsbd":"School Board Lake Mountain 3"},{"vid":"2324356","name":"Dr. Paris Reilly DVM","party":"","address":"3968 E Hopi Rd, Eagle Mountain, UT 84005","precinct":"25EM22","hd":"50","v_score":"2.315214949","decile":"5","lat":40.34774576736693,"lng":-111.96788092477212,"phone":"(627) 600-7662","sd":"22","ssbd":"10","lsbd":"School Board Lake Mountain 3"},{"vid":"2328976","name":"Miss Jerrica Spinka DVM","party":"","address":"6977 N South Pass Rd, Eagle Mountain, UT 84005","precinct":"25EM22","hd":"50","v_score":"3.93832808","decile":"6","lat":40.34712418303216,"lng":-111.96972091048401,"phone":"(184) 778-2949","sd":"22","ssbd":"10","lsbd":"School Board Lake Mountain 3"},{"vid":"2335573","name":"Mrs. Karis Hayes DDS","party":"Rep","address":"6808 N Yakima Way, Eagle Mountain, UT 84005","precinct":"25EM22","hd":"50","v_score":"1.121327652","decile":"3","lat":40.34477509961552,"lng":-111.96517060801891,"phone":"(550) 398-2952","sd":"22","ssbd":"10","lsbd":"School Board Lake Mountain 3"},{"vid":"2337640","name":"Freeman Gorczany","party":"Dem","address":"7202 N Golden Ridge Dr, Eagle Mountain, UT 84005","precinct":"25EM22","hd":"50","v_score":"14.88094683","decile":"9","lat":40.35057175620924,"lng":-111.9700758041243,"phone":"(229) 721-2751","sd":"22","ssbd":"10","lsbd":"School Board Lake Mountain 3"},{"vid":"2340111","name":"Andres Prosacco","party":"","address":"4072 E Sioux St, Eagle Mountain, UT 84005","precinct":"25EM22","hd":"50","v_score":"2.744440783","decile":"5","lat":40.35063384338027,"lng":-111.96579315651506,"phone":"(927) 934-6053","sd":"22","ssbd":"10","lsbd":"School Board Lake Mountain 3"},{"vid":"2342844","name":"Antonina Kozey","party":"Rep","address":"4062 E Sioux St, Eagle Mountain, UT 84005","precinct":"25EM22","hd":"50","v_score":"5.356821087","decile":"7","lat":40.350655003017,"lng":-111.96609909190433,"phone":"(514) 168-8938","sd":"22","ssbd":"10","lsbd":"School Board Lake Mountain 3"},{"vid":"2345780","name":"Dr. Mikayla Dare MD","party":"","address":"4053 E Yakima Way, Eagle Mountain, UT 84005","precinct":"25EM22","hd":"50","v_score":"7.650280567","decile":"8","lat":40.34547275396381,"lng":-111.96640842104479,"phone":"(657) 625-2565","sd":"22","ssbd":"10","lsbd":"School Board Lake Mountain 3"},{"vid":"2348746","name":"Mrs. Bree Kerluke DVM","party":"","address":"4119 E Sioux St, Eagle Mountain, UT 84005","precinct":"25EM22","hd":"50","v_score":"14.04503691","decile":"9","lat":40.35095174069794,"lng":-111.96495191198478,"phone":"(258) 558-2853","sd":"22","ssbd":"10","lsbd":"School Board Lake Mountain 3"},{"vid":"2348748","name":"Jovanni Mohr I","party":"Dem","address":"4119 E Sioux St, Eagle Mountain, UT 84005","precinct":"25EM22","hd":"50","v_score":"14.04503691","decile":"9","lat":40.35095174069794,"lng":-111.96495191198478,"phone":"(408) 794-9264","sd":"22","ssbd":"10","lsbd":"School Board Lake Mountain 3"},{"vid":"2353079","name":"Dr. Elnora Johnson PhD","party":"Dem","address":"6954 N Chippewa Dr, Eagle Mountain, UT 84005","precinct":"25EM22","hd":"50","v_score":"0","decile":"1","lat":40.34688795253793,"lng":-111.96528173584788,"phone":"(241) 270-2413","sd":"22","ssbd":"10","lsbd":"School Board Lake Mountain 3"},{"vid":"2358964","name":"Everett Baumbach","party":"Rep","address":"6954 N Chippewa Dr, Eagle Mountain, UT 84005","precinct":"25EM22","hd":"50","v_score":"0","decile":"1","lat":40.34688795253793,"lng":-111.96528173584788,"phone":"(312) 907-4544","sd":"22","ssbd":"10","lsbd":"School Board Lake Mountain 3"},{"vid":"2363939","name":"Mrs. Lanette Willms DDS","party":"","address":"3882 E South Pass Cv, Eagle Mountain, UT 84005","precinct":"25EM22","hd":"50","v_score":"3.93832808","decile":"6","lat":40.34590647965419,"lng":-111.96937776213389,"phone":"(428) 663-5796","sd":"22","ssbd":"10","lsbd":"School Board Lake Mountain 3"},{"vid":"2386733","name":"Marisa Gislason","party":"Rep","address":"3965 E Pawnee Rd, Eagle Mountain, UT 84005","precinct":"25EM22","hd":"50","v_score":"2.315214949","decile":"5","lat":40.3493574693933,"lng":-111.96790634497681,"phone":"(879) 395-6268","sd":"22","ssbd":"10","lsbd":"School Board Lake Mountain 3"},{"vid":"2389605","name":"Lashonda Cruickshank","party":"Dem","address":"3712 E Long Ridge Dr, Eagle Mountain, UT 84005","precinct":"25EM22","hd":"50","v_score":"2.315214949","decile":"5","lat":40.3504944812638,"lng":-111.97283947199064,"phone":"(490) 427-2589","sd":"22","ssbd":"10","lsbd":"School Board Lake Mountain 3"},{"vid":"2401378","name":"Dove Bins","party":"Dem","address":"4028 E Mohican Dr, Eagle Mountain, UT 84005","precinct":"25EM22","hd":"50","v_score":"3.93832808","decile":"6","lat":40.34776539268556,"lng":-111.96668395791022,"phone":"(783) 973-4316","sd":"22","ssbd":"10","lsbd":"School Board Lake Mountain 3"},{"vid":"2415302","name":"Mr. Wally Larkin","party":"Dem","address":"4115 E Dakota Dr, Eagle Mountain, UT 84005","precinct":"25EM22","hd":"50","v_score":"1.121327652","decile":"3","lat":40.34554080909607,"lng":-111.96508268912352,"phone":"(923) 126-8287","sd":"22","ssbd":"10","lsbd":"School Board Lake Mountain 3"},{"vid":"2420292","name":"Vinson Labadie","party":"Rep","address":"3715 E Pawnee Rd, Eagle Mountain, UT 84005","precinct":"25EM22","hd":"50","v_score":"1.623113131","decile":"5","lat":40.35172554448512,"lng":-111.9726420605521,"phone":"(814) 237-9188","sd":"22","ssbd":"10","lsbd":"School Board Lake Mountain 3"},{"vid":"2421059","name":"Bethel Beahan","party":"","address":"6940 N Comanche St, Eagle Mountain, UT 84005","precinct":"25EM22","hd":"50","v_score":"6.979934218","decile":"8","lat":40.346577086908084,"lng":-111.96824712449438,"phone":"(872) 122-4286","sd":"22","ssbd":"10","lsbd":"School Board Lake Mountain 3"},{"vid":"2421093","name":"Mrs. Jonell Simonis","party":"Rep","address":"4001 E Mohican Dr, Eagle Mountain, UT 84005","precinct":"25EM22","hd":"50","v_score":"2.315214949","decile":"5","lat":40.348218411495644,"lng":-111.96716147634997,"phone":"(365) 740-8004","sd":"22","ssbd":"10","lsbd":"School Board Lake Mountain 3"},{"vid":"2425794","name":"Lupe Willms-Herman","party":"","address":"6993 N South Pass Rd, Eagle Mountain, UT 84005","precinct":"25EM22","hd":"50","v_score":"11.02844566","decile":"9","lat":40.347464145981846,"lng":-111.96990837277198,"phone":"(703) 563-9613","sd":"22","ssbd":"10","lsbd":"School Board Lake Mountain 3"},{"vid":"2429617","name":"Hilliard Parker","party":"","address":"3871 E Hopi Rd, Eagle Mountain, UT 84005","precinct":"25EM22","hd":"50","v_score":"3.93832808","decile":"6","lat":40.34772655277847,"lng":-111.96988552566381,"phone":"(519) 639-6345","sd":"22","ssbd":"10","lsbd":"School Board Lake Mountain 3"},{"vid":"2439853","name":"Ezekiel Kertzmann","party":"","address":"3943 E Sioux St, Eagle Mountain, UT 84005","precinct":"25EM22","hd":"50","v_score":"8.284004873","decile":"8","lat":40.35099179134423,"lng":-111.9684670769195,"phone":"(671) 897-2623","sd":"22","ssbd":"10","lsbd":"School Board Lake Mountain 3"},{"vid":"2443319","name":"Enrico Kuvalis","party":"Rep","address":"3843 E Pawnee Rd, Eagle Mountain, UT 84005","precinct":"25EM22","hd":"50","v_score":"2.744440783","decile":"5","lat":40.350868049947714,"lng":-111.9703128763896,"phone":"(805) 987-1057","sd":"22","ssbd":"10","lsbd":"School Board Lake Mountain 3"},{"vid":"2444932","name":"Maddox Berge","party":"","address":"4042 E Yakima Way, Eagle Mountain, UT 84005","precinct":"25EM22","hd":"50","v_score":"1.121327652","decile":"3","lat":40.345114438079506,"lng":-111.96655665834638,"phone":"(402) 129-7845","sd":"22","ssbd":"10","lsbd":"School Board Lake Mountain 3"},{"vid":"2447864","name":"Esteban Ledner","party":"","address":"3983 E Sioux St, Eagle Mountain, UT 84005","precinct":"25EM22","hd":"50","v_score":"8.670935747","decile":"8","lat":40.351067470346436,"lng":-111.9675828748324,"phone":"(936) 179-6170","sd":"22","ssbd":"10","lsbd":"School Board Lake Mountain 3"},{"vid":"2457995","name":"Loria Sipes PhD","party":"Dem","address":"3692 E Owahee St, Eagle Mountain, UT 84005","precinct":"25EM22","hd":"50","v_score":"1.121327652","decile":"3","lat":40.35157190318602,"lng":-111.97302095020585,"phone":"(965) 243-4093","sd":"22","ssbd":"10","lsbd":"School Board Lake Mountain 3"},{"vid":"2460021","name":"Reatha Schmidt","party":"","address":"7062 N Cherokee St, Eagle Mountain, UT 84005","precinct":"25EM22","hd":"50","v_score":"1.193887297","decile":"3","lat":40.348442356766796,"lng":-111.96426989525108,"phone":"(661) 216-8933","sd":"22","ssbd":"10","lsbd":"School Board Lake Mountain 3"},{"vid":"2467044","name":"Mrs. Rinda Kemmer DVM","party":"Dem","address":"7188 N Pawnee Ct, Eagle Mountain, UT 84005","precinct":"25EM22","hd":"50","v_score":"0","decile":"1","lat":40.35025366525295,"lng":-111.97099044567034,"phone":"(667) 278-5249","sd":"22","ssbd":"10","lsbd":"School Board Lake Mountain 3"},{"vid":"2470041","name":"Mr. Robb Boyer V","party":"Rep","address":"7044 N Cherokee St, Eagle Mountain, UT 84005","precinct":"25EM22","hd":"50","v_score":"1.193887297","decile":"3","lat":40.34816913132092,"lng":-111.96436013615988,"phone":"(897) 438-9278","sd":"22","ssbd":"10","lsbd":"School Board Lake Mountain 3"},{"vid":"2486725","name":"Nestor Daniel","party":"","address":"4028 E Mohican Dr, Eagle Mountain, UT 84005","precinct":"25EM22","hd":"50","v_score":"1.193887297","decile":"3","lat":40.34776539268556,"lng":-111.96668395791022,"phone":"(528) 723-1155","sd":"22","ssbd":"10","lsbd":"School Board Lake Mountain 3"},{"vid":"2489043","name":"Dr. Leda Wiegand","party":"","address":"7068 N Sierra Way, Eagle Mountain, UT 84005","precinct":"25EM22","hd":"50","v_score":"8.943086216","decile":"8","lat":40.34855239268617,"lng":-111.96829918473252,"phone":"(584) 370-3354","sd":"22","ssbd":"10","lsbd":"School Board Lake Mountain 3"},{"vid":"2491618","name":"Nia Borer","party":"Dem","address":"7202 N Golden Ridge Dr, Eagle Mountain, UT 84005","precinct":"25EM22","hd":"50","v_score":"5.407962308","decile":"7","lat":40.35057175620924,"lng":-111.9700758041243,"phone":"(159) 669-6796","sd":"22","ssbd":"10","lsbd":"School Board Lake Mountain 3"},{"vid":"2494113","name":"Clementina Koch MD","party":"Dem","address":"4092 E South Pass Rd, Eagle Mountain, UT 84005","precinct":"25EM22","hd":"50","v_score":"0","decile":"1","lat":40.34586570060268,"lng":-111.96560453915703,"phone":"(862) 468-3343","sd":"22","ssbd":"10","lsbd":"School Board Lake Mountain 3"},{"vid":"2494444","name":"Lucious Bednar-Okuneva","party":"Rep","address":"6951 N Chippewa Dr, Eagle Mountain, UT 84005","precinct":"25EM22","hd":"50","v_score":"0","decile":"1","lat":40.34688983995596,"lng":-111.96575258313281,"phone":"(417) 186-3367","sd":"22","ssbd":"10","lsbd":"School Board Lake Mountain 3"},{"vid":"2506985","name":"Janet Beier","party":"Dem","address":"6946 N Cherokee St, Eagle Mountain, UT 84005","precinct":"25EM22","hd":"50","v_score":"0","decile":"1","lat":40.34676880547059,"lng":-111.96434828314109,"phone":"(528) 950-0792","sd":"22","ssbd":"10","lsbd":"School Board Lake Mountain 3"},{"vid":"2511113","name":"Shanta Sawayn","party":"Dem","address":"3726 E Pawnee Rd, Eagle Mountain, UT 84005","precinct":"25EM22","hd":"50","v_score":"0","decile":"1","lat":40.35122132524467,"lng":-111.97259194493051,"phone":"(984) 600-8641","sd":"22","ssbd":"10","lsbd":"School Board Lake Mountain 3"},{"vid":"2533238","name":"Hunter Crooks","party":"Dem","address":"3966 E Pawnee Rd, Eagle Mountain, UT 84005","precinct":"25EM22","hd":"50","v_score":"2.817000428","decile":"6","lat":40.349086711426835,"lng":-111.96785926312836,"phone":"(336) 491-2309","sd":"22","ssbd":"10","lsbd":"School Board Lake Mountain 3"},{"vid":"2540629","name":"Miss Ofelia Howe MD","party":"","address":"7151 N Mohican Dr, Eagle Mountain, UT 84005","precinct":"25EM22","hd":"50","v_score":"1.623113131","decile":"5","lat":40.349773907789974,"lng":-111.9680537271434,"phone":"(673) 697-8431","sd":"22","ssbd":"10","lsbd":"School Board Lake Mountain 3"},{"vid":"2541252","name":"Dr. Alverda Koelpin DDS","party":"Rep","address":"3998 E Yakima Way, Eagle Mountain, UT 84005","precinct":"25EM22","hd":"50","v_score":"0","decile":"1","lat":40.345017895284286,"lng":-111.96735312882484,"phone":"(700) 281-0464","sd":"22","ssbd":"10","lsbd":"School Board Lake Mountain 3"},{"vid":"2544637","name":"Callie Grant-Hyatt","party":"Rep","address":"4053 E Yakima Way, Eagle Mountain, UT 84005","precinct":"25EM22","hd":"50","v_score":"7.031075439","decile":"8","lat":40.34547275396381,"lng":-111.96640842104479,"phone":"(554) 635-3714","sd":"22","ssbd":"10","lsbd":"School Board Lake Mountain 3"},{"vid":"2546847","name":"Angella Ruecker","party":"","address":"7282 N Long Ridge Dr, Eagle Mountain, UT 84005","precinct":"25EM22","hd":"50","v_score":"10.74302793","decile":"9","lat":40.3515702270353,"lng":-111.97369240382334,"phone":"(504) 345-3564","sd":"22","ssbd":"10","lsbd":"School Board Lake Mountain 3"},{"vid":"2546858","name":"Marsh Schultz","party":"Dem","address":"6954 N Chippewa Dr, Eagle Mountain, UT 84005","precinct":"25EM22","hd":"50","v_score":"0","decile":"1","lat":40.34688795253793,"lng":-111.96528173584788,"phone":"(156) 420-3950","sd":"22","ssbd":"10","lsbd":"School Board Lake Mountain 3"},{"vid":"2552116","name":"Dr. Buddie Greenholt II","party":"","address":"4112 E Chinook St, Eagle Mountain, UT 84005","precinct":"25EM22","hd":"50","v_score":"0","decile":"1","lat":40.34841601088043,"lng":-111.96518179940182,"phone":"(368) 288-7507","sd":"22","ssbd":"10","lsbd":"School Board Lake Mountain 3"},{"vid":"2559504","name":"Miss Alex Kuvalis DVM","party":"Dem","address":"7092 N Cherokee St, Eagle Mountain, UT 84005","precinct":"25EM22","hd":"50","v_score":"0","decile":"1","lat":40.348896683701675,"lng":-111.96427598852364,"phone":"(568) 152-4021","sd":"22","ssbd":"10","lsbd":"School Board Lake Mountain 3"},{"vid":"2559505","name":"Cecelia Mann","party":"Dem","address":"7092 N Cherokee St, Eagle Mountain, UT 84005","precinct":"25EM22","hd":"50","v_score":"1.193887297","decile":"4","lat":40.348896683701675,"lng":-111.96427598852364,"phone":"(856) 027-7585","sd":"22","ssbd":"10","lsbd":"School Board Lake Mountain 3"},{"vid":"2560629","name":"Bilal Dickens-Raynor","party":"","address":"7118 N Kiowa Pkwy, Eagle Mountain, UT 84005","precinct":"25EM22","hd":"50","v_score":"1.193887297","decile":"4","lat":40.349277753265724,"lng":-111.96647036033177,"phone":"(989) 838-2927","sd":"22","ssbd":"10","lsbd":"School Board Lake Mountain 3"},{"vid":"2560711","name":"Shaylee Fadel MD","party":"Rep","address":"7181 N Skyview Ln, Eagle Mountain, UT 84005","precinct":"25EM22","hd":"50","v_score":"4.069929862","decile":"6","lat":40.35034202074868,"lng":-111.9723528762782,"phone":"(361) 098-8504","sd":"22","ssbd":"10","lsbd":"School Board Lake Mountain 3"},{"vid":"2560890","name":"Mahlon Eichmann","party":"Rep","address":"7014 N Cherokee St, Eagle Mountain, UT 84005","precinct":"25EM22","hd":"50","v_score":"0","decile":"1","lat":40.347756462686604,"lng":-111.9643182808479,"phone":"(538) 494-0041","sd":"22","ssbd":"10","lsbd":"School Board Lake Mountain 3"},{"vid":"2561884","name":"Sebrina Torphy","party":"","address":"7293 N Long Ridge Dr, Eagle Mountain, UT 84005","precinct":"25EM22","hd":"50","v_score":"0","decile":"1","lat":40.35166086929148,"lng":-111.97434585674823,"phone":"(372) 923-2411","sd":"22","ssbd":"10","lsbd":"School Board Lake Mountain 3"},{"vid":"2571414","name":"Beaulah Weissnat","party":"Rep","address":"3745 E Pawnee Rd, Eagle Mountain, UT 84005","precinct":"25EM22","hd":"50","v_score":"0","decile":"1","lat":40.35141495064296,"lng":-111.97211159294159,"phone":"(963) 693-2078","sd":"22","ssbd":"10","lsbd":"School Board Lake Mountain 3"},{"vid":"2592536","name":"Kyree Corkery","party":"Rep","address":"6809 N Cherokee St, Eagle Mountain, UT 84005","precinct":"25EM22","hd":"50","v_score":"4.069929862","decile":"6","lat":40.34471904525923,"lng":-111.96475223624498,"phone":"(420) 054-1379","sd":"22","ssbd":"10","lsbd":"School Board Lake Mountain 3"},{"vid":"2594603","name":"Thea Cronin","party":"Dem","address":"3997 E Comanche St, Eagle Mountain, UT 84005","precinct":"25EM22","hd":"50","v_score":"4.069929862","decile":"6","lat":40.34743574916904,"lng":-111.96733678980448,"phone":"(489) 881-3406","sd":"22","ssbd":"10","lsbd":"School Board Lake Mountain 3"},{"vid":"2604514","name":"Dr. Johnny Abernathy IV","party":"Rep","address":"6941 N Chippewa Dr, Eagle Mountain, UT 84005","precinct":"25EM22","hd":"50","v_score":"1.193887297","decile":"4","lat":40.34672517362502,"lng":-111.9657537216576,"phone":"(705) 829-0814","sd":"22","ssbd":"10","lsbd":"School Board Lake Mountain 3"},{"vid":"2621719","name":"Mrs. Krystin Bednar","party":"Dem","address":"6977 N South Pass Rd, Eagle Mountain, UT 84005","precinct":"25EM22","hd":"50","v_score":"9.907118004","decile":"8","lat":40.34712418303216,"lng":-111.96972091048401,"phone":"(491) 671-5749","sd":"22","ssbd":"10","lsbd":"School Board Lake Mountain 3"},{"vid":"2628776","name":"Dr. Brain Predovic Sr.","party":"Rep","address":"6946 N Cherokee St, Eagle Mountain, UT 84005","precinct":"25EM22","hd":"50","v_score":"2.817000428","decile":"6","lat":40.34676880547059,"lng":-111.96434828314109,"phone":"(601) 418-9660","sd":"22","ssbd":"10","lsbd":"School Board Lake Mountain 3"},{"vid":"2640663","name":"Darryn Bergstrom","party":"Dem","address":"7138 N Kiowa Pkwy, Eagle Mountain, UT 84005","precinct":"25EM22","hd":"50","v_score":"0","decile":"1","lat":40.34959489845737,"lng":-111.96644800999584,"phone":"(514) 263-8940","sd":"22","ssbd":"10","lsbd":"School Board Lake Mountain 3"},{"vid":"2647563","name":"Heidy Johnston","party":"Rep","address":"3882 E South Pass Cv, Eagle Mountain, UT 84005","precinct":"25EM22","hd":"50","v_score":"1.193887297","decile":"4","lat":40.34590647965419,"lng":-111.96937776213389,"phone":"(753) 699-8766","sd":"22","ssbd":"10","lsbd":"School Board Lake Mountain 3"},{"vid":"2649106","name":"Davon Nienow","party":"Dem","address":"3953 E Eagle Top Ct, Eagle Mountain, UT 84005","precinct":"25EM22","hd":"50","v_score":"0","decile":"1","lat":40.35203632263289,"lng":-111.96820789547795,"phone":"(422) 755-6843","sd":"22","ssbd":"10","lsbd":"School Board Lake Mountain 3"},{"vid":"2655602","name":"Buster Koss","party":"Rep","address":"4027 E Mohican Dr, Eagle Mountain, UT 84005","precinct":"25EM22","hd":"50","v_score":"0","decile":"1","lat":40.348148813190626,"lng":-111.9666603035813,"phone":"(137) 716-4117","sd":"22","ssbd":"10","lsbd":"School Board Lake Mountain 3"},{"vid":"2655627","name":"Ardelia Monahan","party":"Dem","address":"4054 E Yakima Way, Eagle Mountain, UT 84005","precinct":"25EM22","hd":"50","v_score":"0","decile":"1","lat":40.345136043656055,"lng":-111.96626976297843,"phone":"(392) 293-4151","sd":"22","ssbd":"10","lsbd":"School Board Lake Mountain 3"},{"vid":"2671058","name":"Orrie VonRueden","party":"","address":"7014 N Cherokee St, Eagle Mountain, UT 84005","precinct":"25EM22","hd":"50","v_score":"4.214075011","decile":"7","lat":40.347756462686604,"lng":-111.9643182808479,"phone":"(191) 185-6748","sd":"22","ssbd":"10","lsbd":"School Board Lake Mountain 3"},{"vid":"2671458","name":"May Simonis Jr.","party":"Rep","address":"3965 E Yakima Way, Eagle Mountain, UT 84005","precinct":"25EM22","hd":"50","v_score":"0","decile":"2","lat":40.34526952420992,"lng":-111.96834519982828,"phone":"(599) 287-1827","sd":"22","ssbd":"10","lsbd":"School Board Lake Mountain 3"},{"vid":"2679829","name":"Mr. Coley Beahan","party":"","address":"6977 N South Pass Rd, Eagle Mountain, UT 84005","precinct":"25EM22","hd":"50","v_score":"7.090117576","decile":"8","lat":40.34712418303216,"lng":-111.96972091048401,"phone":"(637) 165-3339","sd":"22","ssbd":"10","lsbd":"School Board Lake Mountain 3"},{"vid":"2682938","name":"Alferd Lind","party":"Rep","address":"4079 E Comanche St, Eagle Mountain, UT 84005","precinct":"25EM22","hd":"50","v_score":"1.193887297","decile":"4","lat":40.347429476402766,"lng":-111.96580164084914,"phone":"(291) 880-5902","sd":"22","ssbd":"10","lsbd":"School Board Lake Mountain 3"},{"vid":"2683170","name":"Ms. Joann Harber MD","party":"Rep","address":"3964 E South Pass Rd, Eagle Mountain, UT 84005","precinct":"25EM22","hd":"50","v_score":"0","decile":"2","lat":40.34592915273094,"lng":-111.96797208175818,"phone":"(944) 465-8333","sd":"22","ssbd":"10","lsbd":"School Board Lake Mountain 3"},{"vid":"2686265","name":"Ainsley Bartell","party":"Rep","address":"3984 E South Pass Rd, Eagle Mountain, UT 84005","precinct":"25EM22","hd":"50","v_score":"0","decile":"2","lat":40.345872705132685,"lng":-111.96761879720295,"phone":"(266) 605-1524","sd":"22","ssbd":"10","lsbd":"School Board Lake Mountain 3"},{"vid":"2695126","name":"Lelia Swaniawski","party":"Rep","address":"4052 E Sioux St, Eagle Mountain, UT 84005","precinct":"25EM22","hd":"50","v_score":"0","decile":"2","lat":40.35065588232065,"lng":-111.96630535102243,"phone":"(565) 630-3233","sd":"22","ssbd":"10","lsbd":"School Board Lake Mountain 3"},{"vid":"2695596","name":"Mr. Lawson Prohaska","party":"Dem","address":"3986 E Yakima Way, Eagle Mountain, UT 84005","precinct":"25EM22","hd":"50","v_score":"1.46627566","decile":"4","lat":40.34502730884348,"lng":-111.96775673557761,"phone":"(281) 549-2570","sd":"22","ssbd":"10","lsbd":"School Board Lake Mountain 3"},{"vid":"2704109","name":"Makai Waelchi-Stehr","party":"Dem","address":"7139 N Skyview Ct, Eagle Mountain, UT 84005","precinct":"25EM22","hd":"50","v_score":"0","decile":"2","lat":40.34953272828513,"lng":-111.97296587691129,"phone":"(534) 941-0249","sd":"22","ssbd":"10","lsbd":"School Board Lake Mountain 3"},{"vid":"2704111","name":"Cindi Ankunding-Crona","party":"Rep","address":"7139 N Skyview Ct, Eagle Mountain, UT 84005","precinct":"25EM22","hd":"50","v_score":"1.193887297","decile":"4","lat":40.34953272828513,"lng":-111.97296587691129,"phone":"(541) 710-9550","sd":"22","ssbd":"10","lsbd":"School Board Lake Mountain 3"},{"vid":"2705478","name":"Cherri Hammes","party":"Dem","address":"3704 E Long Ridge Dr, Eagle Mountain, UT 84005","precinct":"25EM22","hd":"50","v_score":"1.193887297","decile":"4","lat":40.350640530657934,"lng":-111.97305994801995,"phone":"(508) 175-9336","sd":"22","ssbd":"10","lsbd":"School Board Lake Mountain 3"},{"vid":"2707662","name":"Stevan Heathcote","party":"","address":"3596 E Owahee St, Eagle Mountain, UT 84005","precinct":"25EM22","hd":"50","v_score":"0","decile":"2","lat":40.35053921483561,"lng":-111.9749257510365,"phone":"(956) 015-9304","sd":"22","ssbd":"10","lsbd":"School Board Lake Mountain 3"},{"vid":"2712636","name":"Branden Upton","party":"","address":"3596 E Owahee St, Eagle Mountain, UT 84005","precinct":"25EM22","hd":"50","v_score":"0","decile":"2","lat":40.35053921483561,"lng":-111.9749257510365,"phone":"(207) 853-2291","sd":"22","ssbd":"10","lsbd":"School Board Lake Mountain 3"},{"vid":"2712803","name":"Miss Shenna Block DVM","party":"Dem","address":"3566 E Jacobs Ct, Eagle Mountain, UT 84005","precinct":"25EM22","hd":"50","v_score":"0","decile":"2","lat":40.3560923171996,"lng":-111.97552635701368,"phone":"(779) 287-2414","sd":"22","ssbd":"10","lsbd":"School Board Lake Mountain 3"},{"vid":"2722634","name":"Lige Borer","party":"Dem","address":"3596 E Owahee St, Eagle Mountain, UT 84005","precinct":"25EM22","hd":"50","v_score":"0","decile":"2","lat":40.35053921483561,"lng":-111.9749257510365,"phone":"(170) 397-2245","sd":"22","ssbd":"10","lsbd":"School Board Lake Mountain 3"},{"vid":"2725189","name":"Mr. Stonewall Muller","party":"","address":"6808 N Yakima Way, Eagle Mountain, UT 84005","precinct":"25EM22","hd":"50","v_score":"0","decile":"2","lat":40.34477509961552,"lng":-111.96517060801891,"phone":"(540) 220-9815","sd":"22","ssbd":"10","lsbd":"School Board Lake Mountain 3"},{"vid":"2729577","name":"Raven Boyer","party":"","address":"3998 E Mohican Dr, Eagle Mountain, UT 84005","precinct":"25EM22","hd":"50","v_score":"1.193887297","decile":"4","lat":40.347882320450914,"lng":-111.9674350134588,"phone":"(520) 655-7815","sd":"22","ssbd":"10","lsbd":"School Board Lake Mountain 3"},{"vid":"2732379","name":"Isom Treutel","party":"Rep","address":"7059 N Cherokee St, Eagle Mountain, UT 84005","precinct":"25EM22","hd":"50","v_score":"0","decile":"2","lat":40.34837737827966,"lng":-111.96488997174899,"phone":"(236) 052-8837","sd":"22","ssbd":"10","lsbd":"School Board Lake Mountain 3"},{"vid":"2741725","name":"Vicente Lehner","party":"","address":"3596 E Owahee St, Eagle Mountain, UT 84005","precinct":"25EM22","hd":"50","v_score":"0","decile":"2","lat":40.35053921483561,"lng":-111.9749257510365,"phone":"(662) 095-0479","sd":"22","ssbd":"10","lsbd":"School Board Lake Mountain 3"},{"vid":"2746762","name":"Chelsy Gleichner MD","party":"","address":"7117 N Hollow Crest Cir, Eagle Mountain, UT 84005","precinct":"25EM22","hd":"50","v_score":"0","decile":"2","lat":40.34921936579577,"lng":-111.97215937388432,"phone":"(798) 800-4948","sd":"22","ssbd":"10","lsbd":"School Board Lake Mountain 3"},{"vid":"2760704","name":"Makala Borer MD","party":"Dem","address":"4115 E Comanche St, Eagle Mountain, UT 84005","precinct":"25EM22","hd":"50","v_score":"0","decile":"2","lat":40.34733588892463,"lng":-111.96493203061632,"phone":"(824) 780-9527","sd":"22","ssbd":"10","lsbd":"School Board Lake Mountain 3"},{"vid":"2763075","name":"Brice Upton DVM","party":"Rep","address":"7097 N Kiowa Pkwy, Eagle Mountain, UT 84005","precinct":"25EM22","hd":"50","v_score":"1.193887297","decile":"4","lat":40.34896419574043,"lng":-111.96693387648358,"phone":"(587) 128-3677","sd":"22","ssbd":"10","lsbd":"School Board Lake Mountain 3"},{"vid":"2769870","name":"Dr. Berton Prosacco II","party":"Rep","address":"3686 E Long Ridge Dr, Eagle Mountain, UT 84005","precinct":"25EM22","hd":"50","v_score":"1.193887297","decile":"4","lat":40.35078041688427,"lng":-111.97329711046521,"phone":"(542) 748-9770","sd":"22","ssbd":"10","lsbd":"School Board Lake Mountain 3"},{"vid":"2771527","name":"Blanchard Hudson","party":"Rep","address":"6931 N Chippewa Dr, Eagle Mountain, UT 84005","precinct":"25EM22","hd":"50","v_score":"0","decile":"2","lat":40.34656053441473,"lng":-111.96575486179934,"phone":"(577) 549-8278","sd":"22","ssbd":"10","lsbd":"School Board Lake Mountain 3"},{"vid":"2774823","name":"Velvet Lubowitz","party":"Dem","address":"3954 E Eagle Top Ct, Eagle Mountain, UT 84005","precinct":"25EM22","hd":"50","v_score":"0","decile":"2","lat":40.35149772796192,"lng":-111.96805774468332,"phone":"(668) 864-0146","sd":"22","ssbd":"10","lsbd":"School Board Lake Mountain 3"},{"vid":"2775424","name":"Shianne Cole DDS","party":"","address":"4028 E Mohican Dr, Eagle Mountain, UT 84005","precinct":"25EM22","hd":"50","v_score":"0","decile":"2","lat":40.34776539268556,"lng":-111.96668395791022,"phone":"(187) 983-3497","sd":"22","ssbd":"10","lsbd":"School Board Lake Mountain 3"},{"vid":"2782942","name":"Ewing Funk","party":"Dem","address":"3532 E Golden Cir, Eagle Mountain, UT 84005","precinct":"25EM22","hd":"50","v_score":"0","decile":"2","lat":40.35594797230675,"lng":-111.97612223715413,"phone":"(658) 686-1150","sd":"22","ssbd":"10","lsbd":"School Board Lake Mountain 3"},{"vid":"2783412","name":"Ms. Leala Langworth","party":"Dem","address":"4049 E Sioux St, Eagle Mountain, UT 84005","precinct":"25EM22","hd":"50","v_score":"1.193887297","decile":"4","lat":40.35106200738719,"lng":-111.96629161398512,"phone":"(993) 917-2968","sd":"22","ssbd":"10","lsbd":"School Board Lake Mountain 3"},{"vid":"2783421","name":"Diana Zieme","party":"Dem","address":"4049 E Sioux St, Eagle Mountain, UT 84005","precinct":"25EM22","hd":"50","v_score":"1.193887297","decile":"4","lat":40.35106200738719,"lng":-111.96629161398512,"phone":"(669) 563-4381","sd":"22","ssbd":"10","lsbd":"School Board Lake Mountain 3"},{"vid":"2783435","name":"Ms. Dayna Collier PhD","party":"","address":"7022 N Cherokee St, Eagle Mountain, UT 84005","precinct":"25EM22","hd":"50","v_score":"0","decile":"2","lat":40.34789363036718,"lng":-111.96430463525907,"phone":"(473) 777-8575","sd":"22","ssbd":"10","lsbd":"School Board Lake Mountain 3"},{"vid":"2787130","name":"Elliott Brakus-Schuster","party":"Dem","address":"4115 E Comanche St, Eagle Mountain, UT 84005","precinct":"25EM22","hd":"50","v_score":"1.193887297","decile":"4","lat":40.34733588892463,"lng":-111.96493203061632,"phone":"(362) 397-6818","sd":"22","ssbd":"10","lsbd":"School Board Lake Mountain 3"},{"vid":"2792483","name":"Palma Schuppe","party":"Dem","address":"3997 E Golden Eagle Rd, Eagle Mountain, UT 84005","precinct":"25EM22","hd":"50","v_score":"0","decile":"2","lat":40.35033341055638,"lng":-111.96727224315636,"phone":"(326) 644-4773","sd":"22","ssbd":"10","lsbd":"School Board Lake Mountain 3"},{"vid":"2794170","name":"Dr. Kimber Stehr DDS","party":"Dem","address":"7176 N Golden Ridge Dr, Eagle Mountain, UT 84005","precinct":"25EM22","hd":"50","v_score":"0","decile":"2","lat":40.35008182496487,"lng":-111.97010153349706,"phone":"(685) 259-4005","sd":"22","ssbd":"10","lsbd":"School Board Lake Mountain 3"},{"vid":"2803462","name":"Arron Blick-Crona","party":"","address":"3908 E Eagle Top Ct, Eagle Mountain, UT 84005","precinct":"25EM22","hd":"50","v_score":"0","decile":"2","lat":40.35121491613132,"lng":-111.96880616986391,"phone":"(988) 926-5003","sd":"22","ssbd":"10","lsbd":"School Board Lake Mountain 3"},{"vid":"2805298","name":"Phoebe Yundt DVM","party":"Rep","address":"3949 E Sioux St, Eagle Mountain, UT 84005","precinct":"25EM22","hd":"50","v_score":"1.193887297","decile":"4","lat":40.35097111529628,"lng":-111.96822257060214,"phone":"(729) 795-6356","sd":"22","ssbd":"10","lsbd":"School Board Lake Mountain 3"},{"vid":"2807078","name":"Lisbeth Cartwright-Roob","party":"","address":"3957 E Comanche St, Eagle Mountain, UT 84005","precinct":"25EM22","hd":"50","v_score":"0","decile":"2","lat":40.347411243167144,"lng":-111.96815834132266,"phone":"(301) 672-6999","sd":"22","ssbd":"10","lsbd":"School Board Lake Mountain 3"},{"vid":"2807829","name":"Chyna Kirlin","party":"Dem","address":"4008 E Sioux St, Eagle Mountain, UT 84005","precinct":"25EM22","hd":"50","v_score":"0","decile":"2","lat":40.35065941336419,"lng":-111.96714107618914,"phone":"(417) 404-5777","sd":"22","ssbd":"10","lsbd":"School Board Lake Mountain 3"},{"vid":"2808327","name":"Kayden McLaughlin","party":"Dem","address":"3893 E Hopi Rd, Eagle Mountain, UT 84005","precinct":"25EM22","hd":"50","v_score":"1.193887297","decile":"4","lat":40.34805207136604,"lng":-111.96959465224054,"phone":"(760) 590-0383","sd":"22","ssbd":"10","lsbd":"School Board Lake Mountain 3"},{"vid":"2810897","name":"Calhoun Mitchell-Yundt","party":"","address":"6941 N Chippewa Dr, Eagle Mountain, UT 84005","precinct":"25EM22","hd":"50","v_score":"0","decile":"2","lat":40.34672517362502,"lng":-111.9657537216576,"phone":"(996) 445-6769","sd":"22","ssbd":"10","lsbd":"School Board Lake Mountain 3"},{"vid":"2812700","name":"Tavion Homenick","party":"Rep","address":"4115 E Dakota Dr, Eagle Mountain, UT 84005","precinct":"25EM22","hd":"50","v_score":"0","decile":"2","lat":40.34554080909607,"lng":-111.96508268912352,"phone":"(591) 214-9115","sd":"22","ssbd":"10","lsbd":"School Board Lake Mountain 3"},{"vid":"2815227","name":"Deborah Abernathy","party":"Dem","address":"4072 E Chinook St, Eagle Mountain, UT 84005","precinct":"25EM22","hd":"50","v_score":"0","decile":"2","lat":40.34841912770593,"lng":-111.96592990464102,"phone":"(571) 755-0591","sd":"22","ssbd":"10","lsbd":"School Board Lake Mountain 3"},{"vid":"2823673","name":"Olena Lind-Durgan","party":"Dem","address":"4053 E Yakima Way, Eagle Mountain, UT 84005","precinct":"25EM22","hd":"50","v_score":"0","decile":"2","lat":40.34547275396381,"lng":-111.96640842104479,"phone":"(411) 726-9027","sd":"22","ssbd":"10","lsbd":"School Board Lake Mountain 3"},{"vid":"2830693","name":"Burk Purdy","party":"","address":"3651 E Owahee St, Eagle Mountain, UT 84005","precinct":"25EM22","hd":"50","v_score":"4.069929862","decile":"7","lat":40.351513185716776,"lng":-111.97400425375848,"phone":"(323) 199-8680","sd":"22","ssbd":"10","lsbd":"School Board Lake Mountain 3"},{"vid":"2838175","name":"Diego Hessel","party":"Rep","address":"6932 N Kiowa Pkwy, Eagle Mountain, UT 84005","precinct":"25EM22","hd":"50","v_score":"1.193887297","decile":"4","lat":40.346562005304406,"lng":-111.9661203607763,"phone":"(928) 729-5652","sd":"22","ssbd":"10","lsbd":"School Board Lake Mountain 3"},{"vid":"2842963","name":"Ursula Cartwright","party":"Dem","address":"3686 E Long Ridge Dr, Eagle Mountain, UT 84005","precinct":"25EM22","hd":"50","v_score":"1.193887297","decile":"4","lat":40.35078041688427,"lng":-111.97329711046521,"phone":"(569) 856-5134","sd":"22","ssbd":"10","lsbd":"School Board Lake Mountain 3"},{"vid":"2845794","name":"Sophronia Osinski","party":"","address":"7151 N Mohican Dr, Eagle Mountain, UT 84005","precinct":"25EM22","hd":"50","v_score":"0","decile":"2","lat":40.349773907789974,"lng":-111.9680537271434,"phone":"(987) 294-2131","sd":"22","ssbd":"10","lsbd":"School Board Lake Mountain 3"},{"vid":"2849087","name":"Tennille McLaughlin","party":"Dem","address":"7107 N Kiowa Pkwy, Eagle Mountain, UT 84005","precinct":"25EM22","hd":"50","v_score":"8.284004873","decile":"8","lat":40.34908537777703,"lng":-111.96697224452377,"phone":"(210) 409-4600","sd":"22","ssbd":"10","lsbd":"School Board Lake Mountain 3"},{"vid":"2857862","name":"Slade Cremin-Tremblay","party":"Rep","address":"4126 E South Pass Rd, Eagle Mountain, UT 84005","precinct":"25EM22","hd":"50","v_score":"1.193887297","decile":"4","lat":40.34591602625176,"lng":-111.96481904447153,"phone":"(263) 594-1033","sd":"22","ssbd":"10","lsbd":"School Board Lake Mountain 3"},{"vid":"2860054","name":"Willis Howell-Nicolas","party":"","address":"4001 E Eagle Top Ct, Eagle Mountain, UT 84005","precinct":"25EM22","hd":"50","v_score":"1.193887297","decile":"4","lat":40.35202078510505,"lng":-111.96718003683995,"phone":"(601) 669-5087","sd":"22","ssbd":"10","lsbd":"School Board Lake Mountain 3"},{"vid":"2860320","name":"Mr. Bedford Senger","party":"","address":"3936 E Hopi Rd, Eagle Mountain, UT 84005","precinct":"25EM22","hd":"50","v_score":"4.069929862","decile":"7","lat":40.34766139707172,"lng":-111.96853958384392,"phone":"(938) 181-7020","sd":"22","ssbd":"10","lsbd":"School Board Lake Mountain 3"},{"vid":"2861771","name":"Merl Lebsack","party":"Dem","address":"4112 E Chinook St, Eagle Mountain, UT 84005","precinct":"25EM22","hd":"50","v_score":"1.193887297","decile":"4","lat":40.34841601088043,"lng":-111.96518179940182,"phone":"(744) 849-5698","sd":"22","ssbd":"10","lsbd":"School Board Lake Mountain 3"},{"vid":"2876324","name":"Bartholomew Koss","party":"Rep","address":"4008 E Mohican Dr, Eagle Mountain, UT 84005","precinct":"25EM22","hd":"50","v_score":"8.284004873","decile":"8","lat":40.347811267409924,"lng":-111.96717932787843,"phone":"(478) 841-3811","sd":"22","ssbd":"10","lsbd":"School Board Lake Mountain 3"},{"vid":"2886944","name":"Erving Lakin","party":"Rep","address":"4008 E Mohican Dr, Eagle Mountain, UT 84005","precinct":"25EM22","hd":"50","v_score":"8.284004873","decile":"8","lat":40.347811267409924,"lng":-111.96717932787843,"phone":"(701) 352-1300","sd":"22","ssbd":"10","lsbd":"School Board Lake Mountain 3"},{"vid":"2887354","name":"Dr. Columbus Jerde","party":"Dem","address":"7127 N Cherokee St, Eagle Mountain, UT 84005","precinct":"25EM22","hd":"50","v_score":"1.193887297","decile":"4","lat":40.34936762267676,"lng":-111.96504957985931,"phone":"(842) 979-0951","sd":"22","ssbd":"10","lsbd":"School Board Lake Mountain 3"},{"vid":"2887795","name":"Ryland Reinger","party":"Dem","address":"6988 N South Pass Rd, Eagle Mountain, UT 84005","precinct":"25EM22","hd":"50","v_score":"2.660162957","decile":"5","lat":40.34746812305021,"lng":-111.96944996838741,"phone":"(788) 950-6392","sd":"22","ssbd":"10","lsbd":"School Board Lake Mountain 3"},{"vid":"2888043","name":"Babette Crona","party":"Rep","address":"7127 N Cherokee St, Eagle Mountain, UT 84005","precinct":"25EM22","hd":"50","v_score":"1.193887297","decile":"4","lat":40.34936762267676,"lng":-111.96504957985931,"phone":"(725) 334-4714","sd":"22","ssbd":"10","lsbd":"School Board Lake Mountain 3"},{"vid":"2888172","name":"Ermina Reinger","party":"Rep","address":"4007 E Golden Eagle Rd, Eagle Mountain, UT 84005","precinct":"25EM22","hd":"50","v_score":"1.193887297","decile":"4","lat":40.350326358549296,"lng":-111.96693935312304,"phone":"(925) 971-0957","sd":"22","ssbd":"10","lsbd":"School Board Lake Mountain 3"},{"vid":"2889336","name":"Mattye Harris DVM","party":"","address":"6956 N Comanche St, Eagle Mountain, UT 84005","precinct":"25EM22","hd":"50","v_score":"0","decile":"2","lat":40.3468065766865,"lng":-111.96814453092294,"phone":"(888) 190-0625","sd":"22","ssbd":"10","lsbd":"School Board Lake Mountain 3"},{"vid":"2896663","name":"Stephan Thompson","party":"Dem","address":"4052 E Sioux St, Eagle Mountain, UT 84005","precinct":"25EM22","hd":"50","v_score":"0","decile":"2","lat":40.35065588232065,"lng":-111.96630535102243,"phone":"(557) 549-6542","sd":"22","ssbd":"10","lsbd":"School Board Lake Mountain 3"},{"vid":"2896874","name":"Ali Moen","party":"Rep","address":"3936 E Hopi Rd, Eagle Mountain, UT 84005","precinct":"25EM22","hd":"50","v_score":"2.876042565","decile":"6","lat":40.34766139707172,"lng":-111.96853958384392,"phone":"(768) 760-1051","sd":"22","ssbd":"10","lsbd":"School Board Lake Mountain 3"},{"vid":"2897043","name":"Zion Spinka III","party":"Rep","address":"4081 E Mohican Dr, Eagle Mountain, UT 84005","precinct":"25EM22","hd":"50","v_score":"0","decile":"2","lat":40.348143803683264,"lng":-111.96571664620953,"phone":"(100) 268-4276","sd":"22","ssbd":"10","lsbd":"School Board Lake Mountain 3"},{"vid":"2905087","name":"Orvin Schumm","party":"","address":"7118 N Hollow Crest Cir, Eagle Mountain, UT 84005","precinct":"25EM22","hd":"50","v_score":"0","decile":"2","lat":40.349314162746914,"lng":-111.97166254702238,"phone":"(256) 693-7295","sd":"22","ssbd":"10","lsbd":"School Board Lake Mountain 3"},{"vid":"2905933","name":"Hugo Reichert","party":"","address":"7097 N Kiowa Pkwy, Eagle Mountain, UT 84005","precinct":"25EM22","hd":"50","v_score":"0","decile":"2","lat":40.34896419574043,"lng":-111.96693387648358,"phone":"(911) 005-0463","sd":"22","ssbd":"10","lsbd":"School Board Lake Mountain 3"},{"vid":"2908822","name":"Miss Yoselin Denesik","party":"","address":"7119 N Golden Ridge Ct, Eagle Mountain, UT 84005","precinct":"25EM22","hd":"50","v_score":"7.090117576","decile":"8","lat":40.34937216924405,"lng":-111.97098665279908,"phone":"(594) 686-5148","sd":"22","ssbd":"10","lsbd":"School Board Lake Mountain 3"},{"vid":"2916457","name":"Leopold Reynolds","party":"Dem","address":"7087 N Mohican Dr, Eagle Mountain, UT 84005","precinct":"25EM22","hd":"50","v_score":"0","decile":"2","lat":40.348808277044256,"lng":-111.96793482086676,"phone":"(265) 542-8719","sd":"22","ssbd":"10","lsbd":"School Board Lake Mountain 3"},{"vid":"2919038","name":"Dr. Annice Koch DDS","party":"Rep","address":"3518 E Golden Cir, Eagle Mountain, UT 84005","precinct":"25EM22","hd":"50","v_score":"0","decile":"2","lat":40.356275194604414,"lng":-111.97641327132857,"phone":"(398) 031-4984","sd":"22","ssbd":"10","lsbd":"School Board Lake Mountain 3"},{"vid":"2926147","name":"Roselyn Langworth","party":"","address":"3887 E Pawnee Rd, Eagle Mountain, UT 84005","precinct":"25EM22","hd":"50","v_score":"0","decile":"2","lat":40.35071097489354,"lng":-111.96941777455241,"phone":"(375) 129-4569","sd":"22","ssbd":"10","lsbd":"School Board Lake Mountain 3"},{"vid":"2927019","name":"Dr. Koda Schumm","party":"","address":"3998 E Mohican Dr, Eagle Mountain, UT 84005","precinct":"25EM22","hd":"50","v_score":"0","decile":"2","lat":40.347882320450914,"lng":-111.9674350134588,"phone":"(889) 657-8725","sd":"22","ssbd":"10","lsbd":"School Board Lake Mountain 3"},{"vid":"2937939","name":"Reese Farrell","party":"","address":"3887 E South Pass Cv, Eagle Mountain, UT 84005","precinct":"25EM22","hd":"50","v_score":"0","decile":"2","lat":40.34633604654668,"lng":-111.96966566148826,"phone":"(882) 393-9035","sd":"22","ssbd":"10","lsbd":"School Board Lake Mountain 3"},{"vid":"2938099","name":"Makala Lang","party":"Rep","address":"6996 N Cherokee St, Eagle Mountain, UT 84005","precinct":"25EM22","hd":"50","v_score":"0","decile":"2","lat":40.34745771299609,"lng":-111.96456059290287,"phone":"(486) 475-7320","sd":"22","ssbd":"10","lsbd":"School Board Lake Mountain 3"},{"vid":"2940492","name":"Unique Friesen","party":"","address":"7181 N Skyview Ln, Eagle Mountain, UT 84005","precinct":"25EM22","hd":"50","v_score":"7.090117576","decile":"8","lat":40.35034202074868,"lng":-111.9723528762782,"phone":"(371) 522-1755","sd":"22","ssbd":"10","lsbd":"School Board Lake Mountain 3"},{"vid":"2948168","name":"Ms. Terrie Herzog","party":"Dem","address":"3989 E Yakima Way, Eagle Mountain, UT 84005","precinct":"25EM22","hd":"50","v_score":"0","decile":"2","lat":40.34549590830348,"lng":-111.96750121950522,"phone":"(909) 305-8663","sd":"22","ssbd":"10","lsbd":"School Board Lake Mountain 3"},{"vid":"2951153","name":"Ashlynn Harvey-Powlowski","party":"Rep","address":"7156 N Skyview Ln, Eagle Mountain, UT 84005","precinct":"25EM22","hd":"50","v_score":"0","decile":"2","lat":40.34987758883297,"lng":-111.97229301173908,"phone":"(965) 990-2038","sd":"22","ssbd":"10","lsbd":"School Board Lake Mountain 3"},{"vid":"2957893","name":"Matie Prosacco","party":"","address":"7164 N Golden Ridge Dr, Eagle Mountain, UT 84005","precinct":"25EM22","hd":"50","v_score":"0","decile":"2","lat":40.34989666426094,"lng":-111.97017545807793,"phone":"(458) 214-1057","sd":"22","ssbd":"10","lsbd":"School Board Lake Mountain 3"},{"vid":"2958135","name":"Texanna Baumbach DVM","party":"Rep","address":"3566 E Jacobs Ct, Eagle Mountain, UT 84005","precinct":"25EM22","hd":"50","v_score":"0","decile":"2","lat":40.3560923171996,"lng":-111.97552635701368,"phone":"(869) 476-2927","sd":"22","ssbd":"10","lsbd":"School Board Lake Mountain 3"},{"vid":"2962736","name":"Melinda Moore","party":"","address":"7058 N Hollow View Ct, Eagle Mountain, UT 84005","precinct":"25EM22","hd":"50","v_score":"0","decile":"2","lat":40.34834898171641,"lng":-111.97005697850594,"phone":"(283) 976-4266","sd":"22","ssbd":"10","lsbd":"School Board Lake Mountain 3"},{"vid":"2968918","name":"Arnett Miller","party":"","address":"3986 E Eagle Top Ct, Eagle Mountain, UT 84005","precinct":"25EM22","hd":"50","v_score":"0","decile":"2","lat":40.35167096898532,"lng":-111.96753037238108,"phone":"(243) 576-4916","sd":"22","ssbd":"10","lsbd":"School Board Lake Mountain 3"},{"vid":"2976236","name":"Jailene Adams","party":"Rep","address":"7147 N Skyview Ct, Eagle Mountain, UT 84005","precinct":"25EM22","hd":"50","v_score":"0","decile":"2","lat":40.34970327354664,"lng":-111.97286104631952,"phone":"(391) 230-4829","sd":"22","ssbd":"10","lsbd":"School Board Lake Mountain 3"},{"vid":"2984050","name":"Kristen Rolfson","party":"","address":"7107 N Kiowa Pkwy, Eagle Mountain, UT 84005","precinct":"25EM22","hd":"50","v_score":"0","decile":"2","lat":40.34908537777703,"lng":-111.96697224452377,"phone":"(666) 853-2799","sd":"22","ssbd":"10","lsbd":"School Board Lake Mountain 3"},{"vid":"d7517ea72fa152d2a4868dd453abfe55ca1fd6103bb1bd1dafd59821d5a9b1f1","name":"Red Feeney","party":"","address":"4134 E Sioux St, Eagle Mountain, UT 84005","precinct":"25EM22","hd":"50","v_score":"12.94405289","decile":"9","lat":40.350744950263,"lng":-111.96457189685133,"phone":"(995) 052-7058","sd":"22","ssbd":"10","lsbd":"School Board Lake Mountain 3"},{"vid":"3024326","name":"Arlie Lindgren","party":"","address":"4102 E South Pass Rd, Eagle Mountain, UT 84005","precinct":"25EM22","hd":"50","v_score":"3.93832808","decile":"6","lat":40.345864880116565,"lng":-111.96537139148616,"phone":"(989) 352-7689","sd":"22","ssbd":"10","lsbd":"School Board Lake Mountain 3"},{"vid":"3031485","name":"Robyn Kerluke","party":"Rep","address":"4079 E Comanche St, Eagle Mountain, UT 84005","precinct":"25EM22","hd":"50","v_score":"8.347511332","decile":"8","lat":40.347429476402766,"lng":-111.96580164084914,"phone":"(576) 704-9381","sd":"22","ssbd":"10","lsbd":"School Board Lake Mountain 3"},{"vid":"3053036","name":"Ricki Kuphal","party":"Rep","address":"7127 N Hollow Crest Cir, Eagle Mountain, UT 84005","precinct":"25EM22","hd":"50","v_score":"9.405332525","decile":"8","lat":40.34944079919485,"lng":-111.97198219104676,"phone":"(334) 587-9705","sd":"22","ssbd":"10","lsbd":"School Board Lake Mountain 3"},{"vid":"3072017","name":"Orla Howe-Lowe","party":"Rep","address":"4008 E Sioux St, Eagle Mountain, UT 84005","precinct":"25EM22","hd":"50","v_score":"7.493443096","decile":"8","lat":40.35065941336419,"lng":-111.96714107618914,"phone":"(789) 372-0342","sd":"22","ssbd":"10","lsbd":"School Board Lake Mountain 3"},{"vid":"3083075","name":"Toy Herzog","party":"","address":"3962 E Sioux St, Eagle Mountain, UT 84005","precinct":"25EM22","hd":"50","v_score":"2.744440783","decile":"5","lat":40.350481673748476,"lng":-111.96787032691962,"phone":"(120) 265-1411","sd":"22","ssbd":"10","lsbd":"School Board Lake Mountain 3"},{"vid":"3086592","name":"Dayami Hilll","party":"","address":"7152 N Golden Ridge Dr, Eagle Mountain, UT 84005","precinct":"25EM22","hd":"50","v_score":"10.87160818","decile":"9","lat":40.3497096100979,"lng":-111.97029442198753,"phone":"(593) 291-7072","sd":"22","ssbd":"10","lsbd":"School Board Lake Mountain 3"},{"vid":"3088253","name":"Garrison Beatty-Pouros","party":"Rep","address":"6946 N Cherokee St, Eagle Mountain, UT 84005","precinct":"25EM22","hd":"50","v_score":"9.55742766","decile":"8","lat":40.34676880547059,"lng":-111.96434828314109,"phone":"(824) 546-8889","sd":"22","ssbd":"10","lsbd":"School Board Lake Mountain 3"},{"vid":"d79779964f5682b2ec54d3af108ff1116b2136475ff765c04f13d4f396db6c43","name":"Mr. Damond Ryan","party":"","address":"6946 N Cherokee St, Eagle Mountain, UT 84005","precinct":"25EM22","hd":"50","v_score":"3.93832808","decile":"6","lat":40.34676880547059,"lng":-111.96434828314109,"phone":"(761) 997-1784","sd":"22","ssbd":"10","lsbd":"School Board Lake Mountain 3"},{"vid":"3098446","name":"Dr. Trevor Ankunding","party":"Rep","address":"3923 E Eagle Top Ct, Eagle Mountain, UT 84005","precinct":"25EM22","hd":"50","v_score":"8.15240309","decile":"8","lat":40.35182770810743,"lng":-111.96874572365364,"phone":"(840) 668-0987","sd":"22","ssbd":"10","lsbd":"School Board Lake Mountain 3"},{"vid":"3106591","name":"Isidro Hessel","party":"Rep","address":"6923 N Cherokee St, Eagle Mountain, UT 84005","precinct":"25EM22","hd":"50","v_score":"2.587603312","decile":"5","lat":40.3463771304815,"lng":-111.96483144279517,"phone":"(256) 205-2892","sd":"22","ssbd":"10","lsbd":"School Board Lake Mountain 3"},{"vid":"3139806","name":"Gaige Marvin","party":"Dem","address":"7062 N Cherokee St, Eagle Mountain, UT 84005","precinct":"25EM22","hd":"50","v_score":"5.40460374","decile":"7","lat":40.348442356766796,"lng":-111.96426989525108,"phone":"(530) 980-6490","sd":"22","ssbd":"10","lsbd":"School Board Lake Mountain 3"},{"vid":"3144382","name":"Albertus Kerluke","party":"Dem","address":"6975 N Comanche St, Eagle Mountain, UT 84005","precinct":"25EM22","hd":"50","v_score":"2.315214949","decile":"5","lat":40.34726490935855,"lng":-111.96861903739206,"phone":"(487) 536-4903","sd":"22","ssbd":"10","lsbd":"School Board Lake Mountain 3"},{"vid":"3165848","name":"Dr. Shiloh Reynolds","party":"","address":"3892 E South Pass Cv, Eagle Mountain, UT 84005","precinct":"25EM22","hd":"50","v_score":"1.193887297","decile":"4","lat":40.34614296013597,"lng":-111.96918632126948,"phone":"(484) 469-0604","sd":"22","ssbd":"10","lsbd":"School Board Lake Mountain 3"},{"vid":"3177931","name":"Forrest Bogisich MD","party":"","address":"6996 N Cherokee St, Eagle Mountain, UT 84005","precinct":"25EM22","hd":"50","v_score":"5.40460374","decile":"7","lat":40.34745771299609,"lng":-111.96456059290287,"phone":"(553) 512-9612","sd":"22","ssbd":"10","lsbd":"School Board Lake Mountain 3"},{"vid":"3177935","name":"Mr. Vinson Thiel","party":"Dem","address":"6996 N Cherokee St, Eagle Mountain, UT 84005","precinct":"25EM22","hd":"50","v_score":"7.282185415","decile":"8","lat":40.34745771299609,"lng":-111.96456059290287,"phone":"(240) 297-3106","sd":"22","ssbd":"10","lsbd":"School Board Lake Mountain 3"},{"vid":"c0a2f47b85e22dc3e87de394535a3f04d92d74962504205b9d32f4d622842832","name":"Richie Corkery","party":"","address":"4115 E Dakota Dr, Eagle Mountain, UT 84005","precinct":"25EM22","hd":"50","v_score":"8.363183621","decile":"8","lat":40.34554080909607,"lng":-111.96508268912352,"phone":"(916) 252-8053","sd":"22","ssbd":"10","lsbd":"School Board Lake Mountain 3"},{"vid":"3216850","name":"Shirley Dickens","party":"Rep","address":"4115 E Comanche St, Eagle Mountain, UT 84005","precinct":"25EM22","hd":"50","v_score":"2.817000428","decile":"6","lat":40.34733588892463,"lng":-111.96493203061632,"phone":"(994) 406-4738","sd":"22","ssbd":"10","lsbd":"School Board Lake Mountain 3"},{"vid":"3220885","name":"Harper Schaefer","party":"","address":"4115 E Dakota Dr, Eagle Mountain, UT 84005","precinct":"25EM22","hd":"50","v_score":"8.363183621","decile":"8","lat":40.34554080909607,"lng":-111.96508268912352,"phone":"(743) 174-3059","sd":"22","ssbd":"10","lsbd":"School Board Lake Mountain 3"},{"vid":"3223416","name":"Dr. Nanette Kulas","party":"Dem","address":"3540 E Owahee St, Eagle Mountain, UT 84005","precinct":"25EM22","hd":"50","v_score":"13.92577445","decile":"9","lat":40.350130477299444,"lng":-111.97627713215641,"phone":"(255) 612-9401","sd":"22","ssbd":"10","lsbd":"School Board Lake Mountain 3"},{"vid":"3232815","name":"Christophe Trantow","party":"Rep","address":"3677 E Long Ridge Dr, Eagle Mountain, UT 84005","precinct":"25EM22","hd":"50","v_score":"22.64413479","decile":"10","lat":40.35132909171839,"lng":-111.97350416659434,"phone":"(345) 037-7266","sd":"22","ssbd":"10","lsbd":"School Board Lake Mountain 3"},{"vid":"3234313","name":"Auther Goodwin-Bogan","party":"Dem","address":"7058 N Hollow View Ct, Eagle Mountain, UT 84005","precinct":"25EM22","hd":"50","v_score":"5.40460374","decile":"7","lat":40.34834898171641,"lng":-111.97005697850594,"phone":"(462) 246-2254","sd":"22","ssbd":"10","lsbd":"School Board Lake Mountain 3"},{"vid":"e6d8d0e28776eace46d87bc7136879777739c1c7f65fcb572d8a3058136496c0","name":"Mrs. Ronnie West PhD","party":"Dem","address":"7151 N Mohican Dr, Eagle Mountain, UT 84005","precinct":"25EM22","hd":"50","v_score":"6.814370645","decile":"8","lat":40.349773907789974,"lng":-111.9680537271434,"phone":"(238) 667-2976","sd":"22","ssbd":"10","lsbd":"School Board Lake Mountain 3"},{"vid":"3255451","name":"Shaniqua Upton PhD","party":"","address":"7082 N Kiowa Pkwy, Eagle Mountain, UT 84005","precinct":"25EM22","hd":"50","v_score":"9.493615977","decile":"8","lat":40.34870566471079,"lng":-111.96624551004294,"phone":"(810) 268-9048","sd":"22","ssbd":"10","lsbd":"School Board Lake Mountain 3"},{"vid":"3272491","name":"Jaimie Keebler","party":"Dem","address":"3997 E Comanche St, Eagle Mountain, UT 84005","precinct":"25EM22","hd":"50","v_score":"13.83018807","decile":"9","lat":40.34743574916904,"lng":-111.96733678980448,"phone":"(406) 695-0486","sd":"22","ssbd":"10","lsbd":"School Board Lake Mountain 3"},