[{"vid":"1241660","name":"Horatio Champlin","party":"Rep","address":"404 E 1200 N, Genola, UT 84655","precinct":"25GE01","hd":"50","v_score":"0","decile":"1","lat":40.016306246793896,"lng":-111.83196985385626},{"vid":"f1f0f14b0121b2b95f1d393bde1326c3e846f59fd7a60b94c017998d5e3f4e42","name":"Gena Hyatt","party":"","address":"404 E 1200 N, Genola, UT 84655","precinct":"25GE01","hd":"50","v_score":"0","decile":"1","lat":40.016306246793896,"lng":-111.83196985385626},{"vid":"1279672","name":"Imogene Beier","party":"Rep","address":"640 E 1200 N, Genola, UT 84655","precinct":"25GE01","hd":"50","v_score":"17.96776993","decile":"10","lat":40.01780427119536,"lng":-111.82861278478113},{"vid":"1324645","name":"Katharine McCullough","party":"Dem","address":"2020 N Lake Rd, Genola, UT 84655","precinct":"25GE01","hd":"50","v_score":"3.93832808","decile":"6","lat":40.033736458735184,"lng":-111.84740757377175},{"vid":"e307f99fe782da56230c119ee04cf92179de7ed4ae60d194d6d42069cd102b71","name":"Shad Ward","party":"","address":"717 S Main St, Genola, UT 84655","precinct":"25GE01","hd":"50","v_score":"3.089388791","decile":"6","lat":39.983779392901766,"lng":-111.84231366581403},{"vid":"1383017","name":"Summer Von","party":"","address":"2208 N York Ln, Genola, UT 84655","precinct":"25GE01","hd":"50","v_score":"23.97729115","decile":"10","lat":40.03670613836844,"lng":-111.85945907269412},{"vid":"1407054","name":"Annamarie Rosenbaum","party":"","address":"505 E 800 S, Genola, UT 84655","precinct":"25GE01","hd":"50","v_score":"3.93832808","decile":"6","lat":39.98244602479223,"lng":-111.83116384927105},{"vid":"1415905","name":"Merlyn Purdy","party":"","address":"663 N 600 E, Genola, UT 84655","precinct":"25GE01","hd":"50","v_score":"6.657533174","decile":"7","lat":40.309250622870415,"lng":-111.68185295230636},{"vid":"1463167","name":"Mr. Rome Rempel Sr.","party":"Rep","address":"716 N 470 E, Genola, UT 84655","precinct":"25GE01","hd":"50","v_score":"8.280646305","decile":"8","lat":40.00982097733281,"lng":-111.83155709161194},{"vid":"1463303","name":"Vernell Sauer-Kunze","party":"Dem","address":"11 N 800 E, Genola, UT 84655","precinct":"25GE01","hd":"50","v_score":"5.40460374","decile":"7","lat":39.997545773891666,"lng":-111.82477319551921},{"vid":"1470146","name":"Kristie Schmidt","party":"Dem","address":"703 N 600 E, Genola, UT 84655","precinct":"25GE01","hd":"50","v_score":"7.84392109","decile":"8","lat":40.00956896122983,"lng":-111.83026034423989},{"vid":"1493812","name":"Noble Gerlach","party":"Rep","address":"37 S 600 E, Genola, UT 84655","precinct":"25GE01","hd":"50","v_score":"1.46627566","decile":"4","lat":39.996564497881366,"lng":-111.82867001137264},{"vid":"1515371","name":"Kyler Wyman-Keeling","party":"","address":"860 N 800 E, Genola, UT 84655","precinct":"25GE01","hd":"50","v_score":"2.587603312","decile":"5","lat":40.01247482003958,"lng":-111.823652808326},{"vid":"ba2e1e226b6812642a45e93553a031e51dcea32cca4fb5ceb572c28f6aa33305","name":"Dr. Almyra Kub DDS","party":"","address":"1255 N Hillside Dr, Genola, UT 84655","precinct":"25GE01","hd":"50","v_score":"3.781490609","decile":"6","lat":40.019283299807014,"lng":-111.82681378742161},{"vid":"1629869","name":"Mrs. Micayla O'Kon DDS","party":"Rep","address":"363 E 400 S, Genola, UT 84655","precinct":"25GE01","hd":"50","v_score":"3.93832808","decile":"6","lat":39.989944233377614,"lng":-111.83480820063704},{"vid":"1638587","name":"Mr. Dilan Little DVM","party":"Rep","address":"956 N Main St, Genola, UT 84655","precinct":"25GE01","hd":"50","v_score":"3.781490609","decile":"6","lat":40.013331407336125,"lng":-111.8421365940175},{"vid":"1662012","name":"Kaiden Boehm","party":"Dem","address":"252 E 400 N, Genola, UT 84655","precinct":"25GE01","hd":"50","v_score":"5.620483348","decile":"7","lat":40.00289280251282,"lng":-111.83797475186473},{"vid":"1664649","name":"Kaylie Fay PhD","party":"Rep","address":"475 E 800 N, Genola, UT 84655","precinct":"25GE01","hd":"50","v_score":"14.74219231","decile":"9","lat":40.01156225492759,"lng":-111.83238240820477},{"vid":"1673075","name":"Joseluis Zemlak","party":"","address":"37 S 600 E, Genola, UT 84655","precinct":"25GE01","hd":"50","v_score":"1.623113131","decile":"4","lat":39.996564497881366,"lng":-111.82867001137264},{"vid":"1697944","name":"Chelsi Cronin","party":"Dem","address":"179 E 400 S, Genola, UT 84655","precinct":"25GE01","hd":"50","v_score":"2.817000428","decile":"6","lat":39.99004647937558,"lng":-111.83908074046764},{"vid":"fae8f6ad08ad301239335b03f6861c010a966444c688604c0cfef75b5260ada6","name":"Terrill Kirlin-Jacobson","party":"Rep","address":"158 S 600 E, Genola, UT 84655","precinct":"25GE01","hd":"50","v_score":"0","decile":"1","lat":39.99398077816964,"lng":-111.82942473693214},{"vid":"1734343","name":"Sylas Hills","party":"Rep","address":"70 W 1790 N, Genola, UT 84655","precinct":"25GE01","hd":"50","v_score":"10.22509301","decile":"9","lat":40.02962568071623,"lng":-111.84537217567222},{"vid":"1736448","name":"Epsie Jacobs","party":"Rep","address":"70 W 1790 N, Genola, UT 84655","precinct":"25GE01","hd":"50","v_score":"8.758817347","decile":"8","lat":40.02962568071623,"lng":-111.84537217567222},{"vid":"1739382","name":"Miss Iyanna Blick MD","party":"Rep","address":"360 N Sunset Ln, Genola, UT 84655","precinct":"25GE01","hd":"50","v_score":"0","decile":"1","lat":40.00325457698702,"lng":-111.83926672014188},{"vid":"1779026","name":"Tonda Koelpin","party":"","address":"767 N 470 E, Genola, UT 84655","precinct":"25GE01","hd":"50","v_score":"3.93832808","decile":"6","lat":40.011039885734014,"lng":-111.83303043570385},{"vid":"1817749","name":"Pam Cruickshank","party":"","address":"787 E 200 S, Genola, UT 84655","precinct":"25GE01","hd":"50","v_score":"1.121327652","decile":"3","lat":39.9934998727466,"lng":-111.82586905789357},{"vid":"aaecffd12c22ff846b355ffc1a77cf42ef862818dfcbbd3faf8836f2163098ad","name":"Ennis Watsica","party":"","address":"962 N Main St, Genola, UT 84655","precinct":"25GE01","hd":"50","v_score":"3.781490609","decile":"6","lat":40.01418220825901,"lng":-111.84176559259991},{"vid":"1840373","name":"Miss Ivette Stiedemann DVM","party":"Dem","address":"2969 N Lake Rd, Genola, UT 84655","precinct":"25GE01","hd":"50","v_score":"1.193887297","decile":"3","lat":40.050533687943464,"lng":-111.86632748525999},{"vid":"1852911","name":"Ms. Dolly Hintz","party":"Dem","address":"390 E 800 S, Genola, UT 84655","precinct":"25GE01","hd":"50","v_score":"2.315214949","decile":"5","lat":39.98151028946432,"lng":-111.83582843766706},{"vid":"1859978","name":"Mrs. Isobel Zemlak DDS","party":"Dem","address":"564 E 600 N, Genola, UT 84655","precinct":"25GE01","hd":"50","v_score":"21.03959564","decile":"10","lat":40.006884608377106,"lng":-111.83024684076453},{"vid":"1868318","name":"Bartholomew Rogahn","party":"","address":"839 N 350 E, Genola, UT 84655","precinct":"25GE01","hd":"50","v_score":"3.711952487","decile":"6","lat":40.011674201228104,"lng":-111.8361094363641},{"vid":"806baf14854a2eab6245317a836cd20ce0d97aee0c1e4feae780784d85d4decd","name":"Rhona Crona","party":"Rep","address":"257 E 800 S, Genola, UT 84655","precinct":"25GE01","hd":"50","v_score":"16.34465679","decile":"9","lat":39.98308566390297,"lng":-111.83677271922024},{"vid":"1931420","name":"Dara Rempel","party":"Rep","address":"672 N 600 E, Genola, UT 84655","precinct":"25GE01","hd":"50","v_score":"3.93832808","decile":"6","lat":40.009152936980655,"lng":-111.82879390777997},{"vid":"1968822","name":"Mrs. Danyell Emmerich PhD","party":"Rep","address":"870 E 400 N, Genola, UT 84655","precinct":"25GE01","hd":"50","v_score":"3.781490609","decile":"6","lat":40.00376818496632,"lng":-111.82319871608837},{"vid":"1969675","name":"Yoshio Fritsch","party":"Rep","address":"135 N 400 W, Genola, UT 84655","precinct":"25GE01","hd":"50","v_score":"6.814370645","decile":"8","lat":39.998865766837454,"lng":-111.85332544315806},{"vid":"1972488","name":"Norbert Roberts","party":"Rep","address":"250 N 800 E, Genola, UT 84655","precinct":"25GE01","hd":"50","v_score":"5.191257514","decile":"7","lat":40.000253752820335,"lng":-111.82365217908608},{"vid":"1987925","name":"Rodney Breitenberg","party":"Rep","address":"114 S 800 E, Genola, UT 84655","precinct":"25GE01","hd":"50","v_score":"2.315214949","decile":"5","lat":39.99541990603386,"lng":-111.82492468053505},{"vid":"1997680","name":"Kelsi Wilderman","party":"Dem","address":"683 N 350 E, Genola, UT 84655","precinct":"25GE01","hd":"50","v_score":"8.721442187","decile":"8","lat":40.00910059548763,"lng":-111.8362353760628},{"vid":"1997685","name":"Nikita Gottlieb DDS","party":"Dem","address":"683 N 350 E, Genola, UT 84655","precinct":"25GE01","hd":"50","v_score":"21.07046927","decile":"10","lat":40.00910059548763,"lng":-111.8362353760628},{"vid":"f8c8333404d4a2dee5d6018da46545cb4575f380c43b2ade8dfafb7330ba6d7f","name":"Lisette Walsh","party":"","address":"529 N 470 E, Genola, UT 84655","precinct":"25GE01","hd":"50","v_score":"1.46627566","decile":"4","lat":40.006511718189145,"lng":-111.83280124933457},{"vid":"7c9176985daee012a3dbf6a9dacf09421c8d4cc68e1165e8da63c9a046cf367f","name":"Mr. Andreas Altenwerth","party":"","address":"749 S Main St, Genola, UT 84655","precinct":"25GE01","hd":"50","v_score":"9.248158009","decile":"8","lat":40.099144359749005,"lng":-111.65352819254629},{"vid":"2075601","name":"Drusilla Dooley","party":"","address":"512 N 800 E, Genola, UT 84655","precinct":"25GE01","hd":"50","v_score":"1.121327652","decile":"3","lat":40.00612019248384,"lng":-111.82413314152944},{"vid":"2085466","name":"Juli Sawayn DDS","party":"Rep","address":"650 W 2400 N, Genola, UT 84655","precinct":"25GE01","hd":"50","v_score":"7.135704216","decile":"8","lat":40.0403263913446,"lng":-111.85971515216826},{"vid":"aa7111d09e83ff628046178a0e8ce9f73e11868235a0df320b28700185509a53","name":"Clarance Christiansen","party":"Dem","address":"962 N Main St, Genola, UT 84655","precinct":"25GE01","hd":"50","v_score":"1.46627566","decile":"4","lat":40.01418220825901,"lng":-111.84176559259991},{"vid":"2128499","name":"Porsche Halvorson PhD","party":"Rep","address":"233 E Center St, Genola, UT 84655","precinct":"25GE01","hd":"50","v_score":"9.479420342","decile":"8","lat":39.99778134745866,"lng":-111.83771815467438},{"vid":"e3f4ec6c161da8669ac06e948a79a33cd11ae0c43de42714414e4a09d40b7fd6","name":"Sam Rogahn","party":"Dem","address":"996 E 200 S, Genola, UT 84655","precinct":"25GE01","hd":"50","v_score":"14.95117867","decile":"9","lat":39.99273702205528,"lng":-111.81989073907515},{"vid":"2166090","name":"Le Kessler","party":"Dem","address":"209 E Center St, Genola, UT 84655","precinct":"25GE01","hd":"50","v_score":"2.660162957","decile":"5","lat":39.9987896357882,"lng":-111.83828023420081},{"vid":"70d8d30c84c58321ad63486498ab879e671602278c3667c52ac414f2a93b0e59","name":"Dr. Wyatt Schowalter","party":"Dem","address":"158 S 600 E, Genola, UT 84655","precinct":"25GE01","hd":"50","v_score":"0","decile":"1","lat":39.99398077816964,"lng":-111.82942473693214},{"vid":"f4a00f4a58d3188f21ebd4b8af0bc412ec460ab6796e171bc4e74e607c2fd54e","name":"Delbert Grady","party":"Dem","address":"645 N 350 E, Genola, UT 84655","precinct":"25GE01","hd":"50","v_score":"5.83359168","decile":"7","lat":40.00831477553193,"lng":-111.83622786021814},{"vid":"c5b35d7ec19d11c4b9cae031445b98865e3821b792b0241b2eeb595258695a72","name":"Garland Jacobs","party":"Rep","address":"649 E 400 N, Genola, UT 84655","precinct":"25GE01","hd":"50","v_score":"1.193887297","decile":"3","lat":40.0044276377231,"lng":-111.82884291209145},{"vid":"3f35aebd1a23d117d820ac8723540240bb557b29c3cc12dfd055bd535b43c4cc","name":"Yoshiko Stokes PhD","party":"","address":"722 W 2400 N, Genola, UT 84655","precinct":"25GE01","hd":"50","v_score":"0","decile":"1","lat":40.040848472310635,"lng":-111.86095608483437},{"vid":"2265688","name":"Natasha Wisoky","party":"","address":"61 E 1600 N, Genola, UT 84655","precinct":"25GE01","hd":"50","v_score":"9.897826925","decile":"8","lat":40.02592348526587,"lng":-111.8426853705326},{"vid":"2289642","name":"Iliana Yundt","party":"Rep","address":"90 E 400 N, Genola, UT 84655","precinct":"25GE01","hd":"50","v_score":"2.315214949","decile":"5","lat":40.00285425272608,"lng":-111.84122260961952},{"vid":"c05c710237cce0e22ca838723ac917713af192919724de4a95cc502d3164c837","name":"Cristina Bailey","party":"Rep","address":"596 E 800 N, Genola, UT 84655","precinct":"25GE01","hd":"50","v_score":"1.121327652","decile":"3","lat":40.010683834377666,"lng":-111.82977558223087},{"vid":"c2de2a69042cde73c09d7cb0831956069ab6d53cd8633903bd210820896a9652","name":"Long Wisoky","party":"","address":"1580 N Hillside Dr, Genola, UT 84655","precinct":"25GE01","hd":"50","v_score":"1.193887297","decile":"3","lat":40.0253985484092,"lng":-111.83298944099116},{"vid":"2317916","name":"Thomas Larkin","party":"Rep","address":"739 N 350 E, Genola, UT 84655","precinct":"25GE01","hd":"50","v_score":"2.817000428","decile":"6","lat":40.01099416390212,"lng":-111.83589334520897},{"vid":"2350438","name":"Eola Morar","party":"Dem","address":"996 E 200 S, Genola, UT 84655","precinct":"25GE01","hd":"50","v_score":"7.650280567","decile":"8","lat":39.99273702205528,"lng":-111.81989073907515},{"vid":"2357685","name":"Dimitri Runte","party":"","address":"370 N 800 E, Genola, UT 84655","precinct":"25GE01","hd":"50","v_score":"4.137918904","decile":"7","lat":40.003732613150085,"lng":-111.82411660215908},{"vid":"2360832","name":"Corbett Leffler","party":"","address":"209 E Center St, Genola, UT 84655","precinct":"25GE01","hd":"50","v_score":"2.817000428","decile":"6","lat":39.9987896357882,"lng":-111.83828023420081},{"vid":"2385774","name":"Jann Tromp-Gislason","party":"","address":"690 N 800 E, Genola, UT 84655","precinct":"25GE01","hd":"50","v_score":"2.315214949","decile":"5","lat":40.00921687857839,"lng":-111.82352198018334},{"vid":"2386923","name":"Ms. Kaila Moore PhD","party":"Rep","address":"2840 N Lake Rd, Genola, UT 84655","precinct":"25GE01","hd":"50","v_score":"1.121327652","decile":"3","lat":40.04866514034441,"lng":-111.86274483347202},{"vid":"2390884","name":"Bailey Hagenes","party":"","address":"434 E 400 N, Genola, UT 84655","precinct":"25GE01","hd":"50","v_score":"6.814370645","decile":"8","lat":40.00354047059249,"lng":-111.83345584915521},{"vid":"2403496","name":"Dwaine Herzog III","party":"Dem","address":"1520 N Hillside Dr, Genola, UT 84655","precinct":"25GE01","hd":"50","v_score":"2.744440783","decile":"5","lat":40.02370760397889,"lng":-111.83058799092818},{"vid":"2423173","name":"Maynard Schuppe","party":"","address":"596 E 800 N, Genola, UT 84655","precinct":"25GE01","hd":"50","v_score":"3.93832808","decile":"6","lat":40.010683834377666,"lng":-111.82977558223087},{"vid":"2435785","name":"Britney Greenfelder DDS","party":"Rep","address":"676 E Center St, Genola, UT 84655","precinct":"25GE01","hd":"50","v_score":"2.315214949","decile":"5","lat":39.99603827438278,"lng":-111.82739499202056},{"vid":"2435902","name":"Dr. Kolten Bahringer DVM","party":"","address":"676 E Center St, Genola, UT 84655","precinct":"25GE01","hd":"50","v_score":"2.315214949","decile":"5","lat":39.99603827438278,"lng":-111.82739499202056},{"vid":"2459297","name":"Dr. Bliss Corkery","party":"Dem","address":"85 E 800 N, Genola, UT 84655","precinct":"25GE01","hd":"50","v_score":"1.193887297","decile":"3","lat":40.0123995036332,"lng":-111.84256010020958},{"vid":"2470323","name":"Dr. Izaiah Kunde IV","party":"","address":"1255 N Hillside Dr, Genola, UT 84655","precinct":"25GE01","hd":"50","v_score":"1.193887297","decile":"3","lat":40.019283299807014,"lng":-111.82681378742161},{"vid":"2473677","name":"Aisha Bergnaum","party":"Rep","address":"434 E 400 N, Genola, UT 84655","precinct":"25GE01","hd":"50","v_score":"1.193887297","decile":"3","lat":40.00354047059249,"lng":-111.83345584915521},{"vid":"2477229","name":"Pauletta Pacocha DDS","party":"Dem","address":"190 N Sunset Ln, Genola, UT 84655","precinct":"25GE01","hd":"50","v_score":"0","decile":"1","lat":39.999913449029584,"lng":-111.8393168558428},{"vid":"2484118","name":"Ms. Doreen Kovacek","party":"Dem","address":"139 E 400 S, Genola, UT 84655","precinct":"25GE01","hd":"50","v_score":"1.193887297","decile":"3","lat":39.990629570696136,"lng":-111.83955316265752},{"vid":"2493553","name":"Sade Wilkinson-Crooks","party":"","address":"640 E 1200 N, Genola, UT 84655","precinct":"25GE01","hd":"50","v_score":"4.069929862","decile":"6","lat":40.01780427119536,"lng":-111.82861278478113},{"vid":"2494674","name":"Veda Reilly-Lockman","party":"","address":"583 E 1200 N, Genola, UT 84655","precinct":"25GE01","hd":"50","v_score":"0","decile":"1","lat":40.02093334754308,"lng":-111.82961924665102},{"vid":"2509003","name":"Garnet Eichmann","party":"","address":"252 E 400 N, Genola, UT 84655","precinct":"25GE01","hd":"50","v_score":"4.069929862","decile":"6","lat":40.00289280251282,"lng":-111.83797475186473},{"vid":"2510229","name":"Tarsha Koch","party":"Rep","address":"151 S Main St, Genola, UT 84655","precinct":"25GE01","hd":"50","v_score":"7.515746948","decile":"8","lat":40.164593024856636,"lng":-111.60998684733137},{"vid":"2545893","name":"Ira McGlynn MD","party":"Dem","address":"215 S 800 E, Genola, UT 84655","precinct":"25GE01","hd":"50","v_score":"0","decile":"1","lat":39.99276869331887,"lng":-111.82304069389588},{"vid":"2569453","name":"Dr. Bode Rohan","party":"Rep","address":"2515 N 800 W, Genola, UT 84655","precinct":"25GE01","hd":"50","v_score":"4.905839784","decile":"7","lat":40.0421271566132,"lng":-111.86288250981147},{"vid":"2640090","name":"Brennon Tromp","party":"Rep","address":"85 E 800 N, Genola, UT 84655","precinct":"25GE01","hd":"50","v_score":"1.193887297","decile":"4","lat":40.0123995036332,"lng":-111.84256010020958},{"vid":"2642498","name":"Mr. Tallie Ortiz IV","party":"Rep","address":"1577 N Main St, Genola, UT 84655","precinct":"25GE01","hd":"50","v_score":"2.817000428","decile":"6","lat":40.02496599237285,"lng":-111.8442751357996},{"vid":"2651390","name":"Lora Beier","party":"","address":"215 S 800 E, Genola, UT 84655","precinct":"25GE01","hd":"50","v_score":"0","decile":"1","lat":39.99276869331887,"lng":-111.82304069389588},{"vid":"2655298","name":"Anjali Jerde","party":"Dem","address":"125 E 400 S, Genola, UT 84655","precinct":"25GE01","hd":"50","v_score":"1.193887297","decile":"4","lat":39.99046453365093,"lng":-111.84041129848063},{"vid":"2675554","name":"Blaise Lesch","party":"Rep","address":"168 E Center St, Genola, UT 84655","precinct":"25GE01","hd":"50","v_score":"0","decile":"2","lat":39.99553352379632,"lng":-111.83911573993902},{"vid":"2700149","name":"Merton Spinka DDS","party":"","address":"252 E 400 N, Genola, UT 84655","precinct":"25GE01","hd":"50","v_score":"4.069929862","decile":"7","lat":40.00289280251282,"lng":-111.83797475186473},{"vid":"2705853","name":"Miss Mamie Moen","party":"Rep","address":"1033 E Cumorah Dr, Genola, UT 84655","precinct":"25GE01","hd":"50","v_score":"0","decile":"2","lat":39.98776599853832,"lng":-111.81880895612238},{"vid":"2715632","name":"Renea Greenholt DVM","party":"Dem","address":"190 N Sunset Ln, Genola, UT 84655","precinct":"25GE01","hd":"50","v_score":"2.876042565","decile":"6","lat":39.999913449029584,"lng":-111.8393168558428},{"vid":"2730661","name":"Delora Klein","party":"","address":"899 E 800 N, Genola, UT 84655","precinct":"25GE01","hd":"50","v_score":"3.711952487","decile":"6","lat":40.0119421814369,"lng":-111.82255334917053},{"vid":"2734873","name":"Otha Toy","party":"Rep","address":"158 S 600 E, Genola, UT 84655","precinct":"25GE01","hd":"50","v_score":"1.193887297","decile":"4","lat":39.99398077816964,"lng":-111.82942473693214},{"vid":"2750656","name":"Dr. Pinkey Beer","party":"","address":"583 E 800 S, Genola, UT 84655","precinct":"25GE01","hd":"50","v_score":"1.193887297","decile":"4","lat":39.98278593599743,"lng":-111.8299112272998},{"vid":"2753692","name":"Tennessee Abshire","party":"","address":"238 E 1600 N, Genola, UT 84655","precinct":"25GE01","hd":"50","v_score":"1.193887297","decile":"4","lat":40.02444479652737,"lng":-111.8379471298504},{"vid":"2758084","name":"Ivah Gislason","party":"","address":"583 E 800 S, Genola, UT 84655","precinct":"25GE01","hd":"50","v_score":"1.193887297","decile":"4","lat":39.98278593599743,"lng":-111.8299112272998},{"vid":"2765317","name":"Ennis Gorczany","party":"Dem","address":"1513 N Hillside Dr, Genola, UT 84655","precinct":"25GE01","hd":"50","v_score":"0","decile":"2","lat":40.02286440380147,"lng":-111.83246960365692},{"vid":"2773581","name":"Jessee Kub","party":"","address":"996 E 200 S, Genola, UT 84655","precinct":"25GE01","hd":"50","v_score":"0","decile":"2","lat":39.99273702205528,"lng":-111.81989073907515},{"vid":"2775429","name":"Gilman Rogahn","party":"","address":"1088 N Main St, Genola, UT 84655","precinct":"25GE01","hd":"50","v_score":"0","decile":"2","lat":40.016265613833205,"lng":-111.84167765661658},{"vid":"2791956","name":"Donnie Denesik III","party":"","address":"287 E 400 S, Genola, UT 84655","precinct":"25GE01","hd":"50","v_score":"0","decile":"2","lat":39.99064696171169,"lng":-111.83645033716107},{"vid":"2839325","name":"Rosanna Murphy","party":"Rep","address":"99 E 400 S, Genola, UT 84655","precinct":"25GE01","hd":"50","v_score":"1.193887297","decile":"4","lat":39.99044827854832,"lng":-111.84095074617686},{"vid":"2841437","name":"Jena Anderson MD","party":"Dem","address":"663 E Center St, Genola, UT 84655","precinct":"25GE01","hd":"50","v_score":"4.069929862","decile":"7","lat":40.338254956817515,"lng":-111.69955671606435},{"vid":"2884062","name":"Mireya Mante-Treutel","party":"Dem","address":"370 N 800 E, Genola, UT 84655","precinct":"25GE01","hd":"50","v_score":"1.193887297","decile":"4","lat":40.003732613150085,"lng":-111.82411660215908},{"vid":"2887729","name":"Dr. Kenna Kulas","party":"","address":"101 W 1790 N, Genola, UT 84655","precinct":"25GE01","hd":"50","v_score":"1.193887297","decile":"4","lat":40.02871222162634,"lng":-111.84650187519182},{"vid":"2944426","name":"Geary Roberts","party":"Dem","address":"512 N 800 E, Genola, UT 84655","precinct":"25GE01","hd":"50","v_score":"0","decile":"2","lat":40.00612019248384,"lng":-111.82413314152944},{"vid":"2971312","name":"Pearly Jenkins","party":"Rep","address":"66 E Center St, Genola, UT 84655","precinct":"25GE01","hd":"50","v_score":"0","decile":"2","lat":39.995921377029525,"lng":-111.84175716136915},{"vid":"2973369","name":"Denice Hoeger","party":"","address":"1107 E 400 N, Genola, UT 84655","precinct":"25GE01","hd":"50","v_score":"0","decile":"2","lat":40.0049888576292,"lng":-111.8172684937688},{"vid":"3f69cb39f53a7f78cc1cd9278845b45ca3c60f48f612f714761ba370ea8e2833","name":"Cleone Weber","party":"","address":"61 E 1600 N, Genola, UT 84655","precinct":"25GE01","hd":"50","v_score":"6.954919332","decile":"8","lat":40.02592348526587,"lng":-111.8426853705326},{"vid":"3311665","name":"Dr. Maximiliano Toy IV","party":"Rep","address":"159 N 800 E, Genola, UT 84655","precinct":"25GE01","hd":"50","v_score":"0","decile":"2","lat":39.999555630853834,"lng":-111.82482847264498},{"vid":"3356268","name":"Dr. Amil Harber","party":"","address":"567 E 400 N, Genola, UT 84655","precinct":"25GE01","hd":"50","v_score":"1.193887297","decile":"4","lat":40.004726693622835,"lng":-111.82995825608118},{"vid":"3403594","name":"Kendra Gibson","party":"Dem","address":"625 N 800 E, Genola, UT 84655","precinct":"25GE01","hd":"50","v_score":"3.93832808","decile":"6","lat":40.11795129527543,"lng":-111.64089035027229},{"vid":"f30ea18c4722afcea5be8822186a6c5329a667cfe50724d1a0e0235ae02de274","name":"Woody Pfeffer","party":"","address":"101 W 1790 N, Genola, UT 84655","precinct":"25GE01","hd":"50","v_score":"5.40460374","decile":"7","lat":40.02871222162634,"lng":-111.84650187519182},{"vid":"2607f04f0b05a7d64583929ee089d332027e20b5130832ed8c194259314af7cc","name":"Dr. Graydon Barrows DVM","party":"","address":"427 S Main St, Genola, UT 84655","precinct":"25GE01","hd":"50","v_score":"19.58852133","decile":"10","lat":39.988106692113355,"lng":-111.84286594822412},{"vid":"6076788","name":"Jesse Graham","party":"Dem","address":"1072 E Cumorah Dr, Genola, UT 84655","precinct":"25GE01","hd":"50","v_score":"2.744440783","decile":"6","lat":39.986167471468825,"lng":-111.8185037815445},{"vid":"6175833","name":"Delos Bins","party":"Rep","address":"85 E 400 N, Genola, UT 84655","precinct":"25GE01","hd":"50","v_score":"0","decile":"3","lat":40.38526094347039,"lng":-111.79660309182792},{"vid":"6178272","name":"Dr. Reginald Deckow","party":"","address":"640 S State St, Genola, UT 84655","precinct":"25GE01","hd":"50","v_score":"3.93832808","decile":"6","lat":39.98649882101192,"lng":-111.83713272329993},{"vid":"6187029","name":"Romeo Torp","party":"Dem","address":"1580 N Hillside Dr, Genola, UT 84655","precinct":"25GE01","hd":"50","v_score":"8.347511332","decile":"8","lat":40.0253985484092,"lng":-111.83298944099116},{"vid":"6200605","name":"Ignacio Greenholt","party":"Dem","address":"14 S 600 E, Genola, UT 84655","precinct":"25GE01","hd":"50","v_score":"14.25581744","decile":"9","lat":39.9965313226097,"lng":-111.82944821961235},{"vid":"6201790","name":"Braelyn Flatley","party":"","address":"678 N 700 E, Genola, UT 84655","precinct":"25GE01","hd":"50","v_score":"22.46742893","decile":"10","lat":40.00919077364729,"lng":-111.82642202215493},{"vid":"6201806","name":"Ova Spencer","party":"Dem","address":"948 E 715 S, Genola, UT 84655","precinct":"25GE01","hd":"50","v_score":"3.93832808","decile":"6","lat":39.98307493687406,"lng":-111.82081472226412},{"vid":"c914b84bff4554d67e886ad2ef3b3321c9eedab1ab6d3a9391516ab1c0e7e712","name":"Mr. Javier Runolfsson DDS","party":"Dem","address":"678 N 700 E, Genola, UT 84655","precinct":"25GE01","hd":"50","v_score":"16.4922578","decile":"9","lat":40.00919077364729,"lng":-111.82642202215493},{"vid":"6205532","name":"Joline Gulgowski PhD","party":"Dem","address":"2515 N 800 W, Genola, UT 84655","precinct":"25GE01","hd":"50","v_score":"6.027167436","decile":"7","lat":40.0421271566132,"lng":-111.86288250981147},{"vid":"6205656","name":"Dr. Jaidyn Treutel","party":"","address":"762 E 800 N, Genola, UT 84655","precinct":"25GE01","hd":"50","v_score":"28.43419354","decile":"10","lat":40.01046003068072,"lng":-111.82557570369505},{"vid":"10c60a7f7008581bd326698638b1612461e2378c4f09e7bcc943687d0f93a30a","name":"Mrs. Ima Stanton","party":"Dem","address":"970 E 715 S, Genola, UT 84655","precinct":"25GE01","hd":"50","v_score":"21.6195417","decile":"10","lat":39.983499708351026,"lng":-111.8197765084762},{"vid":"6210575","name":"Jerrold Ondricka","party":"Dem","address":"783 W 2400 N, Genola, UT 84655","precinct":"25GE01","hd":"50","v_score":"14.25581744","decile":"9","lat":40.03911642931134,"lng":-111.86182883370346},{"vid":"6210829","name":"Graydon Walsh","party":"Rep","address":"2780 N Lake Rd, Genola, UT 84655","precinct":"25GE01","hd":"50","v_score":"23.16279017","decile":"10","lat":40.04716533955046,"lng":-111.86239196804188},{"vid":"6214645","name":"Dr. Lamar Zieme","party":"","address":"1330 N Hillside Dr, Genola, UT 84655","precinct":"25GE01","hd":"50","v_score":"18.05387802","decile":"10","lat":40.021480861903584,"lng":-111.82600578219848},{"vid":"6214646","name":"Hamza Von IV","party":"Rep","address":"1330 N Hillside Dr, Genola, UT 84655","precinct":"25GE01","hd":"50","v_score":"18.05387802","decile":"10","lat":40.021480861903584,"lng":-111.82600578219848},{"vid":"6215872","name":"Corie Cruickshank","party":"","address":"948 E 715 S, Genola, UT 84655","precinct":"25GE01","hd":"50","v_score":"6.954919332","decile":"8","lat":39.98307493687406,"lng":-111.82081472226412},{"vid":"6218996","name":"Jaylen Auer-Frami","party":"","address":"257 E 800 S, Genola, UT 84655","precinct":"25GE01","hd":"50","v_score":"16.34465679","decile":"9","lat":39.98308566390297,"lng":-111.83677271922024},{"vid":"6228948","name":"Shawnna Hudson","party":"Dem","address":"746 N 470 E, Genola, UT 84655","precinct":"25GE01","hd":"50","v_score":"5.40460374","decile":"7","lat":40.01041561632493,"lng":-111.83185781884863},{"vid":"6239774","name":"Dr. Maurine Hettinger","party":"Rep","address":"953 N 350 E, Genola, UT 84655","precinct":"25GE01","hd":"50","v_score":"8.774489636","decile":"8","lat":40.069283317776865,"lng":-111.66633705812025},{"vid":"6244094","name":"Danyell Cronin","party":"Dem","address":"973 N 800 E, Genola, UT 84655","precinct":"25GE01","hd":"50","v_score":"17.96776993","decile":"10","lat":40.014529722934405,"lng":-111.82536123163963},{"vid":"6248922","name":"River Buckridge","party":"Dem","address":"158 S 600 E, Genola, UT 84655","precinct":"25GE01","hd":"50","v_score":"12.07513611","decile":"9","lat":39.99398077816964,"lng":-111.82942473693214},{"vid":"6249602","name":"Dolph Dare","party":"","address":"593 E Center St, Genola, UT 84655","precinct":"25GE01","hd":"50","v_score":"8.280646305","decile":"8","lat":39.99706058761825,"lng":-111.82940080060277},{"vid":"6249603","name":"Dr. Alma Schmidt","party":"Rep","address":"593 E Center St, Genola, UT 84655","precinct":"25GE01","hd":"50","v_score":"8.280646305","decile":"8","lat":39.99706058761825,"lng":-111.82940080060277},{"vid":"6258524","name":"Gaye Turcotte","party":"","address":"973 N 800 E, Genola, UT 84655","precinct":"25GE01","hd":"50","v_score":"17.96776993","decile":"10","lat":40.014529722934405,"lng":-111.82536123163963},{"vid":"6265256","name":"Ainsley Parker","party":"Dem","address":"22 W 1790 N, Genola, UT 84655","precinct":"25GE01","hd":"50","v_score":"22.26471331","decile":"10","lat":40.02962891512806,"lng":-111.8442807775789},{"vid":"6269571","name":"Sophronia Prosacco","party":"Dem","address":"250 N 800 E, Genola, UT 84655","precinct":"25GE01","hd":"50","v_score":"5.191257514","decile":"7","lat":40.000253752820335,"lng":-111.82365217908608},{"vid":"6270588","name":"Francis Larson","party":"Rep","address":"2980 N Lake Rd, Genola, UT 84655","precinct":"25GE01","hd":"50","v_score":"9.682978083","decile":"8","lat":40.05147162929627,"lng":-111.86383089738553},{"vid":"6273826","name":"Nat Mills","party":"Dem","address":"2980 N Lake Rd, Genola, UT 84655","precinct":"25GE01","hd":"50","v_score":"6.74007049","decile":"8","lat":40.05147162929627,"lng":-111.86383089738553},{"vid":"6274648","name":"Florene Mante","party":"","address":"592 E 1200 N, Genola, UT 84655","precinct":"25GE01","hd":"50","v_score":"1.121327652","decile":"3","lat":40.01746913262363,"lng":-111.82993728260094},{"vid":"6281332","name":"Cyrus DuBuque","party":"","address":"329 E 800 S, Genola, UT 84655","precinct":"25GE01","hd":"50","v_score":"2.587603312","decile":"5","lat":39.982659466600026,"lng":-111.83560215793094},{"vid":"6285946","name":"Uriel Bergstrom","party":"Rep","address":"114 S 800 E, Genola, UT 84655","precinct":"25GE01","hd":"50","v_score":"1.46627566","decile":"4","lat":39.99541990603386,"lng":-111.82492468053505},{"vid":"6286611","name":"Dicie DuBuque","party":"Dem","address":"762 E 800 N, Genola, UT 84655","precinct":"25GE01","hd":"50","v_score":"25.89095854","decile":"10","lat":40.01046003068072,"lng":-111.82557570369505},{"vid":"6287050","name":"Isadore Hermiston III","party":"","address":"983 N 350 E, Genola, UT 84655","precinct":"25GE01","hd":"50","v_score":"21.07046927","decile":"10","lat":40.01445823415862,"lng":-111.83641080392239},{"vid":"6291592","name":"Mrs. Victorine Bode","party":"","address":"787 E 200 S, Genola, UT 84655","precinct":"25GE01","hd":"50","v_score":"17.96776993","decile":"10","lat":39.9934998727466,"lng":-111.82586905789357},{"vid":"6292373","name":"Magdalene Wolff","party":"","address":"1974 N Lake Rd, Genola, UT 84655","precinct":"25GE01","hd":"50","v_score":"17.96776993","decile":"10","lat":40.03270759505356,"lng":-111.84672574339811},{"vid":"6295366","name":"Elias Steuber I","party":"","address":"112 E 400 S, Genola, UT 84655","precinct":"25GE01","hd":"50","v_score":"2.744440783","decile":"6","lat":39.98779104106442,"lng":-111.84070095408411},{"vid":"6303866","name":"Florine Hahn","party":"","address":"32 N Main St, Genola, UT 84655","precinct":"25GE01","hd":"50","v_score":"2.315214949","decile":"5","lat":39.997075193234004,"lng":-111.84255588197767},{"vid":"6314247","name":"Johnnie King","party":"","address":"2714 N Lake Rd, Genola, UT 84655","precinct":"25GE01","hd":"50","v_score":"12.07513611","decile":"9","lat":40.045820050147285,"lng":-111.86004651588307},{"vid":"6323694","name":"Nash Green DDS","party":"Dem","address":"1580 N Hillside Dr, Genola, UT 84655","precinct":"25GE01","hd":"50","v_score":"2.315214949","decile":"5","lat":40.0253985484092,"lng":-111.83298944099116},{"vid":"6324897","name":"Liddie Hegmann","party":"Dem","address":"423 N 470 E, Genola, UT 84655","precinct":"25GE01","hd":"50","v_score":"11.29723756","decile":"9","lat":40.00423795748412,"lng":-111.83274649258429},{"vid":"6332952","name":"Dr. Katrina Corwin DDS","party":"","address":"2111 N 400 W, Genola, UT 84655","precinct":"25GE01","hd":"50","v_score":"11.37977487","decile":"9","lat":40.03484739874511,"lng":-111.85325371352106},{"vid":"6345618","name":"Anderson Fahey","party":"","address":"2208 N York Ln, Santaquin, UT 84655","precinct":"25GE01","hd":"50","v_score":"26.93587103","decile":"10","lat":40.03670613836844,"lng":-111.85945907269412},{"vid":"2e40c0e3cc41955c987d44e44e078c41b24a5385901006311d6eada4e78fe99b","name":"Regan Kirlin-Mante","party":"Rep","address":"1002 E 800 N, Genola, UT 84655","precinct":"25GE01","hd":"50","v_score":"8.280646305","decile":"8","lat":40.014372040175054,"lng":-111.82108700008675},{"vid":"6350316","name":"Venice Trantow","party":"Rep","address":"2208 N York Ln, Genola, UT 84655","precinct":"25GE01","hd":"50","v_score":"26.93587103","decile":"10","lat":40.03670613836844,"lng":-111.85945907269412},{"vid":"6352431","name":"Len Kuvalis","party":"Rep","address":"329 E 800 S, Genola, UT 84655","precinct":"25GE01","hd":"50","v_score":"11.29723756","decile":"9","lat":39.982659466600026,"lng":-111.83560215793094},{"vid":"6365503","name":"Daren Howell","party":"","address":"2840 N Lake Rd, Genola, UT 84655","precinct":"25GE01","hd":"50","v_score":"3.93832808","decile":"6","lat":40.04866514034441,"lng":-111.86274483347202},{"vid":"6374412","name":"Zoe Tromp","party":"Dem","address":"814 S Park Ln, Genola, UT 84655","precinct":"25GE01","hd":"50","v_score":"9.830961897","decile":"8","lat":39.98206413128966,"lng":-111.8309300060789},{"vid":"34d65424ae2dd517f72f795ad4b7474f25ef6fa4d913ab218935ff9f560a9431","name":"Lorean Vandervort","party":"Rep","address":"529 N 470 E, Genola, UT 84655","precinct":"25GE01","hd":"50","v_score":"28.86673588","decile":"10","lat":40.006511718189145,"lng":-111.83280124933457},{"vid":"6384462","name":"Dovie Kunde","party":"","address":"209 E Center St, Genola, UT 84655","precinct":"25GE01","hd":"50","v_score":"5.40460374","decile":"7","lat":39.9987896357882,"lng":-111.83828023420081},{"vid":"6388653","name":"Mrs. Brynn Purdy","party":"Rep","address":"783 W 2400 N, Genola, UT 84655","precinct":"25GE01","hd":"50","v_score":"11.37977487","decile":"9","lat":40.03911642931134,"lng":-111.86182883370346},{"vid":"6393142","name":"Garett Feil","party":"Rep","address":"372 E 400 S, Genola, UT 84655","precinct":"25GE01","hd":"50","v_score":"0","decile":"3","lat":39.98922203920187,"lng":-111.83468579908602},{"vid":"6398993","name":"Mrs. Laureen Little DDS","party":"Rep","address":"1658 N Main St, Genola, UT 84655","precinct":"25GE01","hd":"50","v_score":"0","decile":"3","lat":40.026517924070745,"lng":-111.84268876346947},{"vid":"6403049","name":"Casie Considine","party":"Dem","address":"683 N 350 E, Genola, UT 84655","precinct":"25GE01","hd":"50","v_score":"21.07046927","decile":"10","lat":40.00910059548763,"lng":-111.8362353760628},{"vid":"7c1e2bad929a4eaadaee347cfc82987a4552c7f2bec8e03763f13928cef759fb","name":"Adan Goyette","party":"","address":"676 E Center St, Genola, UT 84655","precinct":"25GE01","hd":"50","v_score":"9.830961897","decile":"8","lat":39.99603827438278,"lng":-111.82739499202056},{"vid":"6405159","name":"Benjamine Zulauf","party":"","address":"755 S 1000 E, Genola, UT 84655","precinct":"25GE01","hd":"50","v_score":"7.781882349","decile":"8","lat":39.98358497633299,"lng":-111.81896329035693},{"vid":"6405580","name":"Charlize Doyle-Dare","party":"Dem","address":"66 E Center St, Genola, UT 84655","precinct":"25GE01","hd":"50","v_score":"13.54291438","decile":"9","lat":39.995921377029525,"lng":-111.84175716136915},{"vid":"6429356","name":"Nevada Daugherty","party":"Dem","address":"474 N 470 E, Genola, UT 84655","precinct":"25GE01","hd":"50","v_score":"3.93832808","decile":"6","lat":40.00542971258383,"lng":-111.83112786168282},{"vid":"97ea6a732ca8b2e84f915c70a8bea9ec649d55f6a32b6aadbcdd7464dceb5476","name":"Marlyn D'Amore Jr.","party":"","address":"114 W 1790 N, Genola, UT 84655","precinct":"25GE01","hd":"50","v_score":"2.315214949","decile":"5","lat":40.02962229855392,"lng":-111.84651003103876},{"vid":"6436097","name":"Cristy Zboncak","party":"","address":"474 N 470 E, Genola, UT 84655","precinct":"25GE01","hd":"50","v_score":"3.93832808","decile":"6","lat":40.00542971258383,"lng":-111.83112786168282},{"vid":"6448751","name":"Helyn Wyman-Witting","party":"","address":"533 E 400 N, Genola, UT 84655","precinct":"25GE01","hd":"50","v_score":"12.13314748","decile":"9","lat":40.00453739384387,"lng":-111.83065081386647},{"vid":"6452364","name":"Kane Reichel-Adams","party":"Rep","address":"746 N 800 E, Genola, UT 84655","precinct":"25GE01","hd":"50","v_score":"0","decile":"3","lat":40.010102891446834,"lng":-111.82360564624958},{"vid":"6469456","name":"Beula Crooks-Goldner","party":"","address":"716 N 470 E, Genola, UT 84655","precinct":"25GE01","hd":"50","v_score":"11.2235539","decile":"9","lat":40.00982097733281,"lng":-111.83155709161194},{"vid":"6472903","name":"Fonda Heathcote","party":"Dem","address":"99 E 400 S, Genola, UT 84655","precinct":"25GE01","hd":"50","v_score":"3.93832808","decile":"6","lat":39.99044827854832,"lng":-111.84095074617686},{"vid":"6473152","name":"Mr. Basil Medhurst","party":"","address":"168 E Center St, Genola, UT 84655","precinct":"25GE01","hd":"50","v_score":"8.363183621","decile":"8","lat":39.99553352379632,"lng":-111.83911573993902},{"vid":"6473893","name":"Mardell Parisian","party":"Dem","address":"182 E 1600 N, Genola, UT 84655","precinct":"25GE01","hd":"50","v_score":"3.781490609","decile":"6","lat":40.024857065968696,"lng":-111.83903792107185},{"vid":"6474709","name":"Faustino Leannon","party":"","address":"2780 N Lake Rd, Genola, UT 84655","precinct":"25GE01","hd":"50","v_score":"14.95117867","decile":"9","lat":40.04716533955046,"lng":-111.86239196804188},{"vid":"6475902","name":"Mrs. Aylin VonRueden","party":"","address":"290 E 1600 N, Genola, UT 84655","precinct":"25GE01","hd":"50","v_score":"4.152467179","decile":"7","lat":40.024813512922684,"lng":-111.83673033484861},{"vid":"6481821","name":"Shantel Yundt-Russel","party":"Rep","address":"983 N 350 E, Genola, UT 84655","precinct":"25GE01","hd":"50","v_score":"17.96776993","decile":"10","lat":40.01445823415862,"lng":-111.83641080392239},{"vid":"6482280","name":"Onnie Bayer","party":"Rep","address":"683 N 350 E, Genola, UT 84655","precinct":"25GE01","hd":"50","v_score":"21.07046927","decile":"10","lat":40.00910059548763,"lng":-111.8362353760628},{"vid":"6492053","name":"Cassondra Kub","party":"Rep","address":"415 S 800 E, Genola, UT 84655","precinct":"25GE01","hd":"50","v_score":"5.40460374","decile":"7","lat":39.98929032799274,"lng":-111.82333105023662},{"vid":"6497144","name":"Ella Schamberger","party":"Rep","address":"975 E 715 S, Genola, UT 84655","precinct":"25GE01","hd":"50","v_score":"16.57479511","decile":"9","lat":39.98465717645654,"lng":-111.8202172438842},{"vid":"6500653","name":"Gail Dibbert MD","party":"","address":"996 E 200 S, Genola, UT 84655","precinct":"25GE01","hd":"50","v_score":"1.193887297","decile":"4","lat":39.99273702205528,"lng":-111.81989073907515},{"vid":"6501719","name":"Offie Marquardt-Huels","party":"","address":"1513 N Hillside Dr, Genola, UT 84655","precinct":"25GE01","hd":"50","v_score":"8.363183621","decile":"8","lat":40.02286440380147,"lng":-111.83246960365692},{"vid":"5d52dabca7d888b563d218385288df15abd3ac2eb573a68f38ac34bbc09533f2","name":"Annabelle Maggio-Hettinger","party":"Rep","address":"125 S Main St, Genola, UT 84655","precinct":"25GE01","hd":"50","v_score":"6.74007049","decile":"8","lat":39.99448910075574,"lng":-111.8422171933744},{"vid":"6504196","name":"Frederica Harber-Ziemann","party":"Dem","address":"899 E 800 N, Genola, UT 84655","precinct":"25GE01","hd":"50","v_score":"1.121327652","decile":"3","lat":40.0119421814369,"lng":-111.82255334917053},{"vid":"6525852","name":"Isom Halvorson DVM","party":"Rep","address":"410 N Main St, Genola, UT 84655","precinct":"25GE01","hd":"50","v_score":"1.121327652","decile":"3","lat":40.00511154135075,"lng":-111.84317715383379},{"vid":"e3739d6400a0baa9f652ff5ebbd553e671ee6dd6919fc6c613c04809369795ea","name":"Harriette Batz","party":"","address":"656 E 200 S, Genola, UT 84655","precinct":"25GE01","hd":"50","v_score":"3.781490609","decile":"6","lat":39.992109833733096,"lng":-111.82812342627247},{"vid":"6530143","name":"Geo Morar","party":"Rep","address":"252 E 400 N, Genola, UT 84655","precinct":"25GE01","hd":"50","v_score":"11.23922619","decile":"9","lat":40.00289280251282,"lng":-111.83797475186473},{"vid":"6531270","name":"Joycelyn Harris","party":"","address":"475 S State St, Genola, UT 84655","precinct":"25GE01","hd":"50","v_score":"9.756661742","decile":"8","lat":39.9864964922579,"lng":-111.82788258517454},{"vid":"b580dd1b8402b6b56fb0a3d641cedc757794354ca5949cb7ab3d1c9afefecb43","name":"Mariyah Boyer MD","party":"Rep","address":"476 W 400 N, Genola, UT 84655","precinct":"25GE01","hd":"50","v_score":"2.315214949","decile":"5","lat":40.004290489403424,"lng":-111.85564827801375}]