[{"id":"1146","name":"Horatio Champlin","party":"Rep","address":"404 E 1200 N, Genola, UT 84655","precinct":"25GE01","hd":"50","v_score":"0","decile":"1","lat":40.018402474549,"lng":-111.833565092075},{"id":"1496","name":"Gena Hyatt","party":"","address":"404 E 1200 N, Genola, UT 84655","precinct":"25GE01","hd":"50","v_score":"0","decile":"1","lat":40.018402474549,"lng":-111.833565092075},{"id":"2269","name":"Imogene Beier","party":"Rep","address":"640 E 1200 N, Genola, UT 84655","precinct":"25GE01","hd":"50","v_score":"17.96776993","decile":"10","lat":40.018470357314,"lng":-111.828732318863},{"id":"3975","name":"Katharine McCullough","party":"Dem","address":"2020 N Lake Rd, Genola, UT 84655","precinct":"25GE01","hd":"50","v_score":"3.93832808","decile":"6","lat":40.032063241476,"lng":-111.846308728383},{"id":"5188","name":"Shad Ward","party":"","address":"717 S Main St, Genola, UT 84655","precinct":"25GE01","hd":"50","v_score":"3.089388791","decile":"6","lat":39.982933515843,"lng":-111.844666244219},{"id":"7615","name":"Annamarie Rosenbaum","party":"","address":"505 E 800 S, Genola, UT 84655","precinct":"25GE01","hd":"50","v_score":"3.93832808","decile":"6","lat":39.982276312424,"lng":-111.831229390457},{"id":"8142","name":"Merlyn Purdy","party":"","address":"663 N 600 E, Genola, UT 84655","precinct":"25GE01","hd":"50","v_score":"6.657533174","decile":"7","lat":39.984828582193,"lng":-111.828894495939},{"id":"10181","name":"Vernell Sauer-Kunze","party":"Dem","address":"11 N 800 E, Genola, UT 84655","precinct":"25GE01","hd":"50","v_score":"5.40460374","decile":"7","lat":39.997124748889,"lng":-111.824546396846},{"id":"10476","name":"Kristie Schmidt","party":"Dem","address":"703 N 600 E, Genola, UT 84655","precinct":"25GE01","hd":"50","v_score":"7.84392109","decile":"8","lat":39.965819703059,"lng":-111.77126371118},{"id":"11579","name":"Noble Gerlach","party":"Rep","address":"37 S 600 E, Genola, UT 84655","precinct":"25GE01","hd":"50","v_score":"1.46627566","decile":"4","lat":39.996066056097,"lng":-111.828986862695},{"id":"12667","name":"Kyler Wyman-Keeling","party":"","address":"860 N 800 E, Genola, UT 84655","precinct":"25GE01","hd":"50","v_score":"2.587603312","decile":"5","lat":40.012438416356,"lng":-111.824540209896},{"id":"13144","name":"Vergil Crist","party":"Dem","address":"680 N 470 E, Genola, UT 84655","precinct":"25GE01","hd":"50","v_score":"6.814370645","decile":"8","lat":39.986677154295,"lng":-111.795357292198},{"id":"14603","name":"Dr. Almyra Kub DDS","party":"","address":"1255 N Hillside Dr, Genola, UT 84655","precinct":"25GE01","hd":"50","v_score":"3.781490609","decile":"6","lat":40.019527051566,"lng":-111.826626146883},{"id":"18418","name":"Mrs. Micayla O'Kon DDS","party":"Rep","address":"363 E 400 S, Genola, UT 84655","precinct":"25GE01","hd":"50","v_score":"3.93832808","decile":"6","lat":39.969168339418,"lng":-111.777650316355},{"id":"19002","name":"Mr. Dilan Little DVM","party":"Rep","address":"956 N Main St, Genola, UT 84655","precinct":"25GE01","hd":"50","v_score":"3.781490609","decile":"6","lat":40.015514407656,"lng":-111.843309165069},{"id":"20498","name":"Kaiden Boehm","party":"Dem","address":"252 E 400 N, Genola, UT 84655","precinct":"25GE01","hd":"50","v_score":"5.620483348","decile":"7","lat":39.982067746709,"lng":-111.77990067119},{"id":"20718","name":"Kaylie Fay PhD","party":"Rep","address":"475 E 800 N, Genola, UT 84655","precinct":"25GE01","hd":"50","v_score":"14.74219231","decile":"9","lat":40.011297726244,"lng":-111.83335516782},{"id":"20994","name":"Joseluis Zemlak","party":"","address":"37 S 600 E, Genola, UT 84655","precinct":"25GE01","hd":"50","v_score":"1.623113131","decile":"4","lat":39.996066056097,"lng":-111.828986862695},{"id":"21271","name":"Jaydin Huel","party":"","address":"800 E Highway 6, Genola, UT 84655","precinct":"25GE01","hd":"50","v_score":"2.587603312","decile":"5","lat":39.984845881129,"lng":-111.821170392002},{"id":"22317","name":"Chelsi Cronin","party":"Dem","address":"179 E 400 S, Genola, UT 84655","precinct":"25GE01","hd":"50","v_score":"2.817000428","decile":"6","lat":39.969141339716,"lng":-111.781565129989},{"id":"23563","name":"Terrill Kirlin-Jacobson","party":"Rep","address":"158 S 600 E, Genola, UT 84655","precinct":"25GE01","hd":"50","v_score":"0","decile":"1","lat":39.993946212693,"lng":-111.829115469645},{"id":"24100","name":"Sylas Hills","party":"Rep","address":"70 W 1790 N, Genola, UT 84655","precinct":"25GE01","hd":"50","v_score":"10.22509301","decile":"9","lat":40.029007034755,"lng":-111.844726575845},{"id":"24184","name":"Epsie Jacobs","party":"Rep","address":"70 W 1790 N, Genola, UT 84655","precinct":"25GE01","hd":"50","v_score":"8.758817347","decile":"8","lat":40.029007034755,"lng":-111.844726575845},{"id":"24359","name":"Miss Iyanna Blick MD","party":"Rep","address":"360 N Sunset Ln, Genola, UT 84655","precinct":"25GE01","hd":"50","v_score":"0","decile":"1","lat":40.002921689394,"lng":-111.839584859762},{"id":"27749","name":"Miss Lillianna Gislason","party":"","address":"314 N 800 E, Genola, UT 84655","precinct":"25GE01","hd":"50","v_score":"1.121327652","decile":"3","lat":40.002539217552,"lng":-111.82439630689},{"id":"28776","name":"Pam Cruickshank","party":"","address":"787 E 200 S, Genola, UT 84655","precinct":"25GE01","hd":"50","v_score":"1.121327652","decile":"3","lat":39.993236532587,"lng":-111.824905981061},{"id":"30259","name":"Ennis Watsica","party":"","address":"962 N Main St, Genola, UT 84655","precinct":"25GE01","hd":"50","v_score":"3.781490609","decile":"6","lat":40.015787581539,"lng":-111.843309918942},{"id":"30271","name":"Miss Ivette Stiedemann DVM","party":"Dem","address":"2969 N Lake Rd, Genola, UT 84655","precinct":"25GE01","hd":"50","v_score":"1.193887297","decile":"3","lat":40.051175795026,"lng":-111.865590369246},{"id":"31189","name":"Ms. Dolly Hintz","party":"Dem","address":"390 E 800 S, Genola, UT 84655","precinct":"25GE01","hd":"50","v_score":"2.315214949","decile":"5","lat":39.988289279909,"lng":-111.824442820662},{"id":"31675","name":"Mrs. Isobel Zemlak DDS","party":"Dem","address":"564 E 600 N, Genola, UT 84655","precinct":"25GE01","hd":"50","v_score":"21.03959564","decile":"10","lat":39.986651284233,"lng":-111.829033573385},{"id":"31999","name":"Bartholomew Rogahn","party":"","address":"839 N 350 E, Genola, UT 84655","precinct":"25GE01","hd":"50","v_score":"3.711952487","decile":"6","lat":40.011932260227,"lng":-111.835568948472},{"id":"32809","name":"Rhona Crona","party":"Rep","address":"257 E 800 S, Genola, UT 84655","precinct":"25GE01","hd":"50","v_score":"16.34465679","decile":"9","lat":39.982223395171,"lng":-111.836701780977},{"id":"36801","name":"Dara Rempel","party":"Rep","address":"672 N 600 E, Genola, UT 84655","precinct":"25GE01","hd":"50","v_score":"3.93832808","decile":"6","lat":39.965701926988,"lng":-111.770729269976},{"id":"39094","name":"Mrs. Danyell Emmerich PhD","party":"Rep","address":"870 E 400 N, Genola, UT 84655","precinct":"25GE01","hd":"50","v_score":"3.781490609","decile":"6","lat":40.004074193101,"lng":-111.823040745999},{"id":"39253","name":"Yoshio Fritsch","party":"Rep","address":"135 N 400 W, Genola, UT 84655","precinct":"25GE01","hd":"50","v_score":"6.814370645","decile":"8","lat":39.998936186289,"lng":-111.85277852605},{"id":"39878","name":"Norbert Roberts","party":"Rep","address":"250 N 800 E, Genola, UT 84655","precinct":"25GE01","hd":"50","v_score":"5.191257514","decile":"7","lat":40.001390743187,"lng":-111.824389174252},{"id":"40590","name":"Mrs. Elgie Lesch MD","party":"","address":"491 N Main St, Genola, UT 84655","precinct":"25GE01","hd":"50","v_score":"9.567299636","decile":"8","lat":40.005519689029,"lng":-111.843389695398},{"id":"40650","name":"Rodney Breitenberg","party":"Rep","address":"114 S 800 E, Genola, UT 84655","precinct":"25GE01","hd":"50","v_score":"2.315214949","decile":"5","lat":39.99504798864,"lng":-111.824649080909},{"id":"41666","name":"Kelsi Wilderman","party":"Dem","address":"683 N 350 E, Genola, UT 84655","precinct":"25GE01","hd":"50","v_score":"8.721442187","decile":"8","lat":40.009100587369,"lng":-111.835576287445},{"id":"41667","name":"Nikita Gottlieb DDS","party":"Dem","address":"683 N 350 E, Genola, UT 84655","precinct":"25GE01","hd":"50","v_score":"21.07046927","decile":"10","lat":40.009100587369,"lng":-111.835576287445},{"id":"45075","name":"Mr. Andreas Altenwerth","party":"","address":"749 S Main St, Genola, UT 84655","precinct":"25GE01","hd":"50","v_score":"9.248158009","decile":"8","lat":39.982706932995,"lng":-111.84393873217},{"id":"45712","name":"Dilan Christiansen","party":"Dem","address":"184 E 400 S, Genola, UT 84655","precinct":"25GE01","hd":"50","v_score":"8.480237129","decile":"8","lat":39.969026748364,"lng":-111.781987794462},{"id":"47238","name":"Drusilla Dooley","party":"","address":"512 N 800 E, Genola, UT 84655","precinct":"25GE01","hd":"50","v_score":"1.121327652","decile":"3","lat":40.00613832565,"lng":-111.824433586501},{"id":"48068","name":"Juli Sawayn DDS","party":"Rep","address":"650 W 2400 N, Genola, UT 84655","precinct":"25GE01","hd":"50","v_score":"7.135704216","decile":"8","lat":40.04011533736,"lng":-111.857968910529},{"id":"49082","name":"Clarance Christiansen","party":"Dem","address":"962 N Main St, Genola, UT 84655","precinct":"25GE01","hd":"50","v_score":"1.46627566","decile":"4","lat":40.015787581539,"lng":-111.843309918942},{"id":"51139","name":"Porsche Halvorson PhD","party":"Rep","address":"233 E Center St, Genola, UT 84655","precinct":"25GE01","hd":"50","v_score":"9.479420342","decile":"8","lat":39.99668039871,"lng":-111.841276990505},{"id":"51430","name":"Sam Rogahn","party":"Dem","address":"996 E 200 S, Genola, UT 84655","precinct":"25GE01","hd":"50","v_score":"14.95117867","decile":"9","lat":39.993182748449,"lng":-111.819822837438},{"id":"53776","name":"Le Kessler","party":"Dem","address":"209 E Center St, Genola, UT 84655","precinct":"25GE01","hd":"50","v_score":"2.660162957","decile":"5","lat":39.996677805085,"lng":-111.841472032163},{"id":"56020","name":"Dr. Wyatt Schowalter","party":"Dem","address":"158 S 600 E, Genola, UT 84655","precinct":"25GE01","hd":"50","v_score":"0","decile":"1","lat":39.993946212693,"lng":-111.829115469645},{"id":"58093","name":"Maryann Hand","party":"","address":"726 S State St, Genola, UT 84655","precinct":"25GE01","hd":"50","v_score":"0","decile":"1","lat":39.983296801348,"lng":-111.838842443656},{"id":"58781","name":"Delbert Grady","party":"Dem","address":"645 N 350 E, Genola, UT 84655","precinct":"25GE01","hd":"50","v_score":"5.83359168","decile":"7","lat":40.008471396992,"lng":-111.835583797754},{"id":"60240","name":"Garland Jacobs","party":"Rep","address":"649 E 400 N, Genola, UT 84655","precinct":"25GE01","hd":"50","v_score":"1.193887297","decile":"3","lat":40.004103525323,"lng":-111.828375184514},{"id":"61532","name":"Yoshiko Stokes PhD","party":"","address":"722 W 2400 N, Genola, UT 84655","precinct":"25GE01","hd":"50","v_score":"0","decile":"1","lat":40.04011533752,"lng":-111.86009026867},{"id":"63033","name":"Natasha Wisoky","party":"","address":"61 E 1600 N, Genola, UT 84655","precinct":"25GE01","hd":"50","v_score":"9.897826925","decile":"8","lat":40.025578518048,"lng":-111.842019434057},{"id":"63604","name":"Nita Kassulke-Lindgren","party":"","address":"314 N 800 E, Genola, UT 84655","precinct":"25GE01","hd":"50","v_score":"1.121327652","decile":"3","lat":40.002539217552,"lng":-111.82439630689},{"id":"64721","name":"Leon Steuber","party":"Rep","address":"227 S Main St, Genola, UT 84655","precinct":"25GE01","hd":"50","v_score":"1.193887297","decile":"3","lat":39.992481289313,"lng":-111.843110792525},{"id":"65120","name":"Iliana Yundt","party":"Rep","address":"90 E 400 N, Genola, UT 84655","precinct":"25GE01","hd":"50","v_score":"2.315214949","decile":"5","lat":39.982111729291,"lng":-111.783338279012},{"id":"66457","name":"Cristina Bailey","party":"Rep","address":"596 E 800 N, Genola, UT 84655","precinct":"25GE01","hd":"50","v_score":"1.121327652","decile":"3","lat":40.01126952291,"lng":-111.827643391971},{"id":"67124","name":"Long Wisoky","party":"","address":"1580 N Hillside Dr, Genola, UT 84655","precinct":"25GE01","hd":"50","v_score":"1.193887297","decile":"3","lat":40.024234357192,"lng":-111.832120347756},{"id":"67710","name":"Thomas Larkin","party":"Rep","address":"739 N 350 E, Genola, UT 84655","precinct":"25GE01","hd":"50","v_score":"2.817000428","decile":"6","lat":40.010027815292,"lng":-111.83556521962},{"id":"70612","name":"Eola Morar","party":"Dem","address":"996 E 200 S, Genola, UT 84655","precinct":"25GE01","hd":"50","v_score":"7.650280567","decile":"8","lat":39.993182748449,"lng":-111.819822837438},{"id":"71225","name":"Dimitri Runte","party":"","address":"370 N 800 E, Genola, UT 84655","precinct":"25GE01","hd":"50","v_score":"4.137918904","decile":"7","lat":40.003543904812,"lng":-111.824407723228},{"id":"71472","name":"Corbett Leffler","party":"","address":"209 E Center St, Genola, UT 84655","precinct":"25GE01","hd":"50","v_score":"2.817000428","decile":"6","lat":39.996677805085,"lng":-111.841472032163},{"id":"73356","name":"Jann Tromp-Gislason","party":"","address":"690 N 800 E, Genola, UT 84655","precinct":"25GE01","hd":"50","v_score":"2.315214949","decile":"5","lat":40.009382471303,"lng":-111.82448546745},{"id":"73499","name":"Ms. Kaila Moore PhD","party":"Rep","address":"2840 N Lake Rd, Genola, UT 84655","precinct":"25GE01","hd":"50","v_score":"1.121327652","decile":"3","lat":40.048188868047,"lng":-111.863361933873},{"id":"73868","name":"Bailey Hagenes","party":"","address":"434 E 400 N, Genola, UT 84655","precinct":"25GE01","hd":"50","v_score":"6.814370645","decile":"8","lat":40.003956262865,"lng":-111.833917410918},{"id":"75040","name":"Dwaine Herzog III","party":"Dem","address":"1520 N Hillside Dr, Genola, UT 84655","precinct":"25GE01","hd":"50","v_score":"2.744440783","decile":"5","lat":40.020120031846,"lng":-111.826968302752},{"id":"75795","name":"Thad Kertzmann","party":"","address":"491 N Main St, Genola, UT 84655","precinct":"25GE01","hd":"50","v_score":"6.979934218","decile":"8","lat":40.005519689029,"lng":-111.843389695398},{"id":"76770","name":"Maynard Schuppe","party":"","address":"596 E 800 N, Genola, UT 84655","precinct":"25GE01","hd":"50","v_score":"3.93832808","decile":"6","lat":40.01126952291,"lng":-111.827643391971},{"id":"77909","name":"Britney Greenfelder DDS","party":"Rep","address":"676 E Center St, Genola, UT 84655","precinct":"25GE01","hd":"50","v_score":"2.315214949","decile":"5","lat":39.996734880612,"lng":-111.82729665307},{"id":"77936","name":"Dr. Kolten Bahringer DVM","party":"","address":"676 E Center St, Genola, UT 84655","precinct":"25GE01","hd":"50","v_score":"2.315214949","decile":"5","lat":39.996734880612,"lng":-111.82729665307},{"id":"78727","name":"Delois Schiller","party":"","address":"1067 E Cumorah Dr, Genola, UT 84655","precinct":"25GE01","hd":"50","v_score":"1.121327652","decile":"3","lat":39.986699158409,"lng":-111.817992825937},{"id":"80892","name":"Dr. Bliss Corkery","party":"Dem","address":"85 E 800 N, Genola, UT 84655","precinct":"25GE01","hd":"50","v_score":"1.193887297","decile":"3","lat":40.011177850276,"lng":-111.841366000414},{"id":"82058","name":"Dr. Izaiah Kunde IV","party":"","address":"1255 N Hillside Dr, Genola, UT 84655","precinct":"25GE01","hd":"50","v_score":"1.193887297","decile":"3","lat":40.019527051566,"lng":-111.826626146883},{"id":"82282","name":"Mr. Ivy Wisozk","party":"Rep","address":"302 N Main St, Santaquin, UT 84655","precinct":"25GE01","hd":"50","v_score":"0","decile":"1","lat":40.002050884028,"lng":-111.843195818599},{"id":"82363","name":"Aisha Bergnaum","party":"Rep","address":"434 E 400 N, Genola, UT 84655","precinct":"25GE01","hd":"50","v_score":"1.193887297","decile":"3","lat":40.003956262865,"lng":-111.833917410918},{"id":"82713","name":"Pauletta Pacocha DDS","party":"Dem","address":"190 N Sunset Ln, Genola, UT 84655","precinct":"25GE01","hd":"50","v_score":"0","decile":"1","lat":39.998891544646,"lng":-111.839801360183},{"id":"83405","name":"Ms. Doreen Kovacek","party":"Dem","address":"139 E 400 S, Genola, UT 84655","precinct":"25GE01","hd":"50","v_score":"1.193887297","decile":"3","lat":39.969141339759,"lng":-111.782127470207},{"id":"84339","name":"Sade Wilkinson-Crooks","party":"","address":"640 E 1200 N, Genola, UT 84655","precinct":"25GE01","hd":"50","v_score":"4.069929862","decile":"6","lat":40.018470357314,"lng":-111.828732318863},{"id":"84459","name":"Veda Reilly-Lockman","party":"","address":"583 E 1200 N, Genola, UT 84655","precinct":"25GE01","hd":"50","v_score":"0","decile":"1","lat":40.018561047224,"lng":-111.829923464961},{"id":"85976","name":"Garnet Eichmann","party":"","address":"252 E 400 N, Genola, UT 84655","precinct":"25GE01","hd":"50","v_score":"4.069929862","decile":"6","lat":39.982067746709,"lng":-111.77990067119},{"id":"86181","name":"Tarsha Koch","party":"Rep","address":"151 S Main St, Genola, UT 84655","precinct":"25GE01","hd":"50","v_score":"7.515746948","decile":"8","lat":39.993846708953,"lng":-111.843135118642},{"id":"89795","name":"Ira McGlynn MD","party":"Dem","address":"215 S 800 E, Genola, UT 84655","precinct":"25GE01","hd":"50","v_score":"0","decile":"1","lat":39.992892270965,"lng":-111.824477917494},{"id":"91464","name":"Dontae Hartmann","party":"","address":"498 W Center St, Genola, UT 84655","precinct":"25GE01","hd":"50","v_score":"3.61989409","decile":"6","lat":39.996549954238,"lng":-111.855046371811},{"id":"91912","name":"Dr. Bode Rohan","party":"Rep","address":"2515 N 800 W, Genola, UT 84655","precinct":"25GE01","hd":"50","v_score":"4.905839784","decile":"7","lat":40.042234679182,"lng":-111.862479929644},{"id":"92577","name":"Mammie Dibbert","party":"Dem","address":"62 N State St, Genola, UT 84655","precinct":"25GE01","hd":"50","v_score":"1.193887297","decile":"4","lat":39.998615471301,"lng":-111.822751612184},{"id":"93354","name":"Lynn Vandervort","party":"Rep","address":"104 E Center St, Genola, UT 84655","precinct":"25GE01","hd":"50","v_score":"7.781882349","decile":"8","lat":39.996563136088,"lng":-111.841476567725},{"id":"94776","name":"Karter Heaney","party":"Rep","address":"831 N Main St, Genola, UT 84655","precinct":"25GE01","hd":"50","v_score":"1.193887297","decile":"4","lat":40.011669217184,"lng":-111.843431830688},{"id":"95587","name":"Vella Lehner","party":"Dem","address":"800 E Highway 6, Genola, UT 84655","precinct":"25GE01","hd":"50","v_score":"0","decile":"1","lat":39.984845881129,"lng":-111.821170392002},{"id":"96203","name":"Mr. Leonidas Roberts","party":"Rep","address":"222 N Sunset Ln, Genola, UT 84655","precinct":"25GE01","hd":"50","v_score":"1.193887297","decile":"4","lat":39.999654823704,"lng":-111.839809766242},{"id":"97654","name":"Brennon Tromp","party":"Rep","address":"85 E 800 N, Genola, UT 84655","precinct":"25GE01","hd":"50","v_score":"1.193887297","decile":"4","lat":40.011177850276,"lng":-111.841366000414},{"id":"97942","name":"Mr. Tallie Ortiz IV","party":"Rep","address":"1577 N Main St, Genola, UT 84655","precinct":"25GE01","hd":"50","v_score":"2.817000428","decile":"6","lat":40.025046877429,"lng":-111.843528999838},{"id":"98766","name":"Lora Beier","party":"","address":"215 S 800 E, Genola, UT 84655","precinct":"25GE01","hd":"50","v_score":"0","decile":"1","lat":39.992892270965,"lng":-111.824477917494},{"id":"99172","name":"Anjali Jerde","party":"Dem","address":"125 E 400 S, Genola, UT 84655","precinct":"25GE01","hd":"50","v_score":"1.193887297","decile":"4","lat":39.969149191789,"lng":-111.782272387618},{"id":"101450","name":"Blaise Lesch","party":"Rep","address":"168 E Center St, Genola, UT 84655","precinct":"25GE01","hd":"50","v_score":"0","decile":"2","lat":39.996577180477,"lng":-111.840420423781},{"id":"104131","name":"Kierra Hegmann","party":"","address":"645 W 2400 N, Genola, UT 84655","precinct":"25GE01","hd":"50","v_score":"0","decile":"2","lat":40.040000746035,"lng":-111.858754598744},{"id":"104320","name":"Merton Spinka DDS","party":"","address":"252 E 400 N, Genola, UT 84655","precinct":"25GE01","hd":"50","v_score":"4.069929862","decile":"7","lat":39.982067746709,"lng":-111.77990067119},{"id":"105068","name":"Miss Mamie Moen","party":"Rep","address":"1033 E Cumorah Dr, Genola, UT 84655","precinct":"25GE01","hd":"50","v_score":"0","decile":"2","lat":39.987276098139,"lng":-111.818894037884},{"id":"106350","name":"Renea Greenholt DVM","party":"Dem","address":"190 N Sunset Ln, Genola, UT 84655","precinct":"25GE01","hd":"50","v_score":"2.876042565","decile":"6","lat":39.998891544646,"lng":-111.839801360183},{"id":"106660","name":"Camilo Labadie","party":"","address":"455 S 800 E, Genola, UT 84655","precinct":"25GE01","hd":"50","v_score":"2.876042565","decile":"6","lat":39.988831972798,"lng":-111.824303292704},{"id":"107551","name":"Delora Klein","party":"","address":"899 E 800 N, Genola, UT 84655","precinct":"25GE01","hd":"50","v_score":"3.711952487","decile":"6","lat":40.011473460227,"lng":-111.822517363349},{"id":"107826","name":"Otha Toy","party":"Rep","address":"158 S 600 E, Genola, UT 84655","precinct":"25GE01","hd":"50","v_score":"1.193887297","decile":"4","lat":39.993946212693,"lng":-111.829115469645},{"id":"109694","name":"Dr. Pinkey Beer","party":"","address":"583 E 800 S, Genola, UT 84655","precinct":"25GE01","hd":"50","v_score":"1.193887297","decile":"4","lat":39.982287580697,"lng":-111.830328629301},{"id":"110077","name":"Tennessee Abshire","party":"","address":"238 E 1600 N, Genola, UT 84655","precinct":"25GE01","hd":"50","v_score":"1.193887297","decile":"4","lat":40.025499934601,"lng":-111.837987959163},{"id":"110413","name":"Ivah Gislason","party":"","address":"583 E 800 S, Genola, UT 84655","precinct":"25GE01","hd":"50","v_score":"1.193887297","decile":"4","lat":39.982287580697,"lng":-111.830328629301},{"id":"111200","name":"Ennis Gorczany","party":"Dem","address":"1513 N Hillside Dr, Genola, UT 84655","precinct":"25GE01","hd":"50","v_score":"0","decile":"2","lat":40.023944387455,"lng":-111.831935248635},{"id":"111834","name":"Jessee Kub","party":"","address":"996 E 200 S, Genola, UT 84655","precinct":"25GE01","hd":"50","v_score":"0","decile":"2","lat":39.993182748449,"lng":-111.819822837438},{"id":"112043","name":"Gilman Rogahn","party":"","address":"1088 N Main St, Genola, UT 84655","precinct":"25GE01","hd":"50","v_score":"0","decile":"2","lat":40.017416540301,"lng":-111.843338903762},{"id":"113127","name":"Conner Heathcote","party":"Rep","address":"455 S 800 E, Genola, UT 84655","precinct":"25GE01","hd":"50","v_score":"4.069929862","decile":"7","lat":39.988831972798,"lng":-111.824303292704},{"id":"113831","name":"Donnie Denesik III","party":"","address":"287 E 400 S, Genola, UT 84655","precinct":"25GE01","hd":"50","v_score":"0","decile":"2","lat":39.969180760259,"lng":-111.7791124621},{"id":"118997","name":"Rosanna Murphy","party":"Rep","address":"99 E 400 S, Genola, UT 84655","precinct":"25GE01","hd":"50","v_score":"1.193887297","decile":"4","lat":39.96915033979,"lng":-111.782561489745},{"id":"119248","name":"Jena Anderson MD","party":"Dem","address":"663 E Center St, Genola, UT 84655","precinct":"25GE01","hd":"50","v_score":"4.069929862","decile":"7","lat":39.996841987665,"lng":-111.827614559979},{"id":"121133","name":"Dr. Derick Gutmann DVM","party":"Dem","address":"410 W 400 N, Genola, UT 84655","precinct":"25GE01","hd":"50","v_score":"1.193887297","decile":"4","lat":40.003782341142,"lng":-111.853035685961},{"id":"122884","name":"Mireya Mante-Treutel","party":"Dem","address":"370 N 800 E, Genola, UT 84655","precinct":"25GE01","hd":"50","v_score":"1.193887297","decile":"4","lat":40.003543904812,"lng":-111.824407723228},{"id":"123550","name":"Dr. Kenna Kulas","party":"","address":"101 W 1790 N, Genola, UT 84655","precinct":"25GE01","hd":"50","v_score":"1.193887297","decile":"4","lat":40.028895314719,"lng":-111.845258293151},{"id":"130052","name":"Geary Roberts","party":"Dem","address":"512 N 800 E, Genola, UT 84655","precinct":"25GE01","hd":"50","v_score":"0","decile":"2","lat":40.00613832565,"lng":-111.824433586501},{"id":"133025","name":"Pearly Jenkins","party":"Rep","address":"66 E Center St, Genola, UT 84655","precinct":"25GE01","hd":"50","v_score":"0","decile":"2","lat":39.996554797232,"lng":-111.842103653192},{"id":"133393","name":"Denice Hoeger","party":"","address":"1107 E 400 N, Genola, UT 84655","precinct":"25GE01","hd":"50","v_score":"0","decile":"2","lat":40.004282718436,"lng":-111.818103563893},{"id":"136042","name":"Cleone Weber","party":"","address":"61 E 1600 N, Genola, UT 84655","precinct":"25GE01","hd":"50","v_score":"6.954919332","decile":"8","lat":40.025578518048,"lng":-111.842019434057},{"id":"138113","name":"Dr. Maximiliano Toy IV","party":"Rep","address":"159 N 800 E, Genola, UT 84655","precinct":"25GE01","hd":"50","v_score":"0","decile":"2","lat":39.999761217696,"lng":-111.824529513545},{"id":"138634","name":"Dr. Amil Harber","party":"","address":"567 E 400 N, Genola, UT 84655","precinct":"25GE01","hd":"50","v_score":"1.193887297","decile":"4","lat":40.004085134448,"lng":-111.829918389777},{"id":"138680","name":"Williard Lowe","party":"Rep","address":"312 N Sunset Ln, Genola, UT 84655","precinct":"25GE01","hd":"50","v_score":"0","decile":"2","lat":40.001801711362,"lng":-111.839838146919},{"id":"139146","name":"Kendra Gibson","party":"Dem","address":"625 N 800 E, Genola, UT 84655","precinct":"25GE01","hd":"50","v_score":"3.93832808","decile":"6","lat":40.008230410605,"lng":-111.824629284782},{"id":"141418","name":"Woody Pfeffer","party":"","address":"101 W 1790 N, Genola, UT 84655","precinct":"25GE01","hd":"50","v_score":"5.40460374","decile":"7","lat":40.028895314719,"lng":-111.845258293151},{"id":"142351","name":"Dr. Graydon Barrows DVM","party":"","address":"427 S Main St, Genola, UT 84655","precinct":"25GE01","hd":"50","v_score":"19.58852133","decile":"10","lat":39.98860875085,"lng":-111.843062183353},{"id":"142554","name":"Nell Crooks DVM","party":"Dem","address":"1334 N Hillside Dr, Genola, UT 84655","precinct":"25GE01","hd":"50","v_score":"1.121327652","decile":"3","lat":40.022098144222,"lng":-111.829329180255},{"id":"144482","name":"Ms. Hildegard Bashirian","party":"Rep","address":"1535 N Main St, Genola, UT 84655","precinct":"25GE01","hd":"50","v_score":"2.876042565","decile":"6","lat":40.02429917067,"lng":-111.843525360194},{"id":"144590","name":"Mr. Elzy Konopelski","party":"","address":"410 W 400 N, Genola, UT 84655","precinct":"25GE01","hd":"50","v_score":"3.781490609","decile":"6","lat":40.003782341142,"lng":-111.853035685961},{"id":"144828","name":"Jesse Graham","party":"Dem","address":"1072 E Cumorah Dr, Genola, UT 84655","precinct":"25GE01","hd":"50","v_score":"2.744440783","decile":"6","lat":39.98632004911,"lng":-111.817718719892},{"id":"145093","name":"Chuck Yost","party":"Rep","address":"550 S 800 E, Genola, UT 84655","precinct":"25GE01","hd":"50","v_score":"10.36667246","decile":"9","lat":39.986437094076,"lng":-111.82434812609},{"id":"146671","name":"Delos Bins","party":"Rep","address":"85 E 400 N, Genola, UT 84655","precinct":"25GE01","hd":"50","v_score":"0","decile":"3","lat":39.982225821518,"lng":-111.783454504323},{"id":"146743","name":"Dr. Reginald Deckow","party":"","address":"640 S State St, Genola, UT 84655","precinct":"25GE01","hd":"50","v_score":"3.93832808","decile":"6","lat":39.985111809934,"lng":-111.836928874694},{"id":"147059","name":"Romeo Torp","party":"Dem","address":"1580 N Hillside Dr, Genola, UT 84655","precinct":"25GE01","hd":"50","v_score":"8.347511332","decile":"8","lat":40.024234357192,"lng":-111.832120347756},{"id":"147318","name":"Ignacio Greenholt","party":"Dem","address":"14 S 600 E, Genola, UT 84655","precinct":"25GE01","hd":"50","v_score":"14.25581744","decile":"9","lat":39.996480632492,"lng":-111.829144163422},{"id":"147441","name":"Ova Spencer","party":"Dem","address":"948 E 715 S, Genola, UT 84655","precinct":"25GE01","hd":"50","v_score":"3.93832808","decile":"6","lat":39.983555537404,"lng":-111.82035604542},{"id":"147872","name":"Joline Gulgowski PhD","party":"Dem","address":"2515 N 800 W, Genola, UT 84655","precinct":"25GE01","hd":"50","v_score":"6.027167436","decile":"7","lat":40.042234679182,"lng":-111.862479929644},{"id":"147892","name":"Dr. Jaidyn Treutel","party":"","address":"762 E 800 N, Genola, UT 84655","precinct":"25GE01","hd":"50","v_score":"28.43419354","decile":"10","lat":40.011308198136,"lng":-111.82517783469},{"id":"148077","name":"Mrs. Ima Stanton","party":"Dem","address":"970 E 715 S, Genola, UT 84655","precinct":"25GE01","hd":"50","v_score":"21.6195417","decile":"10","lat":39.983653742423,"lng":-111.820030877626},{"id":"148431","name":"Jerrold Ondricka","party":"Dem","address":"783 W 2400 N, Genola, UT 84655","precinct":"25GE01","hd":"50","v_score":"14.25581744","decile":"9","lat":40.039968791556,"lng":-111.861954848696},{"id":"148453","name":"Graydon Walsh","party":"Rep","address":"2780 N Lake Rd, Genola, UT 84655","precinct":"25GE01","hd":"50","v_score":"23.16279017","decile":"10","lat":40.04703626772,"lng":-111.862562840489},{"id":"148804","name":"Dr. Lamar Zieme","party":"","address":"1330 N Hillside Dr, Genola, UT 84655","precinct":"25GE01","hd":"50","v_score":"18.05387802","decile":"10","lat":40.021887620373,"lng":-111.829059601369},{"id":"148805","name":"Hamza Von IV","party":"Rep","address":"1330 N Hillside Dr, Genola, UT 84655","precinct":"25GE01","hd":"50","v_score":"18.05387802","decile":"10","lat":40.021887620373,"lng":-111.829059601369},{"id":"148931","name":"Corie Cruickshank","party":"","address":"948 E 715 S, Genola, UT 84655","precinct":"25GE01","hd":"50","v_score":"6.954919332","decile":"8","lat":39.983555537404,"lng":-111.82035604542},{"id":"149202","name":"Jaylen Auer-Frami","party":"","address":"257 E 800 S, Genola, UT 84655","precinct":"25GE01","hd":"50","v_score":"16.34465679","decile":"9","lat":39.982223395171,"lng":-111.836701780977},{"id":"151090","name":"Dr. Maurine Hettinger","party":"Rep","address":"953 N 350 E, Genola, UT 84655","precinct":"25GE01","hd":"50","v_score":"8.774489636","decile":"8","lat":40.013892376074,"lng":-111.835589000555},{"id":"151433","name":"Danyell Cronin","party":"Dem","address":"973 N 800 E, Genola, UT 84655","precinct":"25GE01","hd":"50","v_score":"17.96776993","decile":"10","lat":40.014170080824,"lng":-111.824674014565},{"id":"151833","name":"River Buckridge","party":"Dem","address":"158 S 600 E, Genola, UT 84655","precinct":"25GE01","hd":"50","v_score":"12.07513611","decile":"9","lat":39.993946212693,"lng":-111.829115469645},{"id":"151889","name":"Dolph Dare","party":"","address":"593 E Center St, Genola, UT 84655","precinct":"25GE01","hd":"50","v_score":"8.280646305","decile":"8","lat":39.996808892884,"lng":-111.829280524905},{"id":"151890","name":"Dr. Alma Schmidt","party":"Rep","address":"593 E Center St, Genola, UT 84655","precinct":"25GE01","hd":"50","v_score":"8.280646305","decile":"8","lat":39.996808892884,"lng":-111.829280524905},{"id":"152567","name":"Gaye Turcotte","party":"","address":"973 N 800 E, Genola, UT 84655","precinct":"25GE01","hd":"50","v_score":"17.96776993","decile":"10","lat":40.014170080824,"lng":-111.824674014565},{"id":"153191","name":"Ainsley Parker","party":"Dem","address":"22 W 1790 N, Genola, UT 84655","precinct":"25GE01","hd":"50","v_score":"22.26471331","decile":"10","lat":40.029002591793,"lng":-111.843904639556},{"id":"153595","name":"Sophronia Prosacco","party":"Dem","address":"250 N 800 E, Genola, UT 84655","precinct":"25GE01","hd":"50","v_score":"5.191257514","decile":"7","lat":40.001390743187,"lng":-111.824389174252},{"id":"153703","name":"Francis Larson","party":"Rep","address":"2980 N Lake Rd, Genola, UT 84655","precinct":"25GE01","hd":"50","v_score":"9.682978083","decile":"8","lat":40.051075208307,"lng":-111.865394761403},{"id":"154003","name":"Nat Mills","party":"Dem","address":"2980 N Lake Rd, Genola, UT 84655","precinct":"25GE01","hd":"50","v_score":"6.74007049","decile":"8","lat":40.051075208307,"lng":-111.865394761403},{"id":"154087","name":"Florene Mante","party":"","address":"592 E 1200 N, Genola, UT 84655","precinct":"25GE01","hd":"50","v_score":"1.121327652","decile":"3","lat":40.018450280307,"lng":-111.829715133298},{"id":"154615","name":"Cyrus DuBuque","party":"","address":"329 E 800 S, Genola, UT 84655","precinct":"25GE01","hd":"50","v_score":"2.587603312","decile":"5","lat":39.982231039548,"lng":-111.835465574067},{"id":"154951","name":"Uriel Bergstrom","party":"Rep","address":"114 S 800 E, Genola, UT 84655","precinct":"25GE01","hd":"50","v_score":"1.46627566","decile":"4","lat":39.99504798864,"lng":-111.824649080909},{"id":"155007","name":"Dicie DuBuque","party":"Dem","address":"762 E 800 N, Genola, UT 84655","precinct":"25GE01","hd":"50","v_score":"25.89095854","decile":"10","lat":40.011308198136,"lng":-111.82517783469},{"id":"155045","name":"Isadore Hermiston III","party":"","address":"983 N 350 E, Genola, UT 84655","precinct":"25GE01","hd":"50","v_score":"21.07046927","decile":"10","lat":40.014408196033,"lng":-111.835594277419},{"id":"155437","name":"Mrs. Victorine Bode","party":"","address":"787 E 200 S, Genola, UT 84655","precinct":"25GE01","hd":"50","v_score":"17.96776993","decile":"10","lat":39.993236532587,"lng":-111.824905981061},{"id":"155510","name":"Magdalene Wolff","party":"","address":"1974 N Lake Rd, Genola, UT 84655","precinct":"25GE01","hd":"50","v_score":"17.96776993","decile":"10","lat":40.031580499583,"lng":-111.845235668441},{"id":"155781","name":"Elias Steuber I","party":"","address":"112 E 400 S, Genola, UT 84655","precinct":"25GE01","hd":"50","v_score":"2.744440783","decile":"6","lat":39.969035748469,"lng":-111.783392006367},{"id":"156522","name":"Florine Hahn","party":"","address":"32 N Main St, Genola, UT 84655","precinct":"25GE01","hd":"50","v_score":"2.315214949","decile":"5","lat":39.997220880688,"lng":-111.843168480544},{"id":"157338","name":"Gerald Mills","party":"Rep","address":"746 S State St, Genola, UT 84655","precinct":"25GE01","hd":"50","v_score":"10.9941379","decile":"9","lat":39.982976944002,"lng":-111.839270172371},{"id":"157439","name":"Johnnie King","party":"","address":"2714 N Lake Rd, Genola, UT 84655","precinct":"25GE01","hd":"50","v_score":"12.07513611","decile":"9","lat":40.045967881489,"lng":-111.861790691289},{"id":"158313","name":"Nash Green DDS","party":"Dem","address":"1580 N Hillside Dr, Genola, UT 84655","precinct":"25GE01","hd":"50","v_score":"2.315214949","decile":"5","lat":40.024234357192,"lng":-111.832120347756},{"id":"158423","name":"Ms. Adison Schowalter DDS","party":"","address":"309 N Sunset Ln, Genola, UT 84655","precinct":"25GE01","hd":"50","v_score":"0","decile":"3","lat":40.001704933448,"lng":-111.839986235614},{"id":"159087","name":"Dr. Katrina Corwin DDS","party":"","address":"2111 N 400 W, Genola, UT 84655","precinct":"25GE01","hd":"50","v_score":"11.37977487","decile":"9","lat":40.034445255211,"lng":-111.85294894411},{"id":"160237","name":"Regan Kirlin-Mante","party":"Rep","address":"1002 E 800 N, Genola, UT 84655","precinct":"25GE01","hd":"50","v_score":"8.280646305","decile":"8","lat":40.011372766079,"lng":-111.820242914473},{"id":"160482","name":"Len Kuvalis","party":"Rep","address":"329 E 800 S, Genola, UT 84655","precinct":"25GE01","hd":"50","v_score":"11.29723756","decile":"9","lat":39.982231039548,"lng":-111.835465574067},{"id":"160953","name":"Dr. Rena Grant","party":"Rep","address":"645 W 2400 N, Genola, UT 84655","precinct":"25GE01","hd":"50","v_score":"10.66687182","decile":"9","lat":40.040000746035,"lng":-111.858754598744},{"id":"161855","name":"Daren Howell","party":"","address":"2840 N Lake Rd, Genola, UT 84655","precinct":"25GE01","hd":"50","v_score":"3.93832808","decile":"6","lat":40.048188868047,"lng":-111.863361933873},{"id":"162675","name":"Zoe Tromp","party":"Dem","address":"814 S Park Ln, Genola, UT 84655","precinct":"25GE01","hd":"50","v_score":"9.830961897","decile":"8","lat":39.982026169586,"lng":-111.831265783659},{"id":"163775","name":"Dovie Kunde","party":"","address":"209 E Center St, Genola, UT 84655","precinct":"25GE01","hd":"50","v_score":"5.40460374","decile":"7","lat":39.996677805085,"lng":-111.841472032163},{"id":"164206","name":"Mrs. Brynn Purdy","party":"Rep","address":"783 W 2400 N, Genola, UT 84655","precinct":"25GE01","hd":"50","v_score":"11.37977487","decile":"9","lat":40.039968791556,"lng":-111.861954848696},{"id":"164726","name":"Garett Feil","party":"Rep","address":"372 E 400 S, Genola, UT 84655","precinct":"25GE01","hd":"50","v_score":"0","decile":"3","lat":39.96905374802,"lng":-111.777463233977},{"id":"164791","name":"Tricia Stroman","party":"Rep","address":"1621 N Main St, Genola, UT 84655","precinct":"25GE01","hd":"50","v_score":"8.617652165","decile":"8","lat":40.025906973404,"lng":-111.843543297965},{"id":"165338","name":"Mrs. Laureen Little DDS","party":"Rep","address":"1658 N Main St, Genola, UT 84655","precinct":"25GE01","hd":"50","v_score":"0","decile":"3","lat":40.026582480373,"lng":-111.843407737057},{"id":"165775","name":"Casie Considine","party":"Dem","address":"683 N 350 E, Genola, UT 84655","precinct":"25GE01","hd":"50","v_score":"21.07046927","decile":"10","lat":40.009100587369,"lng":-111.835576287445},{"id":"165937","name":"Adan Goyette","party":"","address":"676 E Center St, Genola, UT 84655","precinct":"25GE01","hd":"50","v_score":"9.830961897","decile":"8","lat":39.996734880612,"lng":-111.82729665307},{"id":"165989","name":"Benjamine Zulauf","party":"","address":"755 S 1000 E, Genola, UT 84655","precinct":"25GE01","hd":"50","v_score":"7.781882349","decile":"8","lat":39.98309880249,"lng":-111.819425454784},{"id":"166045","name":"Charlize Doyle-Dare","party":"Dem","address":"66 E Center St, Genola, UT 84655","precinct":"25GE01","hd":"50","v_score":"13.54291438","decile":"9","lat":39.996554797232,"lng":-111.842103653192},{"id":"166594","name":"Rayburn Corwin","party":"Rep","address":"450 E Center St, Genola, UT 84655","precinct":"25GE01","hd":"50","v_score":"5.331806201","decile":"7","lat":39.996670880565,"lng":-111.832091856997},{"id":"167569","name":"Marsh Marks","party":"","address":"733 N 350 E, Genola, UT 84655","precinct":"25GE01","hd":"50","v_score":"17.96776993","decile":"10","lat":40.009928469443,"lng":-111.835566405458},{"id":"168874","name":"Marlyn D'Amore Jr.","party":"","address":"114 W 1790 N, Genola, UT 84655","precinct":"25GE01","hd":"50","v_score":"2.315214949","decile":"5","lat":40.02901110747,"lng":-111.845480017443},{"id":"169128","name":"Miss Agness Marks DVM","party":"","address":"141 E 800 N, Genola, UT 84655","precinct":"25GE01","hd":"50","v_score":"1.193887297","decile":"4","lat":40.011198618227,"lng":-111.840101139416},{"id":"171117","name":"Carlee Ziemann","party":"","address":"141 E 800 N, Genola, UT 84655","precinct":"25GE01","hd":"50","v_score":"2.315214949","decile":"5","lat":40.011198618227,"lng":-111.840101139416},{"id":"171172","name":"Helyn Wyman-Witting","party":"","address":"533 E 400 N, Genola, UT 84655","precinct":"25GE01","hd":"50","v_score":"12.13314748","decile":"9","lat":40.004073516783,"lng":-111.83060964389},{"id":"171382","name":"Rolf Ferry","party":"Rep","address":"387 E Center St, Genola, UT 84655","precinct":"25GE01","hd":"50","v_score":"5.463645877","decile":"7","lat":39.996697041134,"lng":-111.840025473199},{"id":"171583","name":"Kane Reichel-Adams","party":"Rep","address":"746 N 800 E, Genola, UT 84655","precinct":"25GE01","hd":"50","v_score":"0","decile":"3","lat":40.010386052414,"lng":-111.824490316531},{"id":"173093","name":"Damond Gleichner","party":"","address":"733 N 350 E, Genola, UT 84655","precinct":"25GE01","hd":"50","v_score":"17.96776993","decile":"10","lat":40.009928469443,"lng":-111.835566405458},{"id":"174127","name":"Fonda Heathcote","party":"Dem","address":"99 E 400 S, Genola, UT 84655","precinct":"25GE01","hd":"50","v_score":"3.93832808","decile":"6","lat":39.96915033979,"lng":-111.782561489745},{"id":"174162","name":"Mr. Basil Medhurst","party":"","address":"168 E Center St, Genola, UT 84655","precinct":"25GE01","hd":"50","v_score":"8.363183621","decile":"8","lat":39.996577180477,"lng":-111.840420423781},{"id":"174269","name":"Mardell Parisian","party":"Dem","address":"182 E 1600 N, Genola, UT 84655","precinct":"25GE01","hd":"50","v_score":"3.781490609","decile":"6","lat":40.02548374622,"lng":-111.83926894601},{"id":"174368","name":"Faustino Leannon","party":"","address":"2780 N Lake Rd, Genola, UT 84655","precinct":"25GE01","hd":"50","v_score":"14.95117867","decile":"9","lat":40.04703626772,"lng":-111.862562840489},{"id":"174514","name":"Mrs. Aylin VonRueden","party":"","address":"290 E 1600 N, Genola, UT 84655","precinct":"25GE01","hd":"50","v_score":"4.152467179","decile":"7","lat":40.025518353685,"lng":-111.836799922582},{"id":"175074","name":"Shantel Yundt-Russel","party":"Rep","address":"983 N 350 E, Genola, UT 84655","precinct":"25GE01","hd":"50","v_score":"17.96776993","decile":"10","lat":40.014408196033,"lng":-111.835594277419},{"id":"175125","name":"Onnie Bayer","party":"Rep","address":"683 N 350 E, Genola, UT 84655","precinct":"25GE01","hd":"50","v_score":"21.07046927","decile":"10","lat":40.009100587369,"lng":-111.835576287445},{"id":"176380","name":"Cassondra Kub","party":"Rep","address":"415 S 800 E, Genola, UT 84655","precinct":"25GE01","hd":"50","v_score":"5.40460374","decile":"7","lat":39.989510114675,"lng":-111.824322800327},{"id":"177053","name":"Mr. Harlie Beier DDS","party":"Rep","address":"222 N Sunset Ln, Genola, UT 84655","precinct":"25GE01","hd":"50","v_score":"5.331806201","decile":"7","lat":39.999654823704,"lng":-111.839809766242},{"id":"177115","name":"Ella Schamberger","party":"Rep","address":"975 E 715 S, Genola, UT 84655","precinct":"25GE01","hd":"50","v_score":"16.57479511","decile":"9","lat":39.983778206471,"lng":-111.820026597173},{"id":"177629","name":"Gail Dibbert MD","party":"","address":"996 E 200 S, Genola, UT 84655","precinct":"25GE01","hd":"50","v_score":"1.193887297","decile":"4","lat":39.993182748449,"lng":-111.819822837438},{"id":"177776","name":"Offie Marquardt-Huels","party":"","address":"1513 N Hillside Dr, Genola, UT 84655","precinct":"25GE01","hd":"50","v_score":"8.363183621","decile":"8","lat":40.023944387455,"lng":-111.831935248635},{"id":"177976","name":"Annabelle Maggio-Hettinger","party":"Rep","address":"125 S Main St, Genola, UT 84655","precinct":"25GE01","hd":"50","v_score":"6.74007049","decile":"8","lat":39.994313629055,"lng":-111.843146311872},{"id":"178067","name":"Rayne Huels","party":"Dem","address":"410 W 400 N, Genola, UT 84655","precinct":"25GE01","hd":"50","v_score":"3.781490609","decile":"6","lat":40.003782341142,"lng":-111.853035685961},{"id":"178070","name":"Frederica Harber-Ziemann","party":"Dem","address":"899 E 800 N, Genola, UT 84655","precinct":"25GE01","hd":"50","v_score":"1.121327652","decile":"3","lat":40.011473460227,"lng":-111.822517363349},{"id":"179889","name":"Oland Feeney MD","party":"","address":"62 N State St, Genola, UT 84655","precinct":"25GE01","hd":"50","v_score":"2.315214949","decile":"5","lat":39.998615471301,"lng":-111.822751612184},{"id":"180361","name":"Isom Halvorson DVM","party":"Rep","address":"410 N Main St, Genola, UT 84655","precinct":"25GE01","hd":"50","v_score":"1.121327652","decile":"3","lat":40.004123561694,"lng":-111.843231238715},{"id":"180771","name":"Harriette Batz","party":"","address":"656 E 200 S, Genola, UT 84655","precinct":"25GE01","hd":"50","v_score":"3.781490609","decile":"6","lat":39.993069340828,"lng":-111.827597973416},{"id":"180965","name":"Geo Morar","party":"Rep","address":"252 E 400 N, Genola, UT 84655","precinct":"25GE01","hd":"50","v_score":"11.23922619","decile":"9","lat":39.982067746709,"lng":-111.77990067119},{"id":"181102","name":"Joycelyn Harris","party":"","address":"475 S State St, Genola, UT 84655","precinct":"25GE01","hd":"50","v_score":"9.756661742","decile":"8","lat":39.987885541733,"lng":-111.834630765534},{"id":"181129","name":"Mariyah Boyer MD","party":"Rep","address":"476 W 400 N, Genola, UT 84655","precinct":"25GE01","hd":"50","v_score":"2.315214949","decile":"5","lat":40.003761449996,"lng":-111.854584830773},{"id":"181181","name":"Addie Hermiston","party":"","address":"1334 N Hillside Dr, Genola, UT 84655","precinct":"25GE01","hd":"50","v_score":"1.121327652","decile":"3","lat":40.022098144222,"lng":-111.829329180255}]