[{"vid":"f6f717311502f89a333a6aa6dda8a3310bd35991f2e8cf321f298ad2b3e8b579","name":"Yair Crooks I","party":"","address":"2043 N 1100 E, Lehi, UT 84043","precinct":"25LE10","hd":"53","v_score":"15.95616156","decile":"9","lat":40.41299711095614,"lng":-111.83168574215314},{"vid":"1224293","name":"Agnes Ratke","party":"Rep","address":"1174 N 1000 E, Lehi, UT 84043","precinct":"25LE10","hd":"53","v_score":"9.116556227","decile":"8","lat":40.40208537912358,"lng":-111.83296600142403},{"vid":"1227503","name":"Ms. Macey Jakubowski","party":"Rep","address":"1787 N 750 E, Lehi, UT 84043","precinct":"25LE10","hd":"53","v_score":"20.30142438","decile":"10","lat":40.40956265840217,"lng":-111.83750641061582},{"vid":"1249129","name":"Mal Schmeler","party":"Rep","address":"1000 E Cedar Hollow Rd, Lehi, UT 84043","precinct":"25LE10","hd":"53","v_score":"9.757278238","decile":"8","lat":40.40557194540293,"lng":-111.83302480596384},{"vid":"1259325","name":"Jair Veum","party":"Dem","address":"370 E 1650 N, Lehi, UT 84043","precinct":"25LE10","hd":"53","v_score":"18.35167816","decile":"10","lat":40.40788263293664,"lng":-111.84319863105503},{"vid":"1269252","name":"Dr. Gennaro Sauer Jr.","party":"","address":"694 E 1775 N, Apt D, Lehi, UT 84043","precinct":"25LE10","hd":"53","v_score":"1.121327652","decile":"3","lat":40.40927519178789,"lng":-111.83832538369737},{"vid":"1269265","name":"Margarite Bogan","party":"","address":"1546 N Summer Crest Dr, Lehi, UT 84043","precinct":"25LE10","hd":"53","v_score":"6.657533174","decile":"7","lat":40.406453577815746,"lng":-111.83590651496779},{"vid":"1325620","name":"Idabelle Gottlieb","party":"","address":"828 E 1475 N, Lehi, UT 84043","precinct":"25LE10","hd":"53","v_score":"10.52632313","decile":"9","lat":40.405428743920616,"lng":-111.83594541111428},{"vid":"da5d6538f3ba74a178addfa48ae8559942ed203c3ad4ccdc1cd3fdd918f4016b","name":"Archibald Prosacco","party":"Rep","address":"320 E 1650 N, Lehi, UT 84043","precinct":"25LE10","hd":"53","v_score":"7.934314529","decile":"8","lat":40.40796054285374,"lng":-111.84454417316603},{"vid":"1335087","name":"Elia Kiehn","party":"Dem","address":"340 E 1650 N, Lehi, UT 84043","precinct":"25LE10","hd":"53","v_score":"2.744440783","decile":"5","lat":40.40789236669718,"lng":-111.8438862910457},{"vid":"1380615","name":"Dr. Lucretia Heller DDS","party":"","address":"691 E 1775 N, Apt D, Lehi, UT 84043","precinct":"25LE10","hd":"53","v_score":"2.817000428","decile":"6","lat":40.40955925797809,"lng":-111.83832675280118},{"vid":"91420a888af105fea32e7ef86376570ecbbf865a062303025e3313cc7f6a2273","name":"Toby Tillman","party":"Rep","address":"1802 N 800 E, Lehi, UT 84043","precinct":"25LE10","hd":"53","v_score":"2.587603312","decile":"5","lat":40.409516439541,"lng":-111.83615188856527},{"vid":"1392829","name":"Meg Bode","party":"Rep","address":"1580 N Summer Crest Dr, Lehi, UT 84043","precinct":"25LE10","hd":"53","v_score":"3.781490609","decile":"6","lat":40.4067097814018,"lng":-111.83542641900341},{"vid":"1394708","name":"Hildegard Kling","party":"Dem","address":"1533 N Fitzgerald Ln, Lehi, UT 84043","precinct":"25LE10","hd":"53","v_score":"1.121327652","decile":"3","lat":40.40686892339524,"lng":-111.83479203223064},{"vid":"1395556","name":"Alexandre Koepp","party":"Dem","address":"1730 N 750 E, Lehi, UT 84043","precinct":"25LE10","hd":"53","v_score":"9.104889369","decile":"8","lat":40.408616190719854,"lng":-111.8370801370236},{"vid":"8fac9e8cc58f94f11144a51ce60abfa4ac20aa196cc06fb8a525d883ee0c872c","name":"Lexus Rath-Veum","party":"Dem","address":"1656 N Oak Dr, Lehi, UT 84043","precinct":"25LE10","hd":"53","v_score":"5.40460374","decile":"7","lat":40.408191415099616,"lng":-111.83434951957905},{"vid":"1442957","name":"Mrs. Wanita Anderson","party":"Dem","address":"1161 E Cedar Hollow Rd, Lehi, UT 84043","precinct":"25LE10","hd":"53","v_score":"1.193887297","decile":"3","lat":40.40747279651123,"lng":-111.83080564861528},{"vid":"1482633","name":"Benjamin Dooley","party":"Rep","address":"1889 N Airport Dr, Lehi, UT 84043","precinct":"25LE10","hd":"53","v_score":"9.674124426","decile":"8","lat":40.41145824852642,"lng":-111.83605683435093},{"vid":"4623052000a17e0954e7d45beaab608b8f06f4a2590d82b5c5bbc58971a2f6b9","name":"Ms. Raelyn Herzog DVM","party":"Rep","address":"1510 N 300 E, Lehi, UT 84043","precinct":"25LE10","hd":"53","v_score":"23.35295938","decile":"10","lat":40.40661420030217,"lng":-111.84357325278303},{"vid":"1487531","name":"Jeremey Leffler","party":"Dem","address":"1041 E 2040 N, Lehi, UT 84043","precinct":"25LE10","hd":"53","v_score":"23.95587272","decile":"10","lat":40.41319432589415,"lng":-111.83271375907285},{"vid":"5b893467b00d38f64fe3c13d36a657cc9784b24c47a78475901a2bcda28206fd","name":"Brion Cummerata III","party":"","address":"1920 N Airport Dr, Lehi, UT 84043","precinct":"25LE10","hd":"53","v_score":"6.724398202","decile":"8","lat":40.411628151306296,"lng":-111.83529250043755},{"vid":"1519601","name":"Victory Robel","party":"Dem","address":"1835 N 900 E, Lehi, UT 84043","precinct":"25LE10","hd":"53","v_score":"2.315214949","decile":"5","lat":40.41040892510498,"lng":-111.83482459652294},{"vid":"1522114","name":"Ms. Ossie Labadie DDS","party":"Rep","address":"755 E Cedar Hollow Rd, Lehi, UT 84043","precinct":"25LE10","hd":"53","v_score":"18.11188939","decile":"10","lat":40.40502473190173,"lng":-111.83587583177084},{"vid":"1530223","name":"Turner Robel","party":"Rep","address":"1710 N 800 E, Lehi, UT 84043","precinct":"25LE10","hd":"53","v_score":"1.46627566","decile":"4","lat":40.40830086272447,"lng":-111.83609852162196},{"vid":"1530568","name":"Miss Oline Quigley DDS","party":"Dem","address":"1415 N 600 E, Lehi, UT 84043","precinct":"25LE10","hd":"53","v_score":"25.91972481","decile":"10","lat":40.40458793919312,"lng":-111.84012756027907},{"vid":"ee8715c41c41a33dc9690094b9a69b4aa4b95f567107809aaadcb99194fdb9e6","name":"Deja Harris-Schmeler","party":"","address":"706 E Airport Dr, Lehi, UT 84043","precinct":"25LE10","hd":"53","v_score":"1.193887297","decile":"3","lat":40.409996106841234,"lng":-111.83826410255436},{"vid":"1544120","name":"Ms. Phyliss Bergnaum","party":"Dem","address":"1345 N Cedar Hollow Blvd, Lehi, UT 84043","precinct":"25LE10","hd":"53","v_score":"11.32212024","decile":"9","lat":40.40362588723236,"lng":-111.83324292777161},{"vid":"1547198","name":"Mrs. Melodee Cassin DVM","party":"Dem","address":"1871 N Airport Dr, Lehi, UT 84043","precinct":"25LE10","hd":"53","v_score":"13.11447181","decile":"9","lat":40.4112880083422,"lng":-111.8365122026974},{"vid":"1551488","name":"Miss Carisa Pfannerstill DVM","party":"Rep","address":"1817 N Airport Dr, Lehi, UT 84043","precinct":"25LE10","hd":"53","v_score":"21.07999247","decile":"10","lat":40.4106634799267,"lng":-111.8371165364122},{"vid":"135452137f9464d5e1335d643d5c4b4bd2f5215d28a77b32181ff67ebbe9ae4c","name":"Aiyanna Bogisich","party":"Rep","address":"1801 N 800 E, Lehi, UT 84043","precinct":"25LE10","hd":"53","v_score":"4.064235245","decile":"6","lat":40.40965069867669,"lng":-111.83663135130293},{"vid":"9dd3b6b375d03a9cd10e907509a6492deff895458aa9d2e0ed4e65f54cc33932","name":"Emanuel Morissette-Haag","party":"Dem","address":"1440 N Summer Crest Dr, Lehi, UT 84043","precinct":"25LE10","hd":"53","v_score":"23.74778107","decile":"10","lat":40.405127573187734,"lng":-111.83669835146222},{"vid":"1552693","name":"Dr. Burton Luettgen I","party":"Rep","address":"1701 N Oak Dr, Lehi, UT 84043","precinct":"25LE10","hd":"53","v_score":"15.43762891","decile":"9","lat":40.40877478774036,"lng":-111.83457431068348},{"vid":"72b97b4462a2c1b5d8c349b6188e987378e1ad2f9de9fb987527b0aeaeb23cec","name":"Orris Quitzon","party":"Rep","address":"1783 N 900 E, Lehi, UT 84043","precinct":"25LE10","hd":"53","v_score":"6.783421459","decile":"8","lat":40.40973363531582,"lng":-111.83483043449431},{"vid":"1572080","name":"Alexandre Wuckert","party":"Rep","address":"1881 N 800 E, Lehi, UT 84043","precinct":"25LE10","hd":"53","v_score":"10.5815213","decile":"9","lat":40.410685090056,"lng":-111.83561372336335},{"vid":"936090868252671d22b9f599f9c29ff9e538e62d8edb80035320f9bf271498d8","name":"Abbey Paucek-Nikolaus","party":"Dem","address":"1802 N 800 E, Lehi, UT 84043","precinct":"25LE10","hd":"53","v_score":"6.798081861","decile":"8","lat":40.409516439541,"lng":-111.83615188856527},{"vid":"1588363","name":"Carly Russel","party":"Dem","address":"933 E Mesa Ave, Lehi, UT 84043","precinct":"25LE10","hd":"53","v_score":"2.744440783","decile":"5","lat":40.40907112849484,"lng":-111.83418707923377},{"vid":"1605738","name":"Deric Langosh Sr.","party":"Rep","address":"691 E 1775 N, Apt A, Lehi, UT 84043","precinct":"25LE10","hd":"53","v_score":"1.46627566","decile":"4","lat":40.40955925797809,"lng":-111.83832675280118},{"vid":"1624789","name":"Dereon Grimes","party":"Dem","address":"697 E 1725 N, Lehi, UT 84043","precinct":"25LE10","hd":"53","v_score":"2.315214949","decile":"5","lat":40.408819842777135,"lng":-111.83841485440327},{"vid":"1628347","name":"Lakesha Reichel","party":"Dem","address":"1701 N Oak Dr, Lehi, UT 84043","precinct":"25LE10","hd":"53","v_score":"12.49472132","decile":"9","lat":40.40877478774036,"lng":-111.83457431068348},{"vid":"1630849","name":"Leana Nader DVM","party":"Rep","address":"1560 N Summer Crest Dr, Lehi, UT 84043","precinct":"25LE10","hd":"53","v_score":"1.193887297","decile":"3","lat":40.4066133826894,"lng":-111.83572780748536},{"vid":"1635487","name":"Manervia Borer","party":"Dem","address":"1562 N Fitzgerald Ln, Lehi, UT 84043","precinct":"25LE10","hd":"53","v_score":"14.53302059","decile":"9","lat":40.407266691051696,"lng":-111.83408444014928},{"vid":"1635995","name":"Coleen Osinski MD","party":"Rep","address":"2075 N Airport Dr, Lehi, UT 84043","precinct":"25LE10","hd":"53","v_score":"4.905839784","decile":"7","lat":40.41345974320265,"lng":-111.83383455139054},{"vid":"1646819","name":"Shamika Swaniawski-Runte","party":"Dem","address":"943 E 1900 N, Lehi, UT 84043","precinct":"25LE10","hd":"53","v_score":"11.54697831","decile":"9","lat":40.411585483821206,"lng":-111.83378580926522},{"vid":"2f85adefbbdb74413012a5b645c380cff6afe725ec1fa60f5dc7944214ab21f4","name":"Rory Medhurst","party":"","address":"1689 N Oak Dr, Lehi, UT 84043","precinct":"25LE10","hd":"53","v_score":"10.87160818","decile":"9","lat":40.408571879369866,"lng":-111.83484630300126},{"vid":"45a3ccc2abc54466266f8147471b1e57d31506c2340f38c741ef9a308b315038","name":"Jevon Kutch","party":"Rep","address":"1471 N Summer Crest Dr, Lehi, UT 84043","precinct":"25LE10","hd":"53","v_score":"1.46627566","decile":"4","lat":40.40553142599242,"lng":-111.83781683496765},{"vid":"1663650","name":"Derl Kirlin-Trantow","party":"","address":"1712 N 750 E, Lehi, UT 84043","precinct":"25LE10","hd":"53","v_score":"5.659072284","decile":"7","lat":40.40829734370444,"lng":-111.83712402270734},{"vid":"1681194","name":"Bartley Fisher II","party":"","address":"853 E 1475 N, Lehi, UT 84043","precinct":"25LE10","hd":"53","v_score":"1.121327652","decile":"3","lat":40.40613861235382,"lng":-111.83551652067051},{"vid":"1683619","name":"Jill Langworth","party":"Dem","address":"653 E Airport Dr, Lehi, UT 84043","precinct":"25LE10","hd":"53","v_score":"12.24706734","decile":"9","lat":40.41058025911125,"lng":-111.83910017267414},{"vid":"1705489","name":"Miss Maura Klein","party":"Rep","address":"1041 E 2040 N, Lehi, UT 84043","precinct":"25LE10","hd":"53","v_score":"16.48582198","decile":"9","lat":40.41319432589415,"lng":-111.83271375907285},{"vid":"1724919","name":"Corbin Durgan","party":"Dem","address":"1730 N 600 E, Lehi, UT 84043","precinct":"25LE10","hd":"53","v_score":"5.530510904","decile":"7","lat":40.407722469273345,"lng":-111.83945239293423},{"vid":"1750312","name":"Chana Hammes DDS","party":"","address":"913 E 1900 N, Lehi, UT 84043","precinct":"25LE10","hd":"53","v_score":"1.121327652","decile":"3","lat":40.411494407273246,"lng":-111.83428337278603},{"vid":"1755667","name":"Cierra Russel","party":"Dem","address":"1590 N 300 E, Lehi, UT 84043","precinct":"25LE10","hd":"53","v_score":"10.52632313","decile":"9","lat":40.40699706141141,"lng":-111.8439531089942},{"vid":"1759848","name":"Alverta Luettgen","party":"Rep","address":"1717 N 800 E, Lehi, UT 84043","precinct":"25LE10","hd":"53","v_score":"1.121327652","decile":"3","lat":40.408329226312155,"lng":-111.83661740082763},{"vid":"1764842","name":"Hollie Schuppe V","party":"","address":"743 E Airport Dr, Lehi, UT 84043","precinct":"25LE10","hd":"53","v_score":"0","decile":"1","lat":40.41046510697301,"lng":-111.83768334390308},{"vid":"1801275","name":"Morton Bednar V","party":"Dem","address":"2007 N Airport Dr, Lehi, UT 84043","precinct":"25LE10","hd":"53","v_score":"8.903210001","decile":"8","lat":40.41280322646457,"lng":-111.83464228457387},{"vid":"1813184","name":"Tiney Frami","party":"","address":"1616 N Summer Crest Dr, Lehi, UT 84043","precinct":"25LE10","hd":"53","v_score":"3.93832808","decile":"6","lat":40.407193673242084,"lng":-111.83536272588455},{"vid":"1834379","name":"Camilo Gusikowski","party":"Rep","address":"1730 N 600 E, Lehi, UT 84043","precinct":"25LE10","hd":"53","v_score":"3.781490609","decile":"6","lat":40.407722469273345,"lng":-111.83945239293423},{"vid":"1837254","name":"Yadira Brown PhD","party":"","address":"1574 N Fitzgerald Ln, Lehi, UT 84043","precinct":"25LE10","hd":"53","v_score":"6.881235673","decile":"8","lat":40.40746020429854,"lng":-111.83420453199786},{"vid":"1839670","name":"Lyda Schmeler","party":"","address":"1889 N Airport Dr, Lehi, UT 84043","precinct":"25LE10","hd":"53","v_score":"0","decile":"1","lat":40.41145824852642,"lng":-111.83605683435093},{"vid":"1855426","name":"Ms. Shania Hartmann","party":"Rep","address":"1151 E Cedar Ridge Rd, Lehi, UT 84043","precinct":"25LE10","hd":"53","v_score":"4.064235245","decile":"6","lat":40.405778642820486,"lng":-111.83118874171507},{"vid":"1868302","name":"Justen Hegmann","party":"Dem","address":"1401 N 600 E, Lehi, UT 84043","precinct":"25LE10","hd":"53","v_score":"5.530510904","decile":"7","lat":40.40517589582026,"lng":-111.84036188448817},{"vid":"1873755","name":"Leah McKenzie","party":"","address":"618 E Airport Dr, Lehi, UT 84043","precinct":"25LE10","hd":"53","v_score":"2.744440783","decile":"5","lat":40.41003409891132,"lng":-111.83978486359636},{"vid":"1879109","name":"Quiana Kunze MD","party":"","address":"1730 N 750 E, Lehi, UT 84043","precinct":"25LE10","hd":"53","v_score":"2.315214949","decile":"5","lat":40.408616190719854,"lng":-111.8370801370236},{"vid":"1898762","name":"Ham Hilpert","party":"Rep","address":"1423 N 1150 E, Lehi, UT 84043","precinct":"25LE10","hd":"53","v_score":"13.76893698","decile":"9","lat":40.40603587129288,"lng":-111.832567489424},{"vid":"24011ae336768680f6f78385dc39296e5fe78f82a25dcb1428bb57b3d18d5835","name":"Mrs. Jordan DuBuque","party":"Rep","address":"1661 N 800 E, Lehi, UT 84043","precinct":"25LE10","hd":"53","v_score":"23.00387674","decile":"10","lat":40.40766230213758,"lng":-111.83659547288703},{"vid":"7589a92368628f9a16607ba221248ccc000ebb3590c24a7f3608ca1f55713a20","name":"Miguelangel Streich","party":"","address":"1661 N 800 E, Lehi, UT 84043","precinct":"25LE10","hd":"53","v_score":"20.2867476","decile":"10","lat":40.40766230213758,"lng":-111.83659547288703},{"vid":"1912118","name":"Tommie Ullrich","party":"Dem","address":"759 E Airport Dr, Lehi, UT 84043","precinct":"25LE10","hd":"53","v_score":"2.315214949","decile":"5","lat":40.41047627099296,"lng":-111.83738921884853},{"vid":"1924895","name":"Dr. Reed Balistreri","party":"Rep","address":"848 E 2000 N, Lehi, UT 84043","precinct":"25LE10","hd":"53","v_score":"10.52632313","decile":"9","lat":40.41236906534555,"lng":-111.83561171126848},{"vid":"1924897","name":"Mrs. Marty Howell","party":"Dem","address":"848 E 2000 N, Lehi, UT 84043","precinct":"25LE10","hd":"53","v_score":"10.52632313","decile":"9","lat":40.41236906534555,"lng":-111.83561171126848},{"vid":"1933472","name":"Yaretzi Kuhn","party":"Rep","address":"1783 N Summer Crest Dr, Lehi, UT 84043","precinct":"25LE10","hd":"53","v_score":"2.315214949","decile":"5","lat":40.409457248602074,"lng":-111.8355859313372},{"vid":"1933865","name":"Paisley Mohr MD","party":"","address":"1375 N 1125 E, Lehi, UT 84043","precinct":"25LE10","hd":"53","v_score":"5.687348376","decile":"7","lat":40.405671521851275,"lng":-111.83168028243003},{"vid":"1943013","name":"Velia Windler","party":"Rep","address":"862 E 2070 N, Lehi, UT 84043","precinct":"25LE10","hd":"53","v_score":"4.210716443","decile":"7","lat":40.41310303181655,"lng":-111.8352593550693},{"vid":"1970485","name":"Chalmers Sanford","party":"","address":"2051 N 825 E, Lehi, UT 84043","precinct":"25LE10","hd":"53","v_score":"14.04503691","decile":"9","lat":40.41320408806226,"lng":-111.83643190067717},{"vid":"1973722","name":"Jim Adams-Heaney","party":"Dem","address":"1650 N Summer Crest Dr, Lehi, UT 84043","precinct":"25LE10","hd":"53","v_score":"5.40460374","decile":"7","lat":40.40765264802034,"lng":-111.83525369113156},{"vid":"1988553","name":"Briley Turner","party":"Dem","address":"2051 N 825 E, Lehi, UT 84043","precinct":"25LE10","hd":"53","v_score":"6.954919332","decile":"8","lat":40.41320408806226,"lng":-111.83643190067717},{"vid":"1988596","name":"Dr. Jarrell Kling","party":"Rep","address":"898 E 2070 N, Lehi, UT 84043","precinct":"25LE10","hd":"53","v_score":"4.283276088","decile":"7","lat":40.41309129146513,"lng":-111.83499491843925},{"vid":"1992387","name":"Brinda Beatty-Turner","party":"Dem","address":"1458 N Summer Crest Dr, Lehi, UT 84043","precinct":"25LE10","hd":"53","v_score":"2.315214949","decile":"5","lat":40.40542002948872,"lng":-111.83697400253675},{"vid":"1993580","name":"Orval Halvorson","party":"","address":"1920 N 1150 E, Lehi, UT 84043","precinct":"25LE10","hd":"53","v_score":"3.93832808","decile":"6","lat":40.41182647276854,"lng":-111.83155211850296},{"vid":"2001704","name":"Kaliyah Hodkiewicz","party":"Rep","address":"1908 N Airport Dr, Lehi, UT 84043","precinct":"25LE10","hd":"53","v_score":"10.14056997","decile":"9","lat":40.41127955204205,"lng":-111.83543571106823},{"vid":"2010608","name":"Bess Swift","party":"Dem","address":"1560 N Summer Crest Dr, Lehi, UT 84043","precinct":"25LE10","hd":"53","v_score":"5.258122542","decile":"7","lat":40.4066133826894,"lng":-111.83572780748536},{"vid":"2017177","name":"Nikki Kris DDS","party":"Dem","address":"2078 N 1100 E, Lehi, UT 84043","precinct":"25LE10","hd":"53","v_score":"2.315214949","decile":"5","lat":40.413429213465776,"lng":-111.83133730850075},{"vid":"2017564","name":"Lauren Schneider","party":"Rep","address":"691 E 1775 N, Apt C, Lehi, UT 84043","precinct":"25LE10","hd":"53","v_score":"15.43762891","decile":"9","lat":40.40955925797809,"lng":-111.83832675280118},{"vid":"2022474","name":"Alek Jacobson I","party":"Rep","address":"1177 N Cedar Hollow Blvd, Lehi, UT 84043","precinct":"25LE10","hd":"53","v_score":"8.514098276","decile":"8","lat":40.40208650525656,"lng":-111.83251190879713},{"vid":"2022636","name":"Matteo Ward","party":"Rep","address":"1827 N 970 E, Lehi, UT 84043","precinct":"25LE10","hd":"53","v_score":"5.191257514","decile":"7","lat":40.410372050507924,"lng":-111.83380224857318},{"vid":"2023906","name":"Mrs. Louanna Oberbrunner PhD","party":"Rep","address":"655 E Cedar Hollow Rd, Lehi, UT 84043","precinct":"25LE10","hd":"53","v_score":"0","decile":"1","lat":40.40493852143946,"lng":-111.83836946911936},{"vid":"a1dd4105c6c4118d5543acfb3081e6db28f0e5382d172d737410a9f51bf29d37","name":"Kenyon Block","party":"","address":"853 E 1475 N, Lehi, UT 84043","precinct":"25LE10","hd":"53","v_score":"3.781490609","decile":"6","lat":40.40613861235382,"lng":-111.83551652067051},{"vid":"2045864","name":"Alvin Senger","party":"","address":"1825 N 800 E, Lehi, UT 84043","precinct":"25LE10","hd":"53","v_score":"2.660162957","decile":"5","lat":40.409859134131196,"lng":-111.83662237164519},{"vid":"2073310","name":"Dr. Sarina Stroman PhD","party":"","address":"904 E 2125 N, Lehi, UT 84043","precinct":"25LE10","hd":"53","v_score":"5.191257514","decile":"7","lat":40.41380509063628,"lng":-111.8346443264379},{"vid":"2076538","name":"Miss Nella Gaylord DVM","party":"Dem","address":"1114 N Cedar Hollow Blvd, Lehi, UT 84043","precinct":"25LE10","hd":"53","v_score":"8.497351098","decile":"8","lat":40.401389644570905,"lng":-111.83191688743995},{"vid":"79d59148bf7234184ce4d84fb88b58ff66bcd05aee67c78c08ed5eec5531c565","name":"Mrs. Wende Reichert DDS","party":"","address":"1783 N 900 E, Lehi, UT 84043","precinct":"25LE10","hd":"53","v_score":"0","decile":"1","lat":40.40973363531582,"lng":-111.83483043449431},{"vid":"2093021","name":"Gladis Rice","party":"","address":"655 E Cedar Hollow Rd, Lehi, UT 84043","precinct":"25LE10","hd":"53","v_score":"3.93832808","decile":"6","lat":40.40493852143946,"lng":-111.83836946911936},{"vid":"60bb4fe27502dcb92f768e8fc2a8f99f5ca6e574d85acb2b1dbc7b77f43628a7","name":"Ephriam Nader Sr.","party":"Rep","address":"1817 N Airport Dr, Lehi, UT 84043","precinct":"25LE10","hd":"53","v_score":"3.93832808","decile":"6","lat":40.4106634799267,"lng":-111.8371165364122},{"vid":"2120591","name":"Talmadge Hagenes","party":"","address":"1177 N Cedar Hollow Blvd, Lehi, UT 84043","precinct":"25LE10","hd":"53","v_score":"0","decile":"1","lat":40.40208650525656,"lng":-111.83251190879713},{"vid":"fc4d0d7384f4362b5fe923ee875235b7a3bbe419e1c9a328c8695e782b6abd5c","name":"Grafton Price","party":"Rep","address":"1819 N 900 E, Lehi, UT 84043","precinct":"25LE10","hd":"53","v_score":"3.781490609","decile":"6","lat":40.41018435210956,"lng":-111.83491349973234},{"vid":"2129831","name":"Siddie Kautzer","party":"","address":"1502 N 600 E, Lehi, UT 84043","precinct":"25LE10","hd":"53","v_score":"1.193887297","decile":"3","lat":40.40629971855702,"lng":-111.83938920548846},{"vid":"2133944","name":"Dr. Ladarius Abernathy","party":"Dem","address":"1147 N Cedar Hollow Blvd, Lehi, UT 84043","precinct":"25LE10","hd":"53","v_score":"0","decile":"1","lat":40.401797203929924,"lng":-111.83251068421373},{"vid":"2038f2ab5025309f1d3ab5c553c60551a1c2ed07f6375e0cff6fe1b71c67b7fe","name":"Glendon Pacocha","party":"","address":"762 E Airport Dr, Lehi, UT 84043","precinct":"25LE10","hd":"53","v_score":"5.40460374","decile":"7","lat":40.410083574895054,"lng":-111.8371938765137},{"vid":"a49d2c199664bba66f12132237276d40cfa22717eb543dcbf8fa70400048671b","name":"Ms. Lalla Cummings PhD","party":"Rep","address":"988 E 2040 N, Lehi, UT 84043","precinct":"25LE10","hd":"53","v_score":"2.587603312","decile":"5","lat":40.41275754557957,"lng":-111.8335444965892},{"vid":"257ace300586c51019ffd59394217ed3774d92db7a187d10b452b757d4a9ffd4","name":"Cleone Roberts-Thiel","party":"Dem","address":"1868 N 800 E, Lehi, UT 84043","precinct":"25LE10","hd":"53","v_score":"11.04973188","decile":"9","lat":40.41028745637053,"lng":-111.83543630490716},{"vid":"2154088","name":"Bliss Weissnat","party":"Rep","address":"1868 N 800 E, Lehi, UT 84043","precinct":"25LE10","hd":"53","v_score":"11.04973188","decile":"9","lat":40.41028745637053,"lng":-111.83543630490716},{"vid":"2167285","name":"Mrs. Grayce Hauck","party":"Dem","address":"1702 N Summer Crest Dr, Lehi, UT 84043","precinct":"25LE10","hd":"53","v_score":"5.40460374","decile":"7","lat":40.40822478400269,"lng":-111.83537444576825},{"vid":"7d13e6819a6ffecf9e15d82ce61d3d29a175b25a09a8c24031419459869b7748","name":"Isom Ledner","party":"","address":"1294 N Cedar Hollow Blvd, Lehi, UT 84043","precinct":"25LE10","hd":"53","v_score":"3.93832808","decile":"6","lat":40.40360194857621,"lng":-111.8322580540602},{"vid":"6b8ffdb1c8b3e2934ecb293e3a6747dd8908e0224a780a2e31f8676ff80f468d","name":"Mrs. Zeta Bartell DDS","party":"Dem","address":"1742 N 750 E, Lehi, UT 84043","precinct":"25LE10","hd":"53","v_score":"1.121327652","decile":"3","lat":40.40884396177771,"lng":-111.83708208582878},{"vid":"2179978","name":"Tommie Reichel-Streich","party":"Rep","address":"885 E 1900 N, Lehi, UT 84043","precinct":"25LE10","hd":"53","v_score":"2.315214949","decile":"5","lat":40.41170531392253,"lng":-111.83473789163155},{"vid":"fbae99458e5c3216efde8c0df65509e48e102432b67c30cc1b9b7d467cdb34ab","name":"Kandy Pollich","party":"Rep","address":"1590 N 300 E, Lehi, UT 84043","precinct":"25LE10","hd":"53","v_score":"1.121327652","decile":"3","lat":40.40699706141141,"lng":-111.8439531089942},{"vid":"170dde13b287c64d49dbac2cc9c82fbe29bd2e796e362167f66c2c4f2ab31784","name":"Elianna Wintheiser","party":"","address":"1177 N 1000 E, Lehi, UT 84043","precinct":"25LE10","hd":"53","v_score":"8.709634245","decile":"8","lat":40.40208375963182,"lng":-111.83362111688925},{"vid":"f6acd765156edc6288870e377f6e8bc753ff924661db397cc69064ab18441fb4","name":"Araminta Kshlerin","party":"Rep","address":"1546 N Summer Crest Dr, Lehi, UT 84043","precinct":"25LE10","hd":"53","v_score":"5.191257514","decile":"7","lat":40.406453577815746,"lng":-111.83590651496779},{"vid":"fcb7cdef58c44c283729e4ece1bc89826648d5ed2d9556477ab3e75a329b4aee","name":"Evelynn Shields","party":"Rep","address":"1177 N Cedar Hollow Blvd, Lehi, UT 84043","precinct":"25LE10","hd":"53","v_score":"4.214075011","decile":"7","lat":40.40208650525656,"lng":-111.83251190879713},{"vid":"646b79e6ebe029037adcc867271d85bef6b15f5459dfda1d3e4df05d6d43b873","name":"Rusty Littel","party":"","address":"618 E Airport Dr, Lehi, UT 84043","precinct":"25LE10","hd":"53","v_score":"17.00923073","decile":"9","lat":40.41003409891132,"lng":-111.83978486359636},{"vid":"4d25c6252da5ba03b72eafb66576ee887440048027a45f06f3ef063a9bfe0b1e","name":"Christel Haley","party":"","address":"1471 N Summer Crest Dr, Lehi, UT 84043","precinct":"25LE10","hd":"53","v_score":"2.315214949","decile":"5","lat":40.40553142599242,"lng":-111.83781683496765},{"vid":"2202722","name":"Hervey Green Jr.","party":"","address":"1562 N Fitzgerald Ln, Lehi, UT 84043","precinct":"25LE10","hd":"53","v_score":"10.0942841","decile":"9","lat":40.407266691051696,"lng":-111.83408444014928},{"vid":"a70f7a76d603f1f14ad791593ce15623b6db50f40fd52cb3f02375bbe712fa42","name":"Harrell Dach","party":"","address":"1753 N 800 E, Lehi, UT 84043","precinct":"25LE10","hd":"53","v_score":"0","decile":"1","lat":40.40891529826979,"lng":-111.83673286899604},{"vid":"2209909","name":"Peggy Muller-Becker","party":"","address":"862 E 2070 N, Lehi, UT 84043","precinct":"25LE10","hd":"53","v_score":"8.985747318","decile":"8","lat":40.41310303181655,"lng":-111.8352593550693},{"vid":"66abdaf69096911691e7dd587ae2c4b00724a7c7a8e883ea9908853521137cba","name":"Ms. Mellissa Wilkinson","party":"Dem","address":"1857 N 800 E, Lehi, UT 84043","precinct":"25LE10","hd":"53","v_score":"1.623113131","decile":"5","lat":40.41034340875251,"lng":-111.83613336341712},{"vid":"2221772","name":"Mr. Loy Sawayn Sr.","party":"","address":"1857 N 800 E, Lehi, UT 84043","precinct":"25LE10","hd":"53","v_score":"2.744440783","decile":"5","lat":40.41034340875251,"lng":-111.83613336341712},{"vid":"8c79456c4032959f47d582bc19ddc71d2aa7a5ce0828dc55eed769840228d958","name":"Dr. Arlan Blanda DVM","party":"","address":"988 E 2040 N, Lehi, UT 84043","precinct":"25LE10","hd":"53","v_score":"2.817000428","decile":"6","lat":40.41275754557957,"lng":-111.8335444965892},{"vid":"93685ae73cdbaf1f3464281c22b41737098a02ffc133f5842d465cb2b2529a85","name":"Bev Reichert-Carter","party":"Dem","address":"1801 N 800 E, Lehi, UT 84043","precinct":"25LE10","hd":"53","v_score":"0","decile":"1","lat":40.40965069867669,"lng":-111.83663135130293},{"vid":"2229150","name":"Mavis Turcotte-Pfeffer","party":"","address":"2051 N 825 E, Lehi, UT 84043","precinct":"25LE10","hd":"53","v_score":"8.284004873","decile":"8","lat":40.41320408806226,"lng":-111.83643190067717},{"vid":"664e78c2d06143d1bc0bb33130d709e3e16eb2a39c14c0ea246925305081a5da","name":"Maye Schimmel","party":"Rep","address":"2087 N 825 E, Lehi, UT 84043","precinct":"25LE10","hd":"53","v_score":"2.817000428","decile":"6","lat":40.413643169566114,"lng":-111.83643406112543},{"vid":"2233233","name":"Byrdie Smitham","party":"","address":"1502 N 600 E, Lehi, UT 84043","precinct":"25LE10","hd":"53","v_score":"7.172654892","decile":"8","lat":40.40629971855702,"lng":-111.83938920548846},{"vid":"3e92fce0a0346ebdea652297755d836579244ab4715ba06bf5c3332cf0f8f53e","name":"Mr. Dorsey Marks MD","party":"","address":"1562 N Fitzgerald Ln, Lehi, UT 84043","precinct":"25LE10","hd":"53","v_score":"3.93832808","decile":"6","lat":40.407266691051696,"lng":-111.83408444014928},{"vid":"893dfdedb51e61caf2533c3eba4dd7f30d1ca123c7b7986100e70066f4412b14","name":"Dr. Lu Rempel DVM","party":"Rep","address":"1943 N 825 E, Lehi, UT 84043","precinct":"25LE10","hd":"53","v_score":"6.881235673","decile":"8","lat":40.41187671069135,"lng":-111.83634535058007},{"vid":"2242298","name":"Jolette Satterfield","party":"Rep","address":"1721 N 1200 E, Lehi, UT 84043","precinct":"25LE10","hd":"53","v_score":"1.121327652","decile":"3","lat":40.409280986717306,"lng":-111.83069721966625},{"vid":"2248171","name":"Winifred Waelchi-Tillman","party":"","address":"850 E 2070 N, Lehi, UT 84043","precinct":"25LE10","hd":"53","v_score":"2.315214949","decile":"5","lat":40.41307464400118,"lng":-111.83558956672472},{"vid":"2248963","name":"Mr. Judd Gaylord V","party":"","address":"1145 E Cedar Hollow Rd, Lehi, UT 84043","precinct":"25LE10","hd":"53","v_score":"5.258122542","decile":"7","lat":40.40761093065406,"lng":-111.83132728108825},{"vid":"1efb2b065904a4ba6a912a36e8c5f663b3984a76bbe3935e50cdc2f04eefcb8a","name":"Dr. Montie Borer","party":"","address":"2078 N 1100 E, Lehi, UT 84043","precinct":"25LE10","hd":"53","v_score":"2.876042565","decile":"6","lat":40.413429213465776,"lng":-111.83133730850075},{"vid":"2259318","name":"Darrel Kulas","party":"Dem","address":"1294 N Cedar Hollow Blvd, Lehi, UT 84043","precinct":"25LE10","hd":"53","v_score":"2.315214949","decile":"5","lat":40.40360194857621,"lng":-111.8322580540602},{"vid":"2270055","name":"Mr. Palmer Oberbrunner II","party":"Rep","address":"1764 N 800 E, Lehi, UT 84043","precinct":"25LE10","hd":"53","v_score":"1.193887297","decile":"3","lat":40.40904942913941,"lng":-111.83610552563651},{"vid":"ac0022b118078e2c422bd4558458109dc59781d52e4e83abbe54220ed790295c","name":"Arvel O'Connell","party":"","address":"340 E 1650 N, Lehi, UT 84043","precinct":"25LE10","hd":"53","v_score":"4.064235245","decile":"6","lat":40.40789236669718,"lng":-111.8438862910457},{"vid":"435c145ff7ceb440969cfb06ff5d91c01d9be639765ec11aa198c5bb70ed24b2","name":"Mr. Seymour Wyman II","party":"Dem","address":"691 E 1775 N, Apt E, Lehi, UT 84043","precinct":"25LE10","hd":"53","v_score":"14.63972567","decile":"9","lat":40.40955925797809,"lng":-111.83832675280118},{"vid":"2280613","name":"Dr. Bose Morar","party":"","address":"759 E Airport Dr, Lehi, UT 84043","precinct":"25LE10","hd":"53","v_score":"4.064235245","decile":"6","lat":40.41047627099296,"lng":-111.83738921884853},{"vid":"32fbf2ab09cdd22fb3e94200c7aa530777290c7f14860c7f09bd6bc3fac20c55","name":"Reagan Nicolas MD","party":"Rep","address":"719 E 1725 N, Lehi, UT 84043","precinct":"25LE10","hd":"53","v_score":"0","decile":"1","lat":40.40877781827159,"lng":-111.83799332780414},{"vid":"6052cbf77a1423265bf6eff17200b805ec626ada8074cb6b6308cb83c2fde1b2","name":"Deion Moore-Dickinson","party":"","address":"1755 N Summer Crest Dr, Lehi, UT 84043","precinct":"25LE10","hd":"53","v_score":"1.121327652","decile":"3","lat":40.408985775173804,"lng":-111.83582146081615},{"vid":"20936a1716f324a7cf4a5fe6c1e8bf5f0beaa2944168496666c2886f1f89e6a5","name":"Erla Beer-Swaniawski","party":"Dem","address":"1345 N Cedar Hollow Blvd, Lehi, UT 84043","precinct":"25LE10","hd":"53","v_score":"2.744440783","decile":"5","lat":40.40362588723236,"lng":-111.83324292777161},{"vid":"66575a0ab029d0b30e62f8f41a2418dd338fc574fc489c25f87dc25b87c5ead5","name":"Ashly Herman","party":"","address":"846 E 2125 N, Lehi, UT 84043","precinct":"25LE10","hd":"53","v_score":"1.193887297","decile":"3","lat":40.413804635353976,"lng":-111.83557691006125},{"vid":"5543a028433211df34bd24ef445f839dad0f2986b958f387296e016f185011da","name":"Dr. Arther Dibbert","party":"Dem","address":"1814 N 900 E, Lehi, UT 84043","precinct":"25LE10","hd":"53","v_score":"14.97385011","decile":"9","lat":40.410059020303116,"lng":-111.83420203672226},{"vid":"2320511","name":"Tolbert Greenholt-Kozey","party":"","address":"1817 N Airport Dr, Lehi, UT 84043","precinct":"25LE10","hd":"53","v_score":"3.93832808","decile":"6","lat":40.4106634799267,"lng":-111.8371165364122},{"vid":"2320647","name":"Kaydence Mosciski DDS","party":"","address":"1802 N 900 E, Lehi, UT 84043","precinct":"25LE10","hd":"53","v_score":"2.315214949","decile":"5","lat":40.40989735382514,"lng":-111.83430537487013},{"vid":"2321634","name":"Denny Gaylord","party":"","address":"1827 N 970 E, Lehi, UT 84043","precinct":"25LE10","hd":"53","v_score":"2.744440783","decile":"5","lat":40.410372050507924,"lng":-111.83380224857318},{"vid":"2338458","name":"Brittani Gutmann","party":"Rep","address":"1145 E Cedar Hollow Rd, Lehi, UT 84043","precinct":"25LE10","hd":"53","v_score":"2.315214949","decile":"5","lat":40.40761093065406,"lng":-111.83132728108825},{"vid":"2345318","name":"Mrs. Mickie Hane","party":"Dem","address":"1175 E Cedar Ridge Rd, Lehi, UT 84043","precinct":"25LE10","hd":"53","v_score":"2.315214949","decile":"5","lat":40.40555910959902,"lng":-111.83057128997687},{"vid":"2345319","name":"Ms. Scarlett Hills DDS","party":"Dem","address":"1175 E Cedar Ridge Rd, Lehi, UT 84043","precinct":"25LE10","hd":"53","v_score":"3.93832808","decile":"6","lat":40.40555910959902,"lng":-111.83057128997687},{"vid":"2348417","name":"Jayce Skiles","party":"","address":"1668 N Summer Crest Dr, Lehi, UT 84043","precinct":"25LE10","hd":"53","v_score":"2.315214949","decile":"5","lat":40.40795031759817,"lng":-111.83535364862982},{"vid":"2350628","name":"Mrs. Texas Feeney MD","party":"Rep","address":"1286 N Cedar Hollow Blvd, Apt B, Lehi, UT 84043","precinct":"25LE10","hd":"53","v_score":"2.315214949","decile":"5","lat":40.40374848142584,"lng":-111.83177864372003},{"vid":"2362312","name":"Casey Dare-Pfannerstill","party":"","address":"1997 N 825 E, Lehi, UT 84043","precinct":"25LE10","hd":"53","v_score":"0","decile":"1","lat":40.41254543964168,"lng":-111.83642865991494},{"vid":"2370503","name":"Abbigail Veum","party":"Rep","address":"1260 N Cedar Hollow Blvd, Lehi, UT 84043","precinct":"25LE10","hd":"53","v_score":"6.814370645","decile":"8","lat":40.40294071348475,"lng":-111.83195011468791},{"vid":"2387562","name":"Orren Gerhold","party":"","address":"1682 N 800 E, Lehi, UT 84043","precinct":"25LE10","hd":"53","v_score":"2.744440783","decile":"5","lat":40.40805276605699,"lng":-111.83609618540336},{"vid":"2392488","name":"Mrs. Nohely Grimes DDS","party":"Rep","address":"1814 N 900 E, Lehi, UT 84043","precinct":"25LE10","hd":"53","v_score":"1.193887297","decile":"3","lat":40.410059020303116,"lng":-111.83420203672226},{"vid":"2398566","name":"Lyndia Simonis","party":"Dem","address":"1322 N Cedar Hollow Blvd, Lehi, UT 84043","precinct":"25LE10","hd":"53","v_score":"2.315214949","decile":"5","lat":40.40384622915919,"lng":-111.83256241926891},{"vid":"2412930","name":"Maceo Nienow","party":"Dem","address":"655 E Cedar Hollow Rd, Lehi, UT 84043","precinct":"25LE10","hd":"53","v_score":"5.331806201","decile":"7","lat":40.40493852143946,"lng":-111.83836946911936},{"vid":"2413881","name":"Dr. Ronnie Marks","party":"Dem","address":"1260 N Cedar Hollow Blvd, Lehi, UT 84043","precinct":"25LE10","hd":"53","v_score":"6.954919332","decile":"8","lat":40.40294071348475,"lng":-111.83195011468791},{"vid":"2415359","name":"Philo D'Amore","party":"Dem","address":"618 E Airport Dr, Lehi, UT 84043","precinct":"25LE10","hd":"53","v_score":"1.121327652","decile":"3","lat":40.41003409891132,"lng":-111.83978486359636},{"vid":"2421282","name":"Vidal Gerhold","party":"Dem","address":"1145 E Cedar Hollow Rd, Lehi, UT 84043","precinct":"25LE10","hd":"53","v_score":"2.315214949","decile":"5","lat":40.40761093065406,"lng":-111.83132728108825},{"vid":"2425616","name":"Dr. Noble Senger","party":"","address":"830 E 1650 N, Lehi, UT 84043","precinct":"25LE10","hd":"53","v_score":"2.744440783","decile":"5","lat":40.407349595304886,"lng":-111.83569697396909},{"vid":"2426460","name":"Daryle Ward","party":"Rep","address":"2051 N 825 E, Lehi, UT 84043","precinct":"25LE10","hd":"53","v_score":"14.04503691","decile":"9","lat":40.41320408806226,"lng":-111.83643190067717},{"vid":"2430044","name":"Camden Mosciski I","party":"Dem","address":"1753 N 800 E, Lehi, UT 84043","precinct":"25LE10","hd":"53","v_score":"7.583918848","decile":"8","lat":40.40891529826979,"lng":-111.83673286899604},{"vid":"2434696","name":"Kacie Strosin","party":"","address":"1886 N 900 E, Lehi, UT 84043","precinct":"25LE10","hd":"53","v_score":"17.84989268","decile":"10","lat":40.411214770576386,"lng":-111.83434130539092},{"vid":"2435104","name":"Dimitri Halvorson","party":"","address":"1423 N 1150 E, Lehi, UT 84043","precinct":"25LE10","hd":"53","v_score":"0","decile":"1","lat":40.40603587129288,"lng":-111.832567489424},{"vid":"2435150","name":"Mrs. Indiana Rath DVM","party":"","address":"1776 N 900 E, Lehi, UT 84043","precinct":"25LE10","hd":"53","v_score":"2.315214949","decile":"5","lat":40.4094181193327,"lng":-111.83434564080468},{"vid":"2436256","name":"Rozanne Herzog","party":"Dem","address":"1863 N 900 E, Lehi, UT 84043","precinct":"25LE10","hd":"53","v_score":"3.93832808","decile":"6","lat":40.41083252177319,"lng":-111.83482939981477},{"vid":"2441740","name":"Doris Schinner","party":"Rep","address":"1532 N Summer Crest Dr, Lehi, UT 84043","precinct":"25LE10","hd":"53","v_score":"2.744440783","decile":"5","lat":40.40631481219416,"lng":-111.8361516245119},{"vid":"2460086","name":"Mrs. Odile Kovacek","party":"Dem","address":"1228 N Cedar Hollow Blvd, Lehi, UT 84043","precinct":"25LE10","hd":"53","v_score":"8.946682677","decile":"8","lat":40.40265835017605,"lng":-111.83185944857222},{"vid":"2460344","name":"Nadine Davis","party":"Dem","address":"655 E Cedar Hollow Rd, Lehi, UT 84043","precinct":"25LE10","hd":"53","v_score":"1.623113131","decile":"5","lat":40.40493852143946,"lng":-111.83836946911936},{"vid":"2464889","name":"Mrs. Dana Vandervort","party":"","address":"1801 N 900 E, Lehi, UT 84043","precinct":"25LE10","hd":"53","v_score":"9.231763363","decile":"8","lat":40.409965573273524,"lng":-111.83494465946625},{"vid":"2468808","name":"Dr. Dillie Abbott","party":"","address":"1131 E Fitzgerald Ln, Lehi, UT 84043","precinct":"25LE10","hd":"53","v_score":"7.090117576","decile":"8","lat":40.40734316393732,"lng":-111.83301526229818},{"vid":"2481269","name":"Kit Sporer-Stroman","party":"Dem","address":"1362 N Cedar Hollow Blvd, Lehi, UT 84043","precinct":"25LE10","hd":"53","v_score":"1.193887297","decile":"3","lat":40.404115584879676,"lng":-111.83317475910509},{"vid":"2483750","name":"Colin Ortiz","party":"Rep","address":"897 E 1900 N, Lehi, UT 84043","precinct":"25LE10","hd":"53","v_score":"0","decile":"1","lat":40.41154760905675,"lng":-111.83455451603665},{"vid":"2484120","name":"Zeno Hyatt-Dare","party":"","address":"1177 N Cedar Hollow Blvd, Lehi, UT 84043","precinct":"25LE10","hd":"53","v_score":"9.638447451","decile":"8","lat":40.40208650525656,"lng":-111.83251190879713},{"vid":"2485534","name":"Talan Lang Jr.","party":"Dem","address":"1260 N Cedar Hollow Blvd, Lehi, UT 84043","precinct":"25LE10","hd":"53","v_score":"4.210478549","decile":"7","lat":40.40294071348475,"lng":-111.83195011468791},{"vid":"2490229","name":"Tegan Ledner","party":"Rep","address":"743 E 1725 N, Lehi, UT 84043","precinct":"25LE10","hd":"53","v_score":"0","decile":"1","lat":40.40878202720822,"lng":-111.83751846805268},{"vid":"2491172","name":"Dr. Alexandrea Keebler","party":"Rep","address":"717 E 1775 N, Lehi, UT 84043","precinct":"25LE10","hd":"53","v_score":"0","decile":"1","lat":40.40956250884033,"lng":-111.8379854403166},{"vid":"2497819","name":"Magdalene Beier","party":"","address":"2021 N 1200 E, Lehi, UT 84043","precinct":"25LE10","hd":"53","v_score":"12.81831199","decile":"9","lat":40.41267191985868,"lng":-111.83061547665847},{"vid":"2500097","name":"Mayo Blanda V","party":"Rep","address":"1598 N Summer Crest Dr, Lehi, UT 84043","precinct":"25LE10","hd":"53","v_score":"0","decile":"1","lat":40.406963937294535,"lng":-111.83536303116199},{"vid":"2501985","name":"Rollin Pfannerstill","party":"Dem","address":"1863 N 900 E, Lehi, UT 84043","precinct":"25LE10","hd":"53","v_score":"5.693042993","decile":"7","lat":40.41083252177319,"lng":-111.83482939981477},{"vid":"2503333","name":"Marland O'Hara","party":"Dem","address":"688 E Airport Dr, Lehi, UT 84043","precinct":"25LE10","hd":"53","v_score":"1.193887297","decile":"3","lat":40.40999217534637,"lng":-111.83855125855708},{"vid":"2506527","name":"Cyntha Sauer-West","party":"","address":"1325 N Cedar Hollow Blvd, Lehi, UT 84043","precinct":"25LE10","hd":"53","v_score":"8.284004873","decile":"8","lat":40.403399127284025,"lng":-111.83305370083104},{"vid":"2506629","name":"Nadine Swaniawski","party":"","address":"1668 N Summer Crest Dr, Lehi, UT 84043","precinct":"25LE10","hd":"53","v_score":"1.193887297","decile":"3","lat":40.40795031759817,"lng":-111.83535364862982},{"vid":"2511963","name":"Mickey Kozey","party":"Rep","address":"1656 N Oak Dr, Lehi, UT 84043","precinct":"25LE10","hd":"53","v_score":"1.193887297","decile":"4","lat":40.408191415099616,"lng":-111.83434951957905},{"vid":"2512976","name":"Archer Effertz","party":"Dem","address":"847 E 1475 N, Lehi, UT 84043","precinct":"25LE10","hd":"53","v_score":"1.193887297","decile":"4","lat":40.40598195210125,"lng":-111.83578221916862},{"vid":"2514833","name":"Hakeem Conroy","party":"","address":"1868 N 800 E, Lehi, UT 84043","precinct":"25LE10","hd":"53","v_score":"0","decile":"1","lat":40.41028745637053,"lng":-111.83543630490716},{"vid":"2516096","name":"Giovani Toy","party":"","address":"2021 N 1200 E, Lehi, UT 84043","precinct":"25LE10","hd":"53","v_score":"5.926494964","decile":"7","lat":40.41267191985868,"lng":-111.83061547665847},{"vid":"2522911","name":"Rubin Kohler","party":"Rep","address":"1783 N Summer Crest Dr, Lehi, UT 84043","precinct":"25LE10","hd":"53","v_score":"6.728543739","decile":"8","lat":40.409457248602074,"lng":-111.8355859313372},{"vid":"2527416","name":"Freeda Lind-Thompson","party":"Rep","address":"1814 N 900 E, Lehi, UT 84043","precinct":"25LE10","hd":"53","v_score":"1.193887297","decile":"4","lat":40.410059020303116,"lng":-111.83420203672226},{"vid":"2529830","name":"Finn Doyle-O'Conner","party":"Rep","address":"2057 N Airport Dr, Lehi, UT 84043","precinct":"25LE10","hd":"53","v_score":"3.711952487","decile":"6","lat":40.41328273303972,"lng":-111.83404363427293},{"vid":"2533018","name":"Clarice Cormier-Baumbach","party":"Rep","address":"1778 N 750 E, Lehi, UT 84043","precinct":"25LE10","hd":"53","v_score":"0","decile":"1","lat":40.40952727538766,"lng":-111.83708793134602},{"vid":"2536048","name":"Dr. Tyrik Green Jr.","party":"","address":"2078 N 1100 E, Lehi, UT 84043","precinct":"25LE10","hd":"53","v_score":"4.069929862","decile":"6","lat":40.413429213465776,"lng":-111.83133730850075},{"vid":"2538172","name":"Evonne Bahringer","party":"Rep","address":"1778 N 750 E, Lehi, UT 84043","precinct":"25LE10","hd":"53","v_score":"2.817000428","decile":"6","lat":40.40952727538766,"lng":-111.83708793134602},{"vid":"2547885","name":"Lannie Bogisich","party":"Dem","address":"2025 N 1100 E, Lehi, UT 84043","precinct":"25LE10","hd":"53","v_score":"4.905839784","decile":"7","lat":40.412793810429484,"lng":-111.83160255747822},{"vid":"2560620","name":"Jeanne Hauck","party":"Rep","address":"2015 N 825 E, Lehi, UT 84043","precinct":"25LE10","hd":"53","v_score":"0","decile":"1","lat":40.41276500697641,"lng":-111.8364297407679},{"vid":"2561879","name":"Dr. Wayde Huels Jr.","party":"Dem","address":"1114 N Cedar Hollow Blvd, Lehi, UT 84043","precinct":"25LE10","hd":"53","v_score":"2.817000428","decile":"6","lat":40.401389644570905,"lng":-111.83191688743995},{"vid":"2567248","name":"Elmo Schmidt","party":"","address":"1843 N 800 E, Lehi, UT 84043","precinct":"25LE10","hd":"53","v_score":"5.407962308","decile":"7","lat":40.4101127083068,"lng":-111.8363882472841},{"vid":"2569300","name":"Renea Marks DDS","party":"Dem","address":"1920 N Airport Dr, Lehi, UT 84043","precinct":"25LE10","hd":"53","v_score":"11.26156058","decile":"9","lat":40.411628151306296,"lng":-111.83529250043755},{"vid":"2571555","name":"Ethyl Renner","party":"","address":"1146 N 1000 E, Lehi, UT 84043","precinct":"25LE10","hd":"53","v_score":"0","decile":"1","lat":40.401796077655284,"lng":-111.83296477558301},{"vid":"2573581","name":"Ellis Donnelly","party":"","address":"1857 N 800 E, Lehi, UT 84043","precinct":"25LE10","hd":"53","v_score":"1.193887297","decile":"4","lat":40.41034340875251,"lng":-111.83613336341712},{"vid":"2591570","name":"Elfreda Ruecker","party":"Rep","address":"1598 N Summer Crest Dr, Lehi, UT 84043","precinct":"25LE10","hd":"53","v_score":"8.236277988","decile":"8","lat":40.406963937294535,"lng":-111.83536303116199},{"vid":"2608293","name":"Maddison Graham","party":"","address":"2085 N 1100 E, Lehi, UT 84043","precinct":"25LE10","hd":"53","v_score":"0","decile":"1","lat":40.4136660169307,"lng":-111.83188604050125},{"vid":"2609344","name":"Mr. Lyman Carroll","party":"Rep","address":"1776 N 900 E, Lehi, UT 84043","precinct":"25LE10","hd":"53","v_score":"0","decile":"1","lat":40.4094181193327,"lng":-111.83434564080468},{"vid":"2627348","name":"Jessie Crist DDS","party":"Rep","address":"2069 N 825 E, Lehi, UT 84043","precinct":"25LE10","hd":"53","v_score":"5.693042993","decile":"7","lat":40.41342362930911,"lng":-111.8364329806318},{"vid":"2630502","name":"Arlis Mueller-Aufderhar","party":"Rep","address":"1286 N Cedar Hollow Blvd, Lehi, UT 84043","precinct":"25LE10","hd":"53","v_score":"1.193887297","decile":"4","lat":40.40374848142584,"lng":-111.83177864372003},{"vid":"2630834","name":"Helene Auer","party":"Rep","address":"1911 N 1200 E, Lehi, UT 84043","precinct":"25LE10","hd":"53","v_score":"5.693042993","decile":"7","lat":40.41157769670514,"lng":-111.83061607662904},{"vid":"2637057","name":"Royce Russel","party":"Dem","address":"1869 N 800 E, Lehi, UT 84043","precinct":"25LE10","hd":"53","v_score":"6.355720798","decile":"7","lat":40.41061153936501,"lng":-111.83588658328041},{"vid":"2640675","name":"Elinor Crooks","party":"Rep","address":"1146 N 1000 E, Lehi, UT 84043","precinct":"25LE10","hd":"53","v_score":"1.623113131","decile":"5","lat":40.401796077655284,"lng":-111.83296477558301},{"vid":"2643429","name":"Lorelai Hintz","party":"","address":"1147 N Cedar Hollow Blvd, Lehi, UT 84043","precinct":"25LE10","hd":"53","v_score":"2.817000428","decile":"6","lat":40.401797203929924,"lng":-111.83251068421373},{"vid":"2643621","name":"Rowena Kirlin DDS","party":"","address":"1114 N Cedar Hollow Blvd, Lehi, UT 84043","precinct":"25LE10","hd":"53","v_score":"2.817000428","decile":"6","lat":40.401389644570905,"lng":-111.83191688743995},{"vid":"2647179","name":"Charlotta Dooley","party":"Rep","address":"1997 N 825 E, Lehi, UT 84043","precinct":"25LE10","hd":"53","v_score":"0","decile":"1","lat":40.41254543964168,"lng":-111.83642865991494},{"vid":"2658244","name":"Nery Price","party":"Dem","address":"1916 N 1150 E, Lehi, UT 84043","precinct":"25LE10","hd":"53","v_score":"1.193887297","decile":"4","lat":40.411786082226826,"lng":-111.8312982564581},{"vid":"2658788","name":"Ms. Ina Satterfield","party":"Dem","address":"725 E Cedar Hollow Rd, Lehi, UT 84043","precinct":"25LE10","hd":"53","v_score":"9.638447451","decile":"8","lat":40.40483547699678,"lng":-111.83660267187993},{"vid":"2659495","name":"Alanzo Haley","party":"","address":"2026 N 1100 E, Lehi, UT 84043","precinct":"25LE10","hd":"53","v_score":"0","decile":"1","lat":40.4128032644438,"lng":-111.83124938136928},{"vid":"2663525","name":"Hadley Tromp","party":"Rep","address":"691 E 1775 N, Apt E, Lehi, UT 84043","precinct":"25LE10","hd":"53","v_score":"1.193887297","decile":"4","lat":40.40955925797809,"lng":-111.83832675280118},{"vid":"2664449","name":"Ciarra Schowalter","party":"Dem","address":"1817 N Airport Dr, Lehi, UT 84043","precinct":"25LE10","hd":"53","v_score":"1.193887297","decile":"4","lat":40.4106634799267,"lng":-111.8371165364122},{"vid":"2665076","name":"Alvin Pacocha-Romaguera","party":"","address":"743 E 1725 N, Lehi, UT 84043","precinct":"25LE10","hd":"53","v_score":"1.193887297","decile":"4","lat":40.40878202720822,"lng":-111.83751846805268},{"vid":"2678409","name":"Marcy Cummerata","party":"","address":"1616 N Summer Crest Dr, Lehi, UT 84043","precinct":"25LE10","hd":"53","v_score":"0","decile":"2","lat":40.407193673242084,"lng":-111.83536272588455},{"vid":"2683362","name":"Hermina Miller","party":"Dem","address":"691 E 1775 N, Apt D, Lehi, UT 84043","precinct":"25LE10","hd":"53","v_score":"0","decile":"2","lat":40.40955925797809,"lng":-111.83832675280118},{"vid":"2686615","name":"Mrs. Rosalie Kulas","party":"Rep","address":"743 E Airport Dr, Lehi, UT 84043","precinct":"25LE10","hd":"53","v_score":"0","decile":"2","lat":40.41046510697301,"lng":-111.83768334390308},{"vid":"2688279","name":"Nicole Wisozk","party":"Rep","address":"1122 N 940 E, Lehi, UT 84043","precinct":"25LE10","hd":"53","v_score":"0","decile":"2","lat":40.40138755780776,"lng":-111.8341699310499},{"vid":"2689969","name":"Destany Steuber","party":"","address":"1718 N Summer Crest Dr, Lehi, UT 84043","precinct":"25LE10","hd":"53","v_score":"11.99595736","decile":"9","lat":40.408536124788625,"lng":-111.83530190071846},{"vid":"2693643","name":"Eddie Kuhn","party":"","address":"933 E Mesa Ave, Lehi, UT 84043","precinct":"25LE10","hd":"53","v_score":"0","decile":"2","lat":40.40907112849484,"lng":-111.83418707923377},{"vid":"2729254","name":"Luann Anderson","party":"","address":"1502 N 600 E, Lehi, UT 84043","precinct":"25LE10","hd":"53","v_score":"5.407962308","decile":"7","lat":40.40629971855702,"lng":-111.83938920548846},{"vid":"2735568","name":"Dr. Andres Adams","party":"","address":"1863 N 900 E, Lehi, UT 84043","precinct":"25LE10","hd":"53","v_score":"0","decile":"2","lat":40.41083252177319,"lng":-111.83482939981477},{"vid":"2735623","name":"Kristian Altenwerth-Bechtelar","party":"","address":"2025 N 1100 E, Lehi, UT 84043","precinct":"25LE10","hd":"53","v_score":"4.069929862","decile":"7","lat":40.412793810429484,"lng":-111.83160255747822},{"vid":"2735713","name":"Marleigh Jerde","party":"","address":"847 E 1475 N, Lehi, UT 84043","precinct":"25LE10","hd":"53","v_score":"0","decile":"2","lat":40.40598195210125,"lng":-111.83578221916862},{"vid":"2741309","name":"Anice Crooks","party":"","address":"1058 E 2040 N, Lehi, UT 84043","precinct":"25LE10","hd":"53","v_score":"2.876042565","decile":"6","lat":40.41278170237353,"lng":-111.83237984149623},{"vid":"2743549","name":"Maddison Wisozk","party":"","address":"1515 N 1200 E, Lehi, UT 84043","precinct":"25LE10","hd":"53","v_score":"4.069929862","decile":"7","lat":40.40705726715107,"lng":-111.83060022711895},{"vid":"2743550","name":"Karli Grimes","party":"Dem","address":"1515 N 1200 E, Lehi, UT 84043","precinct":"25LE10","hd":"53","v_score":"4.069929862","decile":"7","lat":40.40705726715107,"lng":-111.83060022711895},{"vid":"2743583","name":"Lazaro Harber","party":"Dem","address":"1515 N 1200 E, Lehi, UT 84043","precinct":"25LE10","hd":"53","v_score":"4.069929862","decile":"7","lat":40.40705726715107,"lng":-111.83060022711895},{"vid":"2743937","name":"Hillard Considine","party":"","address":"1131 E Fitzgerald Ln, Lehi, UT 84043","precinct":"25LE10","hd":"53","v_score":"7.090117576","decile":"8","lat":40.40734316393732,"lng":-111.83301526229818},{"vid":"2746564","name":"Tavares Wuckert","party":"","address":"1916 N 1150 E, Lehi, UT 84043","precinct":"25LE10","hd":"53","v_score":"1.193887297","decile":"4","lat":40.411786082226826,"lng":-111.8312982564581},{"vid":"2752186","name":"Thaddeus Hirthe","party":"Dem","address":"1802 N 900 E, Lehi, UT 84043","precinct":"25LE10","hd":"53","v_score":"8.284004873","decile":"8","lat":40.40989735382514,"lng":-111.83430537487013},{"vid":"2757017","name":"Haskell Yost","party":"Dem","address":"880 E 1900 N, Lehi, UT 84043","precinct":"25LE10","hd":"53","v_score":"1.193887297","decile":"4","lat":40.41132342006621,"lng":-111.8348105901477},{"vid":"2760055","name":"Mrs. Jettie Boehm DVM","party":"Rep","address":"798 E 1475 N, Lehi, UT 84043","precinct":"25LE10","hd":"53","v_score":"1.193887297","decile":"4","lat":40.40537289030644,"lng":-111.8366275253593},{"vid":"2760539","name":"Dr. Gaetano Botsford IV","party":"","address":"1787 N 750 E, A, Lehi, UT 84043","precinct":"25LE10","hd":"53","v_score":"1.193887297","decile":"4","lat":40.40956265840217,"lng":-111.83750641061582},{"vid":"2772879","name":"Arizona Mueller","party":"Dem","address":"743 E 1725 N, Lehi, UT 84043","precinct":"25LE10","hd":"53","v_score":"0","decile":"2","lat":40.40878202720822,"lng":-111.83751846805268},{"vid":"2781831","name":"Hence Wolff","party":"Dem","address":"2085 N 1100 E, Lehi, UT 84043","precinct":"25LE10","hd":"53","v_score":"0","decile":"2","lat":40.4136660169307,"lng":-111.83188604050125},{"vid":"2783295","name":"Finn O'Kon","party":"","address":"1580 N Summer Crest Dr, Lehi, UT 84043","precinct":"25LE10","hd":"53","v_score":"1.193887297","decile":"4","lat":40.4067097814018,"lng":-111.83542641900341},{"vid":"2789564","name":"Fayette Mueller","party":"Rep","address":"1274 N 940 E, Lehi, UT 84043","precinct":"25LE10","hd":"53","v_score":"0","decile":"2","lat":40.403264770889294,"lng":-111.83393400575672},{"vid":"2798728","name":"Elwin Jast","party":"Rep","address":"1228 N Cedar Hollow Blvd, Lehi, UT 84043","precinct":"25LE10","hd":"53","v_score":"1.193887297","decile":"4","lat":40.40265835017605,"lng":-111.83185944857222},{"vid":"2801626","name":"Dow Mayert I","party":"","address":"1228 N Cedar Hollow Blvd, Lehi, UT 84043","precinct":"25LE10","hd":"53","v_score":"2.876042565","decile":"6","lat":40.40265835017605,"lng":-111.83185944857222},{"vid":"2815203","name":"Pleas Grady","party":"Rep","address":"1718 N Summer Crest Dr, Lehi, UT 84043","precinct":"25LE10","hd":"53","v_score":"7.090117576","decile":"8","lat":40.408536124788625,"lng":-111.83530190071846},{"vid":"2817423","name":"Arlene Price","party":"","address":"2057 N Airport Dr, Lehi, UT 84043","precinct":"25LE10","hd":"53","v_score":"0","decile":"2","lat":40.41328273303972,"lng":-111.83404363427293},{"vid":"2819844","name":"Orra Leannon","party":"Rep","address":"1228 N Cedar Hollow Blvd, Lehi, UT 84043","precinct":"25LE10","hd":"53","v_score":"5.407962308","decile":"7","lat":40.40265835017605,"lng":-111.83185944857222},{"vid":"2823868","name":"Dr. Tayshaun Littel DVM","party":"","address":"1911 N 1200 E, Lehi, UT 84043","precinct":"25LE10","hd":"53","v_score":"4.069929862","decile":"7","lat":40.41157769670514,"lng":-111.83061607662904},{"vid":"2825836","name":"Miss Zaria Jenkins DVM","party":"Rep","address":"1294 N Cedar Hollow Blvd, Lehi, UT 84043","precinct":"25LE10","hd":"53","v_score":"1.193887297","decile":"4","lat":40.40360194857621,"lng":-111.8322580540602},{"vid":"2829549","name":"Ms. Afton Abernathy","party":"","address":"649 E Cedar Hollow Rd, Lehi, UT 84043","precinct":"25LE10","hd":"53","v_score":"1.193887297","decile":"4","lat":40.404968717830336,"lng":-111.8384554084947},{"vid":"2836550","name":"Dr. Aleta Bednar","party":"Rep","address":"1202 N Cedar Hollow Blvd, Lehi, UT 84043","precinct":"25LE10","hd":"53","v_score":"1.193887297","decile":"4","lat":40.40237020124111,"lng":-111.83185828687091},{"vid":"2839358","name":"Mrs. Jacquelin Wisoky","party":"Rep","address":"2060 N Airport Dr, Lehi, UT 84043","precinct":"25LE10","hd":"53","v_score":"1.193887297","decile":"4","lat":40.41304576137841,"lng":-111.83352968688398},{"vid":"2839558","name":"Vena Blick","party":"","address":"1598 N Summer Crest Dr, Lehi, UT 84043","precinct":"25LE10","hd":"53","v_score":"1.193887297","decile":"4","lat":40.406963937294535,"lng":-111.83536303116199},{"vid":"2841892","name":"Elfie Cummerata","party":"","address":"1868 N 800 E, Lehi, UT 84043","precinct":"25LE10","hd":"53","v_score":"0","decile":"2","lat":40.41028745637053,"lng":-111.83543630490716},{"vid":"2852260","name":"Colby Strosin-Bode","party":"Dem","address":"659 E Cedar Hollow Rd, Lehi, UT 84043","precinct":"25LE10","hd":"53","v_score":"4.069929862","decile":"7","lat":40.40526735274404,"lng":-111.83798244747514},{"vid":"2853433","name":"Brittaney Stroman","party":"Rep","address":"691 E 1775 N, Lehi, UT 84043","precinct":"25LE10","hd":"53","v_score":"1.193887297","decile":"4","lat":40.40955925797809,"lng":-111.83832675280118},{"vid":"2862758","name":"Addie Sauer-Rodriguez","party":"Dem","address":"2060 N Airport Dr, Lehi, UT 84043","precinct":"25LE10","hd":"53","v_score":"1.193887297","decile":"4","lat":40.41304576137841,"lng":-111.83352968688398},{"vid":"2872545","name":"Reynolds Cassin","party":"Rep","address":"955 E 1960 N, Lehi, UT 84043","precinct":"25LE10","hd":"53","v_score":"1.193887297","decile":"4","lat":40.41228691079408,"lng":-111.83354053912738},{"vid":"2881560","name":"Mr. Blaze Durgan PhD","party":"Rep","address":"2085 N 1100 E, Lehi, UT 84043","precinct":"25LE10","hd":"53","v_score":"1.193887297","decile":"4","lat":40.4136660169307,"lng":-111.83188604050125},{"vid":"2887247","name":"Dr. Daron Gorczany III","party":"","address":"1997 N 825 E, Lehi, UT 84043","precinct":"25LE10","hd":"53","v_score":"1.193887297","decile":"4","lat":40.41254543964168,"lng":-111.83642865991494},{"vid":"2887773","name":"Abigale D'Amore DVM","party":"Dem","address":"952 E 1960 N, Lehi, UT 84043","precinct":"25LE10","hd":"53","v_score":"5.407962308","decile":"7","lat":40.41183589699009,"lng":-111.83362175447067},{"vid":"2893421","name":"Della Stiedemann-Turner","party":"","address":"988 E 2040 N, Lehi, UT 84043","precinct":"25LE10","hd":"53","v_score":"0","decile":"2","lat":40.41275754557957,"lng":-111.8335444965892},{"vid":"2896977","name":"Elinor Schaefer","party":"Dem","address":"1580 N Fitzgerald Ln, Lehi, UT 84043","precinct":"25LE10","hd":"53","v_score":"0","decile":"2","lat":40.40758272596062,"lng":-111.83443062812935},{"vid":"2898891","name":"Drew Nader","party":"Dem","address":"1857 N 800 E, Lehi, UT 84043","precinct":"25LE10","hd":"53","v_score":"0","decile":"2","lat":40.41034340875251,"lng":-111.83613336341712},{"vid":"2913306","name":"Dr. Ari Ratke DVM","party":"Rep","address":"719 E 1725 N, Lehi, UT 84043","precinct":"25LE10","hd":"53","v_score":"0","decile":"2","lat":40.40877781827159,"lng":-111.83799332780414},{"vid":"2918838","name":"Josefina Pfannerstill","party":"Dem","address":"1916 N 1150 E, Lehi, UT 84043","precinct":"25LE10","hd":"53","v_score":"0","decile":"2","lat":40.411786082226826,"lng":-111.8312982564581},{"vid":"2922559","name":"Lemma Barton","party":"Rep","address":"1546 N Summer Crest Dr, Lehi, UT 84043","precinct":"25LE10","hd":"53","v_score":"2.876042565","decile":"6","lat":40.406453577815746,"lng":-111.83590651496779},{"vid":"2941372","name":"Dr. Dane Medhurst","party":"","address":"1756 N Summer Crest Dr, Lehi, UT 84043","precinct":"25LE10","hd":"53","v_score":"2.876042565","decile":"6","lat":40.408978927273886,"lng":-111.83534728213021},{"vid":"2942640","name":"Sydney Leuschke","party":"Rep","address":"1979 N 825 E, Lehi, UT 84043","precinct":"25LE10","hd":"53","v_score":"0","decile":"2","lat":40.41232589922315,"lng":-111.83642757978066},{"vid":"2945507","name":"Eve Wunsch","party":"","address":"846 E 2125 N, Lehi, UT 84043","precinct":"25LE10","hd":"53","v_score":"0","decile":"2","lat":40.413804635353976,"lng":-111.83557691006125},{"vid":"2961316","name":"Drew Kris Sr.","party":"","address":"1730 N 750 E, Lehi, UT 84043","precinct":"25LE10","hd":"53","v_score":"0","decile":"2","lat":40.408616190719854,"lng":-111.8370801370236},{"vid":"2968458","name":"Florance Zulauf","party":"","address":"897 E 1900 N, Lehi, UT 84043","precinct":"25LE10","hd":"53","v_score":"2.876042565","decile":"6","lat":40.41154760905675,"lng":-111.83455451603665},{"vid":"2968766","name":"Dr. Akeelah Schaden","party":"","address":"1802 N Mesa Ave, Lehi, UT 84043","precinct":"25LE10","hd":"53","v_score":"0","decile":"2","lat":40.409860779237285,"lng":-111.83528643047163},{"vid":"2974226","name":"Catina Rogahn","party":"Dem","address":"810 E 1650 N, Lehi, UT 84043","precinct":"25LE10","hd":"53","v_score":"0","decile":"2","lat":40.40744211696683,"lng":-111.8364903898679},{"vid":"2974285","name":"Ephram Morar","party":"","address":"655 E Cedar Hollow Rd, Lehi, UT 84043","precinct":"25LE10","hd":"53","v_score":"0","decile":"2","lat":40.40493852143946,"lng":-111.83836946911936},{"vid":"2979608","name":"Deonta Will","party":"Rep","address":"1440 N Summer Crest Dr, Lehi, UT 84043","precinct":"25LE10","hd":"53","v_score":"0","decile":"2","lat":40.405127573187734,"lng":-111.83669835146222},{"vid":"2981521","name":"Vicki Cummerata MD","party":"","address":"810 E 1650 N, Lehi, UT 84043","precinct":"25LE10","hd":"53","v_score":"0","decile":"2","lat":40.40744211696683,"lng":-111.8364903898679},{"vid":"2982804","name":"Thomas Ortiz","party":"","address":"1147 N Cedar Hollow Blvd, Lehi, UT 84043","precinct":"25LE10","hd":"53","v_score":"0","decile":"2","lat":40.401797203929924,"lng":-111.83251068421373},{"vid":"3151660","name":"Nila Romaguera","party":"Rep","address":"1853 N Airport Dr, Lehi, UT 84043","precinct":"25LE10","hd":"53","v_score":"19.22326505","decile":"10","lat":40.41107195431985,"lng":-111.83666795601495},{"vid":"3181234","name":"Dr. Jerad Kris DDS","party":"Dem","address":"1717 N 800 E, Lehi, UT 84043","precinct":"25LE10","hd":"53","v_score":"0","decile":"2","lat":40.408329226312155,"lng":-111.83661740082763},{"vid":"3182119","name":"Cole Schoen PhD","party":"","address":"970 E 2040 N, Lehi, UT 84043","precinct":"25LE10","hd":"53","v_score":"5.40460374","decile":"7","lat":40.412886397583115,"lng":-111.83379033812042},{"vid":"3228891","name":"Renee Nitzsche-Kuphal","party":"Dem","address":"931 E 1960 N, Lehi, UT 84043","precinct":"25LE10","hd":"53","v_score":"1.121327652","decile":"3","lat":40.412157803513054,"lng":-111.83399949732201},{"vid":"3260631","name":"Brittany Schmidt","party":"Dem","address":"1006 E 2040 N, Lehi, UT 84043","precinct":"25LE10","hd":"53","v_score":"3.781490609","decile":"6","lat":40.412724396431166,"lng":-111.83327296593184},{"vid":"3266070","name":"Lindy Koelpin","party":"","address":"1147 N 1000 E, Lehi, UT 84043","precinct":"25LE10","hd":"53","v_score":"11.29723756","decile":"9","lat":40.40179468965036,"lng":-111.83352906975603},{"vid":"3296276","name":"Galilea Lang","party":"","address":"1231 N Cedar Hollow Blvd, Lehi, UT 84043","precinct":"25LE10","hd":"53","v_score":"5.40460374","decile":"7","lat":40.40271926930743,"lng":-111.83241441428004},{"vid":"3305088","name":"Brenda Zieme-Schaden","party":"Dem","address":"2087 N 1200 E, Lehi, UT 84043","precinct":"25LE10","hd":"53","v_score":"0","decile":"2","lat":40.41367618977946,"lng":-111.83068017602018},{"vid":"3387581","name":"Tressa Rodriguez","party":"Dem","address":"1117 N Cedar Hollow Blvd, Lehi, UT 84043","precinct":"25LE10","hd":"53","v_score":"22.70037759","decile":"10","lat":40.40138915925429,"lng":-111.83235552343903},{"vid":"3406257","name":"Karlee Raynor","party":"Dem","address":"1375 N 1125 E, Lehi, UT 84043","precinct":"25LE10","hd":"53","v_score":"22.48959706","decile":"10","lat":40.405671521851275,"lng":-111.83168028243003},{"vid":"3420504","name":"Roberta Nienow","party":"","address":"2057 N Airport Dr, Lehi, UT 84043","precinct":"25LE10","hd":"53","v_score":"12.07513611","decile":"9","lat":40.41328273303972,"lng":-111.83404363427293},{"vid":"3420510","name":"Jermain Kiehn","party":"Rep","address":"2057 N Airport Dr, Lehi, UT 84043","precinct":"25LE10","hd":"53","v_score":"12.07513611","decile":"9","lat":40.41328273303972,"lng":-111.83404363427293},{"vid":"151744b21bac73471189a286e868de4dd7b993913c553ae05137400a5cfa0d5c","name":"Wood Jones III","party":"Rep","address":"955 E Fitzgerald Ln, Lehi, UT 84043","precinct":"25LE10","hd":"53","v_score":"18.45422016","decile":"10","lat":40.40699398272735,"lng":-111.83400913303714},{"vid":"3442941","name":"Bluford Reynolds","party":"Rep","address":"2105 N 1200 E, Lehi, UT 84043","precinct":"25LE10","hd":"53","v_score":"8.347511332","decile":"8","lat":40.413982203085695,"lng":-111.83057215643488},{"vid":"3462863","name":"Marcelle Kassulke","party":"","address":"2060 N Airport Dr, Lehi, UT 84043","precinct":"25LE10","hd":"53","v_score":"11.74656914","decile":"9","lat":40.41304576137841,"lng":-111.83352968688398},{"vid":"3504422","name":"Cheyenne Steuber","party":"","address":"939 E Cedar Hollow Rd, Lehi, UT 84043","precinct":"25LE10","hd":"53","v_score":"2.817000428","decile":"6","lat":40.405022205908644,"lng":-111.83462584570361},{"vid":"3508332","name":"West Kulas-Smitham","party":"Rep","address":"1943 N 825 E, Lehi, UT 84043","precinct":"25LE10","hd":"53","v_score":"8.347511332","decile":"8","lat":40.41187671069135,"lng":-111.83634535058007},{"vid":"3510845","name":"Orrie VonRueden","party":"Rep","address":"861 E 2070 N, Lehi, UT 84043","precinct":"25LE10","hd":"53","v_score":"26.83752922","decile":"10","lat":40.41353094963657,"lng":-111.8353294930114},{"vid":"125b95bf474e0dd20f02c23bde36fce62373e6ddc3fef60c0b556f99148614ee","name":"Annabella Will-Cassin","party":"Dem","address":"1345 N Cedar Hollow Blvd, Lehi, UT 84043","precinct":"25LE10","hd":"53","v_score":"16.11772682","decile":"9","lat":40.40362588723236,"lng":-111.83324292777161},{"vid":"3566698","name":"Cena Toy","party":"Dem","address":"1006 E 2040 N, Lehi, UT 84043","precinct":"25LE10","hd":"53","v_score":"3.781490609","decile":"6","lat":40.412724396431166,"lng":-111.83327296593184},{"vid":"3586563","name":"Alpha Rau","party":"Rep","address":"1753 N 800 E, Lehi, UT 84043","precinct":"25LE10","hd":"53","v_score":"2.315214949","decile":"5","lat":40.40891529826979,"lng":-111.83673286899604},{"vid":"4112839","name":"Delano Luettgen Jr.","party":"Dem","address":"837 E 2070 N, Lehi, UT 84043","precinct":"25LE10","hd":"53","v_score":"2.744440783","decile":"5","lat":40.413438474122984,"lng":-111.83602345084749},{"vid":"5005027","name":"Randolf Little II","party":"","address":"2026 N 1100 E, Lehi, UT 84043","precinct":"25LE10","hd":"53","v_score":"0","decile":"3","lat":40.4128032644438,"lng":-111.83124938136928},{"vid":"5527826","name":"Gonzalo Kulas","party":"","address":"1427 N 1200 E, Lehi, UT 84043","precinct":"25LE10","hd":"53","v_score":"6.814370645","decile":"8","lat":40.40512294323182,"lng":-111.83129536155069},{"vid":"5527827","name":"Elenore Larson-Feeney","party":"","address":"1931 N 1200 E, Lehi, UT 84043","precinct":"25LE10","hd":"53","v_score":"5.40460374","decile":"7","lat":40.41194449001227,"lng":-111.83062291881134},{"vid":"5528721","name":"Reginald Schowalter","party":"","address":"849 E 2070 N, Lehi, UT 84043","precinct":"25LE10","hd":"53","v_score":"2.315214949","decile":"5","lat":40.413530061851326,"lng":-111.83563659736265},{"vid":"81a27d56366abffbb2a15793587b49911e40a7f316db082766b80591caafbcf1","name":"Mr. Huey Larson Sr.","party":"Rep","address":"1979 N 825 E, Lehi, UT 84043","precinct":"25LE10","hd":"53","v_score":"31.33526927","decile":"10","lat":40.41232589922315,"lng":-111.83642757978066},{"vid":"5927047","name":"Josephine Schimmel","party":"","address":"1756 N Summer Crest Dr, Lehi, UT 84043","precinct":"25LE10","hd":"53","v_score":"11.02844566","decile":"9","lat":40.408978927273886,"lng":-111.83534728213021},{"vid":"5935016","name":"Hardin Altenwerth II","party":"Dem","address":"1025 E Cedar Hollow Rd, Lehi, UT 84043","precinct":"25LE10","hd":"53","v_score":"3.781490609","decile":"6","lat":40.40604493409648,"lng":-111.83335330024468},{"vid":"6002909","name":"Doc Muller","party":"Dem","address":"1427 N 1200 E, Lehi, UT 84043","precinct":"25LE10","hd":"53","v_score":"6.814370645","decile":"8","lat":40.40512294323182,"lng":-111.83129536155069},{"vid":"6087353","name":"Jacquelin Volkman","party":"Rep","address":"2086 N 1100 E, Lehi, UT 84043","precinct":"25LE10","hd":"53","v_score":"2.315214949","decile":"5","lat":40.413671473173835,"lng":-111.83132599338325},{"vid":"bf28310262c92df08aa2d8493575fc84fee507db442a6f7e894d0940e4c52d40","name":"Miss Giuliana Streich DDS","party":"Rep","address":"1857 N 800 E, Lehi, UT 84043","precinct":"25LE10","hd":"53","v_score":"8.347511332","decile":"8","lat":40.41034340875251,"lng":-111.83613336341712},{"vid":"6144495","name":"Sybilla Kertzmann","party":"","address":"1857 N 800 E, Lehi, UT 84043","precinct":"25LE10","hd":"53","v_score":"8.347511332","decile":"8","lat":40.41034340875251,"lng":-111.83613336341712},{"vid":"6147003","name":"Mr. Freddy Walsh","party":"","address":"1179 N 1000 E, Lehi, UT 84043","precinct":"25LE10","hd":"53","v_score":"9.116556227","decile":"8","lat":40.319048649165296,"lng":-111.67298015143311},{"vid":"6156996","name":"Ms. Victorine Kessler DDS","party":"","address":"2085 N 1100 E, Lehi, UT 84043","precinct":"25LE10","hd":"53","v_score":"2.587603312","decile":"5","lat":40.4136660169307,"lng":-111.83188604050125},{"vid":"6161666","name":"Camren Kuphal","party":"Dem","address":"810 E 1650 N, Lehi, UT 84043","precinct":"25LE10","hd":"53","v_score":"2.315214949","decile":"5","lat":40.40744211696683,"lng":-111.8364903898679},{"vid":"6163203","name":"Ms. Romona Parker MD","party":"Dem","address":"1145 E Cedar Hollow Rd, Lehi, UT 84043","precinct":"25LE10","hd":"53","v_score":"1.121327652","decile":"3","lat":40.40761093065406,"lng":-111.83132728108825},{"vid":"6178730","name":"Dr. Eleonora Torphy","party":"Dem","address":"327 E 1650 N, Lehi, UT 84043","precinct":"25LE10","hd":"53","v_score":"8.347511332","decile":"8","lat":40.4083667409078,"lng":-111.84417779525371},{"vid":"6182945","name":"Libby Wilderman","party":"","address":"1591 N Summer Crest Dr, Lehi, UT 84043","precinct":"25LE10","hd":"53","v_score":"3.93832808","decile":"6","lat":40.40700293450349,"lng":-111.83587427924428},{"vid":"6200998","name":"Kent Ondricka","party":"Dem","address":"1413 N 1200 E, Lehi, UT 84043","precinct":"25LE10","hd":"53","v_score":"2.817000428","decile":"6","lat":40.40438003706407,"lng":-111.8306916390622},{"vid":"6213270","name":"Adrianne Blick DDS","party":"Dem","address":"1776 N 900 E, Lehi, UT 84043","precinct":"25LE10","hd":"53","v_score":"0","decile":"3","lat":40.4094181193327,"lng":-111.83434564080468},{"vid":"6213826","name":"Aaron Bartoletti","party":"Dem","address":"1710 N 800 E, Lehi, UT 84043","precinct":"25LE10","hd":"53","v_score":"26.42077695","decile":"10","lat":40.40830086272447,"lng":-111.83609852162196},{"vid":"6218071","name":"Merle Bernhard","party":"","address":"1790 N 600 E, Lehi, UT 84043","precinct":"25LE10","hd":"53","v_score":"6.740427232","decile":"8","lat":40.40809037618434,"lng":-111.83972694837509},{"vid":"6227425","name":"Wayland Haley","party":"Rep","address":"1606 N 600 E, Lehi, UT 84043","precinct":"25LE10","hd":"53","v_score":"2.315214949","decile":"5","lat":40.40738424694709,"lng":-111.83713978264322},{"vid":"6236162","name":"Mrs. Jenilee Dickens MD","party":"Dem","address":"1507 N Summer Crest Dr, Lehi, UT 84043","precinct":"25LE10","hd":"53","v_score":"5.40460374","decile":"7","lat":40.406075332038895,"lng":-111.83723857439666},{"vid":"6245982","name":"Ardell Morar","party":"Rep","address":"830 E 1650 N, Lehi, UT 84043","precinct":"25LE10","hd":"53","v_score":"10.29877667","decile":"9","lat":40.407349595304886,"lng":-111.83569697396909},{"vid":"6256242","name":"Exa McDermott","party":"","address":"1753 N 800 E, Lehi, UT 84043","precinct":"25LE10","hd":"53","v_score":"18.98842511","decile":"10","lat":40.40891529826979,"lng":-111.83673286899604},{"vid":"6256571","name":"Berkley Koelpin","party":"","address":"913 E 1960 N, Lehi, UT 84043","precinct":"25LE10","hd":"53","v_score":"7.92266893","decile":"8","lat":40.4123325204241,"lng":-111.83439982910431},{"vid":"6270967","name":"Mykel Klocko-Hamill","party":"Dem","address":"2051 N 825 E, Lehi, UT 84043","precinct":"25LE10","hd":"53","v_score":"15.51131257","decile":"9","lat":40.41320408806226,"lng":-111.83643190067717},{"vid":"6275706","name":"Shani Prosacco","party":"Dem","address":"1228 N Cedar Hollow Blvd, Lehi, UT 84043","precinct":"25LE10","hd":"53","v_score":"31.06727652","decile":"10","lat":40.40265835017605,"lng":-111.83185944857222},{"vid":"dc2fa44e698824f3ea7a1d6c6ba9d06f2c6f2808ac0cce33110854b9ccf3cfaf","name":"Lucinda Will-Kuphal","party":"","address":"1920 N Airport Dr, Lehi, UT 84043","precinct":"25LE10","hd":"53","v_score":"6.724398202","decile":"8","lat":40.411628151306296,"lng":-111.83529250043755},{"vid":"6279826","name":"Joella Hermann","party":"Dem","address":"759 E Airport Dr, Lehi, UT 84043","precinct":"25LE10","hd":"53","v_score":"2.587603312","decile":"5","lat":40.41047627099296,"lng":-111.83738921884853},{"vid":"6283066","name":"Trinity Berge","party":"Rep","address":"1814 N 900 E, Lehi, UT 84043","precinct":"25LE10","hd":"53","v_score":"23.55152958","decile":"10","lat":40.410059020303116,"lng":-111.83420203672226},{"vid":"557611c7e685c8c96cce5b8409c4e5466004c509fa1a84adf4e348d10079de1f","name":"Ms. Christina Greenfelder","party":"Rep","address":"929 E 1900 N, Lehi, UT 84043","precinct":"25LE10","hd":"53","v_score":"0","decile":"3","lat":40.41158772533363,"lng":-111.83405449985828},{"vid":"6285972","name":"Rylan Adams MD","party":"","address":"1667 N 1200 E, Lehi, UT 84043","precinct":"25LE10","hd":"53","v_score":"13.61621523","decile":"9","lat":40.4088289990022,"lng":-111.83083191453572},{"vid":"6286272","name":"Maxwell Kutch-Corwin","party":"Rep","address":"862 E 2070 N, Lehi, UT 84043","precinct":"25LE10","hd":"53","v_score":"3.781490609","decile":"6","lat":40.41310303181655,"lng":-111.8352593550693},{"vid":"6288096","name":"Donavan Crooks","party":"","address":"1150 E Airport Dr, Lehi, UT 84043","precinct":"25LE10","hd":"53","v_score":"42.38158736","decile":"10","lat":40.413814634885554,"lng":-111.83099046718338},{"vid":"6289818","name":"Frances Kessler","party":"","address":"830 E 1650 N, Lehi, UT 84043","precinct":"25LE10","hd":"53","v_score":"3.781490609","decile":"6","lat":40.407349595304886,"lng":-111.83569697396909},{"vid":"fedff3749dc1217fe038d78cfa62e64cdbbb0cb3f8ff5d9800bcc4c92166c931","name":"Davis Corkery","party":"Rep","address":"1863 N 900 E, Lehi, UT 84043","precinct":"25LE10","hd":"53","v_score":"13.84916389","decile":"9","lat":40.41083252177319,"lng":-111.83482939981477},{"vid":"6304800","name":"Ms. Athena Brown","party":"Rep","address":"860 E 1475 N, Lehi, UT 84043","precinct":"25LE10","hd":"53","v_score":"15.51131257","decile":"9","lat":40.4060601909803,"lng":-111.83525072194335},{"vid":"6307118","name":"Cyrus Crooks","party":"Rep","address":"1600 N 600 E, Lehi, UT 84043","precinct":"25LE10","hd":"53","v_score":"29.44416339","decile":"10","lat":40.40747191390998,"lng":-111.83942799145716},{"vid":"6311861","name":"Sara Gleichner","party":"","address":"2087 N 825 E, Lehi, UT 84043","precinct":"25LE10","hd":"53","v_score":"3.93832808","decile":"6","lat":40.413643169566114,"lng":-111.83643406112543},{"vid":"6312000","name":"Ilona Marvin-Erdman","party":"Dem","address":"1902 N 300 E, Lehi, UT 84043","precinct":"25LE10","hd":"53","v_score":"34.01018412","decile":"10","lat":40.412112341151776,"lng":-111.84433037547818},{"vid":"6312301","name":"Brittani Ziemann","party":"","address":"1911 N 1200 E, Lehi, UT 84043","precinct":"25LE10","hd":"53","v_score":"14.24014515","decile":"9","lat":40.41157769670514,"lng":-111.83061607662904},{"vid":"6313081","name":"Dr. Norma Herzog PhD","party":"Rep","address":"818 E 1650 N, Lehi, UT 84043","precinct":"25LE10","hd":"53","v_score":"16.78809392","decile":"9","lat":40.40738281411964,"lng":-111.83619052491989},{"vid":"6313711","name":"Thomasina Hammes","party":"","address":"759 E Airport Dr, Lehi, UT 84043","precinct":"25LE10","hd":"53","v_score":"3.781490609","decile":"6","lat":40.41047627099296,"lng":-111.83738921884853},{"vid":"6314747","name":"Winthrop McGlynn-Heidenreich","party":"Rep","address":"1801 N 800 E, Lehi, UT 84043","precinct":"25LE10","hd":"53","v_score":"11.29723756","decile":"9","lat":40.40965069867669,"lng":-111.83663135130293},{"vid":"6316422","name":"Elisa Kohler","party":"Dem","address":"1228 N Cedar Hollow Blvd, Lehi, UT 84043","precinct":"25LE10","hd":"53","v_score":"26.9144526","decile":"10","lat":40.40265835017605,"lng":-111.83185944857222},{"vid":"6316779","name":"Rhona Stoltenberg","party":"","address":"1778 N 750 E, Lehi, UT 84043","precinct":"25LE10","hd":"53","v_score":"5.191257514","decile":"7","lat":40.40952727538766,"lng":-111.83708793134602},{"vid":"6321045","name":"Ms. Christiana Wilderman MD","party":"","address":"1931 N 1200 E, Lehi, UT 84043","precinct":"25LE10","hd":"53","v_score":"5.40460374","decile":"7","lat":40.41194449001227,"lng":-111.83062291881134},{"vid":"6327503","name":"Dr. Talen Auer PhD","party":"Rep","address":"1953 N Airport Dr, Lehi, UT 84043","precinct":"25LE10","hd":"53","v_score":"8.363183621","decile":"8","lat":40.4122152380928,"lng":-111.83526620675951},{"vid":"6349384","name":"Laverne Labadie","party":"","address":"1502 N 600 E, Lehi, UT 84043","precinct":"25LE10","hd":"53","v_score":"24.79766382","decile":"10","lat":40.40629971855702,"lng":-111.83938920548846},{"vid":"6352481","name":"Lynwood Spencer","party":"","address":"1025 E Cedar Hollow Rd, Lehi, UT 84043","precinct":"25LE10","hd":"53","v_score":"3.781490609","decile":"6","lat":40.40604493409648,"lng":-111.83335330024468},{"vid":"3660bc2a8571e1cd22143fe5b8180b58745f00c09826d99380eb47aa9847626a","name":"Lexie Gulgowski","party":"Dem","address":"2033 N 825 E, Lehi, UT 84043","precinct":"25LE10","hd":"53","v_score":"0","decile":"3","lat":40.412984547603884,"lng":-111.8364308209022},{"vid":"6356278","name":"Mr. Randall Sanford PhD","party":"","address":"1911 N 1200 E, Lehi, UT 84043","precinct":"25LE10","hd":"53","v_score":"14.24014515","decile":"9","lat":40.41157769670514,"lng":-111.83061607662904},{"vid":"6357957","name":"Ike Abernathy","party":"","address":"742 E 1775 N, Lehi, UT 84043","precinct":"25LE10","hd":"53","v_score":"5.40460374","decile":"7","lat":40.4092834601129,"lng":-111.83752694847955},{"vid":"6360043","name":"Lorenza Hintz","party":"","address":"1778 N 750 E, Lehi, UT 84043","precinct":"25LE10","hd":"53","v_score":"6.814370645","decile":"8","lat":40.40952727538766,"lng":-111.83708793134602},{"vid":"6360872","name":"Elige Pfannerstill-Fahey","party":"","address":"618 E Airport Dr, Lehi, UT 84043","precinct":"25LE10","hd":"53","v_score":"8.347511332","decile":"8","lat":40.41003409891132,"lng":-111.83978486359636},{"vid":"6366087","name":"Berton Mraz","party":"Dem","address":"1294 N Cedar Hollow Blvd, Lehi, UT 84043","precinct":"25LE10","hd":"53","v_score":"3.93832808","decile":"6","lat":40.40360194857621,"lng":-111.8322580540602},{"vid":"6367796","name":"Miss Kristen Runte PhD","party":"Rep","address":"1753 N 800 E, Lehi, UT 84043","precinct":"25LE10","hd":"53","v_score":"19.83227346","decile":"10","lat":40.40891529826979,"lng":-111.83673286899604},{"vid":"6369204","name":"Reagan Schoen","party":"Dem","address":"943 E 1960 N, Lehi, UT 84043","precinct":"25LE10","hd":"53","v_score":"33.76127607","decile":"10","lat":40.41232566466192,"lng":-111.8337989120464},{"vid":"6370153","name":"Kristina Rohan","party":"","address":"654 E Airport Dr, Lehi, UT 84043","precinct":"25LE10","hd":"53","v_score":"26.33466886","decile":"10","lat":40.40998434573527,"lng":-111.83912556966419},{"vid":"6372819","name":"Lexie Kulas-Balistreri","party":"Dem","address":"1863 N 900 E, Lehi, UT 84043","precinct":"25LE10","hd":"53","v_score":"22.70037759","decile":"10","lat":40.41083252177319,"lng":-111.83482939981477},{"vid":"6373906","name":"Araminta Nader DDS","party":"Dem","address":"933 E Mesa Ave, Lehi, UT 84043","precinct":"25LE10","hd":"53","v_score":"2.744440783","decile":"6","lat":40.40907112849484,"lng":-111.83418707923377},{"vid":"6376228","name":"Dr. Waymon Veum PhD","party":"Dem","address":"762 E Airport Dr, Lehi, UT 84043","precinct":"25LE10","hd":"53","v_score":"14.46680193","decile":"9","lat":40.410083574895054,"lng":-111.8371938765137},{"vid":"dac1baa57d8083c280d7e60d73aa7c3f637b0ab411cfc434dfde703c2a20a800","name":"Harvie Schaefer-Daugherty","party":"","address":"1661 N 1200 E, Lehi, UT 84043","precinct":"25LE10","hd":"53","v_score":"3.93832808","decile":"6","lat":40.408410245299116,"lng":-111.83091489053255},{"vid":"6386706","name":"Simeon Schimmel","party":"","address":"370 E 1650 N, Lehi, UT 84043","precinct":"25LE10","hd":"53","v_score":"38.99046514","decile":"10","lat":40.40788263293664,"lng":-111.84319863105503},{"vid":"6386948","name":"Susana King","party":"","address":"1870 N 900 E, Lehi, UT 84043","precinct":"25LE10","hd":"53","v_score":"29.44416339","decile":"10","lat":40.41093741341626,"lng":-111.83420555111131},{"vid":"56c44e6ffbfc8580185d01ee11110d799832729d026907783c0a40f278bdb943","name":"Mrs. Ednah Goyette DDS","party":"Dem","address":"1953 N Airport Dr, Lehi, UT 84043","precinct":"25LE10","hd":"53","v_score":"5.40460374","decile":"7","lat":40.4122152380928,"lng":-111.83526620675951},{"vid":"6390865","name":"Amiyah Konopelski DVM","party":"","address":"2041 N Airport Dr, Lehi, UT 84043","precinct":"25LE10","hd":"53","v_score":"3.781490609","decile":"6","lat":40.413154579252804,"lng":-111.83422725063566},{"vid":"6393667","name":"Edmund Dooley","party":"","address":"913 E Cedar Hollow Rd, Lehi, UT 84043","precinct":"25LE10","hd":"53","v_score":"7.549608095","decile":"8","lat":40.40551681932744,"lng":-111.8348068434003},{"vid":"6395127","name":"Mrs. Natalee Kihn","party":"Dem","address":"1650 N Summer Crest Dr, Lehi, UT 84043","precinct":"25LE10","hd":"53","v_score":"5.40460374","decile":"7","lat":40.40765264802034,"lng":-111.83525369113156},{"vid":"57c1b3b936daa8debdadb90486c29c1ee5e4f66b5072f383221f674dbf11f25e","name":"Nash Lesch","party":"Rep","address":"1835 N Airport Dr, Lehi, UT 84043","precinct":"25LE10","hd":"53","v_score":"24.02273775","decile":"10","lat":40.410890557598776,"lng":-111.83688370529505},{"vid":"6397610","name":"Lem Mayer","party":"Dem","address":"725 E Cedar Hollow Rd, Lehi, UT 84043","precinct":"25LE10","hd":"53","v_score":"0","decile":"3","lat":40.40483547699678,"lng":-111.83660267187993},{"vid":"35f27c6e6614b7db783b9338d33071d9d72fd8421864a44f019f6d410783668d","name":"Laurel Connelly","party":"","address":"1533 N Fitzgerald Ln, Lehi, UT 84043","precinct":"25LE10","hd":"53","v_score":"9.405332525","decile":"8","lat":40.40686892339524,"lng":-111.83479203223064},{"vid":"47811bc4467380185b67ab1843d3ac2447fe7bf148d2d2285ca4759eff4d7246","name":"Flor Cartwright","party":"","address":"2041 N Airport Dr, Lehi, UT 84043","precinct":"25LE10","hd":"53","v_score":"6.657533174","decile":"7","lat":40.413154579252804,"lng":-111.83422725063566},{"vid":"6401151","name":"Dax McClure","party":"Dem","address":"1175 E Cedar Ridge Rd, Lehi, UT 84043","precinct":"25LE10","hd":"53","v_score":"6.814370645","decile":"8","lat":40.40555910959902,"lng":-111.83057128997687},{"vid":"6401379","name":"Judge Cartwright","party":"Rep","address":"858 E 2125 N, Lehi, UT 84043","precinct":"25LE10","hd":"53","v_score":"0","decile":"3","lat":40.413805510277115,"lng":-111.83527109317545},{"vid":"6406533","name":"Rogers Heidenreich","party":"Rep","address":"2015 N 825 E, Lehi, UT 84043","precinct":"25LE10","hd":"53","v_score":"0","decile":"3","lat":40.41276500697641,"lng":-111.8364297407679},{"vid":"6406730","name":"Mr. Levar Price III","party":"","address":"1671 N 1200 E, Lehi, UT 84043","precinct":"25LE10","hd":"53","v_score":"1.121327652","decile":"3","lat":40.40902305823775,"lng":-111.83083362171976},{"vid":"6409489","name":"Seward Spencer","party":"Rep","address":"1028 E Airport Dr, Lehi, UT 84043","precinct":"25LE10","hd":"53","v_score":"12.90602733","decile":"9","lat":40.413677168357694,"lng":-111.83281892850133},{"vid":"6419331","name":"Mr. Quinn Purdy PhD","party":"","address":"1672 N Oak Dr, Lehi, UT 84043","precinct":"25LE10","hd":"53","v_score":"4.283276088","decile":"7","lat":40.408507155149145,"lng":-111.83440129810496},{"vid":"6419982","name":"Refugio Tremblay","party":"Rep","address":"1260 N Cedar Hollow Blvd, Lehi, UT 84043","precinct":"25LE10","hd":"53","v_score":"8.421194992","decile":"8","lat":40.40294071348475,"lng":-111.83195011468791},{"vid":"6422615","name":"Caleb Altenwerth","party":"","address":"1260 N Cedar Hollow Blvd, Lehi, UT 84043","precinct":"25LE10","hd":"53","v_score":"12.63527","decile":"9","lat":40.40294071348475,"lng":-111.83195011468791},{"vid":"6425473","name":"Silvester Rogahn","party":"","address":"688 E Airport Dr, Lehi, UT 84043","precinct":"25LE10","hd":"53","v_score":"3.93832808","decile":"6","lat":40.40999217534637,"lng":-111.83855125855708},{"vid":"6427630","name":"Kenyatta Harris-Rogahn","party":"Dem","address":"1325 N Cedar Hollow Blvd, Lehi, UT 84043","precinct":"25LE10","hd":"53","v_score":"18.46989245","decile":"10","lat":40.403399127284025,"lng":-111.83305370083104},{"vid":"6434001","name":"Tilda Ritchie","party":"","address":"1667 N 1200 E, Lehi, UT 84043","precinct":"25LE10","hd":"53","v_score":"5.40460374","decile":"7","lat":40.4088289990022,"lng":-111.83083191453572},{"vid":"6441929","name":"Rylee Cartwright","party":"Dem","address":"1689 N Oak Dr, Lehi, UT 84043","precinct":"25LE10","hd":"53","v_score":"10.87160818","decile":"9","lat":40.408571879369866,"lng":-111.83484630300126},{"vid":"6449159","name":"Dr. Donavon Jaskolski II","party":"Rep","address":"1510 N 300 E, Lehi, UT 84043","precinct":"25LE10","hd":"53","v_score":"27.76743625","decile":"10","lat":40.40661420030217,"lng":-111.84357325278303},{"vid":"6453034","name":"Ira Rogahn Jr.","party":"","address":"1025 E Cedar Hollow Rd, Lehi, UT 84043","precinct":"25LE10","hd":"53","v_score":"3.781490609","decile":"6","lat":40.40604493409648,"lng":-111.83335330024468},{"vid":"6454649","name":"Prentice Schaden-Ankunding","party":"Rep","address":"1771 N 800 E, Lehi, UT 84043","precinct":"25LE10","hd":"53","v_score":"6.874237967","decile":"8","lat":40.40915679116776,"lng":-111.83673495614175},{"vid":"6455288","name":"Roel Kub","party":"Dem","address":"1870 N 900 E, Lehi, UT 84043","precinct":"25LE10","hd":"53","v_score":"29.44416339","decile":"10","lat":40.41093741341626,"lng":-111.83420555111131},{"vid":"6456704","name":"Mont Pagac","party":"","address":"1767 N 900 E, Lehi, UT 84043","precinct":"25LE10","hd":"53","v_score":"5.687348376","decile":"7","lat":40.409393211372844,"lng":-111.8347825673692},{"vid":"6461040","name":"Zora Schiller-Hyatt","party":"","address":"1560 N Summer Crest Dr, Lehi, UT 84043","precinct":"25LE10","hd":"53","v_score":"0","decile":"3","lat":40.4066133826894,"lng":-111.83572780748536},{"vid":"6462131","name":"Shameka White","party":"","address":"1718 N Summer Crest Dr, Lehi, UT 84043","precinct":"25LE10","hd":"53","v_score":"39.22709926","decile":"10","lat":40.408536124788625,"lng":-111.83530190071846},{"vid":"6470264","name":"Miss Ginny Mann","party":"Rep","address":"1439 N Summer Crest Dr, Lehi, UT 84043","precinct":"25LE10","hd":"53","v_score":"16.72520646","decile":"9","lat":40.4051416125183,"lng":-111.83761047192732},{"vid":"6476376","name":"Estill Watsica DVM","party":"","address":"1730 N 600 E, Lehi, UT 84043","precinct":"25LE10","hd":"53","v_score":"5.40460374","decile":"7","lat":40.407722469273345,"lng":-111.83945239293423},{"vid":"6477151","name":"Shelbi Abbott","party":"Dem","address":"2105 N 825 E, Lehi, UT 84043","precinct":"25LE10","hd":"53","v_score":"5.659072284","decile":"7","lat":40.41386271020115,"lng":-111.83643514161906},{"vid":"487b6f9355c3c18525577510d5779e97c523f3ada52ad10e510c20509e476fdc","name":"Pedro Hartmann-Schulist","party":"Rep","address":"929 E 1900 N, Lehi, UT 84043","precinct":"25LE10","hd":"53","v_score":"0","decile":"3","lat":40.41158772533363,"lng":-111.83405449985828},{"vid":"6487554","name":"Elberta Jakubowski DVM","party":"Rep","address":"1224 N 1000 E, Lehi, UT 84043","precinct":"25LE10","hd":"53","v_score":"21.54171816","decile":"10","lat":40.40268830189456,"lng":-111.83297209800473},{"vid":"6489547","name":"Mrs. Abbey O'Reilly","party":"","address":"913 E Cedar Hollow Rd, Lehi, UT 84043","precinct":"25LE10","hd":"53","v_score":"20.93639495","decile":"10","lat":40.40551681932744,"lng":-111.8348068434003},{"vid":"6491289","name":"Hortense Wisozk-Franecki","party":"Rep","address":"1730 N 750 E, Lehi, UT 84043","precinct":"25LE10","hd":"53","v_score":"5.40460374","decile":"7","lat":40.408616190719854,"lng":-111.8370801370236},{"vid":"6494679","name":"Harrold Emard","party":"","address":"1869 N 800 E, Lehi, UT 84043","precinct":"25LE10","hd":"53","v_score":"7.92266893","decile":"8","lat":40.41061153936501,"lng":-111.83588658328041},{"vid":"6495416","name":"Erin Farrell II","party":"","address":"742 E 1775 N, Lehi, UT 84043","precinct":"25LE10","hd":"53","v_score":"3.93832808","decile":"6","lat":40.4092834601129,"lng":-111.83752694847955},{"vid":"d4d5e2c77d177160a86a0212d3c64647e3f5b63febe0983ae2b7aa22966354f3","name":"Dr. Edw Marvin","party":"Dem","address":"1490 N Summer Crest Dr, Lehi, UT 84043","precinct":"25LE10","hd":"53","v_score":"2.315214949","decile":"5","lat":40.405752977325605,"lng":-111.83694830131944},{"vid":"6500415","name":"Mr. Jereme Roob MD","party":"Dem","address":"328 E 1650 N, Lehi, UT 84043","precinct":"25LE10","hd":"53","v_score":"3.93832808","decile":"6","lat":40.40789473313722,"lng":-111.84417350418128},{"vid":"6502409","name":"Shane Rau","party":"Rep","address":"1177 N 1000 E, Lehi, UT 84043","precinct":"25LE10","hd":"53","v_score":"9.830961897","decile":"8","lat":40.40208375963182,"lng":-111.83362111688925},{"vid":"ef3e9ca9966618b092db70ce95903e6f37f29e10d9fe5a74771a921086ff165c","name":"Mr. Tavian Corkery","party":"Rep","address":"1712 N 750 E, Lehi, UT 84043","precinct":"25LE10","hd":"53","v_score":"2.315214949","decile":"5","lat":40.40829734370444,"lng":-111.83712402270734},{"vid":"6504010","name":"Raquan Stark","party":"","address":"2051 N 825 E, Lehi, UT 84043","precinct":"25LE10","hd":"53","v_score":"15.51131257","decile":"9","lat":40.41320408806226,"lng":-111.83643190067717},{"vid":"932525cbd80c27f6ffd7ef42dd5a4eb5830657d1b0665260187d3a53a0b6a0b8","name":"Johathan Lakin-Jenkins","party":"","address":"1471 N Summer Crest Dr, Lehi, UT 84043","precinct":"25LE10","hd":"53","v_score":"3.781490609","decile":"6","lat":40.40553142599242,"lng":-111.83781683496765},{"vid":"6513195","name":"Mrs. Mame Raynor DDS","party":"Dem","address":"2057 N 1200 E, Lehi, UT 84043","precinct":"25LE10","hd":"53","v_score":"2.587603312","decile":"5","lat":40.41321466205924,"lng":-111.83070023647845},{"vid":"6514628","name":"Ms. Birdella Pacocha MD","party":"Rep","address":"1746 N 800 E, Lehi, UT 84043","precinct":"25LE10","hd":"53","v_score":"6.954919332","decile":"8","lat":40.40879711020279,"lng":-111.83610314809542},{"vid":"6517975","name":"Dr. Daron Turcotte Jr.","party":"","address":"1718 N Summer Crest Dr, Lehi, UT 84043","precinct":"25LE10","hd":"53","v_score":"32.3802758","decile":"10","lat":40.408536124788625,"lng":-111.83530190071846},{"vid":"e308b7770a1f9ece4ee3f942aff8e5befe7bfcd9af7d610337421845a93033e6","name":"Mr. Luc Satterfield Jr.","party":"Dem","address":"1175 E Cedar Ridge Rd, Lehi, UT 84043","precinct":"25LE10","hd":"53","v_score":"6.814370645","decile":"8","lat":40.40555910959902,"lng":-111.83057128997687},{"vid":"6524601","name":"Coby Hamill","party":"Rep","address":"669 E Airport Dr, Lehi, UT 84043","precinct":"25LE10","hd":"53","v_score":"3.781490609","decile":"6","lat":40.4105824175226,"lng":-111.83881295666397},{"vid":"9ae2c1732355101d763d62ffec9079c302131b297b6a110d1f2579a433ab56e2","name":"Maralyn Schiller-Gislason","party":"","address":"1147 N Cedar Hollow Blvd, Lehi, UT 84043","precinct":"25LE10","hd":"53","v_score":"4.210716443","decile":"7","lat":40.401797203929924,"lng":-111.83251068421373},{"vid":"6526539","name":"Jasmine O'Conner","party":"Dem","address":"1671 N 1200 E, Lehi, UT 84043","precinct":"25LE10","hd":"53","v_score":"1.121327652","decile":"3","lat":40.40902305823775,"lng":-111.83083362171976},{"vid":"6527273","name":"Jaycob Hammes","party":"Rep","address":"970 E 2040 N, Lehi, UT 84043","precinct":"25LE10","hd":"53","v_score":"12.49472132","decile":"9","lat":40.412886397583115,"lng":-111.83379033812042},{"vid":"6527313","name":"Brendan Wintheiser","party":"","address":"1580 N Summer Crest Dr, Lehi, UT 84043","precinct":"25LE10","hd":"53","v_score":"2.587603312","decile":"5","lat":40.4067097814018,"lng":-111.83542641900341},{"vid":"6529249","name":"Lennie Kulas","party":"","address":"1580 N Summer Crest Dr, Lehi, UT 84043","precinct":"25LE10","hd":"53","v_score":"1.121327652","decile":"3","lat":40.4067097814018,"lng":-111.83542641900341},{"vid":"6532597","name":"Fumiko Cremin-O'Reilly","party":"","address":"988 E 2040 N, Lehi, UT 84043","precinct":"25LE10","hd":"53","v_score":"17.54214055","decile":"9","lat":40.41275754557957,"lng":-111.8335444965892},{"vid":"6533303","name":"Ogden Hermiston III","party":"","address":"2075 N Airport Dr, Lehi, UT 84043","precinct":"25LE10","hd":"53","v_score":"26.85320151","decile":"10","lat":40.41345974320265,"lng":-111.83383455139054},{"vid":"6533703","name":"Miss Justina Emard","party":"Dem","address":"1827 N Mesa Ave, Lehi, UT 84043","precinct":"25LE10","hd":"53","v_score":"1.121327652","decile":"3","lat":40.40990922274819,"lng":-111.83618659298622}]