[{"vid":"775160","name":"Nevin Littel-Crona","party":"Rep","address":"2809 N Trail Side Dr, Lehi, UT 84043","precinct":"25LE21","hd":"53","v_score":"3.93832808","decile":"6","lat":40.42315911479067,"lng":-111.85871564158995,"phone":"(666) 267-3284","sd":"21","ssbd":"11","lsbd":"School Board Aspen Peaks 2"},{"vid":"818548","name":"Amaya O'Hara","party":"","address":"419 W 2450 N, Lehi, UT 84043","precinct":"25LE21","hd":"53","v_score":"3.781490609","decile":"6","lat":40.4188570250709,"lng":-111.85622551673039,"phone":"(232) 059-8276","sd":"21","ssbd":"11","lsbd":"School Board Aspen Peaks 2"},{"vid":"1222192","name":"Mrs. Lisbeth Kessler","party":"Rep","address":"603 W Sandhill Dr, Lehi, UT 84043","precinct":"25LE21","hd":"53","v_score":"9.405332525","decile":"8","lat":40.4220938695776,"lng":-111.8592362206663,"phone":"(936) 168-8445","sd":"21","ssbd":"11","lsbd":"School Board Aspen Peaks 2"},{"vid":"1239306","name":"Tamela Reinger","party":"Rep","address":"2669 N 425 W, Lehi, UT 84043","precinct":"25LE21","hd":"53","v_score":"6.896907962","decile":"8","lat":40.42158903049486,"lng":-111.85638279898055,"phone":"(957) 232-7504","sd":"21","ssbd":"11","lsbd":"School Board Aspen Peaks 2"},{"vid":"1258854","name":"Yair Dickinson","party":"Rep","address":"459 W 2600 N, Lehi, UT 84043","precinct":"25LE21","hd":"53","v_score":"3.781490609","decile":"6","lat":40.420470083157234,"lng":-111.85678244597572,"phone":"(725) 116-3557","sd":"21","ssbd":"11","lsbd":"School Board Aspen Peaks 2"},{"vid":"de5c33200790f5328471a415d18b6e3bcb5e075bfbd8ce61e17a4d4c3c8fa326","name":"Lilburn Rodriguez","party":"Rep","address":"359 W 2325 N, Lehi, UT 84043","precinct":"25LE21","hd":"53","v_score":"5.659072284","decile":"7","lat":40.41732067614264,"lng":-111.85532576593843,"phone":"(333) 812-5776","sd":"21","ssbd":"11","lsbd":"School Board Aspen Peaks 2"},{"vid":"1285581","name":"Gail Greenfelder","party":"Rep","address":"564 W Trail Side Dr, Lehi, UT 84043","precinct":"25LE21","hd":"53","v_score":"1.121327652","decile":"3","lat":40.42460777935847,"lng":-111.85904594925393,"phone":"(159) 920-3848","sd":"21","ssbd":"11","lsbd":"School Board Aspen Peaks 2"},{"vid":"1287392","name":"Karlie Roberts","party":"Rep","address":"402 W 2280 N, Lehi, UT 84043","precinct":"25LE21","hd":"53","v_score":"3.93832808","decile":"6","lat":40.41704428200808,"lng":-111.85597209588018,"phone":"(135) 438-1929","sd":"21","ssbd":"11","lsbd":"School Board Aspen Peaks 2"},{"vid":"68a41436b709c16c1aea68269a0269ccef730c7416c71d660234a20ad132e36e","name":"Izaiah Streich MD","party":"Dem","address":"462 W 2280 N, Lehi, UT 84043","precinct":"25LE21","hd":"53","v_score":"14.24149408","decile":"9","lat":40.41704156476103,"lng":-111.85685534965093,"phone":"(438) 406-9898","sd":"21","ssbd":"11","lsbd":"School Board Aspen Peaks 2"},{"vid":"1290711","name":"Natosha Halvorson","party":"","address":"376 W 2875 N, Lehi, UT 84043","precinct":"25LE21","hd":"53","v_score":"0","decile":"1","lat":40.42425344985412,"lng":-111.85563204707356,"phone":"(780) 769-4795","sd":"21","ssbd":"11","lsbd":"School Board Aspen Peaks 2"},{"vid":"1299851","name":"Dorine Howe PhD","party":"","address":"505 W Sandhill Dr, Lehi, UT 84043","precinct":"25LE21","hd":"53","v_score":"4.137918904","decile":"7","lat":40.42206341196604,"lng":-111.85773811581615,"phone":"(482) 147-5679","sd":"21","ssbd":"11","lsbd":"School Board Aspen Peaks 2"},{"vid":"1316025","name":"Vanesa Moore-Kris","party":"Rep","address":"460 W 2450 N, Lehi, UT 84043","precinct":"25LE21","hd":"53","v_score":"0","decile":"1","lat":40.41933478514859,"lng":-111.85683680734547,"phone":"(425) 927-8137","sd":"21","ssbd":"11","lsbd":"School Board Aspen Peaks 2"},{"vid":"24e64de0d95a1768103e069ced6bb6ff0236f45a1377c8a9fde957f8f70007ff","name":"Ms. Arvilla Klocko DVM","party":"Rep","address":"2244 N 490 W, Lehi, UT 84043","precinct":"25LE21","hd":"53","v_score":"1.121327652","decile":"3","lat":40.41607141799276,"lng":-111.85615287196936,"phone":"(804) 022-9337","sd":"21","ssbd":"11","lsbd":"School Board Aspen Peaks 2"},{"vid":"1322161","name":"Essie Treutel-Blanda","party":"Dem","address":"342 W 2375 N, Lehi, UT 84043","precinct":"25LE21","hd":"53","v_score":"34.16997587","decile":"10","lat":40.41853450746013,"lng":-111.85508992529802,"phone":"(667) 458-7534","sd":"21","ssbd":"11","lsbd":"School Board Aspen Peaks 2"},{"vid":"51515b3b7882585b714fb5f21cc61dbcfc4f7ba9ee288cfa7105d89ae8309585","name":"Marcelle Will","party":"Rep","address":"368 W 2730 N, Lehi, UT 84043","precinct":"25LE21","hd":"53","v_score":"11.23922619","decile":"9","lat":40.42266463800411,"lng":-111.8554919960676,"phone":"(502) 822-4987","sd":"21","ssbd":"11","lsbd":"School Board Aspen Peaks 2"},{"vid":"1325615","name":"Miss Maddison Kutch","party":"Dem","address":"2941 N Trail Side Ct, Lehi, UT 84043","precinct":"25LE21","hd":"53","v_score":"1.46627566","decile":"4","lat":40.42531903139344,"lng":-111.85737472092268,"phone":"(420) 875-0816","sd":"21","ssbd":"11","lsbd":"School Board Aspen Peaks 2"},{"vid":"1337453","name":"Faye Adams","party":"","address":"339 W 2325 N, Lehi, UT 84043","precinct":"25LE21","hd":"53","v_score":"2.315214949","decile":"5","lat":40.41732156948607,"lng":-111.85503134723629,"phone":"(330) 637-2451","sd":"21","ssbd":"11","lsbd":"School Board Aspen Peaks 2"},{"vid":"3da12329091413f11b667cffca25d9b6f7ed79174ccc025ada7e3f02815c5707","name":"Alvin Johns","party":"Rep","address":"339 W 2325 N, Lehi, UT 84043","precinct":"25LE21","hd":"53","v_score":"3.781490609","decile":"6","lat":40.41732156948607,"lng":-111.85503134723629,"phone":"(818) 804-8010","sd":"21","ssbd":"11","lsbd":"School Board Aspen Peaks 2"},{"vid":"3f6140ff8c3c7f9c5f14f531a2ca96afee017ffeafae28b0050fdac04b01ce6a","name":"Doshie Zieme","party":"","address":"3131 N Park Cottage Way, Lehi, UT 84043","precinct":"25LE21","hd":"53","v_score":"2.315214949","decile":"5","lat":40.42715974449683,"lng":-111.85626840823092,"phone":"(867) 617-0656","sd":"21","ssbd":"11","lsbd":"School Board Aspen Peaks 2"},{"vid":"1359467","name":"Dr. Tayla Gerhold","party":"Rep","address":"569 W 2450 N, Lehi, UT 84043","precinct":"25LE21","hd":"53","v_score":"5.191257514","decile":"7","lat":40.41884978027671,"lng":-111.85859765801595,"phone":"(564) 725-1003","sd":"21","ssbd":"11","lsbd":"School Board Aspen Peaks 2"},{"vid":"1362508","name":"Jaxton Brakus-Fadel","party":"Rep","address":"564 W Trail Side Dr, Lehi, UT 84043","precinct":"25LE21","hd":"53","v_score":"1.121327652","decile":"3","lat":40.42460777935847,"lng":-111.85904594925393,"phone":"(627) 975-3301","sd":"21","ssbd":"11","lsbd":"School Board Aspen Peaks 2"},{"vid":"1377713","name":"Earley Hagenes","party":"","address":"2662 N Park View Ct, Lehi, UT 84043","precinct":"25LE21","hd":"53","v_score":"5.40460374","decile":"7","lat":40.42146088400202,"lng":-111.85692238186554,"phone":"(729) 201-3728","sd":"21","ssbd":"11","lsbd":"School Board Aspen Peaks 2"},{"vid":"a093b844e85e15a99fcaf3c8afe2a0683aa39c422f69ebd55df1a91d45bb23ba","name":"Glennie Gleason","party":"","address":"2932 N Trail Side Ct, Lehi, UT 84043","precinct":"25LE21","hd":"53","v_score":"7.282185415","decile":"8","lat":40.4250032050904,"lng":-111.85688546263158,"phone":"(396) 634-0154","sd":"21","ssbd":"11","lsbd":"School Board Aspen Peaks 2"},{"vid":"1385068","name":"Mrs. Jetta Rempel PhD","party":"","address":"2941 N Trail Side Ct, Lehi, UT 84043","precinct":"25LE21","hd":"53","v_score":"0","decile":"1","lat":40.42531903139344,"lng":-111.85737472092268,"phone":"(895) 598-5677","sd":"21","ssbd":"11","lsbd":"School Board Aspen Peaks 2"},{"vid":"1391505","name":"Annika Langosh","party":"Rep","address":"708 W 3160 N, Lehi, UT 84043","precinct":"25LE21","hd":"53","v_score":"1.121327652","decile":"3","lat":40.42772017020565,"lng":-111.86060336158512,"phone":"(958) 897-6298","sd":"21","ssbd":"11","lsbd":"School Board Aspen Peaks 2"},{"vid":"1396321","name":"Gaylon Leannon-Dach","party":"Dem","address":"493 W 2375 N, Lehi, UT 84043","precinct":"25LE21","hd":"53","v_score":"8.280646305","decile":"8","lat":40.41804775665789,"lng":-111.8574135938502,"phone":"(925) 134-5707","sd":"21","ssbd":"11","lsbd":"School Board Aspen Peaks 2"},{"vid":"2f13a0470bfbb0fc2e6eeca5b8574d0399010c9e76887146a49b69122c656de1","name":"Sanjuana Jacobi","party":"Dem","address":"345 W 2800 N, Lehi, UT 84043","precinct":"25LE21","hd":"53","v_score":"5.40460374","decile":"7","lat":40.422968443304576,"lng":-111.85506575014298,"phone":"(646) 775-1264","sd":"21","ssbd":"11","lsbd":"School Board Aspen Peaks 2"},{"vid":"1409185","name":"Alyse Parisian","party":"Rep","address":"2946 N Trail Side Ct, Lehi, UT 84043","precinct":"25LE21","hd":"53","v_score":"1.193887297","decile":"3","lat":40.425320316787825,"lng":-111.85689237527825,"phone":"(347) 231-7305","sd":"21","ssbd":"11","lsbd":"School Board Aspen Peaks 2"},{"vid":"1412434","name":"Fielding Jerde","party":"","address":"3081 N Park Cottage Way, Lehi, UT 84043","precinct":"25LE21","hd":"53","v_score":"5.331806201","decile":"7","lat":40.42659991807784,"lng":-111.85626616549698,"phone":"(306) 229-1387","sd":"21","ssbd":"11","lsbd":"School Board Aspen Peaks 2"},{"vid":"1412709","name":"Rory Quigley-Hartmann","party":"Rep","address":"3153 N 300 W, Lehi, UT 84043","precinct":"25LE21","hd":"53","v_score":"1.46627566","decile":"4","lat":40.42738307112001,"lng":-111.85474453977993,"phone":"(784) 906-5848","sd":"21","ssbd":"11","lsbd":"School Board Aspen Peaks 2"},{"vid":"1414801","name":"Ms. Krystal Quitzon","party":"Dem","address":"2929 N Trail Side Ct, Lehi, UT 84043","precinct":"25LE21","hd":"53","v_score":"12.38288823","decile":"9","lat":40.425032633098674,"lng":-111.85737527317848,"phone":"(711) 634-1705","sd":"21","ssbd":"11","lsbd":"School Board Aspen Peaks 2"},{"vid":"1425302","name":"Caitlin Sawayn","party":"Rep","address":"495 W 2600 N, Lehi, UT 84043","precinct":"25LE21","hd":"53","v_score":"1.46627566","decile":"4","lat":40.42046731899665,"lng":-111.8573916289635,"phone":"(722) 495-7024","sd":"21","ssbd":"11","lsbd":"School Board Aspen Peaks 2"},{"vid":"269043a76a7c419b83cb187a2a85182760d130bee17bd7bf43032265e87c57af","name":"Caprice Crooks","party":"Rep","address":"377 W 3050 N, Lehi, UT 84043","precinct":"25LE21","hd":"53","v_score":"11.30609121","decile":"9","lat":40.42604413599689,"lng":-111.85528489924053,"phone":"(201) 899-6490","sd":"21","ssbd":"11","lsbd":"School Board Aspen Peaks 2"},{"vid":"1445946","name":"Marilee Rath","party":"Rep","address":"2929 N Trail Side Ct, Lehi, UT 84043","precinct":"25LE21","hd":"53","v_score":"12.38288823","decile":"9","lat":40.425032633098674,"lng":-111.85737527317848,"phone":"(546) 460-6141","sd":"21","ssbd":"11","lsbd":"School Board Aspen Peaks 2"},{"vid":"1468475","name":"Queen Cronin MD","party":"","address":"711 W Sandhill Dr, Lehi, UT 84043","precinct":"25LE21","hd":"53","v_score":"0","decile":"1","lat":40.42206155455539,"lng":-111.8609894283888,"phone":"(577) 879-9013","sd":"21","ssbd":"11","lsbd":"School Board Aspen Peaks 2"},{"vid":"1469216","name":"Gerhard Borer","party":"Rep","address":"422 W 2280 N, Lehi, UT 84043","precinct":"25LE21","hd":"53","v_score":"5.40460374","decile":"7","lat":40.417043386335635,"lng":-111.85626651440262,"phone":"(970) 817-6587","sd":"21","ssbd":"11","lsbd":"School Board Aspen Peaks 2"},{"vid":"1486165","name":"Aniyah Schmidt","party":"Dem","address":"514 W 2325 N, Lehi, UT 84043","precinct":"25LE21","hd":"53","v_score":"2.876042565","decile":"6","lat":40.41775689255734,"lng":-111.85774318764435,"phone":"(637) 153-7335","sd":"21","ssbd":"11","lsbd":"School Board Aspen Peaks 2"},{"vid":"1496554","name":"Mercy Krajcik","party":"Rep","address":"2731 N 640 W, Lehi, UT 84043","precinct":"25LE21","hd":"53","v_score":"1.193887297","decile":"3","lat":40.42213529987033,"lng":-111.85993936410911,"phone":"(415) 313-2692","sd":"21","ssbd":"11","lsbd":"School Board Aspen Peaks 2"},{"vid":"1516071","name":"Mrs. Oney Hammes","party":"","address":"3093 N Park Cottage Way, Lehi, UT 84043","precinct":"25LE21","hd":"53","v_score":"2.817000428","decile":"6","lat":40.42670624484473,"lng":-111.85633124628336,"phone":"(109) 804-9583","sd":"21","ssbd":"11","lsbd":"School Board Aspen Peaks 2"},{"vid":"1516678","name":"Zakary Bednar PhD","party":"Rep","address":"3094 N Park Ridge Dr, Lehi, UT 84043","precinct":"25LE21","hd":"53","v_score":"10.17021529","decile":"9","lat":40.42658119373351,"lng":-111.86119434238563,"phone":"(629) 106-0045","sd":"21","ssbd":"11","lsbd":"School Board Aspen Peaks 2"},{"vid":"1520928","name":"Mrs. Joan Mills","party":"","address":"514 W 2450 N, Lehi, UT 84043","precinct":"25LE21","hd":"53","v_score":"31.82104997","decile":"10","lat":40.41933199673114,"lng":-111.85774992956044,"phone":"(659) 730-7672","sd":"21","ssbd":"11","lsbd":"School Board Aspen Peaks 2"},{"vid":"1521781","name":"Delilah Metz DVM","party":"Dem","address":"479 W 2225 N, Lehi, UT 84043","precinct":"25LE21","hd":"53","v_score":"34.01018412","decile":"10","lat":40.4155442167164,"lng":-111.85620603466569,"phone":"(503) 105-3885","sd":"21","ssbd":"11","lsbd":"School Board Aspen Peaks 2"},{"vid":"1526650","name":"Mr. Polk Purdy","party":"Dem","address":"2946 N Trail Side Ct, Lehi, UT 84043","precinct":"25LE21","hd":"53","v_score":"1.121327652","decile":"3","lat":40.425320316787825,"lng":-111.85689237527825,"phone":"(127) 108-6980","sd":"21","ssbd":"11","lsbd":"School Board Aspen Peaks 2"},{"vid":"1529950","name":"Santina Christiansen DVM","party":"Rep","address":"513 W 2450 N, Lehi, UT 84043","precinct":"25LE21","hd":"53","v_score":"11.02844566","decile":"9","lat":40.418852545187676,"lng":-111.85768529631474,"phone":"(825) 444-1724","sd":"21","ssbd":"11","lsbd":"School Board Aspen Peaks 2"},{"vid":"1542235","name":"Wilford Davis II","party":"","address":"492 W 2600 N, Lehi, UT 84043","precinct":"25LE21","hd":"53","v_score":"5.40460374","decile":"7","lat":40.4209816035578,"lng":-111.85735736793723,"phone":"(129) 686-6962","sd":"21","ssbd":"11","lsbd":"School Board Aspen Peaks 2"},{"vid":"1547785","name":"Orah Cronin","party":"Dem","address":"449 W 2225 N, Lehi, UT 84043","precinct":"25LE21","hd":"53","v_score":"5.40460374","decile":"7","lat":40.415489005392956,"lng":-111.8558262509802,"phone":"(553) 972-1699","sd":"21","ssbd":"11","lsbd":"School Board Aspen Peaks 2"},{"vid":"1548302","name":"Zeno Kessler","party":"","address":"492 W 2600 N, Lehi, UT 84043","precinct":"25LE21","hd":"53","v_score":"5.40460374","decile":"7","lat":40.4209816035578,"lng":-111.85735736793723,"phone":"(171) 977-3613","sd":"21","ssbd":"11","lsbd":"School Board Aspen Peaks 2"},{"vid":"1560124","name":"Hedwig Graham","party":"Dem","address":"2802 N Trail Side Dr, Lehi, UT 84043","precinct":"25LE21","hd":"53","v_score":"2.587603312","decile":"5","lat":40.423174976827,"lng":-111.85817670286853,"phone":"(620) 378-8392","sd":"21","ssbd":"11","lsbd":"School Board Aspen Peaks 2"},{"vid":"1571412","name":"Mr. Orson Jacobi","party":"Dem","address":"2644 N 780 W, Lehi, UT 84043","precinct":"25LE21","hd":"53","v_score":"22.6847053","decile":"10","lat":40.42128381884079,"lng":-111.86156495276052,"phone":"(245) 547-8395","sd":"21","ssbd":"11","lsbd":"School Board Aspen Peaks 2"},{"vid":"1585008","name":"Mortimer Farrell V","party":"Dem","address":"708 W 3160 N, Lehi, UT 84043","precinct":"25LE21","hd":"53","v_score":"2.315214949","decile":"5","lat":40.42772017020565,"lng":-111.86060336158512,"phone":"(873) 715-8078","sd":"21","ssbd":"11","lsbd":"School Board Aspen Peaks 2"},{"vid":"1585247","name":"Tiara Wisoky","party":"Rep","address":"2802 N Park View Ct, Lehi, UT 84043","precinct":"25LE21","hd":"53","v_score":"9.55742766","decile":"8","lat":40.42308644738875,"lng":-111.85698903665376,"phone":"(703) 858-5539","sd":"21","ssbd":"11","lsbd":"School Board Aspen Peaks 2"},{"vid":"1595799","name":"Harper Nicolas-Mosciski","party":"Rep","address":"509 W Parkview Dr, Lehi, UT 84043","precinct":"25LE21","hd":"53","v_score":"5.273794831","decile":"7","lat":40.42395157275946,"lng":-111.85735244610241,"phone":"(658) 514-6870","sd":"21","ssbd":"11","lsbd":"School Board Aspen Peaks 2"},{"vid":"1615500","name":"Isabelle Bode","party":"","address":"442 W 2540 N, Lehi, UT 84043","precinct":"25LE21","hd":"53","v_score":"27.31008633","decile":"10","lat":40.42014365797044,"lng":-111.85653706450834,"phone":"(373) 202-1785","sd":"21","ssbd":"11","lsbd":"School Board Aspen Peaks 2"},{"vid":"1621502","name":"Almeda Hickle-Lueilwitz","party":"","address":"2644 N 780 W, Lehi, UT 84043","precinct":"25LE21","hd":"53","v_score":"22.6847053","decile":"10","lat":40.42128381884079,"lng":-111.86156495276052,"phone":"(569) 032-1566","sd":"21","ssbd":"11","lsbd":"School Board Aspen Peaks 2"},{"vid":"1627449","name":"Dr. Cannie Will PhD","party":"Dem","address":"442 W 2375 N, Lehi, UT 84043","precinct":"25LE21","hd":"53","v_score":"1.121327652","decile":"3","lat":40.41853013520336,"lng":-111.85652793744539,"phone":"(231) 822-0964","sd":"21","ssbd":"11","lsbd":"School Board Aspen Peaks 2"},{"vid":"1633526","name":"Tobe Kuhlman","party":"Rep","address":"553 W Sandhill Dr, Lehi, UT 84043","precinct":"25LE21","hd":"53","v_score":"21.41280004","decile":"10","lat":40.42206063132105,"lng":-111.85864656301868,"phone":"(216) 603-8191","sd":"21","ssbd":"11","lsbd":"School Board Aspen Peaks 2"},{"vid":"1637351","name":"Ms. Crista Orn MD","party":"Dem","address":"327 W 2800 N, Lehi, UT 84043","precinct":"25LE21","hd":"53","v_score":"2.817000428","decile":"6","lat":40.42320098128698,"lng":-111.8549387385001,"phone":"(165) 510-0043","sd":"21","ssbd":"11","lsbd":"School Board Aspen Peaks 2"},{"vid":"101bf5900a69f82f6c33b3ab4725f1e2ea5f5f01cdf74297d4a9e1da7fe02a8f","name":"Ronan McGlynn","party":"","address":"3063 N Park Place St, Lehi, UT 84043","precinct":"25LE21","hd":"53","v_score":"5.40460374","decile":"7","lat":40.42632127684722,"lng":-111.85955140971193,"phone":"(204) 306-3196","sd":"21","ssbd":"11","lsbd":"School Board Aspen Peaks 2"},{"vid":"1645371","name":"Stafford Stanton","party":"","address":"2244 N 490 W, Lehi, UT 84043","precinct":"25LE21","hd":"53","v_score":"2.315214949","decile":"5","lat":40.41607141799276,"lng":-111.85615287196936,"phone":"(361) 385-1615","sd":"21","ssbd":"11","lsbd":"School Board Aspen Peaks 2"},{"vid":"1649434","name":"Ms. Martina Walker DDS","party":"Dem","address":"542 W 2660 N, Lehi, UT 84043","precinct":"25LE21","hd":"53","v_score":"3.93832808","decile":"6","lat":40.42174312153299,"lng":-111.85833763580607,"phone":"(784) 292-9594","sd":"21","ssbd":"11","lsbd":"School Board Aspen Peaks 2"},{"vid":"1656180","name":"Isidore O'Reilly","party":"Rep","address":"513 W 2450 N, Lehi, UT 84043","precinct":"25LE21","hd":"53","v_score":"11.02844566","decile":"9","lat":40.418852545187676,"lng":-111.85768529631474,"phone":"(145) 543-2177","sd":"21","ssbd":"11","lsbd":"School Board Aspen Peaks 2"},{"vid":"1671189","name":"Zella Hansen","party":"Rep","address":"324 W 2730 N, Lehi, UT 84043","precinct":"25LE21","hd":"53","v_score":"1.121327652","decile":"3","lat":40.42255012636821,"lng":-111.8547153351812,"phone":"(762) 157-2615","sd":"21","ssbd":"11","lsbd":"School Board Aspen Peaks 2"},{"vid":"81fb9e5cebf24e1774f2cb8a1726dc96dbf447dba57f03b70be129596d6670eb","name":"Mrs. Garnett Gibson","party":"","address":"3094 N Park Villas Dr, Lehi, UT 84043","precinct":"25LE21","hd":"53","v_score":"11.2235539","decile":"9","lat":40.42658614600559,"lng":-111.86016948305496,"phone":"(105) 118-7585","sd":"21","ssbd":"11","lsbd":"School Board Aspen Peaks 2"},{"vid":"1673342","name":"Christoper Ratke","party":"Rep","address":"359 W 3050 N, Lehi, UT 84043","precinct":"25LE21","hd":"53","v_score":"0","decile":"1","lat":40.42604467458673,"lng":-111.85509817129332,"phone":"(386) 788-0926","sd":"21","ssbd":"11","lsbd":"School Board Aspen Peaks 2"},{"vid":"1673988","name":"Michal Crona","party":"","address":"462 W 2540 N, Lehi, UT 84043","precinct":"25LE21","hd":"53","v_score":"11.46588297","decile":"9","lat":40.420142437077914,"lng":-111.85684165627171,"phone":"(903) 181-1537","sd":"21","ssbd":"11","lsbd":"School Board Aspen Peaks 2"},{"vid":"2d776de74cf1b1ee26897b1c7aab5039131148c7b6489d44f5fde369df668bb3","name":"Selina Lynch-Lesch","party":"Dem","address":"515 W Parkview Dr, Lehi, UT 84043","precinct":"25LE21","hd":"53","v_score":"2.587603312","decile":"5","lat":40.42395041849802,"lng":-111.85781009478696,"phone":"(855) 027-7945","sd":"21","ssbd":"11","lsbd":"School Board Aspen Peaks 2"},{"vid":"1677553","name":"Arnav Kassulke","party":"Dem","address":"578 W Trail Side Dr, Lehi, UT 84043","precinct":"25LE21","hd":"53","v_score":"10.7597751","decile":"9","lat":40.42444914122509,"lng":-111.859266759843,"phone":"(928) 011-2904","sd":"21","ssbd":"11","lsbd":"School Board Aspen Peaks 2"},{"vid":"1681240","name":"Fawn Schmeler-Crooks","party":"","address":"2235 N 490 W, Lehi, UT 84043","precinct":"25LE21","hd":"53","v_score":"0","decile":"1","lat":40.41590222487787,"lng":-111.85667356842653,"phone":"(138) 723-0662","sd":"21","ssbd":"11","lsbd":"School Board Aspen Peaks 2"},{"vid":"1696537","name":"Deondre Haley","party":"Dem","address":"533 W 2660 N, Lehi, UT 84043","precinct":"25LE21","hd":"53","v_score":"1.46627566","decile":"4","lat":40.42128065641886,"lng":-111.85802526373399,"phone":"(985) 594-6796","sd":"21","ssbd":"11","lsbd":"School Board Aspen Peaks 2"},{"vid":"ea37e150313ca2dd6c88e482fc9bf1ea91bd1890ea26d535eeb88f75fb0781bf","name":"Kristin Pfannerstill-VonRueden","party":"Dem","address":"3094 N Park Villas Dr, Lehi, UT 84043","precinct":"25LE21","hd":"53","v_score":"13.76678889","decile":"9","lat":40.42658614600559,"lng":-111.86016948305496,"phone":"(689) 532-0187","sd":"21","ssbd":"11","lsbd":"School Board Aspen Peaks 2"},{"vid":"1719987","name":"Rae O'Kon","party":"Rep","address":"708 W 3160 N, Lehi, UT 84043","precinct":"25LE21","hd":"53","v_score":"1.193887297","decile":"3","lat":40.42772017020565,"lng":-111.86060336158512,"phone":"(675) 411-6590","sd":"21","ssbd":"11","lsbd":"School Board Aspen Peaks 2"},{"vid":"da47ed2b3f408ac0600b3b6ac246480c8d5a44b5177f09e07f99532c483bdd13","name":"Tavaris McKenzie","party":"","address":"439 W 2600 N, Lehi, UT 84043","precinct":"25LE21","hd":"53","v_score":"0","decile":"1","lat":40.420471477752756,"lng":-111.85647785331402,"phone":"(578) 908-5225","sd":"21","ssbd":"11","lsbd":"School Board Aspen Peaks 2"},{"vid":"1732350","name":"Delmus Kautzer","party":"","address":"2698 N 780 W, Lehi, UT 84043","precinct":"25LE21","hd":"53","v_score":"2.315214949","decile":"5","lat":40.42188304648513,"lng":-111.86153851342532,"phone":"(658) 830-2078","sd":"21","ssbd":"11","lsbd":"School Board Aspen Peaks 2"},{"vid":"1732381","name":"Deasia Deckow-Purdy","party":"Rep","address":"462 W 2375 N, Lehi, UT 84043","precinct":"25LE21","hd":"53","v_score":"7.781882349","decile":"8","lat":40.41852920822745,"lng":-111.85683205651526,"phone":"(852) 092-3184","sd":"21","ssbd":"11","lsbd":"School Board Aspen Peaks 2"},{"vid":"1738254","name":"Loring Howe DVM","party":"Rep","address":"2731 N 640 W, Lehi, UT 84043","precinct":"25LE21","hd":"53","v_score":"1.193887297","decile":"3","lat":40.42213529987033,"lng":-111.85993936410911,"phone":"(374) 465-8206","sd":"21","ssbd":"11","lsbd":"School Board Aspen Peaks 2"},{"vid":"1759106","name":"Ima Veum","party":"","address":"519 W Sandhill Dr, Lehi, UT 84043","precinct":"25LE21","hd":"53","v_score":"19.22326505","decile":"10","lat":40.42206245686306,"lng":-111.85805050765113,"phone":"(678) 312-0840","sd":"21","ssbd":"11","lsbd":"School Board Aspen Peaks 2"},{"vid":"1760953","name":"Denzel Pagac","party":"Rep","address":"2643 N 640 W, Lehi, UT 84043","precinct":"25LE21","hd":"53","v_score":"2.315214949","decile":"5","lat":40.421149056533004,"lng":-111.85998816114255,"phone":"(897) 366-4894","sd":"21","ssbd":"11","lsbd":"School Board Aspen Peaks 2"},{"vid":"1763660","name":"Shardae Mills","party":"Dem","address":"323 W 2600 N, Lehi, UT 84043","precinct":"25LE21","hd":"53","v_score":"15.4533012","decile":"9","lat":40.42054910631407,"lng":-111.85466573701301,"phone":"(164) 957-4171","sd":"21","ssbd":"11","lsbd":"School Board Aspen Peaks 2"},{"vid":"1764151","name":"Micayla Mayert","party":"Dem","address":"362 W 2375 N, Lehi, UT 84043","precinct":"25LE21","hd":"53","v_score":"14.52230958","decile":"9","lat":40.41842386192549,"lng":-111.85546477109328,"phone":"(456) 393-9980","sd":"21","ssbd":"11","lsbd":"School Board Aspen Peaks 2"},{"vid":"1782408","name":"Ms. Henrietta Littel","party":"Dem","address":"626 W Parkview Dr, Lehi, UT 84043","precinct":"25LE21","hd":"53","v_score":"16.31473767","decile":"9","lat":40.42319529846673,"lng":-111.85970375292004,"phone":"(773) 265-7460","sd":"21","ssbd":"11","lsbd":"School Board Aspen Peaks 2"},{"vid":"1786141","name":"Melody Braun","party":"Dem","address":"613 W Parkview Dr, Lehi, UT 84043","precinct":"25LE21","hd":"53","v_score":"2.315214949","decile":"5","lat":40.4228216656983,"lng":-111.8593277242319,"phone":"(674) 254-8681","sd":"21","ssbd":"11","lsbd":"School Board Aspen Peaks 2"},{"vid":"1792824","name":"Tonya Denesik","party":"Dem","address":"421 W 2540 N, Lehi, UT 84043","precinct":"25LE21","hd":"53","v_score":"1.121327652","decile":"3","lat":40.41966262979979,"lng":-111.8562297582158,"phone":"(487) 076-3781","sd":"21","ssbd":"11","lsbd":"School Board Aspen Peaks 2"},{"vid":"1795249","name":"Jonathon Mills","party":"Rep","address":"537 W Trail Side Dr, Lehi, UT 84043","precinct":"25LE21","hd":"53","v_score":"12.38288823","decile":"9","lat":40.42455082356994,"lng":-111.85832762561803,"phone":"(362) 050-9878","sd":"21","ssbd":"11","lsbd":"School Board Aspen Peaks 2"},{"vid":"1795758","name":"Malissa Gulgowski-Towne","party":"","address":"2614 N 780 W, Lehi, UT 84043","precinct":"25LE21","hd":"53","v_score":"1.193887297","decile":"3","lat":40.420843755303096,"lng":-111.86174142404293,"phone":"(364) 832-3889","sd":"21","ssbd":"11","lsbd":"School Board Aspen Peaks 2"},{"vid":"1797014","name":"Roe Lakin IV","party":"","address":"321 W 2540 N, Lehi, UT 84043","precinct":"25LE21","hd":"53","v_score":"11.05053808","decile":"9","lat":40.41973671224474,"lng":-111.8546818213764,"phone":"(696) 398-1712","sd":"21","ssbd":"11","lsbd":"School Board Aspen Peaks 2"},{"vid":"1798211","name":"Valentina Schoen","party":"","address":"367 W 2660 N, Lehi, UT 84043","precinct":"25LE21","hd":"53","v_score":"19.24455128","decile":"10","lat":40.42138426898774,"lng":-111.85540932625779,"phone":"(548) 082-3480","sd":"21","ssbd":"11","lsbd":"School Board Aspen Peaks 2"},{"vid":"1812542","name":"Melina Dare MD","party":"","address":"548 W 2325 N, Lehi, UT 84043","precinct":"25LE21","hd":"53","v_score":"2.315214949","decile":"5","lat":40.4177395508711,"lng":-111.8583463101181,"phone":"(522) 628-0283","sd":"21","ssbd":"11","lsbd":"School Board Aspen Peaks 2"},{"vid":"1817170","name":"Shira Welch","party":"","address":"584 W Trail Side Dr, Lehi, UT 84043","precinct":"25LE21","hd":"53","v_score":"6.881235673","decile":"8","lat":40.42418026851756,"lng":-111.85938716190331,"phone":"(293) 622-2845","sd":"21","ssbd":"11","lsbd":"School Board Aspen Peaks 2"},{"vid":"1820585","name":"Delinda Langworth","party":"Rep","address":"762 W Ridgeline Dr, Lehi, UT 84043","precinct":"25LE21","hd":"53","v_score":"1.193887297","decile":"3","lat":40.42396573049729,"lng":-111.86184023402333,"phone":"(882) 278-9077","sd":"21","ssbd":"11","lsbd":"School Board Aspen Peaks 2"},{"vid":"9e3b682aaa3a0dbc370571af3e084c3fdffdb94ce344003f8b052524cba4159c","name":"Janey Vandervort","party":"","address":"744 W 3160 N, Lehi, UT 84043","precinct":"25LE21","hd":"53","v_score":"21.36541415","decile":"10","lat":40.427599990737825,"lng":-111.86124221820198,"phone":"(677) 413-3142","sd":"21","ssbd":"11","lsbd":"School Board Aspen Peaks 2"},{"vid":"f2e7acdf4a077ea067cc002606b3907566c9df52f2fc99e1e8eefd96c9f58542","name":"Allyn Kessler","party":"Rep","address":"548 W 2325 N, Lehi, UT 84043","precinct":"25LE21","hd":"53","v_score":"6.724398202","decile":"8","lat":40.4177395508711,"lng":-111.8583463101181,"phone":"(862) 867-6862","sd":"21","ssbd":"11","lsbd":"School Board Aspen Peaks 2"},{"vid":"1833467","name":"Bell Harber","party":"Rep","address":"550 W 2450 N, Lehi, UT 84043","precinct":"25LE21","hd":"53","v_score":"20.91067752","decile":"10","lat":40.41933013459451,"lng":-111.85835864236998,"phone":"(247) 283-9307","sd":"21","ssbd":"11","lsbd":"School Board Aspen Peaks 2"},{"vid":"1833836","name":"Helma Hand MD","party":"Rep","address":"493 W 2375 N, Lehi, UT 84043","precinct":"25LE21","hd":"53","v_score":"8.280646305","decile":"8","lat":40.41804775665789,"lng":-111.8574135938502,"phone":"(898) 736-9275","sd":"21","ssbd":"11","lsbd":"School Board Aspen Peaks 2"},{"vid":"1836623","name":"Marilee Vandervort","party":"","address":"3123 N 325 W, Lehi, UT 84043","precinct":"25LE21","hd":"53","v_score":"0","decile":"1","lat":40.42707190234354,"lng":-111.85514658845096,"phone":"(279) 910-8366","sd":"21","ssbd":"11","lsbd":"School Board Aspen Peaks 2"},{"vid":"1840972","name":"Vonnie Tromp DDS","party":"Dem","address":"584 W 2280 N, Lehi, UT 84043","precinct":"25LE21","hd":"53","v_score":"15.61870689","decile":"9","lat":40.41694448884078,"lng":-111.85900454241117,"phone":"(971) 011-3206","sd":"21","ssbd":"11","lsbd":"School Board Aspen Peaks 2"},{"vid":"1846567","name":"Ms. Odessa Marks MD","party":"Rep","address":"642 W Sandhill Dr, Lehi, UT 84043","precinct":"25LE21","hd":"53","v_score":"18.20183839","decile":"10","lat":40.422507956013845,"lng":-111.85974305563762,"phone":"(663) 593-3691","sd":"21","ssbd":"11","lsbd":"School Board Aspen Peaks 2"},{"vid":"1872884","name":"Lue Corkery-Beer","party":"Rep","address":"2559 N 300 W, Lehi, UT 84043","precinct":"25LE21","hd":"53","v_score":"27.05857207","decile":"10","lat":40.42003899632532,"lng":-111.85468319730575,"phone":"(430) 706-1021","sd":"21","ssbd":"11","lsbd":"School Board Aspen Peaks 2"},{"vid":"a6affd31e98ecc614b1c21cd6e0ed9cce14887b35d9064da4d737932bb30fc37","name":"Nelie Murphy","party":"","address":"2854 N 425 W, Lehi, UT 84043","precinct":"25LE21","hd":"53","v_score":"3.93832808","decile":"6","lat":40.42385546402698,"lng":-111.8559516530966,"phone":"(907) 244-0620","sd":"21","ssbd":"11","lsbd":"School Board Aspen Peaks 2"},{"vid":"1886566","name":"Brent Ortiz","party":"Dem","address":"519 W Sandhill Dr, Lehi, UT 84043","precinct":"25LE21","hd":"53","v_score":"2.315214949","decile":"5","lat":40.42206245686306,"lng":-111.85805050765113,"phone":"(644) 896-8782","sd":"21","ssbd":"11","lsbd":"School Board Aspen Peaks 2"},{"vid":"1887488","name":"Aydin Gerlach","party":"","address":"462 W 2540 N, Lehi, UT 84043","precinct":"25LE21","hd":"53","v_score":"31.35286052","decile":"10","lat":40.420142437077914,"lng":-111.85684165627171,"phone":"(707) 246-5704","sd":"21","ssbd":"11","lsbd":"School Board Aspen Peaks 2"},{"vid":"1889950","name":"Ainsley Treutel","party":"Rep","address":"497 W 2280 N, Lehi, UT 84043","precinct":"25LE21","hd":"53","v_score":"9.050194508","decile":"8","lat":40.416611869703125,"lng":-111.85738302921163,"phone":"(630) 399-7181","sd":"21","ssbd":"11","lsbd":"School Board Aspen Peaks 2"},{"vid":"1890517","name":"Micaela Hansen-Walker","party":"","address":"744 W Sandhill Dr, Lehi, UT 84043","precinct":"25LE21","hd":"53","v_score":"10.96719457","decile":"9","lat":40.42240618360612,"lng":-111.86176074687712,"phone":"(712) 378-3540","sd":"21","ssbd":"11","lsbd":"School Board Aspen Peaks 2"},{"vid":"1891950","name":"Mrs. Annabelle Boyer","party":"","address":"497 W 2280 N, Lehi, UT 84043","precinct":"25LE21","hd":"53","v_score":"3.781490609","decile":"6","lat":40.416611869703125,"lng":-111.85738302921163,"phone":"(764) 106-3060","sd":"21","ssbd":"11","lsbd":"School Board Aspen Peaks 2"},{"vid":"1892664","name":"Mr. Claiborne Muller","party":"Rep","address":"3015 N 300 W, Lehi, UT 84043","precinct":"25LE21","hd":"53","v_score":"22.76683584","decile":"10","lat":40.4257678469064,"lng":-111.85493989766242,"phone":"(482) 031-0774","sd":"21","ssbd":"11","lsbd":"School Board Aspen Peaks 2"},{"vid":"1901976","name":"Dr. Demarion Skiles DDS","party":"","address":"319 W 2450 N, Lehi, UT 84043","precinct":"25LE21","hd":"53","v_score":"20.49533263","decile":"10","lat":40.41894528150311,"lng":-111.85473142318862,"phone":"(753) 107-6521","sd":"21","ssbd":"11","lsbd":"School Board Aspen Peaks 2"},{"vid":"1907897","name":"Jaheim Nolan","party":"Dem","address":"402 W 2540 N, Lehi, UT 84043","precinct":"25LE21","hd":"53","v_score":"2.660162957","decile":"5","lat":40.420035107068074,"lng":-111.85582280999898,"phone":"(322) 509-6703","sd":"21","ssbd":"11","lsbd":"School Board Aspen Peaks 2"},{"vid":"1914162","name":"Miss Ariane Rodriguez","party":"","address":"3013 N 425 W, Lehi, UT 84043","precinct":"25LE21","hd":"53","v_score":"5.360235423","decile":"7","lat":40.425764056657,"lng":-111.85623718297133,"phone":"(329) 030-9098","sd":"21","ssbd":"11","lsbd":"School Board Aspen Peaks 2"},{"vid":"22cb57427865ef249c9d77117fb982c989cb8c1a05b83d80081ed1791b9ede79","name":"Maebelle Koepp","party":"Dem","address":"327 W 2800 N, Lehi, UT 84043","precinct":"25LE21","hd":"53","v_score":"9.757278238","decile":"8","lat":40.42320098128698,"lng":-111.8549387385001,"phone":"(810) 905-5342","sd":"21","ssbd":"11","lsbd":"School Board Aspen Peaks 2"},{"vid":"1a8a89434e27261d580269ede34d164e8ee2a9f4741e85eafafbafa9cd513e0a","name":"Oley Nader","party":"Dem","address":"505 W Sandhill Dr, Lehi, UT 84043","precinct":"25LE21","hd":"53","v_score":"1.121327652","decile":"3","lat":40.42206341196604,"lng":-111.85773811581615,"phone":"(405) 523-5860","sd":"21","ssbd":"11","lsbd":"School Board Aspen Peaks 2"},{"vid":"1918833","name":"Jake Cassin-Bashirian","party":"Dem","address":"2630 N 425 W, Lehi, UT 84043","precinct":"25LE21","hd":"53","v_score":"7.830610533","decile":"8","lat":40.4208968992364,"lng":-111.85596586607663,"phone":"(439) 574-4555","sd":"21","ssbd":"11","lsbd":"School Board Aspen Peaks 2"},{"vid":"1924130","name":"Artie Farrell-Kihn","party":"","address":"350 W 2875 N, Lehi, UT 84043","precinct":"25LE21","hd":"53","v_score":"7.650280567","decile":"8","lat":40.42425435418398,"lng":-111.85523401668654,"phone":"(260) 042-0673","sd":"21","ssbd":"11","lsbd":"School Board Aspen Peaks 2"},{"vid":"1933569","name":"Rube Treutel","party":"Dem","address":"481 W 2660 N, Lehi, UT 84043","precinct":"25LE21","hd":"53","v_score":"34.01018412","decile":"10","lat":40.42134329369224,"lng":-111.85708614117482,"phone":"(578) 102-5452","sd":"21","ssbd":"11","lsbd":"School Board Aspen Peaks 2"},{"vid":"1940232","name":"Jaron Mayer","party":"Rep","address":"360 W 2450 N, Lehi, UT 84043","precinct":"25LE21","hd":"53","v_score":"8.507303088","decile":"8","lat":40.41922946546315,"lng":-111.85546892831321,"phone":"(561) 915-3446","sd":"21","ssbd":"11","lsbd":"School Board Aspen Peaks 2"},{"vid":"1946384","name":"Clemens Swift-Braun","party":"Dem","address":"613 W Parkview Dr, Lehi, UT 84043","precinct":"25LE21","hd":"53","v_score":"0","decile":"1","lat":40.4228216656983,"lng":-111.8593277242319,"phone":"(472) 210-8111","sd":"21","ssbd":"11","lsbd":"School Board Aspen Peaks 2"},{"vid":"2275f3905a5ad7fb96a2e1accb9ecb7deef7e76afa8394314dfa30644063a3f1","name":"Elda Gaylord","party":"","address":"692 W 3160 N, Lehi, UT 84043","precinct":"25LE21","hd":"53","v_score":"19.39001431","decile":"10","lat":40.42765082291593,"lng":-111.86023670414075,"phone":"(107) 046-0100","sd":"21","ssbd":"11","lsbd":"School Board Aspen Peaks 2"},{"vid":"1949535","name":"Mr. Hosea Thiel","party":"","address":"668 W Sandhill Dr, Lehi, UT 84043","precinct":"25LE21","hd":"53","v_score":"8.363183621","decile":"8","lat":40.42250696234676,"lng":-111.86006622186615,"phone":"(363) 119-8391","sd":"21","ssbd":"11","lsbd":"School Board Aspen Peaks 2"},{"vid":"ca7288dd9bccbf74fbb928f9ba75492847c5328ddc162fc1bea48bb2d4f8a31e","name":"Waldo Runolfsson","party":"Dem","address":"2630 N 425 W, Lehi, UT 84043","precinct":"25LE21","hd":"53","v_score":"5.40460374","decile":"7","lat":40.4208968992364,"lng":-111.85596586607663,"phone":"(703) 284-0668","sd":"21","ssbd":"11","lsbd":"School Board Aspen Peaks 2"},{"vid":"1970335","name":"Esker White","party":"Rep","address":"329 W 2200 N, Lehi, UT 84043","precinct":"25LE21","hd":"53","v_score":"1.121327652","decile":"3","lat":40.414800634024346,"lng":-111.85461802067222,"phone":"(412) 032-5449","sd":"21","ssbd":"11","lsbd":"School Board Aspen Peaks 2"},{"vid":"1971174","name":"Mrs. Trudie Rohan","party":"Dem","address":"420 W 2450 N, Lehi, UT 84043","precinct":"25LE21","hd":"53","v_score":"4.137918904","decile":"7","lat":40.41933666657121,"lng":-111.85622805932195,"phone":"(123) 088-2070","sd":"21","ssbd":"11","lsbd":"School Board Aspen Peaks 2"},{"vid":"1971272","name":"Eldon Renner","party":"Rep","address":"341 W 2540 N, Lehi, UT 84043","precinct":"25LE21","hd":"53","v_score":"5.40460374","decile":"7","lat":40.41966607680084,"lng":-111.85509554461943,"phone":"(574) 378-5227","sd":"21","ssbd":"11","lsbd":"School Board Aspen Peaks 2"},{"vid":"1973484","name":"Margretta Halvorson","party":"","address":"3062 N Park Villas Dr, Lehi, UT 84043","precinct":"25LE21","hd":"53","v_score":"2.744440783","decile":"5","lat":40.42631939425747,"lng":-111.86016125310017,"phone":"(592) 847-6772","sd":"21","ssbd":"11","lsbd":"School Board Aspen Peaks 2"},{"vid":"1973701","name":"Hobart Pouros","party":"","address":"2669 N 425 W, Lehi, UT 84043","precinct":"25LE21","hd":"53","v_score":"6.896907962","decile":"8","lat":40.42158903049486,"lng":-111.85638279898055,"phone":"(987) 874-6574","sd":"21","ssbd":"11","lsbd":"School Board Aspen Peaks 2"},{"vid":"1974038","name":"Ms. Cherry Schoen","party":"Rep","address":"327 W 2925 N, Lehi, UT 84043","precinct":"25LE21","hd":"53","v_score":"2.315214949","decile":"5","lat":40.42470685243315,"lng":-111.85469123916181,"phone":"(933) 293-7428","sd":"21","ssbd":"11","lsbd":"School Board Aspen Peaks 2"},{"vid":"1977027","name":"Delle DuBuque","party":"","address":"2335 N 380 W, Lehi, UT 84043","precinct":"25LE21","hd":"53","v_score":"13.080119","decile":"9","lat":40.417656843902805,"lng":-111.85581039586529,"phone":"(735) 579-9056","sd":"21","ssbd":"11","lsbd":"School Board Aspen Peaks 2"},{"vid":"1989149","name":"Mardell Denesik","party":"Dem","address":"567 W 2600 N, Lehi, UT 84043","precinct":"25LE21","hd":"53","v_score":"11.6505322","decile":"9","lat":40.420461725021326,"lng":-111.85860999691538,"phone":"(924) 867-2728","sd":"21","ssbd":"11","lsbd":"School Board Aspen Peaks 2"},{"vid":"1989159","name":"Jaqueline Bashirian","party":"Dem","address":"567 W 2600 N, Lehi, UT 84043","precinct":"25LE21","hd":"53","v_score":"8.69195232","decile":"8","lat":40.420461725021326,"lng":-111.85860999691538,"phone":"(771) 446-7738","sd":"21","ssbd":"11","lsbd":"School Board Aspen Peaks 2"},{"vid":"1989841","name":"Denis Schuppe III","party":"","address":"2991 N 425 W, Lehi, UT 84043","precinct":"25LE21","hd":"53","v_score":"2.587603312","decile":"5","lat":40.42545896655393,"lng":-111.85603352093628,"phone":"(765) 922-7725","sd":"21","ssbd":"11","lsbd":"School Board Aspen Peaks 2"},{"vid":"1991439","name":"Dr. Aletha Kovacek MD","party":"Rep","address":"2360 N 600 W, Lehi, UT 84043","precinct":"25LE21","hd":"53","v_score":"4.069929862","decile":"6","lat":40.41811231597943,"lng":-111.85898901159274,"phone":"(245) 923-2791","sd":"21","ssbd":"11","lsbd":"School Board Aspen Peaks 2"},{"vid":"1992381","name":"Dr. Elijah Lehner Sr.","party":"","address":"442 W 2375 N, Lehi, UT 84043","precinct":"25LE21","hd":"53","v_score":"0","decile":"1","lat":40.41853013520336,"lng":-111.85652793744539,"phone":"(680) 475-6009","sd":"21","ssbd":"11","lsbd":"School Board Aspen Peaks 2"},{"vid":"1995902","name":"Alto Altenwerth","party":"","address":"456 W 2600 N, Lehi, UT 84043","precinct":"25LE21","hd":"53","v_score":"23.61947609","decile":"10","lat":40.42098366069362,"lng":-111.85680160416612,"phone":"(656) 014-6882","sd":"21","ssbd":"11","lsbd":"School Board Aspen Peaks 2"},{"vid":"1998387","name":"Mr. Everette Ankunding","party":"Dem","address":"429 W 2200 N, Lehi, UT 84043","precinct":"25LE21","hd":"53","v_score":"6.881235673","decile":"8","lat":40.41473035488182,"lng":-111.85527284277144,"phone":"(778) 861-5294","sd":"21","ssbd":"11","lsbd":"School Board Aspen Peaks 2"},{"vid":"2007194","name":"Libbie Bogan","party":"Rep","address":"652 W 3160 N, Lehi, UT 84043","precinct":"25LE21","hd":"53","v_score":"0","decile":"1","lat":40.42759118720726,"lng":-111.85955918123285,"phone":"(870) 204-5329","sd":"21","ssbd":"11","lsbd":"School Board Aspen Peaks 2"},{"vid":"2009127","name":"Reynolds Oberbrunner","party":"Rep","address":"3117 N 325 W, Lehi, UT 84043","precinct":"25LE21","hd":"53","v_score":"4.192796624","decile":"7","lat":40.42697165367056,"lng":-111.85517422985181,"phone":"(909) 076-0494","sd":"21","ssbd":"11","lsbd":"School Board Aspen Peaks 2"},{"vid":"2017910","name":"Dr. Milo Marquardt Sr.","party":"Dem","address":"2580 N 600 W, Lehi, UT 84043","precinct":"25LE21","hd":"53","v_score":"2.876042565","decile":"6","lat":40.42052924562738,"lng":-111.85901396032541,"phone":"(174) 397-7460","sd":"21","ssbd":"11","lsbd":"School Board Aspen Peaks 2"},{"vid":"2024794","name":"Daquan Rohan","party":"","address":"698 W Ridgeline Dr, Lehi, UT 84043","precinct":"25LE21","hd":"53","v_score":"1.193887297","decile":"3","lat":40.42402855268774,"lng":-111.86048591154459,"phone":"(323) 952-1552","sd":"21","ssbd":"11","lsbd":"School Board Aspen Peaks 2"},{"vid":"2026931","name":"Kanye Feest PhD","party":"","address":"401 W 2730 N, Lehi, UT 84043","precinct":"25LE21","hd":"53","v_score":"0","decile":"1","lat":40.422227882465485,"lng":-111.85593902592373,"phone":"(113) 444-5893","sd":"21","ssbd":"11","lsbd":"School Board Aspen Peaks 2"},{"vid":"2027359","name":"Bryton Larson","party":"Dem","address":"2520 N 600 W, Lehi, UT 84043","precinct":"25LE21","hd":"53","v_score":"3.781490609","decile":"6","lat":40.41972344905366,"lng":-111.85902677673172,"phone":"(523) 467-3322","sd":"21","ssbd":"11","lsbd":"School Board Aspen Peaks 2"},{"vid":"2043707","name":"Dr. Ovid Sauer","party":"Dem","address":"531 W 2600 N, Lehi, UT 84043","precinct":"25LE21","hd":"53","v_score":"1.193887297","decile":"3","lat":40.42046452351361,"lng":-111.85800081338861,"phone":"(507) 702-5516","sd":"21","ssbd":"11","lsbd":"School Board Aspen Peaks 2"},{"vid":"f3c3b2892a364f4b2cee9ea2bdad01a1fa222ee380048dcf457caee454683b8c","name":"Aimee Mills","party":"Dem","address":"3157 N Park Cottage Way, Lehi, UT 84043","precinct":"25LE21","hd":"53","v_score":"6.724398202","decile":"8","lat":40.42739779437826,"lng":-111.85633392739516,"phone":"(242) 267-3277","sd":"21","ssbd":"11","lsbd":"School Board Aspen Peaks 2"},{"vid":"6614cd1670dab849ac5fd26c869ac490f296f7aebbf0e91b4e7598442b12c7e8","name":"Maye Heidenreich","party":"Rep","address":"2391 N 380 W, Lehi, UT 84043","precinct":"25LE21","hd":"53","v_score":"0","decile":"1","lat":40.418422806444724,"lng":-111.85581442526842,"phone":"(784) 975-0822","sd":"21","ssbd":"11","lsbd":"School Board Aspen Peaks 2"},{"vid":"8285fe4ecab361e412e69d70181675b9c72eae275fa589ee338c17fe0b603ffa","name":"Esley Waelchi","party":"Rep","address":"3158 N Park Place St, Lehi, UT 84043","precinct":"25LE21","hd":"53","v_score":"2.587603312","decile":"5","lat":40.42749596251452,"lng":-111.85908218238612,"phone":"(884) 643-1672","sd":"21","ssbd":"11","lsbd":"School Board Aspen Peaks 2"},{"vid":"788041d97509594f0d5eb6f3db29dd305b3b677a900b1d9c8a7336e4efbe63dd","name":"Davonte Gorczany MD","party":"Dem","address":"744 W Ridgeline Dr, Lehi, UT 84043","precinct":"25LE21","hd":"53","v_score":"2.744440783","decile":"5","lat":40.4239666598602,"lng":-111.86153979921392,"phone":"(119) 315-8101","sd":"21","ssbd":"11","lsbd":"School Board Aspen Peaks 2"},{"vid":"12458d11fee20f64cd0287ea506d69784320fe16b15e2bfc66a85e5888505612","name":"Virgie Casper PhD","party":"Dem","address":"2247 N 300 W, Lehi, UT 84043","precinct":"25LE21","hd":"53","v_score":"2.315214949","decile":"5","lat":40.416130936926955,"lng":-111.85478842337989,"phone":"(438) 847-8347","sd":"21","ssbd":"11","lsbd":"School Board Aspen Peaks 2"},{"vid":"42260dc1534b4ffda536903cf591f26c4bec95f106d9898ff1623a083751c726","name":"Arietta Runolfsson","party":"Dem","address":"322 W 2375 N, Lehi, UT 84043","precinct":"25LE21","hd":"53","v_score":"6.027167436","decile":"7","lat":40.41842624337011,"lng":-111.85467563777578,"phone":"(809) 201-5121","sd":"21","ssbd":"11","lsbd":"School Board Aspen Peaks 2"},{"vid":"2085502","name":"Tyriq Harber-Schaefer","party":"Dem","address":"3067 N Park Cottage Way, Lehi, UT 84043","precinct":"25LE21","hd":"53","v_score":"0","decile":"1","lat":40.42636371598558,"lng":-111.85624360793183,"phone":"(212) 113-9839","sd":"21","ssbd":"11","lsbd":"School Board Aspen Peaks 2"},{"vid":"cfc0564c7a7e805ad45ccca6d41cb25a89f6eb5c9afff742d8028878b621cdab","name":"Howard McGlynn","party":"Dem","address":"496 W 2450 N, Lehi, UT 84043","precinct":"25LE21","hd":"53","v_score":"2.315214949","decile":"5","lat":40.41933292711549,"lng":-111.85744555590799,"phone":"(680) 164-8433","sd":"21","ssbd":"11","lsbd":"School Board Aspen Peaks 2"},{"vid":"a6d7e80762d5babc4c3e8eef1d1854b828d8175824c5604477e9423eda74328a","name":"Luella Kuhic","party":"","address":"549 W 2280 N, Lehi, UT 84043","precinct":"25LE21","hd":"53","v_score":"1.121327652","decile":"3","lat":40.41660916885296,"lng":-111.85826627777215,"phone":"(544) 574-8095","sd":"21","ssbd":"11","lsbd":"School Board Aspen Peaks 2"},{"vid":"2119837","name":"Dr. Gardner Kihn DVM","party":"Rep","address":"708 W 3160 N, Lehi, UT 84043","precinct":"25LE21","hd":"53","v_score":"2.315214949","decile":"5","lat":40.42772017020565,"lng":-111.86060336158512,"phone":"(472) 798-5810","sd":"21","ssbd":"11","lsbd":"School Board Aspen Peaks 2"},{"vid":"2125812","name":"Merry Boyle","party":"Dem","address":"531 W 2325 N, Lehi, UT 84043","precinct":"25LE21","hd":"53","v_score":"8.421194992","decile":"8","lat":40.4173125732668,"lng":-111.8579755401864,"phone":"(206) 778-1039","sd":"21","ssbd":"11","lsbd":"School Board Aspen Peaks 2"},{"vid":"2126501","name":"Cinthia Stark","party":"Rep","address":"2215 N 490 W, Lehi, UT 84043","precinct":"25LE21","hd":"53","v_score":"2.315214949","decile":"5","lat":40.41545022123822,"lng":-111.85670464468559,"phone":"(415) 462-4748","sd":"21","ssbd":"11","lsbd":"School Board Aspen Peaks 2"},{"vid":"7a330a7d4e4f317275cbc58fc1ca087817d2eda86e4af267a740b440ced0055a","name":"Marilynn Corwin-Haag","party":"Dem","address":"3061 N Park Villas Dr, Lehi, UT 84043","precinct":"25LE21","hd":"53","v_score":"7.153624035","decile":"8","lat":40.4263003565339,"lng":-111.86055101473782,"phone":"(957) 521-6629","sd":"21","ssbd":"11","lsbd":"School Board Aspen Peaks 2"},{"vid":"3425d1fdb9ec443ecee2ddc1b92dfbb01cf3c3df6421409ed2c5f77af7cd894d","name":"Dr. Crockett Graham","party":"","address":"2559 N 300 W, Lehi, UT 84043","precinct":"25LE21","hd":"53","v_score":"13.97135325","decile":"9","lat":40.42003899632532,"lng":-111.85468319730575,"phone":"(370) 247-7794","sd":"21","ssbd":"11","lsbd":"School Board Aspen Peaks 2"},{"vid":"9303d161bc0960ac3637770bbcb85f7e5981d320b77460b667f1cc24c67ed1ae","name":"Leonard Kshlerin","party":"Rep","address":"369 W 2875 N, Lehi, UT 84043","precinct":"25LE21","hd":"53","v_score":"3.781490609","decile":"6","lat":40.4237546109193,"lng":-111.85555265899931,"phone":"(444) 496-5868","sd":"21","ssbd":"11","lsbd":"School Board Aspen Peaks 2"},{"vid":"2130527","name":"Authur Schuster-Schinner","party":"Dem","address":"399 W 2800 N, Lehi, UT 84043","precinct":"25LE21","hd":"53","v_score":"2.315214949","decile":"5","lat":40.42302926915024,"lng":-111.85594073255844,"phone":"(916) 719-8200","sd":"21","ssbd":"11","lsbd":"School Board Aspen Peaks 2"},{"vid":"2144236","name":"Felicie DuBuque","party":"Dem","address":"321 W 2375 N, Lehi, UT 84043","precinct":"25LE21","hd":"53","v_score":"7.013961469","decile":"8","lat":40.41812549925062,"lng":-111.85467422995046,"phone":"(419) 572-8464","sd":"21","ssbd":"11","lsbd":"School Board Aspen Peaks 2"},{"vid":"8a3030ba1a7086471b2cecac76b183894a4085ad19c805f47f24e12e5c08cedb","name":"Zana Shields","party":"Dem","address":"320 W 2325 N, Lehi, UT 84043","precinct":"25LE21","hd":"53","v_score":"0","decile":"1","lat":40.417660279782034,"lng":-111.85467200364745,"phone":"(172) 543-7431","sd":"21","ssbd":"11","lsbd":"School Board Aspen Peaks 2"},{"vid":"2148326","name":"Jereme Brakus","party":"Rep","address":"475 W 2540 N, Lehi, UT 84043","precinct":"25LE21","hd":"53","v_score":"0","decile":"1","lat":40.41962748039137,"lng":-111.85706153477781,"phone":"(323) 664-8955","sd":"21","ssbd":"11","lsbd":"School Board Aspen Peaks 2"},{"vid":"7ce4d05e423093537d800406fb5e5c0542aae7bbe75968e78e89fbeef5e08671","name":"Dr. Mae Jenkins","party":"","address":"519 W Sandhill Dr, Lehi, UT 84043","precinct":"25LE21","hd":"53","v_score":"3.93832808","decile":"6","lat":40.42206245686306,"lng":-111.85805050765113,"phone":"(112) 385-2991","sd":"21","ssbd":"11","lsbd":"School Board Aspen Peaks 2"},{"vid":"2164697","name":"Leticia Schmidt","party":"","address":"2215 N 490 W, Lehi, UT 84043","precinct":"25LE21","hd":"53","v_score":"2.660162957","decile":"5","lat":40.41545022123822,"lng":-111.85670464468559,"phone":"(713) 089-2183","sd":"21","ssbd":"11","lsbd":"School Board Aspen Peaks 2"},{"vid":"2165852","name":"Dr. Edd Corkery I","party":"Rep","address":"419 W 2600 N, Lehi, UT 84043","precinct":"25LE21","hd":"53","v_score":"9.682978083","decile":"8","lat":40.42047287221146,"lng":-111.85617326119132,"phone":"(954) 836-3493","sd":"21","ssbd":"11","lsbd":"School Board Aspen Peaks 2"},{"vid":"2167252","name":"Maddox Satterfield","party":"","address":"2644 N 780 W, Lehi, UT 84043","precinct":"25LE21","hd":"53","v_score":"3.781490609","decile":"6","lat":40.42128381884079,"lng":-111.86156495276052,"phone":"(752) 923-7140","sd":"21","ssbd":"11","lsbd":"School Board Aspen Peaks 2"},{"vid":"d421f53707be318aa05a519ea0e80aed93e3635e6e05f1b4f8082881c3a97ed7","name":"Deacon Ziemann","party":"","address":"2630 N 425 W, Lehi, UT 84043","precinct":"25LE21","hd":"53","v_score":"13.75326469","decile":"9","lat":40.4208968992364,"lng":-111.85596586607663,"phone":"(851) 186-7464","sd":"21","ssbd":"11","lsbd":"School Board Aspen Peaks 2"},{"vid":"2173532","name":"Cecelia Cassin","party":"","address":"512 W 2540 N, Lehi, UT 84043","precinct":"25LE21","hd":"53","v_score":"3.93832808","decile":"6","lat":40.42013882528215,"lng":-111.85775543030425,"phone":"(838) 589-4184","sd":"21","ssbd":"11","lsbd":"School Board Aspen Peaks 2"},{"vid":"5e101e6c612ade50acfc7219b05608a83a9e301f6d4fac1ff1a2945abfd90960","name":"Toy Rempel","party":"Rep","address":"2954 N 425 W, Lehi, UT 84043","precinct":"25LE21","hd":"53","v_score":"0","decile":"1","lat":40.42503177697829,"lng":-111.8556593890393,"phone":"(908) 049-2965","sd":"21","ssbd":"11","lsbd":"School Board Aspen Peaks 2"},{"vid":"1a535d5553833391f41e364f1273220d11f3841c7c6d3373a20ee55595a219c3","name":"Dr. Lovie Emmerich","party":"Dem","address":"322 W 2375 N, Lehi, UT 84043","precinct":"25LE21","hd":"53","v_score":"5.346711217","decile":"7","lat":40.41842624337011,"lng":-111.85467563777578,"phone":"(979) 503-5873","sd":"21","ssbd":"11","lsbd":"School Board Aspen Peaks 2"},{"vid":"2184482","name":"Torrence Swaniawski","party":"Dem","address":"674 W 3160 N, Lehi, UT 84043","precinct":"25LE21","hd":"53","v_score":"4.069929862","decile":"6","lat":40.42772182491263,"lng":-111.8599928826877,"phone":"(279) 878-5043","sd":"21","ssbd":"11","lsbd":"School Board Aspen Peaks 2"},{"vid":"0bc215a25985012bfeafc93b2f2d769f3d10e03144ab52aa1c481582130824b8","name":"Miss Rashida Conroy DDS","party":"Dem","address":"669 W Parkview Dr, Lehi, UT 84043","precinct":"25LE21","hd":"53","v_score":"3.93832808","decile":"6","lat":40.42279395905197,"lng":-111.8603745292412,"phone":"(134) 412-6167","sd":"21","ssbd":"11","lsbd":"School Board Aspen Peaks 2"},{"vid":"85094e65f3f02fba528726655774d851827f70addb6432c180428253abc4f734","name":"Ms. Kaley Moen","party":"Dem","address":"3094 N Park Ridge Dr, Lehi, UT 84043","precinct":"25LE21","hd":"53","v_score":"19.5311795","decile":"10","lat":40.42658119373351,"lng":-111.86119434238563,"phone":"(866) 965-2831","sd":"21","ssbd":"11","lsbd":"School Board Aspen Peaks 2"},{"vid":"0692b60334f34e0c54abebd98782bf51dfd4a21d2ccdb0e61081fbb82ea4d5d6","name":"Ms. Lashanda Green","party":"Rep","address":"421 W 2540 N, Lehi, UT 84043","precinct":"25LE21","hd":"53","v_score":"0","decile":"1","lat":40.41966262979979,"lng":-111.8562297582158,"phone":"(813) 925-0443","sd":"21","ssbd":"11","lsbd":"School Board Aspen Peaks 2"},{"vid":"2214777","name":"Sterling Breitenberg","party":"Dem","address":"2241 N 430 W, Lehi, UT 84043","precinct":"25LE21","hd":"53","v_score":"0","decile":"1","lat":40.41609585168072,"lng":-111.85562753390101,"phone":"(399) 920-1207","sd":"21","ssbd":"11","lsbd":"School Board Aspen Peaks 2"},{"vid":"951bbd1bd36ea706599181d9c74461ef4b93e935bf93c6dd97d69ce8e5d69077","name":"Donia Beatty","party":"Rep","address":"349 W 2875 N, Lehi, UT 84043","precinct":"25LE21","hd":"53","v_score":"2.315214949","decile":"5","lat":40.423756036425566,"lng":-111.85512854294382,"phone":"(213) 354-6714","sd":"21","ssbd":"11","lsbd":"School Board Aspen Peaks 2"},{"vid":"ac75a7c9c12a7188a6d447fde4591fc1db11659543a6a30da0b51e93c1a0a7d6","name":"Branden Carroll","party":"","address":"2769 N 425 W, Lehi, UT 84043","precinct":"25LE21","hd":"53","v_score":"0","decile":"1","lat":40.42288449405513,"lng":-111.85638594506035,"phone":"(913) 480-4267","sd":"21","ssbd":"11","lsbd":"School Board Aspen Peaks 2"},{"vid":"0b119e93dd6e9e6100012e716494a842842412d38e67c44222dae7b732356c45","name":"Selene O'Kon","party":"","address":"599 W Parkview Dr, Lehi, UT 84043","precinct":"25LE21","hd":"53","v_score":"7.090117576","decile":"8","lat":40.42290537330373,"lng":-111.85902817977163,"phone":"(285) 122-7513","sd":"21","ssbd":"11","lsbd":"School Board Aspen Peaks 2"},{"vid":"2237024","name":"Diana O'Hara","party":"Dem","address":"515 W 2280 N, Lehi, UT 84043","precinct":"25LE21","hd":"53","v_score":"5.687348376","decile":"7","lat":40.416610970058095,"lng":-111.85767744539847,"phone":"(575) 778-3992","sd":"21","ssbd":"11","lsbd":"School Board Aspen Peaks 2"},{"vid":"2242370","name":"Katherin Marvin","party":"Rep","address":"531 W 2600 N, Lehi, UT 84043","precinct":"25LE21","hd":"53","v_score":"4.064235245","decile":"6","lat":40.42046452351361,"lng":-111.85800081338861,"phone":"(456) 626-6289","sd":"21","ssbd":"11","lsbd":"School Board Aspen Peaks 2"},{"vid":"512e405a439b18741bf843ce248dd894fcccd79d5515c74ecf51ec69231ce3cf","name":"Beadie Dickinson","party":"Rep","address":"494 W 2540 N, Lehi, UT 84043","precinct":"25LE21","hd":"53","v_score":"0","decile":"1","lat":40.420140034411716,"lng":-111.85745083836119,"phone":"(330) 474-7522","sd":"21","ssbd":"11","lsbd":"School Board Aspen Peaks 2"},{"vid":"9668b033a2d84d75d53f02c458b55eeff0c1148c277b1f434b9a2245e754c667","name":"Alwin Zieme","party":"Rep","address":"400 W 2730 N, Lehi, UT 84043","precinct":"25LE21","hd":"53","v_score":"0","decile":"1","lat":40.42253047487382,"lng":-111.85596730510514,"phone":"(461) 065-4879","sd":"21","ssbd":"11","lsbd":"School Board Aspen Peaks 2"},{"vid":"2253745","name":"Kate Bergnaum","party":"","address":"3126 N Park Cottage Way, Lehi, UT 84043","precinct":"25LE21","hd":"53","v_score":"2.315214949","decile":"5","lat":40.427094692151435,"lng":-111.85585150280252,"phone":"(846) 479-3712","sd":"21","ssbd":"11","lsbd":"School Board Aspen Peaks 2"},{"vid":"2255667","name":"Dr. Kandy Wisozk PhD","party":"","address":"2580 N 600 W, Lehi, UT 84043","precinct":"25LE21","hd":"53","v_score":"3.997370217","decile":"6","lat":40.42052924562738,"lng":-111.85901396032541,"phone":"(893) 280-3905","sd":"21","ssbd":"11","lsbd":"School Board Aspen Peaks 2"},{"vid":"cd6c4b8a89abdc516a3b76c13940bb12a335baa53af75fd54a44e8d88338ecf8","name":"Dr. Sunday Zemlak MD","party":"","address":"607 W 2660 N, Lehi, UT 84043","precinct":"25LE21","hd":"53","v_score":"3.93832808","decile":"6","lat":40.42127691857578,"lng":-111.85924489525615,"phone":"(390) 796-9807","sd":"21","ssbd":"11","lsbd":"School Board Aspen Peaks 2"},{"vid":"68e41af1cb781dd4a3a362e227523022ed854f241b2ef0bbf719ef66a5042bb5","name":"Mrs. Claire Lemke MD","party":"","address":"744 W Ridgeline Dr, Lehi, UT 84043","precinct":"25LE21","hd":"53","v_score":"5.258122542","decile":"7","lat":40.4239666598602,"lng":-111.86153979921392,"phone":"(783) 055-3572","sd":"21","ssbd":"11","lsbd":"School Board Aspen Peaks 2"},{"vid":"2b922ba48d40436a98aa30968c4f2f63db0880cf384238e3d046f6b6e6b37277","name":"Ms. Shanna Crona","party":"Dem","address":"607 W 2660 N, Lehi, UT 84043","precinct":"25LE21","hd":"53","v_score":"3.93832808","decile":"6","lat":40.42127691857578,"lng":-111.85924489525615,"phone":"(758) 719-6049","sd":"21","ssbd":"11","lsbd":"School Board Aspen Peaks 2"},{"vid":"2263858","name":"Ewell Douglas I","party":"Dem","address":"550 W 2450 N, Lehi, UT 84043","precinct":"25LE21","hd":"53","v_score":"9.897826925","decile":"8","lat":40.41933013459451,"lng":-111.85835864236998,"phone":"(108) 137-8425","sd":"21","ssbd":"11","lsbd":"School Board Aspen Peaks 2"},{"vid":"12ac9a5a48f96d14d648643b4e5d546fdc9ef92800f4c285ae78cc440dda1183","name":"Lyda Leuschke","party":"Dem","address":"529 W 2540 N, Lehi, UT 84043","precinct":"25LE21","hd":"53","v_score":"0","decile":"1","lat":40.41965705668496,"lng":-111.85805597461827,"phone":"(570) 337-8434","sd":"21","ssbd":"11","lsbd":"School Board Aspen Peaks 2"},{"vid":"5a4d32acd7009c7b240089c58d2e2071d77d17cc9cd7b8d7eda84dd61e82e434","name":"Verl Schuster","party":"Rep","address":"3064 N Park Place St, Lehi, UT 84043","precinct":"25LE21","hd":"53","v_score":"1.623113131","decile":"5","lat":40.42632251778839,"lng":-111.85912674561888,"phone":"(568) 155-2570","sd":"21","ssbd":"11","lsbd":"School Board Aspen Peaks 2"},{"vid":"6208bece24c14cf69fa78553cb2c80699c0ee7cf38490229b4ac3ae7c6f9e706","name":"Arminda Bauch","party":"","address":"362 W 3050 N, Lehi, UT 84043","precinct":"25LE21","hd":"53","v_score":"1.121327652","decile":"3","lat":40.426419505130646,"lng":-111.85509830316602,"phone":"(524) 218-7624","sd":"21","ssbd":"11","lsbd":"School Board Aspen Peaks 2"},{"vid":"2278068","name":"Olen Durgan","party":"Rep","address":"711 W Sandhill Dr, Lehi, UT 84043","precinct":"25LE21","hd":"53","v_score":"1.121327652","decile":"3","lat":40.42206155455539,"lng":-111.8609894283888,"phone":"(990) 810-6787","sd":"21","ssbd":"11","lsbd":"School Board Aspen Peaks 2"},{"vid":"866fb577dea174b4c0fe515ac2f692709578c737ae245d9490e47b224fb4f516","name":"Loraine Kassulke","party":"","address":"2979 N Park Ridge Dr, Lehi, UT 84043","precinct":"25LE21","hd":"53","v_score":"1.623113131","decile":"5","lat":40.425262919907404,"lng":-111.86138945033058,"phone":"(849) 133-0304","sd":"21","ssbd":"11","lsbd":"School Board Aspen Peaks 2"},{"vid":"2283276","name":"Mr. Jaden Glover Sr.","party":"Dem","address":"774 W Parkview Dr, Lehi, UT 84043","precinct":"25LE21","hd":"53","v_score":"3.93832808","decile":"6","lat":40.423139077574845,"lng":-111.86176698352978,"phone":"(524) 532-2442","sd":"21","ssbd":"11","lsbd":"School Board Aspen Peaks 2"},{"vid":"2287904","name":"Miss Celina Stracke PhD","party":"Dem","address":"551 W 2450 N, Lehi, UT 84043","precinct":"25LE21","hd":"53","v_score":"1.193887297","decile":"3","lat":40.4188506845424,"lng":-111.85829353714944,"phone":"(133) 855-7015","sd":"21","ssbd":"11","lsbd":"School Board Aspen Peaks 2"},{"vid":"2288077","name":"Jakayla Bednar","party":"Rep","address":"2698 N 780 W, Lehi, UT 84043","precinct":"25LE21","hd":"53","v_score":"1.193887297","decile":"3","lat":40.42188304648513,"lng":-111.86153851342532,"phone":"(326) 911-1769","sd":"21","ssbd":"11","lsbd":"School Board Aspen Peaks 2"},{"vid":"c84ea6bc53be2f44626e99c2b924c54f58e0dc307853253cb1d909c6e4cd9132","name":"Miss Rosita Douglas","party":"Rep","address":"401 W 2730 N, Lehi, UT 84043","precinct":"25LE21","hd":"53","v_score":"10.5601719","decile":"9","lat":40.422227882465485,"lng":-111.85593902592373,"phone":"(912) 655-9169","sd":"21","ssbd":"11","lsbd":"School Board Aspen Peaks 2"},{"vid":"4c0e2841ed2ebae7e0df0319d08d970225867e7408f0144d18b0c508174eddb3","name":"Jacquez Botsford","party":"","address":"581 W 2325 N, Lehi, UT 84043","precinct":"25LE21","hd":"53","v_score":"0","decile":"1","lat":40.41734504680307,"lng":-111.85898211722,"phone":"(515) 941-5446","sd":"21","ssbd":"11","lsbd":"School Board Aspen Peaks 2"},{"vid":"dff22db4720557ebf8cf2c72b89e044a7596d8d804915a025916db97c6cfbfe4","name":"Audy Heaney","party":"","address":"584 W 2280 N, Lehi, UT 84043","precinct":"25LE21","hd":"53","v_score":"3.93832808","decile":"6","lat":40.41694448884078,"lng":-111.85900454241117,"phone":"(419) 397-8735","sd":"21","ssbd":"11","lsbd":"School Board Aspen Peaks 2"},{"vid":"2300886","name":"Annice Hoppe","party":"","address":"369 W 2875 N, Lehi, UT 84043","precinct":"25LE21","hd":"53","v_score":"10.7597751","decile":"9","lat":40.4237546109193,"lng":-111.85555265899931,"phone":"(695) 618-5822","sd":"21","ssbd":"11","lsbd":"School Board Aspen Peaks 2"},{"vid":"2301082","name":"Shawnte Rice","party":"","address":"613 W Parkview Dr, Lehi, UT 84043","precinct":"25LE21","hd":"53","v_score":"3.93832808","decile":"6","lat":40.4228216656983,"lng":-111.8593277242319,"phone":"(763) 582-4880","sd":"21","ssbd":"11","lsbd":"School Board Aspen Peaks 2"},{"vid":"2301427","name":"Goldia Casper","party":"Dem","address":"419 W 2600 N, Lehi, UT 84043","precinct":"25LE21","hd":"53","v_score":"6.954919332","decile":"8","lat":40.42047287221146,"lng":-111.85617326119132,"phone":"(641) 146-8917","sd":"21","ssbd":"11","lsbd":"School Board Aspen Peaks 2"},{"vid":"e07c2514ea8e57a4ef52090bd37df3489d992daac908b8d7e8c41c4f06b9e1c3","name":"Dr. Orren Terry DDS","party":"Dem","address":"542 W Trail Side Dr, Lehi, UT 84043","precinct":"25LE21","hd":"53","v_score":"0","decile":"1","lat":40.42484891435641,"lng":-111.85886129181335,"phone":"(865) 030-5180","sd":"21","ssbd":"11","lsbd":"School Board Aspen Peaks 2"},{"vid":"2303183","name":"Grayling Smith","party":"","address":"495 W 2325 N, Lehi, UT 84043","precinct":"25LE21","hd":"53","v_score":"2.315214949","decile":"5","lat":40.417314373222055,"lng":-111.85738670170416,"phone":"(134) 598-3769","sd":"21","ssbd":"11","lsbd":"School Board Aspen Peaks 2"},{"vid":"2308133","name":"Heriberto Effertz-Lakin","party":"Rep","address":"744 W 3160 N, Lehi, UT 84043","precinct":"25LE21","hd":"53","v_score":"29.29144165","decile":"10","lat":40.427599990737825,"lng":-111.86124221820198,"phone":"(866) 249-3896","sd":"21","ssbd":"11","lsbd":"School Board Aspen Peaks 2"},{"vid":"2320670","name":"Mr. Booker Renner V","party":"Rep","address":"2244 N 490 W, Lehi, UT 84043","precinct":"25LE21","hd":"53","v_score":"1.193887297","decile":"3","lat":40.41607141799276,"lng":-111.85615287196936,"phone":"(758) 227-3143","sd":"21","ssbd":"11","lsbd":"School Board Aspen Peaks 2"},{"vid":"2328049","name":"Mr. Cleave Rippin DDS","party":"Dem","address":"359 W 2925 N, Lehi, UT 84043","precinct":"25LE21","hd":"53","v_score":"6.954919332","decile":"8","lat":40.42461613984811,"lng":-111.85512924042573,"phone":"(262) 421-2619","sd":"21","ssbd":"11","lsbd":"School Board Aspen Peaks 2"},{"vid":"2331356","name":"Nery Simonis-Kunde","party":"Dem","address":"420 W 2325 N, Lehi, UT 84043","precinct":"25LE21","hd":"53","v_score":"9.61867875","decile":"8","lat":40.41774605660288,"lng":-111.85622456882807,"phone":"(788) 421-1920","sd":"21","ssbd":"11","lsbd":"School Board Aspen Peaks 2"},{"vid":"2350772","name":"Jeptha Corkery","party":"Dem","address":"779 W 2920 N, Lehi, UT 84043","precinct":"25LE21","hd":"53","v_score":"2.744440783","decile":"5","lat":40.424251433872406,"lng":-111.86198613375049,"phone":"(430) 534-3850","sd":"21","ssbd":"11","lsbd":"School Board Aspen Peaks 2"},{"vid":"2351942","name":"Babyboy Abernathy","party":"","address":"762 W Ridgeline Dr, Lehi, UT 84043","precinct":"25LE21","hd":"53","v_score":"0","decile":"1","lat":40.42396573049729,"lng":-111.86184023402333,"phone":"(429) 046-0325","sd":"21","ssbd":"11","lsbd":"School Board Aspen Peaks 2"},{"vid":"2353905","name":"Josette Ledner","party":"","address":"566 W 2325 N, Lehi, UT 84043","precinct":"25LE21","hd":"53","v_score":"16.29714955","decile":"9","lat":40.41773867093808,"lng":-111.8586335503828,"phone":"(977) 419-1198","sd":"21","ssbd":"11","lsbd":"School Board Aspen Peaks 2"},{"vid":"2356109","name":"Rutherford Champlin","party":"Rep","address":"495 W 2325 N, Lehi, UT 84043","precinct":"25LE21","hd":"53","v_score":"0","decile":"1","lat":40.417314373222055,"lng":-111.85738670170416,"phone":"(350) 183-4657","sd":"21","ssbd":"11","lsbd":"School Board Aspen Peaks 2"},{"vid":"2357351","name":"Aretha Champlin","party":"","address":"2838 N 780 W, Lehi, UT 84043","precinct":"25LE21","hd":"53","v_score":"1.121327652","decile":"3","lat":40.42359985269998,"lng":-111.8617747224431,"phone":"(965) 667-4630","sd":"21","ssbd":"11","lsbd":"School Board Aspen Peaks 2"},{"vid":"2359434","name":"Darwyn Rosenbaum DVM","party":"Rep","address":"3029 N Park Ridge Dr, Lehi, UT 84043","precinct":"25LE21","hd":"53","v_score":"10.52632313","decile":"9","lat":40.42586594964181,"lng":-111.86171771576618,"phone":"(359) 191-7913","sd":"21","ssbd":"11","lsbd":"School Board Aspen Peaks 2"},{"vid":"2362500","name":"Rahn Schaefer","party":"Dem","address":"401 W 2730 N, Lehi, UT 84043","precinct":"25LE21","hd":"53","v_score":"2.876042565","decile":"6","lat":40.422227882465485,"lng":-111.85593902592373,"phone":"(662) 853-1703","sd":"21","ssbd":"11","lsbd":"School Board Aspen Peaks 2"},{"vid":"2371204","name":"Roe Douglas","party":"Dem","address":"588 W 2375 N, Lehi, UT 84043","precinct":"25LE21","hd":"53","v_score":"3.93832808","decile":"6","lat":40.418412958627464,"lng":-111.8590205297952,"phone":"(440) 287-9910","sd":"21","ssbd":"11","lsbd":"School Board Aspen Peaks 2"},{"vid":"2372196","name":"Gladis Huel PhD","party":"Dem","address":"2643 N 640 W, Lehi, UT 84043","precinct":"25LE21","hd":"53","v_score":"2.315214949","decile":"5","lat":40.421149056533004,"lng":-111.85998816114255,"phone":"(998) 122-2188","sd":"21","ssbd":"11","lsbd":"School Board Aspen Peaks 2"},{"vid":"2373231","name":"Rayne Willms-Schulist","party":"Dem","address":"3115 N Park Villas Dr, Lehi, UT 84043","precinct":"25LE21","hd":"53","v_score":"3.93832808","decile":"6","lat":40.42694105225289,"lng":-111.86071018259116,"phone":"(227) 065-4343","sd":"21","ssbd":"11","lsbd":"School Board Aspen Peaks 2"},{"vid":"2373694","name":"Leslie Sporer","party":"","address":"533 W 2450 N, Lehi, UT 84043","precinct":"25LE21","hd":"53","v_score":"1.121327652","decile":"3","lat":40.41885161507021,"lng":-111.85798941664224,"phone":"(586) 602-8924","sd":"21","ssbd":"11","lsbd":"School Board Aspen Peaks 2"},{"vid":"2386355","name":"Mr. Dimitrios Hudson","party":"","address":"349 W 2875 N, Lehi, UT 84043","precinct":"25LE21","hd":"53","v_score":"0","decile":"1","lat":40.423756036425566,"lng":-111.85512854294382,"phone":"(875) 763-3044","sd":"21","ssbd":"11","lsbd":"School Board Aspen Peaks 2"},{"vid":"2393795","name":"Harlow Shields PhD","party":"Dem","address":"359 W 2925 N, Lehi, UT 84043","precinct":"25LE21","hd":"53","v_score":"5.83359168","decile":"7","lat":40.42461613984811,"lng":-111.85512924042573,"phone":"(342) 909-3213","sd":"21","ssbd":"11","lsbd":"School Board Aspen Peaks 2"},{"vid":"2400984","name":"Roberto Hessel","party":"","address":"2954 N 425 W, Lehi, UT 84043","precinct":"25LE21","hd":"53","v_score":"1.121327652","decile":"3","lat":40.42503177697829,"lng":-111.8556593890393,"phone":"(205) 342-1999","sd":"21","ssbd":"11","lsbd":"School Board Aspen Peaks 2"},{"vid":"2402666","name":"Eithel Kerluke","party":"Rep","address":"367 W 2660 N, Lehi, UT 84043","precinct":"25LE21","hd":"53","v_score":"18.27552205","decile":"10","lat":40.42138426898774,"lng":-111.85540932625779,"phone":"(128) 879-3994","sd":"21","ssbd":"11","lsbd":"School Board Aspen Peaks 2"},{"vid":"2403095","name":"Alfredo O'Conner II","party":"Dem","address":"708 W 3160 N, Lehi, UT 84043","precinct":"25LE21","hd":"53","v_score":"1.121327652","decile":"3","lat":40.42772017020565,"lng":-111.86060336158512,"phone":"(456) 807-4260","sd":"21","ssbd":"11","lsbd":"School Board Aspen Peaks 2"},{"vid":"2403097","name":"Ashleigh McDermott-Renner","party":"Dem","address":"708 W 3160 N, Lehi, UT 84043","precinct":"25LE21","hd":"53","v_score":"2.315214949","decile":"5","lat":40.42772017020565,"lng":-111.86060336158512,"phone":"(956) 356-3416","sd":"21","ssbd":"11","lsbd":"School Board Aspen Peaks 2"},{"vid":"2408905","name":"Pernell Marquardt","party":"","address":"321 W 2375 N, Lehi, UT 84043","precinct":"25LE21","hd":"53","v_score":"7.013961469","decile":"8","lat":40.41812549925062,"lng":-111.85467422995046,"phone":"(585) 894-0805","sd":"21","ssbd":"11","lsbd":"School Board Aspen Peaks 2"},{"vid":"2409251","name":"Buena Wolf MD","party":"","address":"2242 N 430 W, Lehi, UT 84043","precinct":"25LE21","hd":"53","v_score":"1.121327652","decile":"3","lat":40.41609897216516,"lng":-111.85517937121743,"phone":"(446) 834-1747","sd":"21","ssbd":"11","lsbd":"School Board Aspen Peaks 2"},{"vid":"2410115","name":"Lynsey Ernser","party":"","address":"514 W Parkview Dr, Lehi, UT 84043","precinct":"25LE21","hd":"53","v_score":"2.744440783","decile":"5","lat":40.42425874727648,"lng":-111.85774281762218,"phone":"(293) 605-6423","sd":"21","ssbd":"11","lsbd":"School Board Aspen Peaks 2"},{"vid":"2410123","name":"Ms. Arvilla Flatley","party":"Rep","address":"514 W Parkview Dr, Lehi, UT 84043","precinct":"25LE21","hd":"53","v_score":"1.121327652","decile":"3","lat":40.42425874727648,"lng":-111.85774281762218,"phone":"(771) 119-4982","sd":"21","ssbd":"11","lsbd":"School Board Aspen Peaks 2"},{"vid":"2411523","name":"Carly Friesen","party":"Dem","address":"534 W 2375 N, Lehi, UT 84043","precinct":"25LE21","hd":"53","v_score":"1.121327652","decile":"3","lat":40.418525465170525,"lng":-111.85804853351345,"phone":"(404) 505-8109","sd":"21","ssbd":"11","lsbd":"School Board Aspen Peaks 2"},{"vid":"2411531","name":"Dr. Glenn Ziemann","party":"Rep","address":"534 W 2375 N, Lehi, UT 84043","precinct":"25LE21","hd":"53","v_score":"2.315214949","decile":"5","lat":40.418525465170525,"lng":-111.85804853351345,"phone":"(737) 148-4531","sd":"21","ssbd":"11","lsbd":"School Board Aspen Peaks 2"},{"vid":"2412314","name":"Elenora Sporer","party":"","address":"349 W 2875 N, Lehi, UT 84043","precinct":"25LE21","hd":"53","v_score":"6.027167436","decile":"7","lat":40.423756036425566,"lng":-111.85512854294382,"phone":"(175) 624-0085","sd":"21","ssbd":"11","lsbd":"School Board Aspen Peaks 2"},{"vid":"2413161","name":"Kennard Weissnat-Davis","party":"","address":"3115 N Park Villas Dr, Lehi, UT 84043","precinct":"25LE21","hd":"53","v_score":"3.93832808","decile":"6","lat":40.42694105225289,"lng":-111.86071018259116,"phone":"(468) 634-9185","sd":"21","ssbd":"11","lsbd":"School Board Aspen Peaks 2"},{"vid":"2418857","name":"Vinton Goodwin","party":"Dem","address":"2242 N 430 W, Lehi, UT 84043","precinct":"25LE21","hd":"53","v_score":"6.52928996","decile":"7","lat":40.41609897216516,"lng":-111.85517937121743,"phone":"(591) 431-1185","sd":"21","ssbd":"11","lsbd":"School Board Aspen Peaks 2"},{"vid":"2420161","name":"Calhoun Ferry","party":"Dem","address":"542 W 2660 N, Lehi, UT 84043","precinct":"25LE21","hd":"53","v_score":"3.93832808","decile":"6","lat":40.42174312153299,"lng":-111.85833763580607,"phone":"(907) 376-7634","sd":"21","ssbd":"11","lsbd":"School Board Aspen Peaks 2"},{"vid":"2423797","name":"Dr. Kurtis Volkman","party":"Dem","address":"2852 N Trail Side Ct, Lehi, UT 84043","precinct":"25LE21","hd":"53","v_score":"2.315214949","decile":"5","lat":40.424001246651834,"lng":-111.85691258773075,"phone":"(581) 901-3842","sd":"21","ssbd":"11","lsbd":"School Board Aspen Peaks 2"},{"vid":"2425847","name":"Julian Herman","party":"Dem","address":"372 W 2200 N, Lehi, UT 84043","precinct":"25LE21","hd":"53","v_score":"2.315214949","decile":"5","lat":40.41520077719684,"lng":-111.85505372391073,"phone":"(555) 434-3884","sd":"21","ssbd":"11","lsbd":"School Board Aspen Peaks 2"},{"vid":"2426754","name":"Essie Kling","party":"Rep","address":"542 W Trail Side Dr, Lehi, UT 84043","precinct":"25LE21","hd":"53","v_score":"0","decile":"1","lat":40.42484891435641,"lng":-111.85886129181335,"phone":"(275) 887-1800","sd":"21","ssbd":"11","lsbd":"School Board Aspen Peaks 2"},{"vid":"2426818","name":"Perry McGlynn","party":"","address":"588 W 2375 N, Lehi, UT 84043","precinct":"25LE21","hd":"53","v_score":"1.121327652","decile":"3","lat":40.418412958627464,"lng":-111.8590205297952,"phone":"(804) 453-3975","sd":"21","ssbd":"11","lsbd":"School Board Aspen Peaks 2"},{"vid":"2427716","name":"Arely Price","party":"","address":"495 W 2325 N, Lehi, UT 84043","precinct":"25LE21","hd":"53","v_score":"4.137918904","decile":"7","lat":40.417314373222055,"lng":-111.85738670170416,"phone":"(930) 861-9586","sd":"21","ssbd":"11","lsbd":"School Board Aspen Peaks 2"},{"vid":"2430399","name":"Darla Kemmer DVM","party":"Dem","address":"345 W 2800 N, Lehi, UT 84043","precinct":"25LE21","hd":"53","v_score":"3.93832808","decile":"6","lat":40.422968443304576,"lng":-111.85506575014298,"phone":"(695) 454-7272","sd":"21","ssbd":"11","lsbd":"School Board Aspen Peaks 2"},{"vid":"2432961","name":"Dereck Kling","party":"","address":"475 W 2540 N, Lehi, UT 84043","precinct":"25LE21","hd":"53","v_score":"1.121327652","decile":"3","lat":40.41962748039137,"lng":-111.85706153477781,"phone":"(100) 060-0502","sd":"21","ssbd":"11","lsbd":"School Board Aspen Peaks 2"},{"vid":"2439434","name":"Georgina Kihn-Abshire","party":"","address":"565 W 2325 N, Lehi, UT 84043","precinct":"25LE21","hd":"53","v_score":"2.315214949","decile":"5","lat":40.417310770712625,"lng":-111.85856437794995,"phone":"(975) 632-3915","sd":"21","ssbd":"11","lsbd":"School Board Aspen Peaks 2"},{"vid":"2440520","name":"Falon Cartwright","party":"Dem","address":"744 W Ridgeline Dr, Lehi, UT 84043","precinct":"25LE21","hd":"53","v_score":"1.193887297","decile":"3","lat":40.4239666598602,"lng":-111.86153979921392,"phone":"(291) 717-6420","sd":"21","ssbd":"11","lsbd":"School Board Aspen Peaks 2"},{"vid":"2441714","name":"Erie Runte","party":"Rep","address":"2809 N Trail Side Dr, Lehi, UT 84043","precinct":"25LE21","hd":"53","v_score":"2.315214949","decile":"5","lat":40.42315911479067,"lng":-111.85871564158995,"phone":"(229) 906-5916","sd":"21","ssbd":"11","lsbd":"School Board Aspen Peaks 2"},{"vid":"2444046","name":"Florance Gutmann","party":"Rep","address":"2809 N Trail Side Dr, Lehi, UT 84043","precinct":"25LE21","hd":"53","v_score":"1.121327652","decile":"3","lat":40.42315911479067,"lng":-111.85871564158995,"phone":"(458) 980-3459","sd":"21","ssbd":"11","lsbd":"School Board Aspen Peaks 2"},{"vid":"2444201","name":"Alphonsine Bartell-Altenwerth","party":"","address":"2655 N 640 W, Lehi, UT 84043","precinct":"25LE21","hd":"53","v_score":"2.315214949","decile":"5","lat":40.421383966090815,"lng":-111.8599890556849,"phone":"(550) 656-2051","sd":"21","ssbd":"11","lsbd":"School Board Aspen Peaks 2"},{"vid":"2444211","name":"Littleton Schmidt","party":"","address":"2360 N 600 W, Lehi, UT 84043","precinct":"25LE21","hd":"53","v_score":"5.761032035","decile":"7","lat":40.41811231597943,"lng":-111.85898901159274,"phone":"(969) 047-1740","sd":"21","ssbd":"11","lsbd":"School Board Aspen Peaks 2"},{"vid":"2448795","name":"Rahn Treutel DDS","party":"","address":"497 W 2280 N, Lehi, UT 84043","precinct":"25LE21","hd":"53","v_score":"1.121327652","decile":"3","lat":40.416611869703125,"lng":-111.85738302921163,"phone":"(926) 497-7974","sd":"21","ssbd":"11","lsbd":"School Board Aspen Peaks 2"},{"vid":"2460706","name":"Thomas Cartwright-Lakin","party":"Rep","address":"459 W 2600 N, Lehi, UT 84043","precinct":"25LE21","hd":"53","v_score":"1.121327652","decile":"3","lat":40.420470083157234,"lng":-111.85678244597572,"phone":"(671) 780-2284","sd":"21","ssbd":"11","lsbd":"School Board Aspen Peaks 2"},{"vid":"2463322","name":"Abe Lynch","party":"","address":"389 W 2225 N, Lehi, UT 84043","precinct":"25LE21","hd":"53","v_score":"14.63972567","decile":"9","lat":40.415491986294775,"lng":-111.85525179596297,"phone":"(315) 416-1922","sd":"21","ssbd":"11","lsbd":"School Board Aspen Peaks 2"},{"vid":"2464820","name":"Hale Bednar-Blanda","party":"Dem","address":"441 W 2280 N, Lehi, UT 84043","precinct":"25LE21","hd":"53","v_score":"2.817000428","decile":"6","lat":40.41661456371385,"lng":-111.85649978011213,"phone":"(606) 137-9463","sd":"21","ssbd":"11","lsbd":"School Board Aspen Peaks 2"},{"vid":"2468353","name":"Rillie Walsh DVM","party":"","address":"531 W 2325 N, Lehi, UT 84043","precinct":"25LE21","hd":"53","v_score":"0","decile":"1","lat":40.4173125732668,"lng":-111.8579755401864,"phone":"(401) 311-0580","sd":"21","ssbd":"11","lsbd":"School Board Aspen Peaks 2"},{"vid":"2469189","name":"Miss Averie Blanda","party":"Rep","address":"531 W 2375 N, Lehi, UT 84043","precinct":"25LE21","hd":"53","v_score":"0","decile":"1","lat":40.4180459542602,"lng":-111.8580032215922,"phone":"(818) 358-2648","sd":"21","ssbd":"11","lsbd":"School Board Aspen Peaks 2"},{"vid":"2473933","name":"Dr. Roby Walker DDS","party":"Rep","address":"3115 N Park Ridge Dr, Lehi, UT 84043","precinct":"25LE21","hd":"53","v_score":"5.83359168","decile":"7","lat":40.42693906587029,"lng":-111.86172342671576,"phone":"(643) 158-7363","sd":"21","ssbd":"11","lsbd":"School Board Aspen Peaks 2"},{"vid":"2474431","name":"Terrence Feeney","party":"Dem","address":"422 W 2280 N, Lehi, UT 84043","precinct":"25LE21","hd":"53","v_score":"1.623113131","decile":"5","lat":40.417043386335635,"lng":-111.85626651440262,"phone":"(920) 752-4314","sd":"21","ssbd":"11","lsbd":"School Board Aspen Peaks 2"},{"vid":"2492286","name":"Miss Missouri D'Amore MD","party":"Rep","address":"2994 N 425 W, Lehi, UT 84043","precinct":"25LE21","hd":"53","v_score":"0","decile":"1","lat":40.425474274226964,"lng":-111.85560240973389,"phone":"(290) 718-8243","sd":"21","ssbd":"11","lsbd":"School Board Aspen Peaks 2"},{"vid":"2493596","name":"Jarvis Mueller MD","party":"","address":"2764 N Trail Side Dr, Lehi, UT 84043","precinct":"25LE21","hd":"53","v_score":"2.817000428","decile":"6","lat":40.42272674476168,"lng":-111.85794302187674,"phone":"(622) 166-8137","sd":"21","ssbd":"11","lsbd":"School Board Aspen Peaks 2"},{"vid":"2496687","name":"Dusty Crist-Brakus","party":"Rep","address":"771 W Parkview Dr, Lehi, UT 84043","precinct":"25LE21","hd":"53","v_score":"1.193887297","decile":"3","lat":40.42284683313913,"lng":-111.86175984497297,"phone":"(768) 659-9996","sd":"21","ssbd":"11","lsbd":"School Board Aspen Peaks 2"},{"vid":"2499321","name":"Queen Glover","party":"Dem","address":"2843 N Trail Side Dr, Lehi, UT 84043","precinct":"25LE21","hd":"53","v_score":"0","decile":"1","lat":40.42365695063813,"lng":-111.8593904864136,"phone":"(186) 995-0136","sd":"21","ssbd":"11","lsbd":"School Board Aspen Peaks 2"},{"vid":"2511952","name":"Miss Yamilex Lindgren","party":"Rep","address":"476 W 2540 N, Lehi, UT 84043","precinct":"25LE21","hd":"53","v_score":"1.193887297","decile":"4","lat":40.420141256808854,"lng":-111.8571462465978,"phone":"(312) 165-9828","sd":"21","ssbd":"11","lsbd":"School Board Aspen Peaks 2"},{"vid":"2512264","name":"Mr. Montana Runte","party":"","address":"774 W Parkview Dr, Lehi, UT 84043","precinct":"25LE21","hd":"53","v_score":"0","decile":"1","lat":40.423139077574845,"lng":-111.86176698352978,"phone":"(153) 500-8247","sd":"21","ssbd":"11","lsbd":"School Board Aspen Peaks 2"},{"vid":"2520612","name":"Dr. Tavaris Zboncak IV","party":"Dem","address":"439 W 2325 N, Lehi, UT 84043","precinct":"25LE21","hd":"53","v_score":"0","decile":"1","lat":40.41731709456166,"lng":-111.85650344416052,"phone":"(752) 872-6211","sd":"21","ssbd":"11","lsbd":"School Board Aspen Peaks 2"},{"vid":"2522842","name":"Candido Altenwerth","party":"Rep","address":"422 W 2540 N, Lehi, UT 84043","precinct":"25LE21","hd":"53","v_score":"0","decile":"1","lat":40.420144863406875,"lng":-111.85623247238561,"phone":"(955) 338-9219","sd":"21","ssbd":"11","lsbd":"School Board Aspen Peaks 2"},{"vid":"2523178","name":"Dr. Lucero Fay","party":"Rep","address":"3014 N Park Place St, Lehi, UT 84043","precinct":"25LE21","hd":"53","v_score":"9.338633761","decile":"8","lat":40.425654350162986,"lng":-111.85905582480191,"phone":"(220) 013-9433","sd":"21","ssbd":"11","lsbd":"School Board Aspen Peaks 2"},{"vid":"2524641","name":"Lawerence Kuhlman","party":"Dem","address":"744 W Sandhill Dr, Lehi, UT 84043","precinct":"25LE21","hd":"53","v_score":"0","decile":"1","lat":40.42240618360612,"lng":-111.86176074687712,"phone":"(969) 573-7414","sd":"21","ssbd":"11","lsbd":"School Board Aspen Peaks 2"},{"vid":"2526678","name":"Isabel Steuber","party":"","address":"2681 N 640 W, Lehi, UT 84043","precinct":"25LE21","hd":"53","v_score":"0","decile":"1","lat":40.42161799138987,"lng":-111.8600689780771,"phone":"(557) 442-4465","sd":"21","ssbd":"11","lsbd":"School Board Aspen Peaks 2"},{"vid":"2532726","name":"Teri Graham","party":"Dem","address":"757 W 2920 N, Lehi, UT 84043","precinct":"25LE21","hd":"53","v_score":"2.817000428","decile":"6","lat":40.42425241315278,"lng":-111.86166894760682,"phone":"(337) 815-1508","sd":"21","ssbd":"11","lsbd":"School Board Aspen Peaks 2"},{"vid":"2533821","name":"Montie Klein","party":"","address":"367 W 2800 N, Lehi, UT 84043","precinct":"25LE21","hd":"53","v_score":"0","decile":"1","lat":40.42300940043692,"lng":-111.85538296943118,"phone":"(714) 589-6620","sd":"21","ssbd":"11","lsbd":"School Board Aspen Peaks 2"},{"vid":"2534151","name":"Dr. Rona Connelly","party":"Rep","address":"421 W 2375 N, Lehi, UT 84043","precinct":"25LE21","hd":"53","v_score":"1.623113131","decile":"5","lat":40.41805137759363,"lng":-111.85622616010379,"phone":"(246) 156-8108","sd":"21","ssbd":"11","lsbd":"School Board Aspen Peaks 2"},{"vid":"2536592","name":"Boone Wolff","party":"","address":"494 W 2540 N, Lehi, UT 84043","precinct":"25LE21","hd":"53","v_score":"1.193887297","decile":"4","lat":40.420140034411716,"lng":-111.85745083836119,"phone":"(412) 782-5757","sd":"21","ssbd":"11","lsbd":"School Board Aspen Peaks 2"},{"vid":"2543603","name":"Dr. Lafayette Reichert III","party":"Dem","address":"2799 N 425 W, Lehi, UT 84043","precinct":"25LE21","hd":"53","v_score":"0","decile":"1","lat":40.42313699083727,"lng":-111.8563867812122,"phone":"(511) 159-2820","sd":"21","ssbd":"11","lsbd":"School Board Aspen Peaks 2"},{"vid":"2544579","name":"Charlee Bergstrom PhD","party":"Rep","address":"421 W 2540 N, Lehi, UT 84043","precinct":"25LE21","hd":"53","v_score":"0","decile":"1","lat":40.41966262979979,"lng":-111.8562297582158,"phone":"(986) 203-7283","sd":"21","ssbd":"11","lsbd":"School Board Aspen Peaks 2"},{"vid":"2547904","name":"Meg Yundt","party":"Rep","address":"2559 N 300 W, Lehi, UT 84043","precinct":"25LE21","hd":"53","v_score":"5.407962308","decile":"7","lat":40.42003899632532,"lng":-111.85468319730575,"phone":"(434) 956-9596","sd":"21","ssbd":"11","lsbd":"School Board Aspen Peaks 2"},{"vid":"2548772","name":"Elianna Ebert","party":"Rep","address":"329 W 2225 N, Lehi, UT 84043","precinct":"25LE21","hd":"53","v_score":"0","decile":"1","lat":40.41555634331087,"lng":-111.85462506929368,"phone":"(537) 580-5697","sd":"21","ssbd":"11","lsbd":"School Board Aspen Peaks 2"},{"vid":"2548853","name":"Derrick Rogahn","party":"Rep","address":"398 W 2660 N, Lehi, UT 84043","precinct":"25LE21","hd":"53","v_score":"1.193887297","decile":"4","lat":40.421732742791434,"lng":-111.85591314942448,"phone":"(983) 472-9286","sd":"21","ssbd":"11","lsbd":"School Board Aspen Peaks 2"},{"vid":"2550868","name":"Solon Sanford I","party":"","address":"455 W 2925 N, Lehi, UT 84043","precinct":"25LE21","hd":"53","v_score":"3.711952487","decile":"6","lat":40.424619115285054,"lng":-111.85623664865336,"phone":"(196) 558-4644","sd":"21","ssbd":"11","lsbd":"School Board Aspen Peaks 2"},{"vid":"2553470","name":"Mr. Alston Brown","party":"","address":"2820 N Park View Ct, Lehi, UT 84043","precinct":"25LE21","hd":"53","v_score":"1.193887297","decile":"4","lat":40.42333316445262,"lng":-111.85693222996514,"phone":"(108) 798-7339","sd":"21","ssbd":"11","lsbd":"School Board Aspen Peaks 2"},{"vid":"2556216","name":"Jaylene Weimann MD","party":"","address":"350 W 2730 N, Lehi, UT 84043","precinct":"25LE21","hd":"53","v_score":"1.193887297","decile":"4","lat":40.422665185328995,"lng":-111.855188088521,"phone":"(835) 200-0857","sd":"21","ssbd":"11","lsbd":"School Board Aspen Peaks 2"},{"vid":"2561350","name":"Olive Reichel","party":"Dem","address":"479 W 2225 N, Lehi, UT 84043","precinct":"25LE21","hd":"53","v_score":"5.693042993","decile":"7","lat":40.4155442167164,"lng":-111.85620603466569,"phone":"(847) 972-1397","sd":"21","ssbd":"11","lsbd":"School Board Aspen Peaks 2"},{"vid":"2577812","name":"Dr. Arnett Jacobs","party":"","address":"348 W 2660 N, Lehi, UT 84043","precinct":"25LE21","hd":"53","v_score":"1.193887297","decile":"4","lat":40.42178631665393,"lng":-111.85506454767264,"phone":"(191) 236-7598","sd":"21","ssbd":"11","lsbd":"School Board Aspen Peaks 2"},{"vid":"2589561","name":"Florance Hyatt","party":"Rep","address":"2773 N Park View Ct, Lehi, UT 84043","precinct":"25LE21","hd":"53","v_score":"7.549608095","decile":"8","lat":40.42271504330023,"lng":-111.8575284472322,"phone":"(350) 148-5603","sd":"21","ssbd":"11","lsbd":"School Board Aspen Peaks 2"},{"vid":"2589926","name":"Shon Vandervort","party":"Dem","address":"3127 N 325 W, Lehi, UT 84043","precinct":"25LE21","hd":"53","v_score":"10.06767328","decile":"9","lat":40.42715266936492,"lng":-111.85509582330678,"phone":"(137) 913-5320","sd":"21","ssbd":"11","lsbd":"School Board Aspen Peaks 2"},{"vid":"2590383","name":"Unknown Crist","party":"Dem","address":"3127 N 325 W, Lehi, UT 84043","precinct":"25LE21","hd":"53","v_score":"4.732607667","decile":"7","lat":40.42715266936492,"lng":-111.85509582330678,"phone":"(916) 856-4447","sd":"21","ssbd":"11","lsbd":"School Board Aspen Peaks 2"},{"vid":"2590451","name":"Deborah Crooks DVM","party":"","address":"2423 N 380 W, Lehi, UT 84043","precinct":"25LE21","hd":"53","v_score":"2.817000428","decile":"6","lat":40.41892762987032,"lng":-111.85581706408776,"phone":"(706) 088-1092","sd":"21","ssbd":"11","lsbd":"School Board Aspen Peaks 2"},{"vid":"2592670","name":"Dr. Ladonna Kreiger DVM","party":"Dem","address":"402 W 2540 N, Lehi, UT 84043","precinct":"25LE21","hd":"53","v_score":"1.193887297","decile":"4","lat":40.420035107068074,"lng":-111.85582280999898,"phone":"(273) 270-0584","sd":"21","ssbd":"11","lsbd":"School Board Aspen Peaks 2"},{"vid":"2594609","name":"Rice Jerde","party":"Dem","address":"360 W 2450 N, Lehi, UT 84043","precinct":"25LE21","hd":"53","v_score":"0","decile":"1","lat":40.41922946546315,"lng":-111.85546892831321,"phone":"(412) 024-0550","sd":"21","ssbd":"11","lsbd":"School Board Aspen Peaks 2"},{"vid":"2603687","name":"Ada Kessler","party":"Dem","address":"2788 N Park View Ct, Lehi, UT 84043","precinct":"25LE21","hd":"53","v_score":"0","decile":"1","lat":40.4228129125015,"lng":-111.85689879433401,"phone":"(295) 311-1662","sd":"21","ssbd":"11","lsbd":"School Board Aspen Peaks 2"},{"vid":"2606998","name":"Geno Collier","party":"Dem","address":"3123 N Park Cottage Way, Lehi, UT 84043","precinct":"25LE21","hd":"53","v_score":"1.193887297","decile":"4","lat":40.42704997332878,"lng":-111.85626799051431,"phone":"(396) 595-8553","sd":"21","ssbd":"11","lsbd":"School Board Aspen Peaks 2"},{"vid":"2608379","name":"Judy Rowe DDS","party":"Dem","address":"583 W Trail Side Dr, Lehi, UT 84043","precinct":"25LE21","hd":"53","v_score":"8.284004873","decile":"8","lat":40.424226199533344,"lng":-111.85882156925477,"phone":"(193) 327-4962","sd":"21","ssbd":"11","lsbd":"School Board Aspen Peaks 2"},{"vid":"2616779","name":"Deanne Skiles","party":"","address":"534 W 2375 N, Lehi, UT 84043","precinct":"25LE21","hd":"53","v_score":"2.817000428","decile":"6","lat":40.418525465170525,"lng":-111.85804853351345,"phone":"(315) 133-6940","sd":"21","ssbd":"11","lsbd":"School Board Aspen Peaks 2"},{"vid":"2621093","name":"Mr. Alvan Kuhic DVM","party":"","address":"3015 N 300 W, Lehi, UT 84043","precinct":"25LE21","hd":"53","v_score":"4.499155696","decile":"7","lat":40.4257678469064,"lng":-111.85493989766242,"phone":"(974) 520-2281","sd":"21","ssbd":"11","lsbd":"School Board Aspen Peaks 2"},{"vid":"2625154","name":"Zelda Toy","party":"Rep","address":"441 W 3200 N, Lehi, UT 84043","precinct":"25LE21","hd":"53","v_score":"16.72856503","decile":"9","lat":40.427721577259504,"lng":-111.85592577344953,"phone":"(587) 383-0306","sd":"21","ssbd":"11","lsbd":"School Board Aspen Peaks 2"},{"vid":"2632617","name":"Beatrice Jast","party":"Dem","address":"2644 N 780 W, Lehi, UT 84043","precinct":"25LE21","hd":"53","v_score":"2.817000428","decile":"6","lat":40.42128381884079,"lng":-111.86156495276052,"phone":"(413) 726-7563","sd":"21","ssbd":"11","lsbd":"School Board Aspen Peaks 2"},{"vid":"2634061","name":"Crawford Mayert","party":"Rep","address":"419 W 2600 N, Lehi, UT 84043","precinct":"25LE21","hd":"53","v_score":"2.817000428","decile":"6","lat":40.42047287221146,"lng":-111.85617326119132,"phone":"(436) 959-8143","sd":"21","ssbd":"11","lsbd":"School Board Aspen Peaks 2"},{"vid":"2637141","name":"Zita Will","party":"Rep","address":"476 W 2540 N, Lehi, UT 84043","precinct":"25LE21","hd":"53","v_score":"1.193887297","decile":"4","lat":40.420141256808854,"lng":-111.8571462465978,"phone":"(250) 619-4822","sd":"21","ssbd":"11","lsbd":"School Board Aspen Peaks 2"},{"vid":"2640592","name":"Clare Leuschke","party":"Rep","address":"400 W 2875 N, Lehi, UT 84043","precinct":"25LE21","hd":"53","v_score":"0","decile":"1","lat":40.424166960760346,"lng":-111.85602057518406,"phone":"(982) 462-6582","sd":"21","ssbd":"11","lsbd":"School Board Aspen Peaks 2"},{"vid":"2644628","name":"Kenna Murray","party":"","address":"3013 N 425 W, Lehi, UT 84043","precinct":"25LE21","hd":"53","v_score":"2.817000428","decile":"6","lat":40.425764056657,"lng":-111.85623718297133,"phone":"(964) 156-5237","sd":"21","ssbd":"11","lsbd":"School Board Aspen Peaks 2"},{"vid":"2649135","name":"Rahn Barrows","party":"Dem","address":"459 W 2325 N, Lehi, UT 84043","precinct":"25LE21","hd":"53","v_score":"0","decile":"1","lat":40.41731619725139,"lng":-111.85679786304227,"phone":"(848) 175-7952","sd":"21","ssbd":"11","lsbd":"School Board Aspen Peaks 2"},{"vid":"2655576","name":"Ruthann Keeling-Casper","party":"Rep","address":"329 W 2225 N, Lehi, UT 84043","precinct":"25LE21","hd":"53","v_score":"4.069929862","decile":"6","lat":40.41555634331087,"lng":-111.85462506929368,"phone":"(779) 095-2469","sd":"21","ssbd":"11","lsbd":"School Board Aspen Peaks 2"},{"vid":"2658123","name":"Timmothy Prosacco","party":"Rep","address":"549 W 2375 N, Lehi, UT 84043","precinct":"25LE21","hd":"53","v_score":"0","decile":"1","lat":40.41804507528865,"lng":-111.85829046275519,"phone":"(354) 442-8772","sd":"21","ssbd":"11","lsbd":"School Board Aspen Peaks 2"},{"vid":"2658965","name":"Dirk Abernathy","party":"","address":"2242 N 430 W, Lehi, UT 84043","precinct":"25LE21","hd":"53","v_score":"4.214075011","decile":"7","lat":40.41609897216516,"lng":-111.85517937121743,"phone":"(695) 827-9057","sd":"21","ssbd":"11","lsbd":"School Board Aspen Peaks 2"},{"vid":"2659373","name":"Gussie Hilll-Toy","party":"Dem","address":"570 W 2375 N, Lehi, UT 84043","precinct":"25LE21","hd":"53","v_score":"1.193887297","decile":"4","lat":40.41852360287482,"lng":-111.85865673446298,"phone":"(590) 269-9675","sd":"21","ssbd":"11","lsbd":"School Board Aspen Peaks 2"},{"vid":"2665350","name":"Jessye Carter MD","party":"Dem","address":"2945 N Park Place Ct, Lehi, UT 84043","precinct":"25LE21","hd":"53","v_score":"1.193887297","decile":"4","lat":40.424872489068534,"lng":-111.86014222014461,"phone":"(571) 707-5947","sd":"21","ssbd":"11","lsbd":"School Board Aspen Peaks 2"},{"vid":"2669336","name":"Charle Hegmann","party":"Rep","address":"477 W 2600 N, Lehi, UT 84043","precinct":"25LE21","hd":"53","v_score":"1.193887297","decile":"4","lat":40.42046871482322,"lng":-111.85708703702045,"phone":"(488) 730-3711","sd":"21","ssbd":"11","lsbd":"School Board Aspen Peaks 2"},{"vid":"2669651","name":"Parthenia Wyman","party":"Dem","address":"342 W 2540 N, Lehi, UT 84043","precinct":"25LE21","hd":"53","v_score":"1.193887297","decile":"4","lat":40.42014936180602,"lng":-111.8550977974145,"phone":"(901) 630-5336","sd":"21","ssbd":"11","lsbd":"School Board Aspen Peaks 2"},{"vid":"2672009","name":"Garnett Medhurst","party":"Dem","address":"477 W 2450 N, Lehi, UT 84043","precinct":"25LE21","hd":"53","v_score":"0","decile":"2","lat":40.41885440282372,"lng":-111.85707705476136,"phone":"(227) 800-5033","sd":"21","ssbd":"11","lsbd":"School Board Aspen Peaks 2"},{"vid":"2673155","name":"Mr. Maddox Rogahn Sr.","party":"Rep","address":"3064 N Park Place St, Lehi, UT 84043","precinct":"25LE21","hd":"53","v_score":"0","decile":"2","lat":40.42632251778839,"lng":-111.85912674561888,"phone":"(242) 477-3735","sd":"21","ssbd":"11","lsbd":"School Board Aspen Peaks 2"},{"vid":"2684447","name":"Dr. Nayely Feeney DDS","party":"Rep","address":"479 W 2325 N, Lehi, UT 84043","precinct":"25LE21","hd":"53","v_score":"0","decile":"2","lat":40.4173152719002,"lng":-111.85709228210374,"phone":"(536) 855-3253","sd":"21","ssbd":"11","lsbd":"School Board Aspen Peaks 2"},{"vid":"2685264","name":"Donnell Douglas","party":"Dem","address":"3047 N Park Cottage Way, Lehi, UT 84043","precinct":"25LE21","hd":"53","v_score":"1.193887297","decile":"4","lat":40.42609289958221,"lng":-111.85617681429774,"phone":"(713) 290-9917","sd":"21","ssbd":"11","lsbd":"School Board Aspen Peaks 2"},{"vid":"2686679","name":"Genie Ernser","party":"","address":"2221 N 490 W, Lehi, UT 84043","precinct":"25LE21","hd":"53","v_score":"0","decile":"2","lat":40.415669756934946,"lng":-111.85670688149067,"phone":"(262) 786-3471","sd":"21","ssbd":"11","lsbd":"School Board Aspen Peaks 2"},{"vid":"2688749","name":"Koby Spinka-Schroeder","party":"","address":"732 W Parkview Dr, Lehi, UT 84043","precinct":"25LE21","hd":"53","v_score":"7.090117576","decile":"8","lat":40.42324132605499,"lng":-111.86107508257149,"phone":"(244) 778-2921","sd":"21","ssbd":"11","lsbd":"School Board Aspen Peaks 2"},{"vid":"2691776","name":"Dr. Webb Pfannerstill I","party":"Dem","address":"762 W 2920 N, Lehi, UT 84043","precinct":"25LE21","hd":"53","v_score":"0","decile":"2","lat":40.42474480096731,"lng":-111.8616868748358,"phone":"(455) 262-0966","sd":"21","ssbd":"11","lsbd":"School Board Aspen Peaks 2"},{"vid":"2693319","name":"Cortney Veum","party":"Rep","address":"2621 N 425 W, Lehi, UT 84043","precinct":"25LE21","hd":"53","v_score":"0","decile":"2","lat":40.42089399158904,"lng":-111.85630611664084,"phone":"(355) 562-3375","sd":"21","ssbd":"11","lsbd":"School Board Aspen Peaks 2"},{"vid":"2694801","name":"Bailey Johnston Sr.","party":"","address":"530 W 2540 N, Lehi, UT 84043","precinct":"25LE21","hd":"53","v_score":"1.193887297","decile":"4","lat":40.42013760083331,"lng":-111.85806002224729,"phone":"(373) 672-4644","sd":"21","ssbd":"11","lsbd":"School Board Aspen Peaks 2"},{"vid":"2700612","name":"Kellie Langworth PhD","party":"Rep","address":"582 W 2325 N, Lehi, UT 84043","precinct":"25LE21","hd":"53","v_score":"0","decile":"2","lat":40.41764701260282,"lng":-111.85901072240608,"phone":"(778) 268-4801","sd":"21","ssbd":"11","lsbd":"School Board Aspen Peaks 2"},{"vid":"2705868","name":"Dr. Lawerence Bogisich","party":"","address":"734 W Sandhill Dr, Lehi, UT 84043","precinct":"25LE21","hd":"53","v_score":"0","decile":"2","lat":40.42250295115943,"lng":-111.86135887959367,"phone":"(512) 162-3260","sd":"21","ssbd":"11","lsbd":"School Board Aspen Peaks 2"},{"vid":"2707222","name":"Aditya Kub III","party":"Dem","address":"511 W 2540 N, Lehi, UT 84043","precinct":"25LE21","hd":"53","v_score":"2.876042565","decile":"6","lat":40.41965798733842,"lng":-111.85775163456283,"phone":"(102) 691-0114","sd":"21","ssbd":"11","lsbd":"School Board Aspen Peaks 2"},{"vid":"2708216","name":"Lucy Huel-Rosenbaum","party":"Rep","address":"355 W 3200 N, Lehi, UT 84043","precinct":"25LE21","hd":"53","v_score":"1.193887297","decile":"4","lat":40.42778061409944,"lng":-111.85501863068515,"phone":"(354) 269-8504","sd":"21","ssbd":"11","lsbd":"School Board Aspen Peaks 2"},{"vid":"2708558","name":"Zebulon Wolff","party":"Dem","address":"3037 N Park Place St, Lehi, UT 84043","precinct":"25LE21","hd":"53","v_score":"8.284004873","decile":"8","lat":40.42599396246326,"lng":-111.85968133041814,"phone":"(781) 428-5947","sd":"21","ssbd":"11","lsbd":"School Board Aspen Peaks 2"},{"vid":"2715898","name":"Kayden Strosin","party":"","address":"355 W 3200 N, Lehi, UT 84043","precinct":"25LE21","hd":"53","v_score":"1.193887297","decile":"4","lat":40.42778061409944,"lng":-111.85501863068515,"phone":"(440) 871-5033","sd":"21","ssbd":"11","lsbd":"School Board Aspen Peaks 2"},{"vid":"2726279","name":"Anika Brakus DDS","party":"","address":"362 W 2280 N, Lehi, UT 84043","precinct":"25LE21","hd":"53","v_score":"1.193887297","decile":"4","lat":40.41704607171156,"lng":-111.85538325973359,"phone":"(861) 105-8649","sd":"21","ssbd":"11","lsbd":"School Board Aspen Peaks 2"},{"vid":"2729555","name":"Hetty Koch","party":"","address":"513 W 2450 N, Lehi, UT 84043","precinct":"25LE21","hd":"53","v_score":"4.214075011","decile":"7","lat":40.418852545187676,"lng":-111.85768529631474,"phone":"(651) 980-9767","sd":"21","ssbd":"11","lsbd":"School Board Aspen Peaks 2"},{"vid":"2729629","name":"Jamie Wilkinson","party":"","address":"511 W 2375 N, Lehi, UT 84043","precinct":"25LE21","hd":"53","v_score":"0","decile":"2","lat":40.41804683282136,"lng":-111.8577159804292,"phone":"(275) 692-6839","sd":"21","ssbd":"11","lsbd":"School Board Aspen Peaks 2"},{"vid":"2735192","name":"Leana Nitzsche","party":"Rep","address":"322 W 2375 N, Lehi, UT 84043","precinct":"25LE21","hd":"53","v_score":"0","decile":"2","lat":40.41842624337011,"lng":-111.85467563777578,"phone":"(576) 105-9520","sd":"21","ssbd":"11","lsbd":"School Board Aspen Peaks 2"},{"vid":"2735784","name":"Cornelius Osinski-Thiel","party":"Dem","address":"586 W 2450 N, Lehi, UT 84043","precinct":"25LE21","hd":"53","v_score":"1.193887297","decile":"4","lat":40.41921855670149,"lng":-111.85902703674716,"phone":"(833) 782-9679","sd":"21","ssbd":"11","lsbd":"School Board Aspen Peaks 2"},{"vid":"2737611","name":"Dr. Elana Sporer MD","party":"","address":"537 W Sandhill Dr, Lehi, UT 84043","precinct":"25LE21","hd":"53","v_score":"1.193887297","decile":"4","lat":40.4220615538715,"lng":-111.85834566207346,"phone":"(783) 922-9104","sd":"21","ssbd":"11","lsbd":"School Board Aspen Peaks 2"},{"vid":"2738779","name":"Roselyn Kiehn","party":"Rep","address":"3126 N Park Cottage Way, Lehi, UT 84043","precinct":"25LE21","hd":"53","v_score":"1.193887297","decile":"4","lat":40.427094692151435,"lng":-111.85585150280252,"phone":"(305) 938-6226","sd":"21","ssbd":"11","lsbd":"School Board Aspen Peaks 2"},{"vid":"2747271","name":"Alvia Herzog-Hand","party":"Dem","address":"361 W 2540 N, Lehi, UT 84043","precinct":"25LE21","hd":"53","v_score":"0","decile":"2","lat":40.41973433044263,"lng":-111.85546741767641,"phone":"(769) 389-4797","sd":"21","ssbd":"11","lsbd":"School Board Aspen Peaks 2"},