[{"vid":"610227","name":"Hazle Kunze MD","party":"Dem","address":"2306 N 940 E, Lehi, UT 84043","precinct":"25LE05","hd":"53","v_score":"3.93832808","decile":"6","lat":40.41664303035225,"lng":-111.83420156977799},{"vid":"818489","name":"Rich Schinner-Carter","party":"","address":"1022 E 2180 N, Lehi, UT 84043","precinct":"25LE05","hd":"53","v_score":"4.210716443","decile":"7","lat":40.4147498784217,"lng":-111.83332742771998},{"vid":"1227601","name":"Lamarcus Mills","party":"Rep","address":"739 E 3150 N, Lehi, UT 84043","precinct":"25LE05","hd":"53","v_score":"2.315214949","decile":"5","lat":40.42775884471405,"lng":-111.83744691861513},{"vid":"1241546","name":"Coleen Upton","party":"Rep","address":"2982 N 700 E, Lehi, UT 84043","precinct":"25LE05","hd":"53","v_score":"5.40460374","decile":"7","lat":40.42563809792964,"lng":-111.83769121653464},{"vid":"1246981","name":"Jarret Mayert","party":"","address":"2305 N 940 E, Lehi, UT 84043","precinct":"25LE05","hd":"53","v_score":"4.214075011","decile":"7","lat":40.41665228587138,"lng":-111.83476179116919},{"vid":"1247818","name":"Yareli Quitzon","party":"","address":"3099 N 880 E, Lehi, UT 84043","precinct":"25LE05","hd":"53","v_score":"3.781490609","decile":"6","lat":40.42684212604633,"lng":-111.83530068170464},{"vid":"1250660","name":"Dr. Lamont Haley DVM","party":"Rep","address":"928 E 2850 N, Lehi, UT 84043","precinct":"25LE05","hd":"53","v_score":"26.85320151","decile":"10","lat":40.42405874103572,"lng":-111.834477205516},{"vid":"1258706","name":"Miss Ally Shields","party":"","address":"1171 E Utah Highlands Dr, Lehi, UT 84043","precinct":"25LE05","hd":"53","v_score":"3.93832808","decile":"6","lat":40.42608290274048,"lng":-111.8307670018031},{"vid":"1258707","name":"Reason Russel PhD","party":"Dem","address":"1171 E Utah Highlands Dr, Lehi, UT 84043","precinct":"25LE05","hd":"53","v_score":"1.193887297","decile":"3","lat":40.42608290274048,"lng":-111.8307670018031},{"vid":"1261999","name":"Mr. Jordon Yost","party":"Rep","address":"1100 E 2250 N, Lehi, UT 84043","precinct":"25LE05","hd":"53","v_score":"5.40460374","decile":"7","lat":40.415549447556266,"lng":-111.83183697667641},{"vid":"1274901","name":"Mrs. Aliza Buckridge","party":"","address":"3125 N 950 E, Lehi, UT 84043","precinct":"25LE05","hd":"53","v_score":"0","decile":"1","lat":40.42718608189165,"lng":-111.83412134878581},{"vid":"1299019","name":"Jocelynn Wehner MD","party":"","address":"861 E 2180 N, Lehi, UT 84043","precinct":"25LE05","hd":"53","v_score":"15.02443211","decile":"9","lat":40.41509831839094,"lng":-111.83531219166866},{"vid":"1309081","name":"Karolyn Bins","party":"Dem","address":"1093 E 2250 N, Lehi, UT 84043","precinct":"25LE05","hd":"53","v_score":"14.63972567","decile":"9","lat":40.41600512150277,"lng":-111.8319654358818},{"vid":"2cb53d572507e25c6387b3d863f7e7f4f76e46103918c395cfe2ee960e1200c0","name":"Deetta Krajcik","party":"Dem","address":"962 E 2250 N, Lehi, UT 84043","precinct":"25LE05","hd":"53","v_score":"15.43762891","decile":"9","lat":40.415537211259355,"lng":-111.83411727510564},{"vid":"1319446","name":"Mr. Sigmund Bartoletti","party":"Dem","address":"2373 N 1200 E, Lehi, UT 84043","precinct":"25LE05","hd":"53","v_score":"4.210716443","decile":"7","lat":40.41781812899559,"lng":-111.83082233595665},{"vid":"1320788","name":"Amasa Price-Heidenreich","party":"Dem","address":"3113 N 800 E, Lehi, UT 84043","precinct":"25LE05","hd":"53","v_score":"13.77150267","decile":"9","lat":40.4269696048882,"lng":-111.8363463420237},{"vid":"1321701","name":"Dr. Jasper Mann","party":"","address":"807 E 2900 N, Lehi, UT 84043","precinct":"25LE05","hd":"53","v_score":"1.193887297","decile":"3","lat":40.425503770224324,"lng":-111.83640296534622},{"vid":"1339346","name":"Allene Kertzmann MD","party":"Rep","address":"2390 N 600 E, Lehi, UT 84043","precinct":"25LE05","hd":"53","v_score":"1.623113131","decile":"4","lat":40.41831579045609,"lng":-111.837337780315},{"vid":"80ec7f35aa44f66b884b53013bd98b5607d32f7988f8f77b629080f528289d14","name":"Dr. Sharen Purdy","party":"Dem","address":"974 E 2850 N, Lehi, UT 84043","precinct":"25LE05","hd":"53","v_score":"3.93832808","decile":"6","lat":40.42414034022329,"lng":-111.83363232620529},{"vid":"1356612","name":"Timothy Krajcik Sr.","party":"Dem","address":"2953 N 700 E, Lehi, UT 84043","precinct":"25LE05","hd":"53","v_score":"3.93832808","decile":"6","lat":40.42493072963696,"lng":-111.83814354876887},{"vid":"bc7c4cad6215a2bb1eaef5614572890b576e3fc8b2c92cf2798ad1d1fa19931a","name":"Dr. Kaeden O'Reilly","party":"","address":"788 E 3050 N, Lehi, UT 84043","precinct":"25LE05","hd":"53","v_score":"16.63280648","decile":"9","lat":40.42599964911715,"lng":-111.83667491328717},{"vid":"adbd58085c10a4b4a5bf9efffb8dd602f7b306673a0a619d21141e1ddcf04bd3","name":"Gustaf Prohaska","party":"Dem","address":"2314 N 1000 E, Lehi, UT 84043","precinct":"25LE05","hd":"53","v_score":"3.781490609","decile":"6","lat":40.41684158467196,"lng":-111.8332485385291},{"vid":"1376690","name":"Nathanial Kautzer","party":"Rep","address":"730 E 2200 N, Lehi, UT 84043","precinct":"25LE05","hd":"53","v_score":"13.97430753","decile":"9","lat":40.41542857229137,"lng":-111.83797637897224},{"vid":"1378369","name":"Kenny Stokes","party":"","address":"2321 N 940 E, Lehi, UT 84043","precinct":"25LE05","hd":"53","v_score":"18.39620879","decile":"10","lat":40.41711393979316,"lng":-111.83469468036992},{"vid":"1385555","name":"Alphons Franecki V","party":"","address":"1069 E 2180 N, Lehi, UT 84043","precinct":"25LE05","hd":"53","v_score":"4.424855541","decile":"7","lat":40.415212488420536,"lng":-111.83238518166337},{"vid":"1411940","name":"Amerigo Berge","party":"Dem","address":"3113 N 800 E, Lehi, UT 84043","precinct":"25LE05","hd":"53","v_score":"5.40460374","decile":"7","lat":40.4269696048882,"lng":-111.8363463420237},{"vid":"1437757","name":"Ms. Nina Luettgen","party":"Rep","address":"2790 N 675 E, Lehi, UT 84043","precinct":"25LE05","hd":"53","v_score":"0","decile":"1","lat":40.42292937403118,"lng":-111.83838382873212},{"vid":"1451163","name":"Mr. Sheldon Pagac DVM","party":"Dem","address":"781 E 3050 N, Lehi, UT 84043","precinct":"25LE05","hd":"53","v_score":"9.116556227","decile":"8","lat":40.42639121726754,"lng":-111.83635370056362},{"vid":"fccce962e0123a366ec321881539d8d7ca71f6668706942655af10b0aac182ff","name":"Valarie Pacocha","party":"Rep","address":"1091 E 2180 N, Lehi, UT 84043","precinct":"25LE05","hd":"53","v_score":"2.587603312","decile":"5","lat":40.41507888285802,"lng":-111.8320427149403},{"vid":"1481724","name":"Icey Konopelski","party":"Dem","address":"2818 N Utah Highlands Dr, Lehi, UT 84043","precinct":"25LE05","hd":"53","v_score":"15.00919004","decile":"9","lat":40.423285640977305,"lng":-111.8340176710763},{"vid":"1491475","name":"Marcello Dibbert Sr.","party":"Rep","address":"2277 N 1000 E, Lehi, UT 84043","precinct":"25LE05","hd":"53","v_score":"2.315214949","decile":"5","lat":40.416193811824435,"lng":-111.83383799301605},{"vid":"1507386","name":"Ms. Affie Baumbach DVM","party":"","address":"2740 N 675 E, Lehi, UT 84043","precinct":"25LE05","hd":"53","v_score":"6.027167436","decile":"7","lat":40.42233170030637,"lng":-111.83838074573974},{"vid":"1514364","name":"Conner Johnson","party":"Dem","address":"2279 N 940 E, Lehi, UT 84043","precinct":"25LE05","hd":"53","v_score":"12.49472132","decile":"9","lat":40.41619125759356,"lng":-111.8347570926209},{"vid":"1534471","name":"Flora Wilkinson","party":"Rep","address":"817 E 2200 N, Lehi, UT 84043","precinct":"25LE05","hd":"53","v_score":"5.693042993","decile":"7","lat":40.415471781004655,"lng":-111.83605123620137},{"vid":"1535762","name":"Shandra Hintz","party":"","address":"1091 E 2180 N, Lehi, UT 84043","precinct":"25LE05","hd":"53","v_score":"4.210716443","decile":"7","lat":40.41507888285802,"lng":-111.8320427149403},{"vid":"1536985","name":"Miss Arlyne Witting DVM","party":"Dem","address":"2302 N 1000 E, Lehi, UT 84043","precinct":"25LE05","hd":"53","v_score":"1.193887297","decile":"3","lat":40.41661525749512,"lng":-111.833233046034},{"vid":"1546135","name":"Miss Amari Zboncak","party":"Dem","address":"3123 N 700 E, Lehi, UT 84043","precinct":"25LE05","hd":"53","v_score":"2.817000428","decile":"6","lat":40.42711736348621,"lng":-111.83841512744547},{"vid":"1551487","name":"Dr. Kameron Kilback","party":"Rep","address":"2290 N 1060 E, Lehi, UT 84043","precinct":"25LE05","hd":"53","v_score":"1.193887297","decile":"3","lat":40.4164462402936,"lng":-111.83224349075294},{"vid":"1562984","name":"Shelvia Gleichner","party":"Rep","address":"929 E 2850 N, Lehi, UT 84043","precinct":"25LE05","hd":"53","v_score":"11.51394235","decile":"9","lat":40.42452990176738,"lng":-111.83447544724349},{"vid":"fb75dfb31e965c56df3c7d36e568b16e8629c6f3032e4f146ccfc95f18ab62e5","name":"Ell Ondricka","party":"","address":"2677 N 750 E, Lehi, UT 84043","precinct":"25LE05","hd":"53","v_score":"1.121327652","decile":"3","lat":40.421398768292335,"lng":-111.83653161262231},{"vid":"1584182","name":"Miss Yolanda Tromp","party":"","address":"817 E 2200 N, Lehi, UT 84043","precinct":"25LE05","hd":"53","v_score":"5.693042993","decile":"7","lat":40.415471781004655,"lng":-111.83605123620137},{"vid":"1590480","name":"Ms. Ginger Reichert","party":"Rep","address":"963 E 2180 N, Lehi, UT 84043","precinct":"25LE05","hd":"53","v_score":"5.659072284","decile":"7","lat":40.415133583473946,"lng":-111.83420669480057},{"vid":"cd8a3de2b1f3e92330a2275decde68c3823f2542c244a1cab2e13fb6bdced278","name":"Johanna Nienow","party":"Dem","address":"3114 N 950 E, Lehi, UT 84043","precinct":"25LE05","hd":"53","v_score":"6.027167436","decile":"7","lat":40.426930230103515,"lng":-111.83361391082208},{"vid":"1627263","name":"Zebulon Nolan","party":"Dem","address":"2162 N 825 E, Lehi, UT 84043","precinct":"25LE05","hd":"53","v_score":"5.191257514","decile":"7","lat":40.41456255437211,"lng":-111.83602608658227},{"vid":"1633583","name":"Achsah Berge","party":"","address":"2905 N 1150 E, Lehi, UT 84043","precinct":"25LE05","hd":"53","v_score":"9.674124426","decile":"8","lat":40.42444993400038,"lng":-111.83153737659018},{"vid":"1652521","name":"Mr. Russell Anderson","party":"Rep","address":"1043 E 2180 N, Lehi, UT 84043","precinct":"25LE05","hd":"53","v_score":"2.587603312","decile":"5","lat":40.41521008024348,"lng":-111.83277950632015},{"vid":"1656203","name":"Gearldine Towne","party":"Rep","address":"1043 E 2180 N, Lehi, UT 84043","precinct":"25LE05","hd":"53","v_score":"8.15240309","decile":"8","lat":40.41521008024348,"lng":-111.83277950632015},{"vid":"1d262bf89f223f29f3aa25202332f26f950e7ef671aa77e6a0f49c5de890ab70","name":"Dr. Alvera Gulgowski DDS","party":"Dem","address":"1039 E Utah Highlands Dr, Lehi, UT 84043","precinct":"25LE05","hd":"53","v_score":"5.40460374","decile":"7","lat":40.42616684754381,"lng":-111.83279594345119},{"vid":"1668472","name":"Akira Walsh","party":"Rep","address":"954 E Oak Creek Dr, Lehi, UT 84043","precinct":"25LE05","hd":"53","v_score":"5.191257514","decile":"7","lat":40.417819786256686,"lng":-111.83392566038367},{"vid":"1669613","name":"Aria Streich","party":"","address":"3123 N 700 E, Lehi, UT 84043","precinct":"25LE05","hd":"53","v_score":"2.817000428","decile":"6","lat":40.42711736348621,"lng":-111.83841512744547},{"vid":"1673202","name":"Dr. Levern Bosco III","party":"Dem","address":"2901 N 675 E, Lehi, UT 84043","precinct":"25LE05","hd":"53","v_score":"26.85320151","decile":"10","lat":40.424525967414034,"lng":-111.83923972997438},{"vid":"1681753","name":"Charly Jacobi","party":"Dem","address":"2953 N 700 E, Lehi, UT 84043","precinct":"25LE05","hd":"53","v_score":"3.93832808","decile":"6","lat":40.42493072963696,"lng":-111.83814354876887},{"vid":"1683818","name":"Finley Metz Jr.","party":"Dem","address":"2904 N 1150 E, Lehi, UT 84043","precinct":"25LE05","hd":"53","v_score":"4.214075011","decile":"7","lat":40.4243696547252,"lng":-111.83116180937414},{"vid":"1696949","name":"Infant Wisoky","party":"Dem","address":"969 E Oak Creek Dr, Lehi, UT 84043","precinct":"25LE05","hd":"53","v_score":"7.567884335","decile":"8","lat":40.418312397422085,"lng":-111.83390982397687},{"vid":"1697550","name":"Timothy Metz V","party":"Rep","address":"2978 N Utah Highlands Dr, Lehi, UT 84043","precinct":"25LE05","hd":"53","v_score":"17.98301199","decile":"10","lat":40.42542973219839,"lng":-111.83352620013024},{"vid":"1709497","name":"Ms. Cinnamon Mayert PhD","party":"Rep","address":"825 E Utah Highlands Dr, Lehi, UT 84043","precinct":"25LE05","hd":"53","v_score":"4.741221742","decile":"7","lat":40.42335476575402,"lng":-111.83652596715352},{"vid":"1709727","name":"Donal Cummerata-Medhurst","party":"","address":"2934 N 1150 E, Lehi, UT 84043","precinct":"25LE05","hd":"53","v_score":"7.650280567","decile":"8","lat":40.42485581753913,"lng":-111.8309338571722},{"vid":"1715734","name":"Ms. Kami Labadie DDS","party":"Dem","address":"2290 N 1060 E, Lehi, UT 84043","precinct":"25LE05","hd":"53","v_score":"12.92811976","decile":"9","lat":40.4164462402936,"lng":-111.83224349075294},{"vid":"1737687","name":"Cleo O'Conner-Olson","party":"Rep","address":"2781 N 900 E, Lehi, UT 84043","precinct":"25LE05","hd":"53","v_score":"11.02844566","decile":"9","lat":40.42296782236995,"lng":-111.83483036681326},{"vid":"1759879","name":"Dr. Zina Larkin","party":"Rep","address":"2671 N 750 E, Lehi, UT 84043","precinct":"25LE05","hd":"53","v_score":"5.40460374","decile":"7","lat":40.42132522091128,"lng":-111.83617177302983},{"vid":"1765557","name":"Shasta VonRueden","party":"","address":"2148 N 1000 E, Lehi, UT 84043","precinct":"25LE05","hd":"53","v_score":"0","decile":"1","lat":40.41426487956906,"lng":-111.83316998263678},{"vid":"1770002","name":"Leif Schinner","party":"","address":"1104 E 2850 N, Lehi, UT 84043","precinct":"25LE05","hd":"53","v_score":"5.40460374","decile":"7","lat":40.42412764573673,"lng":-111.83162299238278},{"vid":"03ca561385e653c9524f3f0a06d38a4408f3e30123d938820f4720aff9988e04","name":"Shreya Stark MD","party":"Rep","address":"754 E 2900 N, Lehi, UT 84043","precinct":"25LE05","hd":"53","v_score":"3.93832808","decile":"6","lat":40.4248885986513,"lng":-111.83708199624415},{"vid":"1771506","name":"Evertt Hansen","party":"Dem","address":"2884 N 675 E, Lehi, UT 84043","precinct":"25LE05","hd":"53","v_score":"1.121327652","decile":"3","lat":40.42424710702969,"lng":-111.83867408939355},{"vid":"1774475","name":"Johny Muller-Schiller","party":"Dem","address":"799 E 3150 N, Lehi, UT 84043","precinct":"25LE05","hd":"53","v_score":"9.674124426","decile":"8","lat":40.42763365182907,"lng":-111.83624692065351},{"vid":"1786083","name":"Taniyah Swift","party":"","address":"2781 N 900 E, Lehi, UT 84043","precinct":"25LE05","hd":"53","v_score":"2.315214949","decile":"5","lat":40.42296782236995,"lng":-111.83483036681326},{"vid":"1804244","name":"Mr. Jame Parisian","party":"Rep","address":"959 E 2330 N, Lehi, UT 84043","precinct":"25LE05","hd":"53","v_score":"5.530510904","decile":"7","lat":40.417516267598316,"lng":-111.83403812795956},{"vid":"1807734","name":"Karol Abernathy","party":"","address":"857 E 3050 N, Lehi, UT 84043","precinct":"25LE05","hd":"53","v_score":"2.315214949","decile":"5","lat":40.42639875499871,"lng":-111.83518718287985},{"vid":"1814710","name":"Devante Funk-Wehner","party":"","address":"798 E Utah Highlands Dr, Lehi, UT 84043","precinct":"25LE05","hd":"53","v_score":"11.66547379","decile":"9","lat":40.422352607338894,"lng":-111.83648207533625},{"vid":"1823038","name":"Kamari Smitham","party":"","address":"2838 N Utah Highlands Dr, Lehi, UT 84043","precinct":"25LE05","hd":"53","v_score":"2.315214949","decile":"5","lat":40.423811098011655,"lng":-111.83362200575756},{"vid":"1833872","name":"Erykah Krajcik","party":"Dem","address":"673 E 2900 N, Lehi, UT 84043","precinct":"25LE05","hd":"53","v_score":"3.781490609","decile":"6","lat":40.42490635299861,"lng":-111.83902769887978},{"vid":"1842510","name":"Cato Brakus","party":"","address":"2303 N 1000 E, Lehi, UT 84043","precinct":"25LE05","hd":"53","v_score":"8.284004873","decile":"8","lat":40.41664518022519,"lng":-111.83384256741715},{"vid":"1852964","name":"Chaim Bergstrom","party":"","address":"848 E 2180 N, Lehi, UT 84043","precinct":"25LE05","hd":"53","v_score":"15.0180437","decile":"9","lat":40.414506966005916,"lng":-111.83564968707398},{"vid":"4f7201890479021e965fbbf0e5c5fb66f50511ea0e2457ca2bb797f13e46ac2b","name":"Miss Parthenia Botsford","party":"","address":"2276 N 1000 E, Lehi, UT 84043","precinct":"25LE05","hd":"53","v_score":"10.22509301","decile":"9","lat":40.416193514859025,"lng":-111.83326205991088},{"vid":"1871109","name":"Lina Hane-Botsford","party":"","address":"2781 N 900 E, Lehi, UT 84043","precinct":"25LE05","hd":"53","v_score":"0","decile":"1","lat":40.42296782236995,"lng":-111.83483036681326},{"vid":"c949b863eaad9eb5c0b5252f47a8dfd762a3dabdd9911dcff7f3392e6832b70b","name":"Miss Esmeralda Kuhic MD","party":"Rep","address":"2440 N 1100 E, Lehi, UT 84043","precinct":"25LE05","hd":"53","v_score":"7.226183681","decile":"8","lat":40.418539439867686,"lng":-111.83173068943381},{"vid":"ddee15ec713bce38abcc424fd7c3a9d5bf1e248e6e012a60a1ed5e63ddec592a","name":"Mr. Lemon Gerhold","party":"Dem","address":"1170 E 3200 N, Lehi, UT 84043","precinct":"25LE05","hd":"53","v_score":"1.121327652","decile":"3","lat":40.4278447122123,"lng":-111.83082242038958},{"vid":"1891724","name":"Debbi Larkin","party":"","address":"3043 N 950 E, Lehi, UT 84043","precinct":"25LE05","hd":"53","v_score":"6.657533174","decile":"7","lat":40.42616810067452,"lng":-111.83408879180371},{"vid":"1892930","name":"Dr. Donie O'Hara","party":"Dem","address":"2306 N 940 E, Lehi, UT 84043","precinct":"25LE05","hd":"53","v_score":"0","decile":"1","lat":40.41664303035225,"lng":-111.83420156977799},{"vid":"1895457","name":"Burley Hyatt","party":"","address":"974 E 2850 N, Lehi, UT 84043","precinct":"25LE05","hd":"53","v_score":"3.93832808","decile":"6","lat":40.42414034022329,"lng":-111.83363232620529},{"vid":"1902224","name":"Christy Rosenbaum-Ward","party":"","address":"897 E 2850 N, Lehi, UT 84043","precinct":"25LE05","hd":"53","v_score":"13.28858692","decile":"9","lat":40.424528901975485,"lng":-111.83483452290683},{"vid":"ad7cb10a0894eed28dabfa6ce444b53d2dde8655953804a97f34482d8434e73d","name":"Dr. Abe Abbott PhD","party":"Dem","address":"2311 N 850 E, Lehi, UT 84043","precinct":"25LE05","hd":"53","v_score":"3.93832808","decile":"6","lat":40.416510568824926,"lng":-111.83563848089365},{"vid":"1921232","name":"Dr. Sawyer Frami","party":"","address":"2336 N 1000 E, Lehi, UT 84043","precinct":"25LE05","hd":"53","v_score":"2.587603312","decile":"5","lat":40.4174171396853,"lng":-111.83321644234185},{"vid":"1922853","name":"Hilliard Gottlieb Jr.","party":"Dem","address":"903 E 2180 N, Lehi, UT 84043","precinct":"25LE05","hd":"53","v_score":"3.781490609","decile":"6","lat":40.41493397058844,"lng":-111.8349440863827},{"vid":"1928432","name":"Kraig Raynor","party":"Rep","address":"2901 N 675 E, Lehi, UT 84043","precinct":"25LE05","hd":"53","v_score":"1.193887297","decile":"3","lat":40.424525967414034,"lng":-111.83923972997438},{"vid":"1951245","name":"Ancel Nienow","party":"Dem","address":"847 E 2125 N, Lehi, UT 84043","precinct":"25LE05","hd":"53","v_score":"5.191257514","decile":"7","lat":40.414232715597755,"lng":-111.83558730482672},{"vid":"1954553","name":"Miss Khalilah Hoeger DVM","party":"","address":"2451 N 1100 E, Lehi, UT 84043","precinct":"25LE05","hd":"53","v_score":"1.46627566","decile":"4","lat":40.41873390114153,"lng":-111.83202063590053},{"vid":"1957541","name":"Mikhail Conroy","party":"Dem","address":"2289 N 1060 E, Lehi, UT 84043","precinct":"25LE05","hd":"53","v_score":"6.954919332","decile":"8","lat":40.41644800555094,"lng":-111.8328262238952},{"vid":"1968265","name":"Dr. Gabriella Turner","party":"Rep","address":"893 E 2900 N, Lehi, UT 84043","precinct":"25LE05","hd":"53","v_score":"2.315214949","decile":"5","lat":40.425614768829774,"lng":-111.83498063227081},{"vid":"1969155","name":"Vernie Altenwerth","party":"","address":"2257 N 1120 E, Lehi, UT 84043","precinct":"25LE05","hd":"53","v_score":"0","decile":"1","lat":40.415898542647,"lng":-111.83159460534247},{"vid":"1970879","name":"Arlo Russel","party":"Dem","address":"2974 N 1150 E, Lehi, UT 84043","precinct":"25LE05","hd":"53","v_score":"3.781490609","decile":"6","lat":40.425758010432624,"lng":-111.83096604303557},{"vid":"e08abd3e74807293247e9f5163a125a1300f5ec5048a6246eda8bd87c9e07894","name":"Joetta Skiles","party":"","address":"2327 N 940 E, Lehi, UT 84043","precinct":"25LE05","hd":"53","v_score":"7.709322704","decile":"8","lat":40.41729143057625,"lng":-111.83519708041999},{"vid":"c452e469a7d5c916d0a5f5377d59ce43e1b3c732643350748d7c70236835e5a3","name":"Lonzo Gibson","party":"","address":"1175 E 2250 N, Lehi, UT 84043","precinct":"25LE05","hd":"53","v_score":"2.587603312","decile":"5","lat":40.415906730252836,"lng":-111.8306093993018},{"vid":"1981953","name":"Tierra Ritchie","party":"Dem","address":"1104 E 2180 N, Lehi, UT 84043","precinct":"25LE05","hd":"53","v_score":"1.46627566","decile":"4","lat":40.4147862567961,"lng":-111.83170966016324},{"vid":"1982895","name":"Cade Nienow DDS","party":"Rep","address":"847 E 2125 N, Lehi, UT 84043","precinct":"25LE05","hd":"53","v_score":"7.830610533","decile":"8","lat":40.414232715597755,"lng":-111.83558730482672},{"vid":"1988539","name":"Kyara Roberts","party":"","address":"902 E 2250 N, Lehi, UT 84043","precinct":"25LE05","hd":"53","v_score":"4.069929862","decile":"6","lat":40.415565393553514,"lng":-111.83499362567063},{"vid":"1988608","name":"Sylvanus Ullrich","party":"","address":"1043 E 2180 N, Lehi, UT 84043","precinct":"25LE05","hd":"53","v_score":"1.46627566","decile":"4","lat":40.41521008024348,"lng":-111.83277950632015},{"vid":"1992334","name":"Dr. Turner Pouros","party":"","address":"2321 N 940 E, Lehi, UT 84043","precinct":"25LE05","hd":"53","v_score":"27.0023342","decile":"10","lat":40.41711393979316,"lng":-111.83469468036992},{"vid":"1995309","name":"Miss Aline Stanton","party":"Dem","address":"2662 N 750 E, Lehi, UT 84043","precinct":"25LE05","hd":"53","v_score":"8.091152","decile":"8","lat":40.42182101991394,"lng":-111.83565604052065},{"vid":"2001126","name":"Savanna Spencer","party":"Dem","address":"1100 E 2250 N, Lehi, UT 84043","precinct":"25LE05","hd":"53","v_score":"3.781490609","decile":"6","lat":40.415549447556266,"lng":-111.83183697667641},{"vid":"2002622","name":"Archer Conroy","party":"Rep","address":"2978 N Utah Highlands Dr, Lehi, UT 84043","precinct":"25LE05","hd":"53","v_score":"11.32188235","decile":"9","lat":40.42542973219839,"lng":-111.83352620013024},{"vid":"2003333","name":"Zana Berge","party":"Dem","address":"2279 N 940 E, Lehi, UT 84043","precinct":"25LE05","hd":"53","v_score":"11.02844566","decile":"9","lat":40.41619125759356,"lng":-111.8347570926209},{"vid":"2030351","name":"Bradley McGlynn I","party":"","address":"975 E 2850 N, Lehi, UT 84043","precinct":"25LE05","hd":"53","v_score":"1.121327652","decile":"3","lat":40.424455076780944,"lng":-111.83361512780286},{"vid":"2036587","name":"Friend Balistreri","party":"","address":"798 E Utah Highlands Dr, Lehi, UT 84043","precinct":"25LE05","hd":"53","v_score":"7.52755489","decile":"8","lat":40.422352607338894,"lng":-111.83648207533625},{"vid":"2053100","name":"Tamara Christiansen","party":"","address":"1101 E Airport Dr, Lehi, UT 84043","precinct":"25LE05","hd":"53","v_score":"3.781490609","decile":"6","lat":40.41435505060832,"lng":-111.83159863153296},{"vid":"2057795","name":"Zayden Cruickshank-Pfannerstill","party":"Dem","address":"817 E 2200 N, Lehi, UT 84043","precinct":"25LE05","hd":"53","v_score":"4.568975008","decile":"7","lat":40.415471781004655,"lng":-111.83605123620137},{"vid":"2066691","name":"Tera Olson","party":"Rep","address":"861 E 2180 N, Lehi, UT 84043","precinct":"25LE05","hd":"53","v_score":"1.121327652","decile":"3","lat":40.41509831839094,"lng":-111.83531219166866},{"vid":"2067660","name":"Billy Ebert-Crona","party":"Rep","address":"2819 N 1050 E, Lehi, UT 84043","precinct":"25LE05","hd":"53","v_score":"2.587603312","decile":"5","lat":40.42342986767532,"lng":-111.83297610091327},{"vid":"2075331","name":"Amiyah Boehm-Monahan","party":"Rep","address":"2277 N 850 E, Lehi, UT 84043","precinct":"25LE05","hd":"53","v_score":"2.315214949","decile":"5","lat":40.41611249760658,"lng":-111.83559825644153},{"vid":"2077914","name":"Fiona Pfeffer-Ledner","party":"","address":"1185 E 2450 N, Lehi, UT 84043","precinct":"25LE05","hd":"53","v_score":"5.40460374","decile":"7","lat":40.418542039228825,"lng":-111.83058146449343},{"vid":"f11a9ce2ab5fd43b0dd9e07271bb6f6c8aada5f030b281cf542c36e3edd6b233","name":"Santana Bartell-Fritsch","party":"","address":"811 E 2850 N, Lehi, UT 84043","precinct":"25LE05","hd":"53","v_score":"1.121327652","decile":"3","lat":40.424595093305065,"lng":-111.83636639432035},{"vid":"2088822","name":"Evander Lynch","party":"","address":"2274 N 1120 E, Lehi, UT 84043","precinct":"25LE05","hd":"53","v_score":"13.63581767","decile":"9","lat":40.41622100553841,"lng":-111.83108448967342},{"vid":"2089623","name":"Alcee Paucek-Frami","party":"","address":"2958 N Utah Highlands Dr, Lehi, UT 84043","precinct":"25LE05","hd":"53","v_score":"1.193887297","decile":"3","lat":40.425107484990974,"lng":-111.83355335361196},{"vid":"2096249","name":"Electa Ferry","party":"","address":"2280 N 850 E, Lehi, UT 84043","precinct":"25LE05","hd":"53","v_score":"0","decile":"1","lat":40.41619233791934,"lng":-111.83519079194444},{"vid":"26d61ef03892e95aba6961284a6e2c23cd7b1494f0a31822b61b69ac47d4aff6","name":"Aryan Rodriguez","party":"Rep","address":"744 E 3050 N, Lehi, UT 84043","precinct":"25LE05","hd":"53","v_score":"2.315214949","decile":"5","lat":40.425984185367255,"lng":-111.83748009932746},{"vid":"2104793","name":"Colonel Erdman","party":"Rep","address":"2440 N 1100 E, Lehi, UT 84043","precinct":"25LE05","hd":"53","v_score":"2.958579882","decile":"6","lat":40.418539439867686,"lng":-111.83173068943381},{"vid":"2107768","name":"Euphemia Daniel-Block","party":"","address":"2316 N 940 E, Lehi, UT 84043","precinct":"25LE05","hd":"53","v_score":"5.40460374","decile":"7","lat":40.416868714108276,"lng":-111.83420389282128},{"vid":"78d4d717f73a1559cdf08e329b9cba9615b621d40a9beb6f23efc109719f3369","name":"Annmarie Nienow","party":"","address":"848 E 2180 N, Lehi, UT 84043","precinct":"25LE05","hd":"53","v_score":"9.116556227","decile":"8","lat":40.414506966005916,"lng":-111.83564968707398},{"vid":"2125535","name":"Citlali Murazik-Marquardt","party":"","address":"2934 N 1150 E, Lehi, UT 84043","precinct":"25LE05","hd":"53","v_score":"9.116556227","decile":"8","lat":40.42485581753913,"lng":-111.8309338571722},{"vid":"d32455513c96f097a58bc59e08aceac13a780d6a0b7075c962531e7c47b6dca8","name":"Ms. Cher Hodkiewicz","party":"Rep","address":"624 E 2850 N, Lehi, UT 84043","precinct":"25LE05","hd":"53","v_score":"2.315214949","decile":"5","lat":40.423605488739916,"lng":-111.83994876377275},{"vid":"c307ae7ce12611d8fbbc8a5d6d51fc016367171d3237aa4c9cf2b7c688fee702","name":"Jacklyn McCullough","party":"Rep","address":"2631 N 675 E, Lehi, UT 84043","precinct":"25LE05","hd":"53","v_score":"5.546183193","decile":"7","lat":40.42112144920061,"lng":-111.8388505991436},{"vid":"552a9318c92ed543308c825d770ef57f43f48b77bce19e8e4bec9e7226dd6b6f","name":"Gaither Sporer","party":"Dem","address":"748 E 2200 N, Lehi, UT 84043","precinct":"25LE05","hd":"53","v_score":"3.781490609","decile":"6","lat":40.415448767696105,"lng":-111.83767334884585},{"vid":"2139726","name":"Mr. Kwame Johnson I","party":"Rep","address":"1150 E 2250 N, Lehi, UT 84043","precinct":"25LE05","hd":"53","v_score":"7.947838735","decile":"8","lat":40.41557405855074,"lng":-111.83099464661663},{"vid":"2142797","name":"Octavie Altenwerth","party":"Rep","address":"2934 N 1150 E, Lehi, UT 84043","precinct":"25LE05","hd":"53","v_score":"2.817000428","decile":"6","lat":40.42485581753913,"lng":-111.8309338571722},{"vid":"2150155","name":"Dr. Morris Kozey II","party":"Rep","address":"2302 N 1000 E, Lehi, UT 84043","precinct":"25LE05","hd":"53","v_score":"2.942907593","decile":"6","lat":40.41661525749512,"lng":-111.833233046034},{"vid":"6cac2d0faca922f7401fba6f7bd3a4748f84417cfc4834fc0fabcc8298d874af","name":"Emilio Towne","party":"Rep","address":"3130 N 700 E, Lehi, UT 84043","precinct":"25LE05","hd":"53","v_score":"1.121327652","decile":"3","lat":40.427318969773424,"lng":-111.83788145340982},{"vid":"f0429694184eba051aebbcc0d796a4af54de27cab311c07fea568b62534a846b","name":"Ceylon Mosciski-Hermann","party":"Dem","address":"2982 N 700 E, Lehi, UT 84043","precinct":"25LE05","hd":"53","v_score":"0","decile":"1","lat":40.42563809792964,"lng":-111.83769121653464},{"vid":"07736db451bf2149a754d57a56521734427cbbab30f76c9068076f9ab8773986","name":"Kimberly Kohler","party":"Rep","address":"2713 N 750 E, Lehi, UT 84043","precinct":"25LE05","hd":"53","v_score":"1.193887297","decile":"3","lat":40.422068811782985,"lng":-111.8376938365987},{"vid":"2190434","name":"Mrs. Irma Nikolaus DDS","party":"","address":"857 E 3050 N, Lehi, UT 84043","precinct":"25LE05","hd":"53","v_score":"0","decile":"1","lat":40.42639875499871,"lng":-111.83518718287985},{"vid":"9e73ed9c8266a0cf5943f7b0a3ab932491f538d08d5a8159e1ba7673ee3918ae","name":"Lea Glover","party":"Dem","address":"811 E 2850 N, Lehi, UT 84043","precinct":"25LE05","hd":"53","v_score":"3.93832808","decile":"6","lat":40.424595093305065,"lng":-111.83636639432035},{"vid":"9dd2a0aeff9f0808a35a10d17f154c42a3b5e21c0e30a680d0311b70055c1b8f","name":"Lise Buckridge","party":"Rep","address":"1175 E Airport Dr, Lehi, UT 84043","precinct":"25LE05","hd":"53","v_score":"0","decile":"1","lat":40.41427294770726,"lng":-111.83055308794907},{"vid":"588051cff7203fe2fd033b6ba3589c38bea1c63fb27e72013a8c481ecf8ec915","name":"Dakota Zieme","party":"Dem","address":"2908 N 1050 E, Lehi, UT 84043","precinct":"25LE05","hd":"53","v_score":"0","decile":"1","lat":40.424468522490976,"lng":-111.83232855321238},{"vid":"2217053","name":"Easton Bernhard","party":"Dem","address":"1019 E 2180 N, Lehi, UT 84043","precinct":"25LE05","hd":"53","v_score":"2.315214949","decile":"5","lat":40.41507449841754,"lng":-111.83330434064457},{"vid":"65998fcd8b3f8d79a20587efbc23c231db7328b4f3d98727541d5988f874c8b0","name":"Everette Nitzsche","party":"Dem","address":"778 E 2850 N, Lehi, UT 84043","precinct":"25LE05","hd":"53","v_score":"6.528952915","decile":"7","lat":40.424054869452995,"lng":-111.83670846031134},{"vid":"e8c087f4485968d5b30f526ea0474a144c25ea735e70d5e77d97669fe9a5e73e","name":"Mr. Porter Grimes DDS","party":"","address":"831 E Utah Highlands Dr, Lehi, UT 84043","precinct":"25LE05","hd":"53","v_score":"8.444560154","decile":"8","lat":40.42345720937577,"lng":-111.83621871423215},{"vid":"2241569","name":"Candido Marvin","party":"Dem","address":"951 E 2125 N, Lehi, UT 84043","precinct":"25LE05","hd":"53","v_score":"0","decile":"1","lat":40.4143029731137,"lng":-111.83408007676805},{"vid":"8259d4ee19c7d74566ac56f98fc1ae03836a512ff1571d7bf715c43ccf12f9ec","name":"Alisa Swaniawski","party":"","address":"2953 N 700 E, Lehi, UT 84043","precinct":"25LE05","hd":"53","v_score":"3.93832808","decile":"6","lat":40.42493072963696,"lng":-111.83814354876887},{"vid":"2245967","name":"Posey Raynor","party":"Dem","address":"2659 N 675 E, Lehi, UT 84043","precinct":"25LE05","hd":"53","v_score":"15.86460721","decile":"9","lat":40.42147938220095,"lng":-111.83894238483045},{"vid":"0251f089b827a8c6247678b0bcc63feb6e6b126626feec80d7c6854342eaeb98","name":"Bonny Lakin-Gerhold","party":"","address":"2310 N 1060 E, Lehi, UT 84043","precinct":"25LE05","hd":"53","v_score":"2.817000428","decile":"6","lat":40.4169004927951,"lng":-111.83228233094293},{"vid":"5178582d105920d615e45290a7eafc4013268a4652823a7b7395dd4b814b3ddf","name":"William Hegmann","party":"Rep","address":"2677 N 750 E, Lehi, UT 84043","precinct":"25LE05","hd":"53","v_score":"2.315214949","decile":"5","lat":40.421398768292335,"lng":-111.83653161262231},{"vid":"2258576","name":"Mrs. Felipa Heathcote","party":"","address":"2310 N 850 E, Lehi, UT 84043","precinct":"25LE05","hd":"53","v_score":"5.191257514","decile":"7","lat":40.41625320919599,"lng":-111.83523774942712},{"vid":"71c5bca06cee0ba082b29b9aaaed9113a1682c9d2e0da0a3250d88d93ed5404c","name":"Arleth Bernhard","party":"","address":"2884 N 675 E, Lehi, UT 84043","precinct":"25LE05","hd":"53","v_score":"0","decile":"1","lat":40.42424710702969,"lng":-111.83867408939355},{"vid":"2262400","name":"Lesley Wyman PhD","party":"Dem","address":"2185 N 825 E, Lehi, UT 84043","precinct":"25LE05","hd":"53","v_score":"34.16997587","decile":"10","lat":40.41495885474511,"lng":-111.8363714998939},{"vid":"21e39b589d586592f42990c3a9073aa307a015e997ae84c7afa78e5904ffbc0d","name":"Dr. Odell Hodkiewicz","party":"Rep","address":"858 E 2900 N, Lehi, UT 84043","precinct":"25LE05","hd":"53","v_score":"7.650280567","decile":"8","lat":40.42502066019955,"lng":-111.83562687022507},{"vid":"8d9e6f87eea46d2d5128ab82ea0dc796af0c2f472b912ebd214c5eb1e3275df4","name":"Mal Jerde","party":"","address":"2306 N 940 E, Lehi, UT 84043","precinct":"25LE05","hd":"53","v_score":"0","decile":"1","lat":40.41664303035225,"lng":-111.83420156977799},{"vid":"4ca4f4855d855ce45ce762c3c19217558ab9414993c02b5a32e05b6d334be9b2","name":"Sullivan Weber","party":"","address":"3113 N 800 E, Lehi, UT 84043","precinct":"25LE05","hd":"53","v_score":"3.93832808","decile":"6","lat":40.4269696048882,"lng":-111.8363463420237},{"vid":"96233f798f3d98c20a62187a978709922048915132238f222417fcc9a753294f","name":"Dena Nolan","party":"Dem","address":"2415 N 1100 E, Lehi, UT 84043","precinct":"25LE05","hd":"53","v_score":"3.997370217","decile":"6","lat":40.418140845913506,"lng":-111.83216795896654},{"vid":"c991914dd472894ba10ed54ad7d493962533274a07f26d673f01038fbff6acde","name":"Iza Roberts DDS","party":"","address":"975 E 2850 N, Lehi, UT 84043","precinct":"25LE05","hd":"53","v_score":"11.80042349","decile":"9","lat":40.424455076780944,"lng":-111.83361512780286},{"vid":"2280212","name":"Rosaline Blanda-Renner","party":"Rep","address":"2321 N 1200 E, Lehi, UT 84043","precinct":"25LE05","hd":"53","v_score":"2.315214949","decile":"5","lat":40.41707795083109,"lng":-111.83065106755068},{"vid":"2284802","name":"Reason Kerluke","party":"Rep","address":"878 E 2850 N, Lehi, UT 84043","precinct":"25LE05","hd":"53","v_score":"0","decile":"1","lat":40.423980251876564,"lng":-111.83520890622192},{"vid":"931b7f624415f7b0769f007f72c35860e4097aa4ea71c1ba71a4665c5a82d0bb","name":"Leon McDermott","party":"Rep","address":"639 E Utah Highlands Dr, Lehi, UT 84043","precinct":"25LE05","hd":"53","v_score":"2.315214949","decile":"5","lat":40.42100848186347,"lng":-111.8393889202376},{"vid":"ef456d319ca452e44d80cc1fcc7f828698bcb4191bed255a998e68f295467819","name":"Dr. Jerad Jacobi II","party":"","address":"2982 N 700 E, Lehi, UT 84043","precinct":"25LE05","hd":"53","v_score":"0","decile":"1","lat":40.42563809792964,"lng":-111.83769121653464},{"vid":"f36c4cf680232bd050090969f24c937a99c1b42e90681055f9358fc49a9d028f","name":"Dr. Braydon Leffler","party":"Rep","address":"838 E 2850 N, Lehi, UT 84043","precinct":"25LE05","hd":"53","v_score":"2.817000428","decile":"6","lat":40.42405430189207,"lng":-111.83603306078834},{"vid":"e712776b90ef7104a63a36dad2abf060cfd5500eae5f8ba545be67ebebd0ad17","name":"Evertt Ebert","party":"","address":"2767 N 675 E, Lehi, UT 84043","precinct":"25LE05","hd":"53","v_score":"0","decile":"1","lat":40.42262994744629,"lng":-111.83900074300624},{"vid":"2314588","name":"Mr. Osborne Marquardt","party":"Dem","address":"2659 N 675 E, Lehi, UT 84043","precinct":"25LE05","hd":"53","v_score":"16.59696324","decile":"9","lat":40.42147938220095,"lng":-111.83894238483045},{"vid":"2320243","name":"Parley Fay","party":"","address":"798 E 2200 N, Lehi, UT 84043","precinct":"25LE05","hd":"53","v_score":"0","decile":"1","lat":40.415412570962395,"lng":-111.83674767678092},{"vid":"2320547","name":"Sherie Windler","party":"Rep","address":"2934 N 1150 E, Lehi, UT 84043","precinct":"25LE05","hd":"53","v_score":"6.528952915","decile":"7","lat":40.42485581753913,"lng":-111.8309338571722},{"vid":"2320906","name":"Hilah Swaniawski","party":"Rep","address":"3112 N 800 E, Lehi, UT 84043","precinct":"25LE05","hd":"53","v_score":"8.15240309","decile":"8","lat":40.42700198374656,"lng":-111.83582567740906},{"vid":"2322645","name":"Arman Beer","party":"","address":"731 E 2200 N, Lehi, UT 84043","precinct":"25LE05","hd":"53","v_score":"4.192796624","decile":"7","lat":40.41573834603038,"lng":-111.83796691283533},{"vid":"2326419","name":"Claudine Russel","party":"","address":"3090 N 700 E, Lehi, UT 84043","precinct":"25LE05","hd":"53","v_score":"2.315214949","decile":"5","lat":40.4266963357508,"lng":-111.83790450973675},{"vid":"2326887","name":"Hayleigh Gottlieb","party":"","address":"2884 N 600 E, Lehi, UT 84043","precinct":"25LE05","hd":"53","v_score":"0","decile":"1","lat":40.42436535456008,"lng":-111.8398595879038},{"vid":"2327208","name":"Fronnie Schoen","party":"Rep","address":"3090 N 700 E, Lehi, UT 84043","precinct":"25LE05","hd":"53","v_score":"6.954919332","decile":"8","lat":40.4266963357508,"lng":-111.83790450973675},{"vid":"2333418","name":"Mr. Kazuo Huels","party":"","address":"2752 N 750 E, Lehi, UT 84043","precinct":"25LE05","hd":"53","v_score":"3.93832808","decile":"6","lat":40.42234311275708,"lng":-111.83724983286683},{"vid":"2333992","name":"Isidro Leffler","party":"Dem","address":"2867 N 675 E, Lehi, UT 84043","precinct":"25LE05","hd":"53","v_score":"10.06441387","decile":"9","lat":40.4238991665168,"lng":-111.83909987352439},{"vid":"2337333","name":"Sherryl Veum-Gleason","party":"","address":"937 E 2330 N, Lehi, UT 84043","precinct":"25LE05","hd":"53","v_score":"7.650280567","decile":"8","lat":40.41740875596896,"lng":-111.83458244682113},{"vid":"2339178","name":"Kennedi O'Reilly","party":"Dem","address":"811 E 2850 N, Lehi, UT 84043","precinct":"25LE05","hd":"53","v_score":"0","decile":"1","lat":40.424595093305065,"lng":-111.83636639432035},{"vid":"2340638","name":"Mrs. Graciela Braun","party":"Dem","address":"1150 E 2250 N, Lehi, UT 84043","precinct":"25LE05","hd":"53","v_score":"1.121327652","decile":"3","lat":40.41557405855074,"lng":-111.83099464661663},{"vid":"2344779","name":"Dr. Tyrik Beatty PhD","party":"Dem","address":"809 E Utah Highlands Dr, Lehi, UT 84043","precinct":"25LE05","hd":"53","v_score":"1.193887297","decile":"3","lat":40.422953397430156,"lng":-111.8364418198039},{"vid":"2344842","name":"Montana Lang","party":"Rep","address":"2819 N 675 E, Lehi, UT 84043","precinct":"25LE05","hd":"53","v_score":"2.315214949","decile":"5","lat":40.423202309735615,"lng":-111.83910471075671},{"vid":"2348474","name":"Toshiko Kilback","party":"Rep","address":"740 E 3150 N, Lehi, UT 84043","precinct":"25LE05","hd":"53","v_score":"9.907118004","decile":"8","lat":40.427113286474636,"lng":-111.83732377883929},{"vid":"2350499","name":"Miss Heidy Powlowski","party":"Rep","address":"3125 N 950 E, Lehi, UT 84043","precinct":"25LE05","hd":"53","v_score":"20.36872127","decile":"10","lat":40.42718608189165,"lng":-111.83412134878581},{"vid":"2352876","name":"Ms. Alysa Will DDS","party":"Rep","address":"2306 N 940 E, Lehi, UT 84043","precinct":"25LE05","hd":"53","v_score":"2.315214949","decile":"5","lat":40.41664303035225,"lng":-111.83420156977799},{"vid":"2353584","name":"Cruz Hammes","party":"","address":"687 E 2850 N, Lehi, UT 84043","precinct":"25LE05","hd":"53","v_score":"1.121327652","decile":"3","lat":40.42390495853152,"lng":-111.83864369968308},{"vid":"2353839","name":"Nyla Effertz-Kreiger","party":"","address":"2784 N 750 E, Lehi, UT 84043","precinct":"25LE05","hd":"53","v_score":"4.499155696","decile":"7","lat":40.4228590709503,"lng":-111.83721137441876},{"vid":"2365109","name":"Ms. Dallas Hilll PhD","party":"Rep","address":"2287 N 1000 E, Lehi, UT 84043","precinct":"25LE05","hd":"53","v_score":"1.121327652","decile":"3","lat":40.416419495856154,"lng":-111.8338402801268},{"vid":"2369148","name":"Darion Wolff","party":"Dem","address":"1052 E 2250 N, Lehi, UT 84043","precinct":"25LE05","hd":"53","v_score":"8.15240309","decile":"8","lat":40.4155646933156,"lng":-111.83271797435826},{"vid":"2370486","name":"Delfina Von","party":"Rep","address":"2440 N 1100 E, Lehi, UT 84043","precinct":"25LE05","hd":"53","v_score":"9.207031979","decile":"8","lat":40.418539439867686,"lng":-111.83173068943381},{"vid":"2371010","name":"Nicolle Fahey","party":"","address":"809 E Utah Highlands Dr, Lehi, UT 84043","precinct":"25LE05","hd":"53","v_score":"1.121327652","decile":"3","lat":40.422953397430156,"lng":-111.8364418198039},{"vid":"2371066","name":"Danyelle Lynch","party":"Dem","address":"910 E 2180 N, Lehi, UT 84043","precinct":"25LE05","hd":"53","v_score":"3.93832808","decile":"6","lat":40.414684152756195,"lng":-111.8347342890814},{"vid":"2372239","name":"Glen Nolan","party":"","address":"2683 N 750 E, Lehi, UT 84043","precinct":"25LE05","hd":"53","v_score":"6.481563075","decile":"7","lat":40.421488499289744,"lng":-111.83693342465635},{"vid":"2379012","name":"Thos King","party":"Dem","address":"2781 N 900 E, Lehi, UT 84043","precinct":"25LE05","hd":"53","v_score":"1.121327652","decile":"3","lat":40.42296782236995,"lng":-111.83483036681326},{"vid":"2386576","name":"Jannie Moen PhD","party":"Rep","address":"740 E 3150 N, Lehi, UT 84043","precinct":"25LE05","hd":"53","v_score":"11.02844566","decile":"9","lat":40.427113286474636,"lng":-111.83732377883929},{"vid":"2387918","name":"Gearld Goodwin-Gaylord","party":"Dem","address":"1121 E 2350 N, Lehi, UT 84043","precinct":"25LE05","hd":"53","v_score":"1.121327652","decile":"3","lat":40.41735883283625,"lng":-111.83180014356127},{"vid":"2388931","name":"Jerrel Rutherford-Breitenberg","party":"Dem","address":"2312 N 850 E, Lehi, UT 84043","precinct":"25LE05","hd":"53","v_score":"9.405332525","decile":"8","lat":40.416630384872754,"lng":-111.83524093912283},{"vid":"2390181","name":"Jagger Abbott","party":"Dem","address":"2884 N 600 E, Lehi, UT 84043","precinct":"25LE05","hd":"53","v_score":"3.93832808","decile":"6","lat":40.42436535456008,"lng":-111.8398595879038},{"vid":"2394798","name":"Corda Renner-Mills","party":"","address":"740 E Utah Highlands Dr, Lehi, UT 84043","precinct":"25LE05","hd":"53","v_score":"1.121327652","decile":"3","lat":40.42166679079602,"lng":-111.83743506242313},{"vid":"2396098","name":"Niles Hayes","party":"Dem","address":"2316 N 940 E, Lehi, UT 84043","precinct":"25LE05","hd":"53","v_score":"6.954919332","decile":"8","lat":40.416868714108276,"lng":-111.83420389282128},{"vid":"2403925","name":"Crista Becker","party":"","address":"2195 N 1200 E, Lehi, UT 84043","precinct":"25LE05","hd":"53","v_score":"1.121327652","decile":"3","lat":40.41473997958755,"lng":-111.83105785237946},{"vid":"2412823","name":"Bell Bayer PhD","party":"Rep","address":"896 E 2850 N, Lehi, UT 84043","precinct":"25LE05","hd":"53","v_score":"1.121327652","decile":"3","lat":40.423981305359426,"lng":-111.83484289724146},{"vid":"2419330","name":"Gorge Koch","party":"Dem","address":"870 E Utah Highlands Dr, Lehi, UT 84043","precinct":"25LE05","hd":"53","v_score":"2.744440783","decile":"5","lat":40.42283575577604,"lng":-111.83541491996952},{"vid":"2419748","name":"Emiliano Kutch","party":"","address":"2287 N 1000 E, Lehi, UT 84043","precinct":"25LE05","hd":"53","v_score":"2.315214949","decile":"5","lat":40.416419495856154,"lng":-111.8338402801268},{"vid":"2421769","name":"Arjun Sipes III","party":"Dem","address":"893 E 2900 N, Lehi, UT 84043","precinct":"25LE05","hd":"53","v_score":"2.315214949","decile":"5","lat":40.425614768829774,"lng":-111.83498063227081},{"vid":"2424192","name":"Lissa Simonis","party":"Dem","address":"2162 N 825 E, Lehi, UT 84043","precinct":"25LE05","hd":"53","v_score":"5.191257514","decile":"7","lat":40.41456255437211,"lng":-111.83602608658227},{"vid":"2425655","name":"Trinidad Schuster","party":"Rep","address":"2440 N 1100 E, Lehi, UT 84043","precinct":"25LE05","hd":"53","v_score":"1.121327652","decile":"3","lat":40.418539439867686,"lng":-111.83173068943381},{"vid":"2428698","name":"Britta Jones DDS","party":"Rep","address":"2338 N 1000 E, Lehi, UT 84043","precinct":"25LE05","hd":"53","v_score":"0","decile":"1","lat":40.417489258781885,"lng":-111.83282046432512},{"vid":"2430592","name":"Juanita Heller","party":"","address":"3130 N 700 E, Lehi, UT 84043","precinct":"25LE05","hd":"53","v_score":"1.121327652","decile":"3","lat":40.427318969773424,"lng":-111.83788145340982},{"vid":"2435560","name":"Miss Tilla Jaskolski MD","party":"Dem","address":"858 E 2900 N, Lehi, UT 84043","precinct":"25LE05","hd":"53","v_score":"1.121327652","decile":"3","lat":40.42502066019955,"lng":-111.83562687022507},{"vid":"2439770","name":"Mr. Hansford O'Connell DVM","party":"","address":"3072 N 800 E, Lehi, UT 84043","precinct":"25LE05","hd":"53","v_score":"3.93832808","decile":"6","lat":40.42639038005507,"lng":-111.83599218793202},{"vid":"2443969","name":"Mrs. Lonna Reichel","party":"","address":"2959 N 1050 E, Lehi, UT 84043","precinct":"25LE05","hd":"53","v_score":"1.121327652","decile":"3","lat":40.42512862438838,"lng":-111.83287222830506},{"vid":"2444294","name":"Nilda Bailey","party":"Dem","address":"2812 N 600 E, Lehi, UT 84043","precinct":"25LE05","hd":"53","v_score":"3.93832808","decile":"6","lat":40.42323347104118,"lng":-111.83981404658277},{"vid":"2444371","name":"Merle Weimann","party":"","address":"1170 E 3200 N, Lehi, UT 84043","precinct":"25LE05","hd":"53","v_score":"1.121327652","decile":"3","lat":40.4278447122123,"lng":-111.83082242038958},{"vid":"2445885","name":"Randle Conroy","party":"Dem","address":"930 E 2900 N, Lehi, UT 84043","precinct":"25LE05","hd":"53","v_score":"2.315214949","decile":"5","lat":40.42502366215186,"lng":-111.83454966227933},{"vid":"2456545","name":"Mr. Tremaine Langworth DDS","party":"","address":"954 E Oak Creek Dr, Lehi, UT 84043","precinct":"25LE05","hd":"53","v_score":"20.00910204","decile":"10","lat":40.417819786256686,"lng":-111.83392566038367},{"vid":"2463252","name":"Masako Will-Schmidt","party":"Rep","address":"854 E 3050 N, Lehi, UT 84043","precinct":"25LE05","hd":"53","v_score":"21.02975722","decile":"10","lat":40.42604117869821,"lng":-111.83533296555409},{"vid":"2464926","name":"Eddie Rempel","party":"Dem","address":"2958 N Utah Highlands Dr, Lehi, UT 84043","precinct":"25LE05","hd":"53","v_score":"4.499155696","decile":"7","lat":40.425107484990974,"lng":-111.83355335361196},{"vid":"2466354","name":"Abdul Bogan II","party":"Dem","address":"2752 N 750 E, Lehi, UT 84043","precinct":"25LE05","hd":"53","v_score":"1.193887297","decile":"3","lat":40.42234311275708,"lng":-111.83724983286683},{"vid":"2468708","name":"Carson Jacobs","party":"Dem","address":"2287 N 1200 E, Lehi, UT 84043","precinct":"25LE05","hd":"53","v_score":"0","decile":"1","lat":40.41636013338222,"lng":-111.83067897278676},{"vid":"2472473","name":"Abbey Jaskolski DVM","party":"","address":"947 E 2900 N, Lehi, UT 84043","precinct":"25LE05","hd":"53","v_score":"1.193887297","decile":"3","lat":40.425545315222735,"lng":-111.83395591911575},{"vid":"2478131","name":"Magdalene Jast","party":"","address":"2837 N 750 E, Lehi, UT 84043","precinct":"25LE05","hd":"53","v_score":"0","decile":"1","lat":40.423689339248256,"lng":-111.83775760330168},{"vid":"2483148","name":"Dion Little","party":"Rep","address":"2223 N 1000 E, Lehi, UT 84043","precinct":"25LE05","hd":"53","v_score":"1.193887297","decile":"3","lat":40.41507168999559,"lng":-111.83368585291477},{"vid":"2490512","name":"Torrance Morissette","party":"","address":"2902 N 675 E, Lehi, UT 84043","precinct":"25LE05","hd":"53","v_score":"0","decile":"1","lat":40.42459664951398,"lng":-111.83872246338962},{"vid":"2498563","name":"Fidelia Howell","party":"Rep","address":"846 E Utah Highlands Dr, Lehi, UT 84043","precinct":"25LE05","hd":"53","v_score":"0","decile":"1","lat":40.42267768542478,"lng":-111.83584116148177},{"vid":"2498579","name":"Mr. Braiden Wolf","party":"Rep","address":"802 E 3050 N, Lehi, UT 84043","precinct":"25LE05","hd":"53","v_score":"0","decile":"1","lat":40.42600111471708,"lng":-111.83615971581733},{"vid":"2504961","name":"Linn Ryan","party":"Dem","address":"2316 N 940 E, Lehi, UT 84043","precinct":"25LE05","hd":"53","v_score":"1.193887297","decile":"3","lat":40.416868714108276,"lng":-111.83420389282128},{"vid":"2505374","name":"Keion Schinner","party":"Dem","address":"1175 E Airport Dr, Lehi, UT 84043","precinct":"25LE05","hd":"53","v_score":"8.802537529","decile":"8","lat":40.41427294770726,"lng":-111.83055308794907},{"vid":"2505692","name":"Onnie Larson","party":"","address":"3071 N 950 E, Lehi, UT 84043","precinct":"25LE05","hd":"53","v_score":"11.99595736","decile":"9","lat":40.426571292216856,"lng":-111.8342174625923},{"vid":"2507298","name":"Jaimee Mohr PhD","party":"Dem","address":"2257 N 1120 E, Lehi, UT 84043","precinct":"25LE05","hd":"53","v_score":"0","decile":"1","lat":40.415898542647,"lng":-111.83159460534247},{"vid":"2508346","name":"Hortencia Bahringer MD","party":"","address":"3001 N 950 E, Lehi, UT 84043","precinct":"25LE05","hd":"53","v_score":"0","decile":"1","lat":40.425883104694506,"lng":-111.83405685181195},{"vid":"2510220","name":"Oley Lubowitz","party":"","address":"930 E 2900 N, Lehi, UT 84043","precinct":"25LE05","hd":"53","v_score":"1.193887297","decile":"4","lat":40.42502366215186,"lng":-111.83454966227933},{"vid":"2515255","name":"Elgin Cormier","party":"Rep","address":"2867 N 675 E, Lehi, UT 84043","precinct":"25LE05","hd":"53","v_score":"0","decile":"1","lat":40.4238991665168,"lng":-111.83909987352439},{"vid":"2515582","name":"Brooke Kling","party":"","address":"2819 N 1050 E, Lehi, UT 84043","precinct":"25LE05","hd":"53","v_score":"0","decile":"1","lat":40.42342986767532,"lng":-111.83297610091327},{"vid":"2518402","name":"Windell Sipes","party":"Rep","address":"809 E Utah Highlands Dr, Lehi, UT 84043","precinct":"25LE05","hd":"53","v_score":"0","decile":"1","lat":40.422953397430156,"lng":-111.8364418198039},{"vid":"2528256","name":"Hervey Mante","party":"Dem","address":"878 E 2900 N, Lehi, UT 84043","precinct":"25LE05","hd":"53","v_score":"0","decile":"1","lat":40.42502166189888,"lng":-111.83526779168713},{"vid":"2535557","name":"Lilie Spencer-Cormier","party":"","address":"896 E 2850 N, Lehi, UT 84043","precinct":"25LE05","hd":"53","v_score":"0","decile":"1","lat":40.423981305359426,"lng":-111.83484289724146},{"vid":"2541543","name":"Beyonce Bogan","party":"","address":"2821 N Utah Highlands Dr, Lehi, UT 84043","precinct":"25LE05","hd":"53","v_score":"1.193887297","decile":"4","lat":40.42353288213145,"lng":-111.8344034972968},{"vid":"2547431","name":"Leitha Hilpert-VonRueden","party":"Dem","address":"2320 N 1060 E, Lehi, UT 84043","precinct":"25LE05","hd":"53","v_score":"2.817000428","decile":"6","lat":40.416968003544916,"lng":-111.83248766025226},{"vid":"2553348","name":"Auston Mosciski","party":"Dem","address":"2883 N 675 E, Lehi, UT 84043","precinct":"25LE05","hd":"53","v_score":"0","decile":"1","lat":40.42423533132294,"lng":-111.8392606136872},{"vid":"2554747","name":"Mariela Nicolas","party":"","address":"838 E 2850 N, Lehi, UT 84043","precinct":"25LE05","hd":"53","v_score":"2.817000428","decile":"6","lat":40.42405430189207,"lng":-111.83603306078834},{"vid":"2559898","name":"Dr. Littie Goldner MD","party":"Dem","address":"2227 N 825 E, Lehi, UT 84043","precinct":"25LE05","hd":"53","v_score":"1.193887297","decile":"4","lat":40.415808324273144,"lng":-111.8359496367188},{"vid":"2575304","name":"Daxton Gusikowski","party":"Rep","address":"2339 N 1000 E, Lehi, UT 84043","precinct":"25LE05","hd":"53","v_score":"1.193887297","decile":"4","lat":40.418357794980935,"lng":-111.83305635926189},{"vid":"2590176","name":"Harrell Halvorson-Bechtelar","party":"Rep","address":"857 E 3050 N, Lehi, UT 84043","precinct":"25LE05","hd":"53","v_score":"1.193887297","decile":"4","lat":40.42639875499871,"lng":-111.83518718287985},{"vid":"2609694","name":"Neely Corkery","party":"Dem","address":"2819 N 675 E, Lehi, UT 84043","precinct":"25LE05","hd":"53","v_score":"1.193887297","decile":"4","lat":40.423202309735615,"lng":-111.83910471075671},{"vid":"2610516","name":"Finnegan Sawayn DVM","party":"","address":"2287 N 1200 E, Lehi, UT 84043","precinct":"25LE05","hd":"53","v_score":"1.623113131","decile":"5","lat":40.41636013338222,"lng":-111.83067897278676},{"vid":"2612537","name":"Francis Koelpin","party":"","address":"3043 N 950 E, Lehi, UT 84043","precinct":"25LE05","hd":"53","v_score":"0","decile":"1","lat":40.42616810067452,"lng":-111.83408879180371},{"vid":"2612716","name":"Dr. Jammie Kuhlman","party":"","address":"809 E Utah Highlands Dr, Lehi, UT 84043","precinct":"25LE05","hd":"53","v_score":"1.193887297","decile":"4","lat":40.422953397430156,"lng":-111.8364418198039},{"vid":"2612825","name":"Maxx Zulauf","party":"Dem","address":"959 E 2330 N, Lehi, UT 84043","precinct":"25LE05","hd":"53","v_score":"1.193887297","decile":"4","lat":40.417516267598316,"lng":-111.83403812795956},{"vid":"2613498","name":"Ms. Kelis Parker MD","party":"Rep","address":"3090 N 700 E, Lehi, UT 84043","precinct":"25LE05","hd":"53","v_score":"0","decile":"1","lat":40.4266963357508,"lng":-111.83790450973675},{"vid":"2622865","name":"Merton Reilly","party":"Rep","address":"2683 N 750 E, Lehi, UT 84043","precinct":"25LE05","hd":"53","v_score":"2.817000428","decile":"6","lat":40.421488499289744,"lng":-111.83693342465635},{"vid":"2624977","name":"Dr. Hillard Willms","party":"Dem","address":"2272 N 1060 E, Lehi, UT 84043","precinct":"25LE05","hd":"53","v_score":"1.193887297","decile":"4","lat":40.416204878196446,"lng":-111.83221939155897},{"vid":"2630886","name":"Miranda Becker","party":"Dem","address":"2343 N 1000 E, Lehi, UT 84043","precinct":"25LE05","hd":"53","v_score":"6.528952915","decile":"7","lat":40.417941334893484,"lng":-111.83265976405761},{"vid":"2648737","name":"Dr. Missouri Mayert","party":"Rep","address":"858 E 2900 N, Lehi, UT 84043","precinct":"25LE05","hd":"53","v_score":"0","decile":"1","lat":40.42502066019955,"lng":-111.83562687022507},{"vid":"2656006","name":"Dr. Palmer Bergnaum II","party":"","address":"639 E Utah Highlands Dr, Lehi, UT 84043","precinct":"25LE05","hd":"53","v_score":"0","decile":"1","lat":40.42100848186347,"lng":-111.8393889202376},{"vid":"2656635","name":"Rosina Casper","party":"Dem","address":"699 E 2850 N, Lehi, UT 84043","precinct":"25LE05","hd":"53","v_score":"8.802537529","decile":"8","lat":40.42411810550605,"lng":-111.83811253786081},{"vid":"2660420","name":"Mr. Fenton Bergstrom DVM","party":"","address":"1121 E Utah Highlands Dr, Lehi, UT 84043","precinct":"25LE05","hd":"53","v_score":"0","decile":"1","lat":40.42623466742497,"lng":-111.83168050704224},{"vid":"2667242","name":"Dr. Mortimer Powlowski I","party":"","address":"910 E 2180 N, Lehi, UT 84043","precinct":"25LE05","hd":"53","v_score":"12.51449002","decile":"9","lat":40.414684152756195,"lng":-111.8347342890814},{"vid":"2670869","name":"Gussie Toy","party":"Rep","address":"811 E 2850 N, Lehi, UT 84043","precinct":"25LE05","hd":"53","v_score":"0","decile":"2","lat":40.424595093305065,"lng":-111.83636639432035},{"vid":"2671429","name":"Patrica Kuphal","party":"Dem","address":"893 E Utah Highlands Dr, Lehi, UT 84043","precinct":"25LE05","hd":"53","v_score":"0","decile":"2","lat":40.423384814855666,"lng":-111.83498989998404},{"vid":"2672362","name":"Mr. Ancil D'Amore","party":"","address":"1043 E 2180 N, Lehi, UT 84043","precinct":"25LE05","hd":"53","v_score":"5.407962308","decile":"7","lat":40.41521008024348,"lng":-111.83277950632015},{"vid":"2675374","name":"Miss Ciji Dibbert","party":"","address":"2255 N 1000 E, Lehi, UT 84043","precinct":"25LE05","hd":"53","v_score":"12.51449002","decile":"9","lat":40.4158799771109,"lng":-111.83371636342787},{"vid":"2677340","name":"Mrs. Norene Will PhD","party":"Rep","address":"809 E Utah Highlands Dr, Lehi, UT 84043","precinct":"25LE05","hd":"53","v_score":"1.193887297","decile":"4","lat":40.422953397430156,"lng":-111.8364418198039},{"vid":"2678773","name":"Amie Marvin","party":"Rep","address":"2907 N 1050 E, Lehi, UT 84043","precinct":"25LE05","hd":"53","v_score":"4.069929862","decile":"6","lat":40.42444785273936,"lng":-111.8327879963775},{"vid":"2680896","name":"Meryl Dibbert MD","party":"Dem","address":"896 E 2850 N, Lehi, UT 84043","precinct":"25LE05","hd":"53","v_score":"0","decile":"2","lat":40.423981305359426,"lng":-111.83484289724146},{"vid":"2682258","name":"Anwar Farrell","party":"","address":"3113 N 800 E, Lehi, UT 84043","precinct":"25LE05","hd":"53","v_score":"1.193887297","decile":"4","lat":40.4269696048882,"lng":-111.8363463420237},{"vid":"2686268","name":"Dusty Bailey","party":"Rep","address":"807 E 2900 N, Lehi, UT 84043","precinct":"25LE05","hd":"53","v_score":"0","decile":"2","lat":40.425503770224324,"lng":-111.83640296534622},{"vid":"2688911","name":"Brandy Towne-Leannon","party":"Dem","address":"2954 N 1150 E, Lehi, UT 84043","precinct":"25LE05","hd":"53","v_score":"7.090117576","decile":"8","lat":40.42540406240841,"lng":-111.83088430289713},{"vid":"2690676","name":"Tillman Abshire","party":"Rep","address":"1143 E 2350 N, Lehi, UT 84043","precinct":"25LE05","hd":"53","v_score":"0","decile":"2","lat":40.41733300362443,"lng":-111.83140367447878},{"vid":"2692781","name":"Denver Pagac","party":"","address":"1121 E 2350 N, Lehi, UT 84043","precinct":"25LE05","hd":"53","v_score":"0","decile":"2","lat":40.41735883283625,"lng":-111.83180014356127},{"vid":"2692987","name":"Clora Bruen DDS","party":"","address":"2958 N Utah Highlands Dr, Lehi, UT 84043","precinct":"25LE05","hd":"53","v_score":"4.214075011","decile":"7","lat":40.425107484990974,"lng":-111.83355335361196},{"vid":"2693221","name":"Loree Hammes","party":"","address":"2222 N 825 E, Lehi, UT 84043","precinct":"25LE05","hd":"53","v_score":"0","decile":"2","lat":40.415385236196435,"lng":-111.83563487768792},{"vid":"2694723","name":"Shelby Fadel-Kessler","party":"","address":"2818 N Utah Highlands Dr, Lehi, UT 84043","precinct":"25LE05","hd":"53","v_score":"1.193887297","decile":"4","lat":40.423285640977305,"lng":-111.8340176710763},{"vid":"2703313","name":"Arianna Muller","party":"Rep","address":"2796 N 900 E, Lehi, UT 84043","precinct":"25LE05","hd":"53","v_score":"0","decile":"2","lat":40.423027198764785,"lng":-111.83430412953527},{"vid":"2711587","name":"Dr. Pallie Mosciski","party":"Rep","address":"2323 N 1000 E, Lehi, UT 84043","precinct":"25LE05","hd":"53","v_score":"0","decile":"2","lat":40.41710975702883,"lng":-111.83384726884002},{"vid":"2725653","name":"Jelani Greenholt","party":"","address":"2291 N 1120 E, Lehi, UT 84043","precinct":"25LE05","hd":"53","v_score":"1.193887297","decile":"4","lat":40.41644893321671,"lng":-111.83178751417923},{"vid":"2728388","name":"Kellan Raynor","party":"","address":"2302 N 1000 E, Lehi, UT 84043","precinct":"25LE05","hd":"53","v_score":"1.193887297","decile":"4","lat":40.41661525749512,"lng":-111.833233046034},{"vid":"2735926","name":"Etter Sipes","party":"Dem","address":"2306 N 940 E, Lehi, UT 84043","precinct":"25LE05","hd":"53","v_score":"0","decile":"2","lat":40.41664303035225,"lng":-111.83420156977799},{"vid":"2736023","name":"Mylee Gaylord","party":"Dem","address":"1150 E 2250 N, Lehi, UT 84043","precinct":"25LE05","hd":"53","v_score":"0","decile":"2","lat":40.41557405855074,"lng":-111.83099464661663},{"vid":"2741482","name":"Jan Gibson","party":"","address":"1039 E Utah Highlands Dr, Lehi, UT 84043","precinct":"25LE05","hd":"53","v_score":"0","decile":"2","lat":40.42616684754381,"lng":-111.83279594345119},{"vid":"2752417","name":"Meggan Murazik","party":"","address":"1092 E 2180 N, Lehi, UT 84043","precinct":"25LE05","hd":"53","v_score":"1.193887297","decile":"4","lat":40.41475530845236,"lng":-111.83206815330124},{"vid":"2753181","name":"Dr. Eddie Walker II","party":"","address":"1163 E 2450 N, Lehi, UT 84043","precinct":"25LE05","hd":"53","v_score":"8.284004873","decile":"8","lat":40.41843765054214,"lng":-111.83095976428555},{"vid":"2758876","name":"Dr. Keon Hegmann V","party":"Rep","address":"2767 N 675 E, Lehi, UT 84043","precinct":"25LE05","hd":"53","v_score":"0","decile":"2","lat":40.42262994744629,"lng":-111.83900074300624},{"vid":"2759053","name":"Josefa Morissette-Erdman","party":"Rep","address":"2740 N 675 E, Lehi, UT 84043","precinct":"25LE05","hd":"53","v_score":"0","decile":"2","lat":40.42233170030637,"lng":-111.83838074573974},{"vid":"2759911","name":"Dicie Shields","party":"Dem","address":"2361 N 1100 E, Lehi, UT 84043","precinct":"25LE05","hd":"53","v_score":"8.284004873","decile":"8","lat":40.41763768995139,"lng":-111.83208469650017},{"vid":"2774777","name":"Marc Dibbert","party":"","address":"3177 N 950 E, Lehi, UT 84043","precinct":"25LE05","hd":"53","v_score":"8.284004873","decile":"8","lat":40.427862436557156,"lng":-111.83405281555443},{"vid":"2780634","name":"Deonta Erdman I","party":"","address":"3078 N 880 E, Lehi, UT 84043","precinct":"25LE05","hd":"53","v_score":"0","decile":"2","lat":40.42650892050826,"lng":-111.8347607054731},{"vid":"2784996","name":"Miss Laisha Schuppe MD","party":"","address":"2287 N 1200 E, Lehi, UT 84043","precinct":"25LE05","hd":"53","v_score":"1.193887297","decile":"4","lat":40.41636013338222,"lng":-111.83067897278676},{"vid":"2785948","name":"Winifred Ferry","party":"Dem","address":"1119 E Airport Dr, Lehi, UT 84043","precinct":"25LE05","hd":"53","v_score":"0","decile":"2","lat":40.41435902904118,"lng":-111.83127914426488},{"vid":"2787192","name":"Miss Rozanne Rolfson","party":"Dem","address":"2671 N 750 E, Lehi, UT 84043","precinct":"25LE05","hd":"53","v_score":"1.193887297","decile":"4","lat":40.42132522091128,"lng":-111.83617177302983},{"vid":"2790580","name":"Oneida Murphy-Terry","party":"Rep","address":"898 E 2900 N, Lehi, UT 84043","precinct":"25LE05","hd":"53","v_score":"0","decile":"2","lat":40.42502286300803,"lng":-111.83483692302559},{"vid":"2794177","name":"Haruko D'Amore","party":"","address":"2953 N 700 E, Lehi, UT 84043","precinct":"25LE05","hd":"53","v_score":"0","decile":"2","lat":40.42493072963696,"lng":-111.83814354876887},{"vid":"2794341","name":"Verna Gibson","party":"Rep","address":"777 E 2900 N, Lehi, UT 84043","precinct":"25LE05","hd":"53","v_score":"0","decile":"2","lat":40.4255129023058,"lng":-111.83677969937165},{"vid":"2795846","name":"Damarion Marks I","party":"Rep","address":"2221 N 1200 E, Lehi, UT 84043","precinct":"25LE05","hd":"53","v_score":"1.193887297","decile":"4","lat":40.415194510053276,"lng":-111.83087028145319},{"vid":"2800205","name":"Berneice Stroman DDS","party":"Dem","address":"2818 N Utah Highlands Dr, Lehi, UT 84043","precinct":"25LE05","hd":"53","v_score":"0","decile":"2","lat":40.423285640977305,"lng":-111.8340176710763},{"vid":"2805389","name":"Dallin Nader","party":"Rep","address":"2662 N 750 E, Lehi, UT 84043","precinct":"25LE05","hd":"53","v_score":"1.193887297","decile":"4","lat":40.42182101991394,"lng":-111.83565604052065},{"vid":"2810953","name":"Letta Wisozk","party":"Dem","address":"2343 N 1000 E, Lehi, UT 84043","precinct":"25LE05","hd":"53","v_score":"5.407962308","decile":"7","lat":40.417941334893484,"lng":-111.83265976405761},{"vid":"2810981","name":"Dr. Noel Cassin III","party":"Rep","address":"2752 N 600 E, Lehi, UT 84043","precinct":"25LE05","hd":"53","v_score":"0","decile":"2","lat":40.4226206593766,"lng":-111.83977204531267},{"vid":"2811456","name":"Miss Leonia Toy","party":"Dem","address":"2631 N 675 E, Lehi, UT 84043","precinct":"25LE05","hd":"53","v_score":"0","decile":"2","lat":40.42112144920061,"lng":-111.8388505991436},{"vid":"2838140","name":"Elfreda Zieme DVM","party":"Dem","address":"2302 N 1000 E, Lehi, UT 84043","precinct":"25LE05","hd":"53","v_score":"1.193887297","decile":"4","lat":40.41661525749512,"lng":-111.833233046034},{"vid":"2850010","name":"Pennie Robel-Altenwerth","party":"Rep","address":"2339 N 1000 E, Lehi, UT 84043","precinct":"25LE05","hd":"53","v_score":"1.193887297","decile":"4","lat":40.418357794980935,"lng":-111.83305635926189},{"vid":"2850845","name":"Sadye Mayer","party":"Rep","address":"863 E 2850 N, Lehi, UT 84043","precinct":"25LE05","hd":"53","v_score":"0","decile":"2","lat":40.42460923267608,"lng":-111.83562478002507},{"vid":"2851796","name":"Banks Smith","party":"Dem","address":"694 E 2900 N, Lehi, UT 84043","precinct":"25LE05","hd":"53","v_score":"1.193887297","decile":"4","lat":40.4244860947455,"lng":-111.83815347817252},{"vid":"2852822","name":"Adrien Cartwright","party":"","address":"2289 N 1060 E, Lehi, UT 84043","precinct":"25LE05","hd":"53","v_score":"8.284004873","decile":"8","lat":40.41644800555094,"lng":-111.8328262238952},{"vid":"2861764","name":"Jonell Witting","party":"Dem","address":"2299 N 1200 E, Lehi, UT 84043","precinct":"25LE05","hd":"53","v_score":"0","decile":"2","lat":40.416617873423405,"lng":-111.83074202583596},{"vid":"2871150","name":"Ms. Ruthie Mayer DVM","party":"","address":"744 E 3050 N, Lehi, UT 84043","precinct":"25LE05","hd":"53","v_score":"1.193887297","decile":"4","lat":40.425984185367255,"lng":-111.83748009932746},{"vid":"2871154","name":"Sadye Koss","party":"Rep","address":"2778 N 600 E, Lehi, UT 84043","precinct":"25LE05","hd":"53","v_score":"1.193887297","decile":"4","lat":40.42296178608242,"lng":-111.83975223353802},{"vid":"2880357","name":"Gay Kutch","party":"","address":"2974 N 1150 E, Lehi, UT 84043","precinct":"25LE05","hd":"53","v_score":"1.193887297","decile":"4","lat":40.425758010432624,"lng":-111.83096604303557},{"vid":"2885132","name":"Elma Friesen","party":"Rep","address":"2635 N 600 E, Lehi, UT 84043","precinct":"25LE05","hd":"53","v_score":"1.193887297","decile":"4","lat":40.42099640146613,"lng":-111.84035111551728},{"vid":"2885411","name":"Dillon Lindgren IV","party":"Rep","address":"2907 N 1050 E, Lehi, UT 84043","precinct":"25LE05","hd":"53","v_score":"4.069929862","decile":"7","lat":40.42444785273936,"lng":-111.8327879963775},{"vid":"2887301","name":"Daja Hagenes","party":"Dem","address":"2339 N 1000 E, Lehi, UT 84043","precinct":"25LE05","hd":"53","v_score":"1.193887297","decile":"4","lat":40.418357794980935,"lng":-111.83305635926189},{"vid":"2917829","name":"Miss Leafy Collins MD","party":"Rep","address":"2949 N 675 E, Lehi, UT 84043","precinct":"25LE05","hd":"53","v_score":"4.214075011","decile":"7","lat":40.42483600659909,"lng":-111.83930595337648},{"vid":"2942680","name":"Agustus Schoen III","party":"","address":"759 E 3150 N, Lehi, UT 84043","precinct":"25LE05","hd":"53","v_score":"0","decile":"2","lat":40.42776093815857,"lng":-111.8369589887871},{"vid":"2945527","name":"Ciarra Lueilwitz","party":"Dem","address":"2790 N 675 E, Lehi, UT 84043","precinct":"25LE05","hd":"53","v_score":"0","decile":"2","lat":40.42292937403118,"lng":-111.83838382873212},{"vid":"2957087","name":"Daulton Runolfsdottir","party":"Dem","address":"2299 N 1200 E, Lehi, UT 84043","precinct":"25LE05","hd":"53","v_score":"0","decile":"2","lat":40.416617873423405,"lng":-111.83074202583596},{"vid":"2963038","name":"Mozella Ernser","party":"Rep","address":"2944 N 600 E, Lehi, UT 84043","precinct":"25LE05","hd":"53","v_score":"0","decile":"2","lat":40.425056049282105,"lng":-111.83992203629703},{"vid":"2966395","name":"Dr. Les Fritsch","party":"Dem","address":"2361 N 1100 E, Lehi, UT 84043","precinct":"25LE05","hd":"53","v_score":"2.876042565","decile":"6","lat":40.41763768995139,"lng":-111.83208469650017},{"vid":"2978575","name":"Oddie Osinski-Torphy","party":"Rep","address":"2940 N 1050 E, Lehi, UT 84043","precinct":"25LE05","hd":"53","v_score":"0","decile":"2","lat":40.424877955492065,"lng":-111.83229266488944},{"vid":"2979592","name":"Ruby Wunsch-Okuneva","party":"","address":"2287 N 1000 E, Lehi, UT 84043","precinct":"25LE05","hd":"53","v_score":"0","decile":"2","lat":40.416419495856154,"lng":-111.8338402801268},{"vid":"2979604","name":"Gaither Carroll","party":"Dem","address":"2287 N 1000 E, Lehi, UT 84043","precinct":"25LE05","hd":"53","v_score":"0","decile":"2","lat":40.416419495856154,"lng":-111.8338402801268},{"vid":"3048679","name":"Karissa Jaskolski","party":"","address":"976 E 3100 N, Lehi, UT 84043","precinct":"25LE05","hd":"53","v_score":"0","decile":"2","lat":40.4266341373278,"lng":-111.83363789461484},{"vid":"3070757","name":"Shanelle Trantow MD","party":"","address":"2194 N 825 E, Lehi, UT 84043","precinct":"25LE05","hd":"53","v_score":"30.83432786","decile":"10","lat":40.41487716258924,"lng":-111.83602237143761},{"vid":"3075340","name":"Bryn Cruickshank MD","party":"","address":"782 E 2900 N, Lehi, UT 84043","precinct":"25LE05","hd":"53","v_score":"2.315214949","decile":"5","lat":40.424924844851994,"lng":-111.83673225594355},{"vid":"3080307","name":"Madison Dicki","party":"Rep","address":"2940 N 1050 E, Lehi, UT 84043","precinct":"25LE05","hd":"53","v_score":"3.781490609","decile":"6","lat":40.424877955492065,"lng":-111.83229266488944},{"vid":"3150623","name":"Emmaline Tremblay","party":"Dem","address":"3149 N 950 E, Lehi, UT 84043","precinct":"25LE05","hd":"53","v_score":"15.4533012","decile":"9","lat":40.427492889748706,"lng":-111.83412161163284},{"vid":"3162586","name":"Rudolph Towne-Homenick","party":"Rep","address":"2706 N 600 E, Lehi, UT 84043","precinct":"25LE05","hd":"53","v_score":"0","decile":"2","lat":40.42210568432049,"lng":-111.83975646169844},{"vid":"3218097","name":"Ms. Sandie Grady","party":"Rep","address":"2227 N 825 E, Lehi, UT 84043","precinct":"25LE05","hd":"53","v_score":"5.40460374","decile":"7","lat":40.415808324273144,"lng":-111.8359496367188},{"vid":"3241489","name":"Lilyanna Wuckert","party":"","address":"1022 E 2180 N, Lehi, UT 84043","precinct":"25LE05","hd":"53","v_score":"5.40460374","decile":"7","lat":40.4147498784217,"lng":-111.83332742771998},{"vid":"3251047","name":"Ms. Melonie Shields DVM","party":"Dem","address":"878 E 2900 N, Lehi, UT 84043","precinct":"25LE05","hd":"53","v_score":"2.315214949","decile":"5","lat":40.42502166189888,"lng":-111.83526779168713},{"vid":"3277714","name":"Erna Reilly","party":"Rep","address":"2227 N 825 E, Lehi, UT 84043","precinct":"25LE05","hd":"53","v_score":"7.169296324","decile":"8","lat":40.415808324273144,"lng":-111.8359496367188},{"vid":"3317880","name":"Carleton Skiles","party":"","address":"903 E 2125 N, Lehi, UT 84043","precinct":"25LE05","hd":"53","v_score":"13.61907049","decile":"9","lat":40.41421893618339,"lng":-111.83465892961179},{"vid":"3318492","name":"Bertie Leannon","party":"Rep","address":"2404 N 600 E, Lehi, UT 84043","precinct":"25LE05","hd":"53","v_score":"15.51131257","decile":"9","lat":40.41944839740134,"lng":-111.83756909973457},{"vid":"2986972f93903a88c4310329a88ebf2a4c6856e8fe29c00e8d8bf842d52d2901","name":"Erick Klocko","party":"Dem","address":"2662 N 750 E, Lehi, UT 84043","precinct":"25LE05","hd":"53","v_score":"20.42636275","decile":"10","lat":40.42182101991394,"lng":-111.83565604052065},{"vid":"3462801","name":"Marin Barton MD","party":"Rep","address":"2884 N 600 E, Lehi, UT 84043","precinct":"25LE05","hd":"53","v_score":"2.587603312","decile":"5","lat":40.42436535456008,"lng":-111.8398595879038},{"vid":"3462807","name":"Tyrek Mayert IV","party":"","address":"2884 N 600 E, Lehi, UT 84043","precinct":"25LE05","hd":"53","v_score":"2.587603312","decile":"5","lat":40.42436535456008,"lng":-111.8398595879038},{"vid":"3464727","name":"Lizabeth Hackett","party":"Rep","address":"2361 N 1100 E, Lehi, UT 84043","precinct":"25LE05","hd":"53","v_score":"26.9144526","decile":"10","lat":40.41763768995139,"lng":-111.83208469650017},{"vid":"3469711","name":"Vaughn Maggio IV","party":"Dem","address":"2177 N 825 E, Lehi, UT 84043","precinct":"25LE05","hd":"53","v_score":"0","decile":"2","lat":40.41475291267975,"lng":-111.83647531847069},{"vid":"3470073","name":"Darvin Armstrong","party":"Rep","address":"2194 N 825 E, Lehi, UT 84043","precinct":"25LE05","hd":"53","v_score":"30.83432786","decile":"10","lat":40.41487716258924,"lng":-111.83602237143761},{"vid":"3470351","name":"Evon Walter MD","party":"Rep","address":"2907 N 1050 E, Lehi, UT 84043","precinct":"25LE05","hd":"53","v_score":"14.9041462","decile":"9","lat":40.42444785273936,"lng":-111.8327879963775},{"vid":"3473595","name":"Alek Oberbrunner","party":"Rep","address":"3130 N 700 E, Lehi, UT 84043","precinct":"25LE05","hd":"53","v_score":"4.192796624","decile":"7","lat":40.427318969773424,"lng":-111.83788145340982},{"vid":"3483950","name":"Kaylan Turner","party":"","address":"945 E Oak Creek Dr, Lehi, UT 84043","precinct":"25LE05","hd":"53","v_score":"6.814370645","decile":"8","lat":40.418735245941164,"lng":-111.83432706655343},{"vid":"3498404","name":"Sade Veum-Wolff","party":"Dem","address":"2796 N 900 E, Lehi, UT 84043","precinct":"25LE05","hd":"53","v_score":"5.40460374","decile":"7","lat":40.423027198764785,"lng":-111.83430412953527},{"vid":"3535381","name":"Immanuel Armstrong","party":"Rep","address":"2784 N 750 E, Lehi, UT 84043","precinct":"25LE05","hd":"53","v_score":"25.89095854","decile":"10","lat":40.4228590709503,"lng":-111.83721137441876},{"vid":"3535385","name":"William Jacobi-Klocko","party":"","address":"2784 N 750 E, Lehi, UT 84043","precinct":"25LE05","hd":"53","v_score":"25.89095854","decile":"10","lat":40.4228590709503,"lng":-111.83721137441876},{"vid":"3567958","name":"Oland Botsford","party":"Rep","address":"2982 N 700 E, Lehi, UT 84043","precinct":"25LE05","hd":"53","v_score":"3.93832808","decile":"6","lat":40.42563809792964,"lng":-111.83769121653464},{"vid":"3573895","name":"Gonzalo Lakin","party":"Rep","address":"1069 E 2180 N, Lehi, UT 84043","precinct":"25LE05","hd":"53","v_score":"26.33466886","decile":"10","lat":40.415212488420536,"lng":-111.83238518166337},{"vid":"4305942","name":"Ms. Sylvia Waters","party":"Rep","address":"731 E 2200 N, Lehi, UT 84043","precinct":"25LE05","hd":"53","v_score":"17.45575927","decile":"9","lat":40.41573834603038,"lng":-111.83796691283533},{"vid":"5004086","name":"Mr. Tyrus Aufderhar","party":"","address":"751 E 2200 N, Lehi, UT 84043","precinct":"25LE05","hd":"53","v_score":"22.35813603","decile":"10","lat":40.41579631600851,"lng":-111.83770318493214},{"vid":"5546569","name":"Elinore Stokes","party":"Dem","address":"798 E 2200 N, Lehi, UT 84043","precinct":"25LE05","hd":"53","v_score":"12.49472132","decile":"9","lat":40.415412570962395,"lng":-111.83674767678092},{"vid":"5860607","name":"Kathi Lynch DDS","party":"Dem","address":"3125 N 880 E, Lehi, UT 84043","precinct":"25LE05","hd":"53","v_score":"21.41280004","decile":"10","lat":40.42717522238235,"lng":-111.83530231588985},{"vid":"c776528d25c589c9051b8bbd174bfb53c8857e3a358c2cd24a30064a10fb1a03","name":"Mr. Delphin Kreiger IV","party":"Dem","address":"2819 N 1050 E, Lehi, UT 84043","precinct":"25LE05","hd":"53","v_score":"0","decile":"3","lat":40.42342986767532,"lng":-111.83297610091327},{"vid":"5947714","name":"Audry Herzog","party":"Rep","address":"3103 N 950 E, Lehi, UT 84043","precinct":"25LE05","hd":"53","v_score":"8.280646305","decile":"8","lat":40.426878643649765,"lng":-111.83421824071301},{"vid":"b724273d8bd58dfaa9d1ff096a49f39acbde6481df24b559a9f78942a4365f88","name":"Cheyenne Flatley","party":"Rep","address":"777 E 2900 N, Apt 2, Lehi, UT 84043","precinct":"25LE05","hd":"53","v_score":"16.57479511","decile":"9","lat":40.4255129023058,"lng":-111.83677969937165},{"vid":"6211201","name":"Mrs. Marion Schimmel DVM","party":"Rep","address":"2790 N 1050 E, Lehi, UT 84043","precinct":"25LE05","hd":"53","v_score":"16.93288741","decile":"9","lat":40.42284856010842,"lng":-111.8328203836481},{"vid":"da904606dce2813cd42f17aa760b1f7c30b147d5eef46e712487486204df4b40","name":"Prosper Blanda-Glover","party":"Rep","address":"2781 N 900 E, Lehi, UT 84043","precinct":"25LE05","hd":"53","v_score":"6.814370645","decile":"8","lat":40.42296782236995,"lng":-111.83483036681326},{"vid":"6231036","name":"Dr. Jayden Goldner","party":"Rep","address":"1129 E 2450 N, Lehi, UT 84043","precinct":"25LE05","hd":"53","v_score":"2.315214949","decile":"5","lat":40.418912435970974,"lng":-111.83168304586088},{"vid":"6236589","name":"Mr. Harlon Anderson Sr.","party":"Rep","address":"2292 N 1120 E, Lehi, UT 84043","precinct":"25LE05","hd":"53","v_score":"38.16751235","decile":"10","lat":40.41644486469645,"lng":-111.83108672034},{"vid":"33a39c63e45409214668182f252bc730a9f2ee5ffb958b780d28c4a891c453aa","name":"Terell Corwin-Hickle","party":"","address":"857 E 3050 N, Lehi, UT 84043","precinct":"25LE05","hd":"53","v_score":"8.421194992","decile":"8","lat":40.42639875499871,"lng":-111.83518718287985},{"vid":"6238198","name":"Brenda O'Keefe DVM","party":"Rep","address":"2961 N 1050 E, Lehi, UT 84043","precinct":"25LE05","hd":"53","v_score":"26.89878031","decile":"10","lat":40.425225862723984,"lng":-111.83263007957325},{"vid":"6238995","name":"Dr. Renita Ortiz","party":"Dem","address":"2961 N 1050 E, Lehi, UT 84043","precinct":"25LE05","hd":"53","v_score":"18.77764457","decile":"10","lat":40.425225862723984,"lng":-111.83263007957325},{"vid":"6245607","name":"Dr. Metro Beahan DVM","party":"Rep","address":"947 E 2900 N, Lehi, UT 84043","precinct":"25LE05","hd":"53","v_score":"5.40460374","decile":"7","lat":40.425545315222735,"lng":-111.83395591911575},{"vid":"6247536","name":"Drury Cummerata","party":"Rep","address":"2662 N 750 E, Lehi, UT 84043","precinct":"25LE05","hd":"53","v_score":"19.22887899","decile":"10","lat":40.42182101991394,"lng":-111.83565604052065},{"vid":"6267671","name":"Dessie Harber","party":"Rep","address":"2287 N 1000 E, Lehi, UT 84043","precinct":"25LE05","hd":"53","v_score":"8.347511332","decile":"8","lat":40.416419495856154,"lng":-111.8338402801268},{"vid":"6267940","name":"Dustyn Wisoky-Runolfsson","party":"","address":"2672 N 750 E, Lehi, UT 84043","precinct":"25LE05","hd":"53","v_score":"5.40460374","decile":"7","lat":40.42177767719921,"lng":-111.8360595482641},{"vid":"6275119","name":"Mallory Lehner","party":"Dem","address":"2828 N Utah Highlands Dr, Lehi, UT 84043","precinct":"25LE05","hd":"53","v_score":"5.40460374","decile":"7","lat":40.42350949502859,"lng":-111.8336610005537},{"vid":"6a84e4bd30ab5b6471080179f792d3ee48fd9b3df41ece78575212432ccc8c33","name":"Pat Schoen MD","party":"Dem","address":"2280 N 850 E, Lehi, UT 84043","precinct":"25LE05","hd":"53","v_score":"36.88376198","decile":"10","lat":40.41619233791934,"lng":-111.83519079194444},{"vid":"6279122","name":"Loring Zulauf-Hermiston","party":"Dem","address":"1151 E Utah Highlands Dr, Lehi, UT 84043","precinct":"25LE05","hd":"53","v_score":"7.549608095","decile":"8","lat":40.426234961200414,"lng":-111.8312957787283},{"vid":"6286558","name":"Dixie Harber","party":"","address":"2867 N 675 E, Lehi, UT 84043","precinct":"25LE05","hd":"53","v_score":"32.9448582","decile":"10","lat":40.4238991665168,"lng":-111.83909987352439},{"vid":"4c14019ba6abe68d7a8f5e0596ec1ff3aa810ff2a6d2c29436c272ae2eb2c82c","name":"Laverne Koch","party":"Dem","address":"811 E 2850 N, Lehi, UT 84043","precinct":"25LE05","hd":"53","v_score":"3.93832808","decile":"6","lat":40.424595093305065,"lng":-111.83636639432035},{"vid":"6300765","name":"Reinaldo Kihn","party":"Dem","address":"2940 N 1050 E, Lehi, UT 84043","precinct":"25LE05","hd":"53","v_score":"2.660162957","decile":"5","lat":40.424877955492065,"lng":-111.83229266488944},{"vid":"6304134","name":"Zoey Greenholt","party":"Rep","address":"2360 N 600 E, Lehi, UT 84043","precinct":"25LE05","hd":"53","v_score":"4.283276088","decile":"7","lat":40.418099722459935,"lng":-111.83783706323125},{"vid":"6306105","name":"Mr. Littleton Jacobson Jr.","party":"Dem","address":"963 E 2180 N, Lehi, UT 84043","precinct":"25LE05","hd":"53","v_score":"22.18184494","decile":"10","lat":40.415133583473946,"lng":-111.83420669480057},{"vid":"6307559","name":"Misti Ullrich","party":"Rep","address":"1163 E 2450 N, Lehi, UT 84043","precinct":"25LE05","hd":"53","v_score":"17.76342521","decile":"10","lat":40.41843765054214,"lng":-111.83095976428555},{"vid":"6307655","name":"Tella Eichmann","party":"Dem","address":"921 E 2250 N, Lehi, UT 84043","precinct":"25LE05","hd":"53","v_score":"25.22329319","decile":"10","lat":40.41587452554776,"lng":-111.83463545405519},{"vid":"6308713","name":"Berlin Skiles","party":"Rep","address":"809 E Utah Highlands Dr, Lehi, UT 84043","precinct":"25LE05","hd":"53","v_score":"5.40460374","decile":"7","lat":40.422953397430156,"lng":-111.8364418198039},{"vid":"6308802","name":"Mr. Luciano Bergstrom DDS","party":"Rep","address":"847 E 2125 N, Lehi, UT 84043","precinct":"25LE05","hd":"53","v_score":"8.280646305","decile":"8","lat":40.414232715597755,"lng":-111.83558730482672},{"vid":"6311891","name":"Ms. Fanny Kozey","party":"","address":"694 E 2900 N, Lehi, UT 84043","precinct":"25LE05","hd":"53","v_score":"9.207031979","decile":"8","lat":40.4244860947455,"lng":-111.83815347817252},{"vid":"6311950","name":"Khloe Gusikowski","party":"Dem","address":"702 E 2900 N, Lehi, UT 84043","precinct":"25LE05","hd":"53","v_score":"15.51131257","decile":"9","lat":40.4245990347086,"lng":-111.83778481945387},{"vid":"6312250","name":"Wellington Bayer II","party":"","address":"683 E 2900 N, Lehi, UT 84043","precinct":"25LE05","hd":"53","v_score":"14.95117867","decile":"9","lat":40.42491720325979,"lng":-111.83865074909045},{"vid":"6314187","name":"Ossie Olson DDS","party":"Dem","address":"3090 N 700 E, Lehi, UT 84043","precinct":"25LE05","hd":"53","v_score":"41.01679933","decile":"10","lat":40.4266963357508,"lng":-111.83790450973675},{"vid":"6314798","name":"Marlena Harvey","party":"Dem","address":"740 E 3150 N, Lehi, UT 84043","precinct":"25LE05","hd":"53","v_score":"25.56562396","decile":"10","lat":40.427113286474636,"lng":-111.83732377883929},{"vid":"6314803","name":"Nina Beer","party":"","address":"740 E 3150 N, Lehi, UT 84043","precinct":"25LE05","hd":"53","v_score":"21.41280004","decile":"10","lat":40.427113286474636,"lng":-111.83732377883929},{"vid":"6314890","name":"Dr. Davante Barrows II","party":"Dem","address":"683 E 2900 N, Lehi, UT 84043","precinct":"25LE05","hd":"53","v_score":"9.116556227","decile":"8","lat":40.42491720325979,"lng":-111.83865074909045},{"vid":"6315679","name":"Rasheed Tremblay","party":"","address":"2847 N 1050 E, Lehi, UT 84043","precinct":"25LE05","hd":"53","v_score":"18.45422016","decile":"10","lat":40.42416150848148,"lng":-111.83275439338466},{"vid":"f1b08223aacc4bac2e7ee7b4a6177153b7757517e0942395305ab9e8fbe52634","name":"Dr. Cordaro Lockman","party":"Dem","address":"939 E 2180 N, Lehi, UT 84043","precinct":"25LE05","hd":"53","v_score":"21.62425548","decile":"10","lat":40.415029529790836,"lng":-111.83457181671585},{"vid":"6317667","name":"Dee Sauer","party":"","address":"2341 N 1000 E, Lehi, UT 84043","precinct":"25LE05","hd":"53","v_score":"5.40460374","decile":"7","lat":40.41856952827466,"lng":-111.83271700478906},{"vid":"6325768","name":"Cary Stark","party":"Rep","address":"921 E 2250 N, Lehi, UT 84043","precinct":"25LE05","hd":"53","v_score":"32.89880845","decile":"10","lat":40.41587452554776,"lng":-111.83463545405519},{"vid":"6351363","name":"Remington Dare Jr.","party":"","address":"3090 N 700 E, Lehi, UT 84043","precinct":"25LE05","hd":"53","v_score":"41.01679933","decile":"10","lat":40.4266963357508,"lng":-111.83790450973675},{"vid":"6351392","name":"Nannette Lind","party":"Rep","address":"2944 N 600 E, Lehi, UT 84043","precinct":"25LE05","hd":"53","v_score":"6.896907962","decile":"8","lat":40.425056049282105,"lng":-111.83992203629703},{"vid":"6355426","name":"Amberly Legros","party":"","address":"694 E 2900 N, Lehi, UT 84043","precinct":"25LE05","hd":"53","v_score":"4.283276088","decile":"7","lat":40.4244860947455,"lng":-111.83815347817252},{"vid":"6359214","name":"Johanna Berge","party":"Dem","address":"903 E 2180 N, Lehi, UT 84043","precinct":"25LE05","hd":"53","v_score":"0","decile":"3","lat":40.41493397058844,"lng":-111.8349440863827},{"vid":"6361825","name":"Mrs. Elouise Heathcote MD","party":"Rep","address":"2706 N 600 E, Lehi, UT 84043","precinct":"25LE05","hd":"53","v_score":"1.121327652","decile":"3","lat":40.42210568432049,"lng":-111.83975646169844},{"vid":"6362284","name":"Franco Rohan","party":"Rep","address":"728 E 2900 N, Lehi, UT 84043","precinct":"25LE05","hd":"53","v_score":"12.9425149","decile":"9","lat":40.42478070635745,"lng":-111.83744079497568},{"vid":"6365588","name":"Micaela Ullrich-Cruickshank","party":"Rep","address":"903 E 2180 N, Lehi, UT 84043","precinct":"25LE05","hd":"53","v_score":"15.52016622","decile":"9","lat":40.41493397058844,"lng":-111.8349440863827},{"vid":"6369023","name":"Jule Skiles DDS","party":"Rep","address":"947 E 2900 N, Lehi, UT 84043","precinct":"25LE05","hd":"53","v_score":"12.16191375","decile":"9","lat":40.425545315222735,"lng":-111.83395591911575},{"vid":"6372139","name":"Aurilla Beahan","party":"Dem","address":"903 E 2180 N, Lehi, UT 84043","precinct":"25LE05","hd":"53","v_score":"15.52016622","decile":"9","lat":40.41493397058844,"lng":-111.8349440863827},{"vid":"6378908","name":"Dr. Enola Balistreri PhD","party":"Rep","address":"1104 E 2180 N, Lehi, UT 84043","precinct":"25LE05","hd":"53","v_score":"4.079907534","decile":"7","lat":40.4147862567961,"lng":-111.83170966016324},{"vid":"6380566","name":"Mrs. Dorathea Rath","party":"Dem","address":"1103 E 2180 N, Lehi, UT 84043","precinct":"25LE05","hd":"53","v_score":"2.744440783","decile":"6","lat":40.41507062277263,"lng":-111.83171328387817},{"vid":"37e190a945645c5f5b23a81509197dc5a5dc0a9756893fc60b9f8731233421ac","name":"Nan Marks","party":"","address":"3174 N 880 E, Lehi, UT 84043","precinct":"25LE05","hd":"53","v_score":"6.724398202","decile":"8","lat":40.427851730487006,"lng":-111.83476328293526},{"vid":"6387005","name":"Sheree Carroll","party":"","address":"759 E 3150 N, Lehi, UT 84043","precinct":"25LE05","hd":"53","v_score":"1.46627566","decile":"4","lat":40.42776093815857,"lng":-111.8369589887871},{"vid":"6388753","name":"Alma Lindgren","party":"","address":"2289 N 1060 E, Lehi, UT 84043","precinct":"25LE05","hd":"53","v_score":"15.51131257","decile":"9","lat":40.41644800555094,"lng":-111.8328262238952},{"vid":"6389633","name":"Miss Palma Crona PhD","party":"","address":"2847 N 1050 E, Lehi, UT 84043","precinct":"25LE05","hd":"53","v_score":"18.45422016","decile":"10","lat":40.42416150848148,"lng":-111.83275439338466},{"vid":"6389890","name":"Jean Padberg-Kunde","party":"Dem","address":"863 E 2850 N, Lehi, UT 84043","precinct":"25LE05","hd":"53","v_score":"16.93629278","decile":"9","lat":40.42460923267608,"lng":-111.83562478002507},{"vid":"6401953","name":"Roel Labadie","party":"Rep","address":"2289 N 1060 E, Lehi, UT 84043","precinct":"25LE05","hd":"53","v_score":"15.51131257","decile":"9","lat":40.41644800555094,"lng":-111.8328262238952},{"vid":"6403125","name":"Ms. Ginger Corkery","party":"","address":"2934 N 1150 E, Lehi, UT 84043","precinct":"25LE05","hd":"53","v_score":"9.116556227","decile":"8","lat":40.42485581753913,"lng":-111.8309338571722},{"vid":"6403131","name":"Shade Koepp I","party":"Rep","address":"2934 N 1150 E, Lehi, UT 84043","precinct":"25LE05","hd":"53","v_score":"5.40460374","decile":"7","lat":40.42485581753913,"lng":-111.8309338571722},{"vid":"6404302","name":"Miss Finley Kertzmann DVM","party":"Dem","address":"903 E 2125 N, Lehi, UT 84043","precinct":"25LE05","hd":"53","v_score":"22.18184494","decile":"10","lat":40.41421893618339,"lng":-111.83465892961179},{"vid":"6409682","name":"Victoria Gislason","party":"Rep","address":"820 E Utah Highlands Dr, Lehi, UT 84043","precinct":"25LE05","hd":"53","v_score":"25.72541572","decile":"10","lat":40.422560262346146,"lng":-111.83620380530232},{"vid":"6411400","name":"Firman Bergnaum-Rogahn","party":"","address":"1175 E Airport Dr, Lehi, UT 84043","precinct":"25LE05","hd":"53","v_score":"18.77764457","decile":"10","lat":40.41427294770726,"lng":-111.83055308794907},{"vid":"6412240","name":"Kayleigh Ritchie-Mayert","party":"","address":"2631 N 675 E, Lehi, UT 84043","precinct":"25LE05","hd":"53","v_score":"8.494785404","decile":"8","lat":40.42112144920061,"lng":-111.8388505991436},{"vid":"6419944","name":"Lum Farrell","party":"Rep","address":"2324 N 1000 E, Lehi, UT 84043","precinct":"25LE05","hd":"53","v_score":"18.03463495","decile":"10","lat":40.41707337877273,"lng":-111.83321495387435},{"vid":"6423512","name":"Wynona Lubowitz","party":"","address":"2678 N 600 E, Lehi, UT 84043","precinct":"25LE05","hd":"53","v_score":"12.8894015","decile":"9","lat":40.421660090455156,"lng":-111.83974095695632},{"vid":"6427633","name":"Gearld Lind","party":"","address":"3151 N 880 E, Lehi, UT 84043","precinct":"25LE05","hd":"53","v_score":"37.91409999","decile":"10","lat":40.427512008909055,"lng":-111.83539462003107},{"vid":"6428507","name":"Claudio Bogan","party":"","address":"782 E 2900 N, Lehi, UT 84043","precinct":"25LE05","hd":"53","v_score":"7.169296324","decile":"8","lat":40.424924844851994,"lng":-111.83673225594355},{"vid":"6431013","name":"Elza Welch Sr.","party":"Dem","address":"781 E 2850 N, Lehi, UT 84043","precinct":"25LE05","hd":"53","v_score":"27.89539783","decile":"10","lat":40.42458454767486,"lng":-111.83672322272773},{"vid":"6431215","name":"Danial Barton","party":"Rep","address":"781 E 2850 N, Lehi, UT 84043","precinct":"25LE05","hd":"53","v_score":"39.53889026","decile":"10","lat":40.42458454767486,"lng":-111.83672322272773},{"vid":"6434736","name":"Dr. Bobbie Bailey PhD","party":"Rep","address":"3151 N 880 E, Lehi, UT 84043","precinct":"25LE05","hd":"53","v_score":"37.91409999","decile":"10","lat":40.427512008909055,"lng":-111.83539462003107},{"vid":"6434899","name":"Jedidiah Lang","party":"Dem","address":"3148 N 880 E, Lehi, UT 84043","precinct":"25LE05","hd":"53","v_score":"7.282185415","decile":"8","lat":40.42747298368585,"lng":-111.83469712899772},{"vid":"6435537","name":"Yetta Dicki","party":"Rep","address":"2936 N Utah Highlands Dr, Lehi, UT 84043","precinct":"25LE05","hd":"53","v_score":"0","decile":"3","lat":40.42480604125617,"lng":-111.83349113156598},{"vid":"6439837","name":"Cathie Kuhic-Corkery","party":"Dem","address":"3093 N 800 E, Lehi, UT 84043","precinct":"25LE05","hd":"53","v_score":"2.817000428","decile":"6","lat":40.42674945306559,"lng":-111.83660270901031},{"vid":"6444341","name":"Claudine Goodwin","party":"","address":"2714 N 675 E, Lehi, UT 84043","precinct":"25LE05","hd":"53","v_score":"13.06955813","decile":"9","lat":40.4220279871151,"lng":-111.83837216826609},{"vid":"6448086","name":"Lucius Gutkowski","party":"Dem","address":"2317 N 1120 E, Lehi, UT 84043","precinct":"25LE05","hd":"53","v_score":"20.93928147","decile":"10","lat":40.416911418408006,"lng":-111.83167205763684},{"vid":"6452582","name":"Dr. Marcelino Abshire MD","party":"","address":"1039 E Utah Highlands Dr, Lehi, UT 84043","precinct":"25LE05","hd":"53","v_score":"5.40460374","decile":"7","lat":40.42616684754381,"lng":-111.83279594345119},{"vid":"6453909","name":"Antonia Auer","party":"","address":"2338 N 1000 E, Lehi, UT 84043","precinct":"25LE05","hd":"53","v_score":"8.421194992","decile":"8","lat":40.417489258781885,"lng":-111.83282046432512},{"vid":"6457206","name":"Dr. Lige Collins","party":"Dem","address":"2763 N 750 E, Lehi, UT 84043","precinct":"25LE05","hd":"53","v_score":"0","decile":"3","lat":40.42267320132401,"lng":-111.83784791607762},{"vid":"6472158","name":"Corry Stanton-Deckow","party":"Rep","address":"754 E 2900 N, Lehi, UT 84043","precinct":"25LE05","hd":"53","v_score":"6.088298118","decile":"7","lat":40.4248885986513,"lng":-111.83708199624415},{"vid":"6473481","name":"Jered Auer-Hills","party":"Dem","address":"954 E Oak Creek Dr, Lehi, UT 84043","precinct":"25LE05","hd":"53","v_score":"19.3998489","decile":"10","lat":40.417819786256686,"lng":-111.83392566038367},{"vid":"6474409","name":"Chrystal Bogisich","party":"Dem","address":"1165 E 2350 N, Lehi, UT 84043","precinct":"25LE05","hd":"53","v_score":"6.814370645","decile":"8","lat":40.417333807783834,"lng":-111.83103386035451},{"vid":"24b0ea31c8af5e6775057d4920536aa55154eba79461de2a317ef7d8eff1fccc","name":"Mrs. Addison Flatley DDS","party":"","address":"2933 N 1150 E, Lehi, UT 84043","precinct":"25LE05","hd":"53","v_score":"21.68624441","decile":"10","lat":40.42480542937055,"lng":-111.8317519316413},{"vid":"6485854","name":"Bud Bosco","party":"Dem","address":"3125 N 880 E, Lehi, UT 84043","precinct":"25LE05","hd":"53","v_score":"21.41280004","decile":"10","lat":40.42717522238235,"lng":-111.83530231588985},{"vid":"ce8e05f3c43b20b847526844aab7b92f265934d349985978875b8e768da33111","name":"Karyl Lynch","party":"Dem","address":"788 E 3050 N, Lehi, UT 84043","precinct":"25LE05","hd":"53","v_score":"24.49758289","decile":"10","lat":40.42599964911715,"lng":-111.83667491328717},{"vid":"6491360","name":"Dario Hartmann","party":"Rep","address":"2208 N 825 E, Lehi, UT 84043","precinct":"25LE05","hd":"53","v_score":"1.121327652","decile":"3","lat":40.41518715320534,"lng":-111.83585363781431},{"vid":"6493632","name":"Bula Larkin","party":"Rep","address":"2317 N 1120 E, Lehi, UT 84043","precinct":"25LE05","hd":"53","v_score":"19.31616834","decile":"10","lat":40.416911418408006,"lng":-111.83167205763684},{"vid":"6494074","name":"Vincenzo Zieme","party":"","address":"3132 N 800 E, Lehi, UT 84043","precinct":"25LE05","hd":"53","v_score":"13.76893698","decile":"9","lat":40.42734508991816,"lng":-111.83589511540889},{"vid":"6497068","name":"Catrina Upton","party":"","address":"1048 E Utah Highlands Dr, Lehi, UT 84043","precinct":"25LE05","hd":"53","v_score":"18.35167816","decile":"10","lat":40.42568144508644,"lng":-111.83262642390353},{"vid":"6499140","name":"Hedy Buckridge","party":"","address":"1093 E 2250 N, Lehi, UT 84043","precinct":"25LE05","hd":"53","v_score":"23.62038206","decile":"10","lat":40.41600512150277,"lng":-111.8319654358818},{"vid":"6500938","name":"Mickey Weimann","party":"Rep","address":"779 E 3150 N, Lehi, UT 84043","precinct":"25LE05","hd":"53","v_score":"12.07513611","decile":"9","lat":40.42776225204902,"lng":-111.8366344923333},{"vid":"6502184","name":"Otis Klocko","party":"","address":"1043 E 2180 N, Lehi, UT 84043","precinct":"25LE05","hd":"53","v_score":"7.995565619","decile":"8","lat":40.41521008024348,"lng":-111.83277950632015},{"vid":"6505894","name":"Miss Sophie Senger","party":"","address":"2595 N 1200 E, Lehi, UT 84043","precinct":"25LE05","hd":"53","v_score":"14.25581744","decile":"9","lat":40.419333835341355,"lng":-111.83133481519864},{"vid":"6515365","name":"Latarsha Kirlin","party":"Dem","address":"1103 E 2180 N, Lehi, UT 84043","precinct":"25LE05","hd":"53","v_score":"5.40460374","decile":"7","lat":40.41507062277263,"lng":-111.83171328387817},{"vid":"6519996","name":"Wiliam Lehner","party":"Rep","address":"2905 N 1150 E, Lehi, UT 84043","precinct":"25LE05","hd":"53","v_score":"23.34027189","decile":"10","lat":40.42444993400038,"lng":-111.83153737659018},{"vid":"6520515","name":"Mr. Jameson Cummerata DVM","party":"Rep","address":"810 E 2900 N, Lehi, UT 84043","precinct":"25LE05","hd":"53","v_score":"9.207031979","decile":"8","lat":40.425056812542685,"lng":-111.83631070967095},{"vid":"6523521","name":"Ms. Bettie Crooks","party":"Dem","address":"683 E 2900 N, Lehi, UT 84043","precinct":"25LE05","hd":"53","v_score":"6.814370645","decile":"8","lat":40.42491720325979,"lng":-111.83865074909045},{"vid":"6523969","name":"Delmar Mitchell-Champlin","party":"Dem","address":"2902 N 675 E, Lehi, UT 84043","precinct":"25LE05","hd":"53","v_score":"22.87245712","decile":"10","lat":40.42459664951398,"lng":-111.83872246338962},{"vid":"6526064","name":"Geneva Jaskolski","party":"Rep","address":"687 E 2850 N, Lehi, UT 84043","precinct":"25LE05","hd":"53","v_score":"3.93832808","decile":"6","lat":40.42390495853152,"lng":-111.83864369968308},{"vid":"6526318","name":"Lucia Tremblay","party":"Dem","address":"2659 N 675 E, Lehi, UT 84043","precinct":"25LE05","hd":"53","v_score":"42.38158736","decile":"10","lat":40.42147938220095,"lng":-111.83894238483045},{"vid":"6526884","name":"Cathryn Hoeger","party":"","address":"878 E 2900 N, Lehi, UT 84043","precinct":"25LE05","hd":"53","v_score":"1.193887297","decile":"4","lat":40.42502166189888,"lng":-111.83526779168713}]