[{"vid":"775160","name":"Nevin Littel-Crona","party":"Rep","address":"2809 N Trail Side Dr, Lehi, UT 84043","precinct":"25LE21","hd":"53","v_score":"3.93832808","decile":"6","lat":40.42315911479067,"lng":-111.85871564158995},{"vid":"818548","name":"Amaya O'Hara","party":"","address":"419 W 2450 N, Lehi, UT 84043","precinct":"25LE21","hd":"53","v_score":"3.781490609","decile":"6","lat":40.4188570250709,"lng":-111.85622551673039},{"vid":"1222192","name":"Mrs. Lisbeth Kessler","party":"Rep","address":"603 W Sandhill Dr, Lehi, UT 84043","precinct":"25LE21","hd":"53","v_score":"9.405332525","decile":"8","lat":40.4220938695776,"lng":-111.8592362206663},{"vid":"1239306","name":"Tamela Reinger","party":"Rep","address":"2669 N 425 W, Lehi, UT 84043","precinct":"25LE21","hd":"53","v_score":"6.896907962","decile":"8","lat":40.42158903049486,"lng":-111.85638279898055},{"vid":"1258854","name":"Yair Dickinson","party":"Rep","address":"459 W 2600 N, Lehi, UT 84043","precinct":"25LE21","hd":"53","v_score":"3.781490609","decile":"6","lat":40.420470083157234,"lng":-111.85678244597572},{"vid":"de5c33200790f5328471a415d18b6e3bcb5e075bfbd8ce61e17a4d4c3c8fa326","name":"Lilburn Rodriguez","party":"Rep","address":"359 W 2325 N, Lehi, UT 84043","precinct":"25LE21","hd":"53","v_score":"5.659072284","decile":"7","lat":40.41732067614264,"lng":-111.85532576593843},{"vid":"1285581","name":"Gail Greenfelder","party":"Rep","address":"564 W Trail Side Dr, Lehi, UT 84043","precinct":"25LE21","hd":"53","v_score":"1.121327652","decile":"3","lat":40.42460777935847,"lng":-111.85904594925393},{"vid":"1287392","name":"Karlie Roberts","party":"Rep","address":"402 W 2280 N, Lehi, UT 84043","precinct":"25LE21","hd":"53","v_score":"3.93832808","decile":"6","lat":40.41704428200808,"lng":-111.85597209588018},{"vid":"68a41436b709c16c1aea68269a0269ccef730c7416c71d660234a20ad132e36e","name":"Izaiah Streich MD","party":"Dem","address":"462 W 2280 N, Lehi, UT 84043","precinct":"25LE21","hd":"53","v_score":"14.24149408","decile":"9","lat":40.41704156476103,"lng":-111.85685534965093},{"vid":"1290711","name":"Natosha Halvorson","party":"","address":"376 W 2875 N, Lehi, UT 84043","precinct":"25LE21","hd":"53","v_score":"0","decile":"1","lat":40.42425344985412,"lng":-111.85563204707356},{"vid":"1299851","name":"Dorine Howe PhD","party":"","address":"505 W Sandhill Dr, Lehi, UT 84043","precinct":"25LE21","hd":"53","v_score":"4.137918904","decile":"7","lat":40.42206341196604,"lng":-111.85773811581615},{"vid":"1316025","name":"Vanesa Moore-Kris","party":"Rep","address":"460 W 2450 N, Lehi, UT 84043","precinct":"25LE21","hd":"53","v_score":"0","decile":"1","lat":40.41933478514859,"lng":-111.85683680734547},{"vid":"24e64de0d95a1768103e069ced6bb6ff0236f45a1377c8a9fde957f8f70007ff","name":"Ms. Arvilla Klocko DVM","party":"Rep","address":"2244 N 490 W, Lehi, UT 84043","precinct":"25LE21","hd":"53","v_score":"1.121327652","decile":"3","lat":40.41607141799276,"lng":-111.85615287196936},{"vid":"1322161","name":"Essie Treutel-Blanda","party":"Dem","address":"342 W 2375 N, Lehi, UT 84043","precinct":"25LE21","hd":"53","v_score":"34.16997587","decile":"10","lat":40.41853450746013,"lng":-111.85508992529802},{"vid":"51515b3b7882585b714fb5f21cc61dbcfc4f7ba9ee288cfa7105d89ae8309585","name":"Marcelle Will","party":"Rep","address":"368 W 2730 N, Lehi, UT 84043","precinct":"25LE21","hd":"53","v_score":"11.23922619","decile":"9","lat":40.42266463800411,"lng":-111.8554919960676},{"vid":"1325615","name":"Miss Maddison Kutch","party":"Dem","address":"2941 N Trail Side Ct, Lehi, UT 84043","precinct":"25LE21","hd":"53","v_score":"1.46627566","decile":"4","lat":40.42531903139344,"lng":-111.85737472092268},{"vid":"1337453","name":"Faye Adams","party":"","address":"339 W 2325 N, Lehi, UT 84043","precinct":"25LE21","hd":"53","v_score":"2.315214949","decile":"5","lat":40.41732156948607,"lng":-111.85503134723629},{"vid":"3da12329091413f11b667cffca25d9b6f7ed79174ccc025ada7e3f02815c5707","name":"Alvin Johns","party":"Rep","address":"339 W 2325 N, Lehi, UT 84043","precinct":"25LE21","hd":"53","v_score":"3.781490609","decile":"6","lat":40.41732156948607,"lng":-111.85503134723629},{"vid":"3f6140ff8c3c7f9c5f14f531a2ca96afee017ffeafae28b0050fdac04b01ce6a","name":"Doshie Zieme","party":"","address":"3131 N Park Cottage Way, Lehi, UT 84043","precinct":"25LE21","hd":"53","v_score":"2.315214949","decile":"5","lat":40.42715974449683,"lng":-111.85626840823092},{"vid":"1359467","name":"Dr. Tayla Gerhold","party":"Rep","address":"569 W 2450 N, Lehi, UT 84043","precinct":"25LE21","hd":"53","v_score":"5.191257514","decile":"7","lat":40.41884978027671,"lng":-111.85859765801595},{"vid":"1362508","name":"Jaxton Brakus-Fadel","party":"Rep","address":"564 W Trail Side Dr, Lehi, UT 84043","precinct":"25LE21","hd":"53","v_score":"1.121327652","decile":"3","lat":40.42460777935847,"lng":-111.85904594925393},{"vid":"1377713","name":"Earley Hagenes","party":"","address":"2662 N Park View Ct, Lehi, UT 84043","precinct":"25LE21","hd":"53","v_score":"5.40460374","decile":"7","lat":40.42146088400202,"lng":-111.85692238186554},{"vid":"a093b844e85e15a99fcaf3c8afe2a0683aa39c422f69ebd55df1a91d45bb23ba","name":"Glennie Gleason","party":"","address":"2932 N Trail Side Ct, Lehi, UT 84043","precinct":"25LE21","hd":"53","v_score":"7.282185415","decile":"8","lat":40.4250032050904,"lng":-111.85688546263158},{"vid":"1385068","name":"Mrs. Jetta Rempel PhD","party":"","address":"2941 N Trail Side Ct, Lehi, UT 84043","precinct":"25LE21","hd":"53","v_score":"0","decile":"1","lat":40.42531903139344,"lng":-111.85737472092268},{"vid":"1391505","name":"Annika Langosh","party":"Rep","address":"708 W 3160 N, Lehi, UT 84043","precinct":"25LE21","hd":"53","v_score":"1.121327652","decile":"3","lat":40.42772017020565,"lng":-111.86060336158512},{"vid":"1396321","name":"Gaylon Leannon-Dach","party":"Dem","address":"493 W 2375 N, Lehi, UT 84043","precinct":"25LE21","hd":"53","v_score":"8.280646305","decile":"8","lat":40.41804775665789,"lng":-111.8574135938502},{"vid":"2f13a0470bfbb0fc2e6eeca5b8574d0399010c9e76887146a49b69122c656de1","name":"Sanjuana Jacobi","party":"Dem","address":"345 W 2800 N, Lehi, UT 84043","precinct":"25LE21","hd":"53","v_score":"5.40460374","decile":"7","lat":40.422968443304576,"lng":-111.85506575014298},{"vid":"1409185","name":"Alyse Parisian","party":"Rep","address":"2946 N Trail Side Ct, Lehi, UT 84043","precinct":"25LE21","hd":"53","v_score":"1.193887297","decile":"3","lat":40.425320316787825,"lng":-111.85689237527825},{"vid":"1412434","name":"Fielding Jerde","party":"","address":"3081 N Park Cottage Way, Lehi, UT 84043","precinct":"25LE21","hd":"53","v_score":"5.331806201","decile":"7","lat":40.42659991807784,"lng":-111.85626616549698},{"vid":"1412709","name":"Rory Quigley-Hartmann","party":"Rep","address":"3153 N 300 W, Lehi, UT 84043","precinct":"25LE21","hd":"53","v_score":"1.46627566","decile":"4","lat":40.42738307112001,"lng":-111.85474453977993},{"vid":"1414801","name":"Ms. Krystal Quitzon","party":"Dem","address":"2929 N Trail Side Ct, Lehi, UT 84043","precinct":"25LE21","hd":"53","v_score":"12.38288823","decile":"9","lat":40.425032633098674,"lng":-111.85737527317848},{"vid":"1425302","name":"Caitlin Sawayn","party":"Rep","address":"495 W 2600 N, Lehi, UT 84043","precinct":"25LE21","hd":"53","v_score":"1.46627566","decile":"4","lat":40.42046731899665,"lng":-111.8573916289635},{"vid":"269043a76a7c419b83cb187a2a85182760d130bee17bd7bf43032265e87c57af","name":"Caprice Crooks","party":"Rep","address":"377 W 3050 N, Lehi, UT 84043","precinct":"25LE21","hd":"53","v_score":"11.30609121","decile":"9","lat":40.42604413599689,"lng":-111.85528489924053},{"vid":"1445946","name":"Marilee Rath","party":"Rep","address":"2929 N Trail Side Ct, Lehi, UT 84043","precinct":"25LE21","hd":"53","v_score":"12.38288823","decile":"9","lat":40.425032633098674,"lng":-111.85737527317848},{"vid":"1468475","name":"Queen Cronin MD","party":"","address":"711 W Sandhill Dr, Lehi, UT 84043","precinct":"25LE21","hd":"53","v_score":"0","decile":"1","lat":40.42206155455539,"lng":-111.8609894283888},{"vid":"1469216","name":"Gerhard Borer","party":"Rep","address":"422 W 2280 N, Lehi, UT 84043","precinct":"25LE21","hd":"53","v_score":"5.40460374","decile":"7","lat":40.417043386335635,"lng":-111.85626651440262},{"vid":"1486165","name":"Aniyah Schmidt","party":"Dem","address":"514 W 2325 N, Lehi, UT 84043","precinct":"25LE21","hd":"53","v_score":"2.876042565","decile":"6","lat":40.41775689255734,"lng":-111.85774318764435},{"vid":"1496554","name":"Mercy Krajcik","party":"Rep","address":"2731 N 640 W, Lehi, UT 84043","precinct":"25LE21","hd":"53","v_score":"1.193887297","decile":"3","lat":40.42213529987033,"lng":-111.85993936410911},{"vid":"1516071","name":"Mrs. Oney Hammes","party":"","address":"3093 N Park Cottage Way, Lehi, UT 84043","precinct":"25LE21","hd":"53","v_score":"2.817000428","decile":"6","lat":40.42670624484473,"lng":-111.85633124628336},{"vid":"1516678","name":"Zakary Bednar PhD","party":"Rep","address":"3094 N Park Ridge Dr, Lehi, UT 84043","precinct":"25LE21","hd":"53","v_score":"10.17021529","decile":"9","lat":40.42658119373351,"lng":-111.86119434238563},{"vid":"1520928","name":"Mrs. Joan Mills","party":"","address":"514 W 2450 N, Lehi, UT 84043","precinct":"25LE21","hd":"53","v_score":"31.82104997","decile":"10","lat":40.41933199673114,"lng":-111.85774992956044},{"vid":"1521781","name":"Delilah Metz DVM","party":"Dem","address":"479 W 2225 N, Lehi, UT 84043","precinct":"25LE21","hd":"53","v_score":"34.01018412","decile":"10","lat":40.4155442167164,"lng":-111.85620603466569},{"vid":"1526650","name":"Mr. Polk Purdy","party":"Dem","address":"2946 N Trail Side Ct, Lehi, UT 84043","precinct":"25LE21","hd":"53","v_score":"1.121327652","decile":"3","lat":40.425320316787825,"lng":-111.85689237527825},{"vid":"1529950","name":"Santina Christiansen DVM","party":"Rep","address":"513 W 2450 N, Lehi, UT 84043","precinct":"25LE21","hd":"53","v_score":"11.02844566","decile":"9","lat":40.418852545187676,"lng":-111.85768529631474},{"vid":"1542235","name":"Wilford Davis II","party":"","address":"492 W 2600 N, Lehi, UT 84043","precinct":"25LE21","hd":"53","v_score":"5.40460374","decile":"7","lat":40.4209816035578,"lng":-111.85735736793723},{"vid":"1547785","name":"Orah Cronin","party":"Dem","address":"449 W 2225 N, Lehi, UT 84043","precinct":"25LE21","hd":"53","v_score":"5.40460374","decile":"7","lat":40.415489005392956,"lng":-111.8558262509802},{"vid":"1548302","name":"Zeno Kessler","party":"","address":"492 W 2600 N, Lehi, UT 84043","precinct":"25LE21","hd":"53","v_score":"5.40460374","decile":"7","lat":40.4209816035578,"lng":-111.85735736793723},{"vid":"1560124","name":"Hedwig Graham","party":"Dem","address":"2802 N Trail Side Dr, Lehi, UT 84043","precinct":"25LE21","hd":"53","v_score":"2.587603312","decile":"5","lat":40.423174976827,"lng":-111.85817670286853},{"vid":"1571412","name":"Mr. Orson Jacobi","party":"Dem","address":"2644 N 780 W, Lehi, UT 84043","precinct":"25LE21","hd":"53","v_score":"22.6847053","decile":"10","lat":40.42128381884079,"lng":-111.86156495276052},{"vid":"1585008","name":"Mortimer Farrell V","party":"Dem","address":"708 W 3160 N, Lehi, UT 84043","precinct":"25LE21","hd":"53","v_score":"2.315214949","decile":"5","lat":40.42772017020565,"lng":-111.86060336158512},{"vid":"1585247","name":"Tiara Wisoky","party":"Rep","address":"2802 N Park View Ct, Lehi, UT 84043","precinct":"25LE21","hd":"53","v_score":"9.55742766","decile":"8","lat":40.42308644738875,"lng":-111.85698903665376},{"vid":"1595799","name":"Harper Nicolas-Mosciski","party":"Rep","address":"509 W Parkview Dr, Lehi, UT 84043","precinct":"25LE21","hd":"53","v_score":"5.273794831","decile":"7","lat":40.42395157275946,"lng":-111.85735244610241},{"vid":"1615500","name":"Isabelle Bode","party":"","address":"442 W 2540 N, Lehi, UT 84043","precinct":"25LE21","hd":"53","v_score":"27.31008633","decile":"10","lat":40.42014365797044,"lng":-111.85653706450834},{"vid":"1621502","name":"Almeda Hickle-Lueilwitz","party":"","address":"2644 N 780 W, Lehi, UT 84043","precinct":"25LE21","hd":"53","v_score":"22.6847053","decile":"10","lat":40.42128381884079,"lng":-111.86156495276052},{"vid":"1627449","name":"Dr. Cannie Will PhD","party":"Dem","address":"442 W 2375 N, Lehi, UT 84043","precinct":"25LE21","hd":"53","v_score":"1.121327652","decile":"3","lat":40.41853013520336,"lng":-111.85652793744539},{"vid":"1633526","name":"Tobe Kuhlman","party":"Rep","address":"553 W Sandhill Dr, Lehi, UT 84043","precinct":"25LE21","hd":"53","v_score":"21.41280004","decile":"10","lat":40.42206063132105,"lng":-111.85864656301868},{"vid":"1637351","name":"Ms. Crista Orn MD","party":"Dem","address":"327 W 2800 N, Lehi, UT 84043","precinct":"25LE21","hd":"53","v_score":"2.817000428","decile":"6","lat":40.42320098128698,"lng":-111.8549387385001},{"vid":"101bf5900a69f82f6c33b3ab4725f1e2ea5f5f01cdf74297d4a9e1da7fe02a8f","name":"Ronan McGlynn","party":"","address":"3063 N Park Place St, Lehi, UT 84043","precinct":"25LE21","hd":"53","v_score":"5.40460374","decile":"7","lat":40.42632127684722,"lng":-111.85955140971193},{"vid":"1645371","name":"Stafford Stanton","party":"","address":"2244 N 490 W, Lehi, UT 84043","precinct":"25LE21","hd":"53","v_score":"2.315214949","decile":"5","lat":40.41607141799276,"lng":-111.85615287196936},{"vid":"1649434","name":"Ms. Martina Walker DDS","party":"Dem","address":"542 W 2660 N, Lehi, UT 84043","precinct":"25LE21","hd":"53","v_score":"3.93832808","decile":"6","lat":40.42174312153299,"lng":-111.85833763580607},{"vid":"1656180","name":"Isidore O'Reilly","party":"Rep","address":"513 W 2450 N, Lehi, UT 84043","precinct":"25LE21","hd":"53","v_score":"11.02844566","decile":"9","lat":40.418852545187676,"lng":-111.85768529631474},{"vid":"1671189","name":"Zella Hansen","party":"Rep","address":"324 W 2730 N, Lehi, UT 84043","precinct":"25LE21","hd":"53","v_score":"1.121327652","decile":"3","lat":40.42255012636821,"lng":-111.8547153351812},{"vid":"81fb9e5cebf24e1774f2cb8a1726dc96dbf447dba57f03b70be129596d6670eb","name":"Mrs. Garnett Gibson","party":"","address":"3094 N Park Villas Dr, Lehi, UT 84043","precinct":"25LE21","hd":"53","v_score":"11.2235539","decile":"9","lat":40.42658614600559,"lng":-111.86016948305496},{"vid":"1673342","name":"Christoper Ratke","party":"Rep","address":"359 W 3050 N, Lehi, UT 84043","precinct":"25LE21","hd":"53","v_score":"0","decile":"1","lat":40.42604467458673,"lng":-111.85509817129332},{"vid":"1673988","name":"Michal Crona","party":"","address":"462 W 2540 N, Lehi, UT 84043","precinct":"25LE21","hd":"53","v_score":"11.46588297","decile":"9","lat":40.420142437077914,"lng":-111.85684165627171},{"vid":"2d776de74cf1b1ee26897b1c7aab5039131148c7b6489d44f5fde369df668bb3","name":"Selina Lynch-Lesch","party":"Dem","address":"515 W Parkview Dr, Lehi, UT 84043","precinct":"25LE21","hd":"53","v_score":"2.587603312","decile":"5","lat":40.42395041849802,"lng":-111.85781009478696},{"vid":"1677553","name":"Arnav Kassulke","party":"Dem","address":"578 W Trail Side Dr, Lehi, UT 84043","precinct":"25LE21","hd":"53","v_score":"10.7597751","decile":"9","lat":40.42444914122509,"lng":-111.859266759843},{"vid":"1681240","name":"Fawn Schmeler-Crooks","party":"","address":"2235 N 490 W, Lehi, UT 84043","precinct":"25LE21","hd":"53","v_score":"0","decile":"1","lat":40.41590222487787,"lng":-111.85667356842653},{"vid":"1696537","name":"Deondre Haley","party":"Dem","address":"533 W 2660 N, Lehi, UT 84043","precinct":"25LE21","hd":"53","v_score":"1.46627566","decile":"4","lat":40.42128065641886,"lng":-111.85802526373399},{"vid":"ea37e150313ca2dd6c88e482fc9bf1ea91bd1890ea26d535eeb88f75fb0781bf","name":"Kristin Pfannerstill-VonRueden","party":"Dem","address":"3094 N Park Villas Dr, Lehi, UT 84043","precinct":"25LE21","hd":"53","v_score":"13.76678889","decile":"9","lat":40.42658614600559,"lng":-111.86016948305496},{"vid":"1719987","name":"Rae O'Kon","party":"Rep","address":"708 W 3160 N, Lehi, UT 84043","precinct":"25LE21","hd":"53","v_score":"1.193887297","decile":"3","lat":40.42772017020565,"lng":-111.86060336158512},{"vid":"da47ed2b3f408ac0600b3b6ac246480c8d5a44b5177f09e07f99532c483bdd13","name":"Tavaris McKenzie","party":"","address":"439 W 2600 N, Lehi, UT 84043","precinct":"25LE21","hd":"53","v_score":"0","decile":"1","lat":40.420471477752756,"lng":-111.85647785331402},{"vid":"1732350","name":"Delmus Kautzer","party":"","address":"2698 N 780 W, Lehi, UT 84043","precinct":"25LE21","hd":"53","v_score":"2.315214949","decile":"5","lat":40.42188304648513,"lng":-111.86153851342532},{"vid":"1732381","name":"Deasia Deckow-Purdy","party":"Rep","address":"462 W 2375 N, Lehi, UT 84043","precinct":"25LE21","hd":"53","v_score":"7.781882349","decile":"8","lat":40.41852920822745,"lng":-111.85683205651526},{"vid":"1738254","name":"Loring Howe DVM","party":"Rep","address":"2731 N 640 W, Lehi, UT 84043","precinct":"25LE21","hd":"53","v_score":"1.193887297","decile":"3","lat":40.42213529987033,"lng":-111.85993936410911},{"vid":"1759106","name":"Ima Veum","party":"","address":"519 W Sandhill Dr, Lehi, UT 84043","precinct":"25LE21","hd":"53","v_score":"19.22326505","decile":"10","lat":40.42206245686306,"lng":-111.85805050765113},{"vid":"1760953","name":"Denzel Pagac","party":"Rep","address":"2643 N 640 W, Lehi, UT 84043","precinct":"25LE21","hd":"53","v_score":"2.315214949","decile":"5","lat":40.421149056533004,"lng":-111.85998816114255},{"vid":"1763660","name":"Shardae Mills","party":"Dem","address":"323 W 2600 N, Lehi, UT 84043","precinct":"25LE21","hd":"53","v_score":"15.4533012","decile":"9","lat":40.42054910631407,"lng":-111.85466573701301},{"vid":"1764151","name":"Micayla Mayert","party":"Dem","address":"362 W 2375 N, Lehi, UT 84043","precinct":"25LE21","hd":"53","v_score":"14.52230958","decile":"9","lat":40.41842386192549,"lng":-111.85546477109328},{"vid":"1782408","name":"Ms. Henrietta Littel","party":"Dem","address":"626 W Parkview Dr, Lehi, UT 84043","precinct":"25LE21","hd":"53","v_score":"16.31473767","decile":"9","lat":40.42319529846673,"lng":-111.85970375292004},{"vid":"1786141","name":"Melody Braun","party":"Dem","address":"613 W Parkview Dr, Lehi, UT 84043","precinct":"25LE21","hd":"53","v_score":"2.315214949","decile":"5","lat":40.4228216656983,"lng":-111.8593277242319},{"vid":"1792824","name":"Tonya Denesik","party":"Dem","address":"421 W 2540 N, Lehi, UT 84043","precinct":"25LE21","hd":"53","v_score":"1.121327652","decile":"3","lat":40.41966262979979,"lng":-111.8562297582158},{"vid":"1795249","name":"Jonathon Mills","party":"Rep","address":"537 W Trail Side Dr, Lehi, UT 84043","precinct":"25LE21","hd":"53","v_score":"12.38288823","decile":"9","lat":40.42455082356994,"lng":-111.85832762561803},{"vid":"1795758","name":"Malissa Gulgowski-Towne","party":"","address":"2614 N 780 W, Lehi, UT 84043","precinct":"25LE21","hd":"53","v_score":"1.193887297","decile":"3","lat":40.420843755303096,"lng":-111.86174142404293},{"vid":"1797014","name":"Roe Lakin IV","party":"","address":"321 W 2540 N, Lehi, UT 84043","precinct":"25LE21","hd":"53","v_score":"11.05053808","decile":"9","lat":40.41973671224474,"lng":-111.8546818213764},{"vid":"1798211","name":"Valentina Schoen","party":"","address":"367 W 2660 N, Lehi, UT 84043","precinct":"25LE21","hd":"53","v_score":"19.24455128","decile":"10","lat":40.42138426898774,"lng":-111.85540932625779},{"vid":"1812542","name":"Melina Dare MD","party":"","address":"548 W 2325 N, Lehi, UT 84043","precinct":"25LE21","hd":"53","v_score":"2.315214949","decile":"5","lat":40.4177395508711,"lng":-111.8583463101181},{"vid":"1817170","name":"Shira Welch","party":"","address":"584 W Trail Side Dr, Lehi, UT 84043","precinct":"25LE21","hd":"53","v_score":"6.881235673","decile":"8","lat":40.42418026851756,"lng":-111.85938716190331},{"vid":"1820585","name":"Delinda Langworth","party":"Rep","address":"762 W Ridgeline Dr, Lehi, UT 84043","precinct":"25LE21","hd":"53","v_score":"1.193887297","decile":"3","lat":40.42396573049729,"lng":-111.86184023402333},{"vid":"9e3b682aaa3a0dbc370571af3e084c3fdffdb94ce344003f8b052524cba4159c","name":"Janey Vandervort","party":"","address":"744 W 3160 N, Lehi, UT 84043","precinct":"25LE21","hd":"53","v_score":"21.36541415","decile":"10","lat":40.427599990737825,"lng":-111.86124221820198},{"vid":"f2e7acdf4a077ea067cc002606b3907566c9df52f2fc99e1e8eefd96c9f58542","name":"Allyn Kessler","party":"Rep","address":"548 W 2325 N, Lehi, UT 84043","precinct":"25LE21","hd":"53","v_score":"6.724398202","decile":"8","lat":40.4177395508711,"lng":-111.8583463101181},{"vid":"1833467","name":"Bell Harber","party":"Rep","address":"550 W 2450 N, Lehi, UT 84043","precinct":"25LE21","hd":"53","v_score":"20.91067752","decile":"10","lat":40.41933013459451,"lng":-111.85835864236998},{"vid":"1833836","name":"Helma Hand MD","party":"Rep","address":"493 W 2375 N, Lehi, UT 84043","precinct":"25LE21","hd":"53","v_score":"8.280646305","decile":"8","lat":40.41804775665789,"lng":-111.8574135938502},{"vid":"1836623","name":"Marilee Vandervort","party":"","address":"3123 N 325 W, Lehi, UT 84043","precinct":"25LE21","hd":"53","v_score":"0","decile":"1","lat":40.42707190234354,"lng":-111.85514658845096},{"vid":"1840972","name":"Vonnie Tromp DDS","party":"Dem","address":"584 W 2280 N, Lehi, UT 84043","precinct":"25LE21","hd":"53","v_score":"15.61870689","decile":"9","lat":40.41694448884078,"lng":-111.85900454241117},{"vid":"1846567","name":"Ms. Odessa Marks MD","party":"Rep","address":"642 W Sandhill Dr, Lehi, UT 84043","precinct":"25LE21","hd":"53","v_score":"18.20183839","decile":"10","lat":40.422507956013845,"lng":-111.85974305563762},{"vid":"1872884","name":"Lue Corkery-Beer","party":"Rep","address":"2559 N 300 W, Lehi, UT 84043","precinct":"25LE21","hd":"53","v_score":"27.05857207","decile":"10","lat":40.42003899632532,"lng":-111.85468319730575},{"vid":"a6affd31e98ecc614b1c21cd6e0ed9cce14887b35d9064da4d737932bb30fc37","name":"Nelie Murphy","party":"","address":"2854 N 425 W, Lehi, UT 84043","precinct":"25LE21","hd":"53","v_score":"3.93832808","decile":"6","lat":40.42385546402698,"lng":-111.8559516530966},{"vid":"1886566","name":"Brent Ortiz","party":"Dem","address":"519 W Sandhill Dr, Lehi, UT 84043","precinct":"25LE21","hd":"53","v_score":"2.315214949","decile":"5","lat":40.42206245686306,"lng":-111.85805050765113},{"vid":"1887488","name":"Aydin Gerlach","party":"","address":"462 W 2540 N, Lehi, UT 84043","precinct":"25LE21","hd":"53","v_score":"31.35286052","decile":"10","lat":40.420142437077914,"lng":-111.85684165627171},{"vid":"1889950","name":"Ainsley Treutel","party":"Rep","address":"497 W 2280 N, Lehi, UT 84043","precinct":"25LE21","hd":"53","v_score":"9.050194508","decile":"8","lat":40.416611869703125,"lng":-111.85738302921163},{"vid":"1890517","name":"Micaela Hansen-Walker","party":"","address":"744 W Sandhill Dr, Lehi, UT 84043","precinct":"25LE21","hd":"53","v_score":"10.96719457","decile":"9","lat":40.42240618360612,"lng":-111.86176074687712},{"vid":"1891950","name":"Mrs. Annabelle Boyer","party":"","address":"497 W 2280 N, Lehi, UT 84043","precinct":"25LE21","hd":"53","v_score":"3.781490609","decile":"6","lat":40.416611869703125,"lng":-111.85738302921163},{"vid":"1892664","name":"Mr. Claiborne Muller","party":"Rep","address":"3015 N 300 W, Lehi, UT 84043","precinct":"25LE21","hd":"53","v_score":"22.76683584","decile":"10","lat":40.4257678469064,"lng":-111.85493989766242},{"vid":"1901976","name":"Dr. Demarion Skiles DDS","party":"","address":"319 W 2450 N, Lehi, UT 84043","precinct":"25LE21","hd":"53","v_score":"20.49533263","decile":"10","lat":40.41894528150311,"lng":-111.85473142318862},{"vid":"1907897","name":"Jaheim Nolan","party":"Dem","address":"402 W 2540 N, Lehi, UT 84043","precinct":"25LE21","hd":"53","v_score":"2.660162957","decile":"5","lat":40.420035107068074,"lng":-111.85582280999898},{"vid":"1914162","name":"Miss Ariane Rodriguez","party":"","address":"3013 N 425 W, Lehi, UT 84043","precinct":"25LE21","hd":"53","v_score":"5.360235423","decile":"7","lat":40.425764056657,"lng":-111.85623718297133},{"vid":"22cb57427865ef249c9d77117fb982c989cb8c1a05b83d80081ed1791b9ede79","name":"Maebelle Koepp","party":"Dem","address":"327 W 2800 N, Lehi, UT 84043","precinct":"25LE21","hd":"53","v_score":"9.757278238","decile":"8","lat":40.42320098128698,"lng":-111.8549387385001},{"vid":"1a8a89434e27261d580269ede34d164e8ee2a9f4741e85eafafbafa9cd513e0a","name":"Oley Nader","party":"Dem","address":"505 W Sandhill Dr, Lehi, UT 84043","precinct":"25LE21","hd":"53","v_score":"1.121327652","decile":"3","lat":40.42206341196604,"lng":-111.85773811581615},{"vid":"1918833","name":"Jake Cassin-Bashirian","party":"Dem","address":"2630 N 425 W, Lehi, UT 84043","precinct":"25LE21","hd":"53","v_score":"7.830610533","decile":"8","lat":40.4208968992364,"lng":-111.85596586607663},{"vid":"1924130","name":"Artie Farrell-Kihn","party":"","address":"350 W 2875 N, Lehi, UT 84043","precinct":"25LE21","hd":"53","v_score":"7.650280567","decile":"8","lat":40.42425435418398,"lng":-111.85523401668654},{"vid":"1933569","name":"Rube Treutel","party":"Dem","address":"481 W 2660 N, Lehi, UT 84043","precinct":"25LE21","hd":"53","v_score":"34.01018412","decile":"10","lat":40.42134329369224,"lng":-111.85708614117482},{"vid":"1940232","name":"Jaron Mayer","party":"Rep","address":"360 W 2450 N, Lehi, UT 84043","precinct":"25LE21","hd":"53","v_score":"8.507303088","decile":"8","lat":40.41922946546315,"lng":-111.85546892831321},{"vid":"1946384","name":"Clemens Swift-Braun","party":"Dem","address":"613 W Parkview Dr, Lehi, UT 84043","precinct":"25LE21","hd":"53","v_score":"0","decile":"1","lat":40.4228216656983,"lng":-111.8593277242319},{"vid":"2275f3905a5ad7fb96a2e1accb9ecb7deef7e76afa8394314dfa30644063a3f1","name":"Elda Gaylord","party":"","address":"692 W 3160 N, Lehi, UT 84043","precinct":"25LE21","hd":"53","v_score":"19.39001431","decile":"10","lat":40.42765082291593,"lng":-111.86023670414075},{"vid":"1949535","name":"Mr. Hosea Thiel","party":"","address":"668 W Sandhill Dr, Lehi, UT 84043","precinct":"25LE21","hd":"53","v_score":"8.363183621","decile":"8","lat":40.42250696234676,"lng":-111.86006622186615},{"vid":"ca7288dd9bccbf74fbb928f9ba75492847c5328ddc162fc1bea48bb2d4f8a31e","name":"Waldo Runolfsson","party":"Dem","address":"2630 N 425 W, Lehi, UT 84043","precinct":"25LE21","hd":"53","v_score":"5.40460374","decile":"7","lat":40.4208968992364,"lng":-111.85596586607663},{"vid":"1970335","name":"Esker White","party":"Rep","address":"329 W 2200 N, Lehi, UT 84043","precinct":"25LE21","hd":"53","v_score":"1.121327652","decile":"3","lat":40.414800634024346,"lng":-111.85461802067222},{"vid":"1971174","name":"Mrs. Trudie Rohan","party":"Dem","address":"420 W 2450 N, Lehi, UT 84043","precinct":"25LE21","hd":"53","v_score":"4.137918904","decile":"7","lat":40.41933666657121,"lng":-111.85622805932195},{"vid":"1971272","name":"Eldon Renner","party":"Rep","address":"341 W 2540 N, Lehi, UT 84043","precinct":"25LE21","hd":"53","v_score":"5.40460374","decile":"7","lat":40.41966607680084,"lng":-111.85509554461943},{"vid":"1973484","name":"Margretta Halvorson","party":"","address":"3062 N Park Villas Dr, Lehi, UT 84043","precinct":"25LE21","hd":"53","v_score":"2.744440783","decile":"5","lat":40.42631939425747,"lng":-111.86016125310017},{"vid":"1973701","name":"Hobart Pouros","party":"","address":"2669 N 425 W, Lehi, UT 84043","precinct":"25LE21","hd":"53","v_score":"6.896907962","decile":"8","lat":40.42158903049486,"lng":-111.85638279898055},{"vid":"1974038","name":"Ms. Cherry Schoen","party":"Rep","address":"327 W 2925 N, Lehi, UT 84043","precinct":"25LE21","hd":"53","v_score":"2.315214949","decile":"5","lat":40.42470685243315,"lng":-111.85469123916181},{"vid":"1977027","name":"Delle DuBuque","party":"","address":"2335 N 380 W, Lehi, UT 84043","precinct":"25LE21","hd":"53","v_score":"13.080119","decile":"9","lat":40.417656843902805,"lng":-111.85581039586529},{"vid":"1989149","name":"Mardell Denesik","party":"Dem","address":"567 W 2600 N, Lehi, UT 84043","precinct":"25LE21","hd":"53","v_score":"11.6505322","decile":"9","lat":40.420461725021326,"lng":-111.85860999691538},{"vid":"1989159","name":"Jaqueline Bashirian","party":"Dem","address":"567 W 2600 N, Lehi, UT 84043","precinct":"25LE21","hd":"53","v_score":"8.69195232","decile":"8","lat":40.420461725021326,"lng":-111.85860999691538},{"vid":"1989841","name":"Denis Schuppe III","party":"","address":"2991 N 425 W, Lehi, UT 84043","precinct":"25LE21","hd":"53","v_score":"2.587603312","decile":"5","lat":40.42545896655393,"lng":-111.85603352093628},{"vid":"1991439","name":"Dr. Aletha Kovacek MD","party":"Rep","address":"2360 N 600 W, Lehi, UT 84043","precinct":"25LE21","hd":"53","v_score":"4.069929862","decile":"6","lat":40.41811231597943,"lng":-111.85898901159274},{"vid":"1992381","name":"Dr. Elijah Lehner Sr.","party":"","address":"442 W 2375 N, Lehi, UT 84043","precinct":"25LE21","hd":"53","v_score":"0","decile":"1","lat":40.41853013520336,"lng":-111.85652793744539},{"vid":"1995902","name":"Alto Altenwerth","party":"","address":"456 W 2600 N, Lehi, UT 84043","precinct":"25LE21","hd":"53","v_score":"23.61947609","decile":"10","lat":40.42098366069362,"lng":-111.85680160416612},{"vid":"1998387","name":"Mr. Everette Ankunding","party":"Dem","address":"429 W 2200 N, Lehi, UT 84043","precinct":"25LE21","hd":"53","v_score":"6.881235673","decile":"8","lat":40.41473035488182,"lng":-111.85527284277144},{"vid":"2007194","name":"Libbie Bogan","party":"Rep","address":"652 W 3160 N, Lehi, UT 84043","precinct":"25LE21","hd":"53","v_score":"0","decile":"1","lat":40.42759118720726,"lng":-111.85955918123285},{"vid":"2009127","name":"Reynolds Oberbrunner","party":"Rep","address":"3117 N 325 W, Lehi, UT 84043","precinct":"25LE21","hd":"53","v_score":"4.192796624","decile":"7","lat":40.42697165367056,"lng":-111.85517422985181},{"vid":"2017910","name":"Dr. Milo Marquardt Sr.","party":"Dem","address":"2580 N 600 W, Lehi, UT 84043","precinct":"25LE21","hd":"53","v_score":"2.876042565","decile":"6","lat":40.42052924562738,"lng":-111.85901396032541},{"vid":"2024794","name":"Daquan Rohan","party":"","address":"698 W Ridgeline Dr, Lehi, UT 84043","precinct":"25LE21","hd":"53","v_score":"1.193887297","decile":"3","lat":40.42402855268774,"lng":-111.86048591154459},{"vid":"2026931","name":"Kanye Feest PhD","party":"","address":"401 W 2730 N, Lehi, UT 84043","precinct":"25LE21","hd":"53","v_score":"0","decile":"1","lat":40.422227882465485,"lng":-111.85593902592373},{"vid":"2027359","name":"Bryton Larson","party":"Dem","address":"2520 N 600 W, Lehi, UT 84043","precinct":"25LE21","hd":"53","v_score":"3.781490609","decile":"6","lat":40.41972344905366,"lng":-111.85902677673172},{"vid":"2043707","name":"Dr. Ovid Sauer","party":"Dem","address":"531 W 2600 N, Lehi, UT 84043","precinct":"25LE21","hd":"53","v_score":"1.193887297","decile":"3","lat":40.42046452351361,"lng":-111.85800081338861},{"vid":"f3c3b2892a364f4b2cee9ea2bdad01a1fa222ee380048dcf457caee454683b8c","name":"Aimee Mills","party":"Dem","address":"3157 N Park Cottage Way, Lehi, UT 84043","precinct":"25LE21","hd":"53","v_score":"6.724398202","decile":"8","lat":40.42739779437826,"lng":-111.85633392739516},{"vid":"6614cd1670dab849ac5fd26c869ac490f296f7aebbf0e91b4e7598442b12c7e8","name":"Maye Heidenreich","party":"Rep","address":"2391 N 380 W, Lehi, UT 84043","precinct":"25LE21","hd":"53","v_score":"0","decile":"1","lat":40.418422806444724,"lng":-111.85581442526842},{"vid":"8285fe4ecab361e412e69d70181675b9c72eae275fa589ee338c17fe0b603ffa","name":"Esley Waelchi","party":"Rep","address":"3158 N Park Place St, Lehi, UT 84043","precinct":"25LE21","hd":"53","v_score":"2.587603312","decile":"5","lat":40.42749596251452,"lng":-111.85908218238612},{"vid":"788041d97509594f0d5eb6f3db29dd305b3b677a900b1d9c8a7336e4efbe63dd","name":"Davonte Gorczany MD","party":"Dem","address":"744 W Ridgeline Dr, Lehi, UT 84043","precinct":"25LE21","hd":"53","v_score":"2.744440783","decile":"5","lat":40.4239666598602,"lng":-111.86153979921392},{"vid":"12458d11fee20f64cd0287ea506d69784320fe16b15e2bfc66a85e5888505612","name":"Virgie Casper PhD","party":"Dem","address":"2247 N 300 W, Lehi, UT 84043","precinct":"25LE21","hd":"53","v_score":"2.315214949","decile":"5","lat":40.416130936926955,"lng":-111.85478842337989},{"vid":"42260dc1534b4ffda536903cf591f26c4bec95f106d9898ff1623a083751c726","name":"Arietta Runolfsson","party":"Dem","address":"322 W 2375 N, Lehi, UT 84043","precinct":"25LE21","hd":"53","v_score":"6.027167436","decile":"7","lat":40.41842624337011,"lng":-111.85467563777578},{"vid":"2085502","name":"Tyriq Harber-Schaefer","party":"Dem","address":"3067 N Park Cottage Way, Lehi, UT 84043","precinct":"25LE21","hd":"53","v_score":"0","decile":"1","lat":40.42636371598558,"lng":-111.85624360793183},{"vid":"cfc0564c7a7e805ad45ccca6d41cb25a89f6eb5c9afff742d8028878b621cdab","name":"Howard McGlynn","party":"Dem","address":"496 W 2450 N, Lehi, UT 84043","precinct":"25LE21","hd":"53","v_score":"2.315214949","decile":"5","lat":40.41933292711549,"lng":-111.85744555590799},{"vid":"a6d7e80762d5babc4c3e8eef1d1854b828d8175824c5604477e9423eda74328a","name":"Luella Kuhic","party":"","address":"549 W 2280 N, Lehi, UT 84043","precinct":"25LE21","hd":"53","v_score":"1.121327652","decile":"3","lat":40.41660916885296,"lng":-111.85826627777215},{"vid":"2119837","name":"Dr. Gardner Kihn DVM","party":"Rep","address":"708 W 3160 N, Lehi, UT 84043","precinct":"25LE21","hd":"53","v_score":"2.315214949","decile":"5","lat":40.42772017020565,"lng":-111.86060336158512},{"vid":"2125812","name":"Merry Boyle","party":"Dem","address":"531 W 2325 N, Lehi, UT 84043","precinct":"25LE21","hd":"53","v_score":"8.421194992","decile":"8","lat":40.4173125732668,"lng":-111.8579755401864},{"vid":"2126501","name":"Cinthia Stark","party":"Rep","address":"2215 N 490 W, Lehi, UT 84043","precinct":"25LE21","hd":"53","v_score":"2.315214949","decile":"5","lat":40.41545022123822,"lng":-111.85670464468559},{"vid":"7a330a7d4e4f317275cbc58fc1ca087817d2eda86e4af267a740b440ced0055a","name":"Marilynn Corwin-Haag","party":"Dem","address":"3061 N Park Villas Dr, Lehi, UT 84043","precinct":"25LE21","hd":"53","v_score":"7.153624035","decile":"8","lat":40.4263003565339,"lng":-111.86055101473782},{"vid":"3425d1fdb9ec443ecee2ddc1b92dfbb01cf3c3df6421409ed2c5f77af7cd894d","name":"Dr. Crockett Graham","party":"","address":"2559 N 300 W, Lehi, UT 84043","precinct":"25LE21","hd":"53","v_score":"13.97135325","decile":"9","lat":40.42003899632532,"lng":-111.85468319730575},{"vid":"9303d161bc0960ac3637770bbcb85f7e5981d320b77460b667f1cc24c67ed1ae","name":"Leonard Kshlerin","party":"Rep","address":"369 W 2875 N, Lehi, UT 84043","precinct":"25LE21","hd":"53","v_score":"3.781490609","decile":"6","lat":40.4237546109193,"lng":-111.85555265899931},{"vid":"2130527","name":"Authur Schuster-Schinner","party":"Dem","address":"399 W 2800 N, Lehi, UT 84043","precinct":"25LE21","hd":"53","v_score":"2.315214949","decile":"5","lat":40.42302926915024,"lng":-111.85594073255844},{"vid":"2144236","name":"Felicie DuBuque","party":"Dem","address":"321 W 2375 N, Lehi, UT 84043","precinct":"25LE21","hd":"53","v_score":"7.013961469","decile":"8","lat":40.41812549925062,"lng":-111.85467422995046},{"vid":"8a3030ba1a7086471b2cecac76b183894a4085ad19c805f47f24e12e5c08cedb","name":"Zana Shields","party":"Dem","address":"320 W 2325 N, Lehi, UT 84043","precinct":"25LE21","hd":"53","v_score":"0","decile":"1","lat":40.417660279782034,"lng":-111.85467200364745},{"vid":"2148326","name":"Jereme Brakus","party":"Rep","address":"475 W 2540 N, Lehi, UT 84043","precinct":"25LE21","hd":"53","v_score":"0","decile":"1","lat":40.41962748039137,"lng":-111.85706153477781},{"vid":"7ce4d05e423093537d800406fb5e5c0542aae7bbe75968e78e89fbeef5e08671","name":"Dr. Mae Jenkins","party":"","address":"519 W Sandhill Dr, Lehi, UT 84043","precinct":"25LE21","hd":"53","v_score":"3.93832808","decile":"6","lat":40.42206245686306,"lng":-111.85805050765113},{"vid":"2164697","name":"Leticia Schmidt","party":"","address":"2215 N 490 W, Lehi, UT 84043","precinct":"25LE21","hd":"53","v_score":"2.660162957","decile":"5","lat":40.41545022123822,"lng":-111.85670464468559},{"vid":"2165852","name":"Dr. Edd Corkery I","party":"Rep","address":"419 W 2600 N, Lehi, UT 84043","precinct":"25LE21","hd":"53","v_score":"9.682978083","decile":"8","lat":40.42047287221146,"lng":-111.85617326119132},{"vid":"2167252","name":"Maddox Satterfield","party":"","address":"2644 N 780 W, Lehi, UT 84043","precinct":"25LE21","hd":"53","v_score":"3.781490609","decile":"6","lat":40.42128381884079,"lng":-111.86156495276052},{"vid":"d421f53707be318aa05a519ea0e80aed93e3635e6e05f1b4f8082881c3a97ed7","name":"Deacon Ziemann","party":"","address":"2630 N 425 W, Lehi, UT 84043","precinct":"25LE21","hd":"53","v_score":"13.75326469","decile":"9","lat":40.4208968992364,"lng":-111.85596586607663},{"vid":"2173532","name":"Cecelia Cassin","party":"","address":"512 W 2540 N, Lehi, UT 84043","precinct":"25LE21","hd":"53","v_score":"3.93832808","decile":"6","lat":40.42013882528215,"lng":-111.85775543030425},{"vid":"5e101e6c612ade50acfc7219b05608a83a9e301f6d4fac1ff1a2945abfd90960","name":"Toy Rempel","party":"Rep","address":"2954 N 425 W, Lehi, UT 84043","precinct":"25LE21","hd":"53","v_score":"0","decile":"1","lat":40.42503177697829,"lng":-111.8556593890393},{"vid":"1a535d5553833391f41e364f1273220d11f3841c7c6d3373a20ee55595a219c3","name":"Dr. Lovie Emmerich","party":"Dem","address":"322 W 2375 N, Lehi, UT 84043","precinct":"25LE21","hd":"53","v_score":"5.346711217","decile":"7","lat":40.41842624337011,"lng":-111.85467563777578},{"vid":"2184482","name":"Torrence Swaniawski","party":"Dem","address":"674 W 3160 N, Lehi, UT 84043","precinct":"25LE21","hd":"53","v_score":"4.069929862","decile":"6","lat":40.42772182491263,"lng":-111.8599928826877},{"vid":"0bc215a25985012bfeafc93b2f2d769f3d10e03144ab52aa1c481582130824b8","name":"Miss Rashida Conroy DDS","party":"Dem","address":"669 W Parkview Dr, Lehi, UT 84043","precinct":"25LE21","hd":"53","v_score":"3.93832808","decile":"6","lat":40.42279395905197,"lng":-111.8603745292412},{"vid":"85094e65f3f02fba528726655774d851827f70addb6432c180428253abc4f734","name":"Ms. Kaley Moen","party":"Dem","address":"3094 N Park Ridge Dr, Lehi, UT 84043","precinct":"25LE21","hd":"53","v_score":"19.5311795","decile":"10","lat":40.42658119373351,"lng":-111.86119434238563},{"vid":"0692b60334f34e0c54abebd98782bf51dfd4a21d2ccdb0e61081fbb82ea4d5d6","name":"Ms. Lashanda Green","party":"Rep","address":"421 W 2540 N, Lehi, UT 84043","precinct":"25LE21","hd":"53","v_score":"0","decile":"1","lat":40.41966262979979,"lng":-111.8562297582158},{"vid":"2214777","name":"Sterling Breitenberg","party":"Dem","address":"2241 N 430 W, Lehi, UT 84043","precinct":"25LE21","hd":"53","v_score":"0","decile":"1","lat":40.41609585168072,"lng":-111.85562753390101},{"vid":"951bbd1bd36ea706599181d9c74461ef4b93e935bf93c6dd97d69ce8e5d69077","name":"Donia Beatty","party":"Rep","address":"349 W 2875 N, Lehi, UT 84043","precinct":"25LE21","hd":"53","v_score":"2.315214949","decile":"5","lat":40.423756036425566,"lng":-111.85512854294382},{"vid":"ac75a7c9c12a7188a6d447fde4591fc1db11659543a6a30da0b51e93c1a0a7d6","name":"Branden Carroll","party":"","address":"2769 N 425 W, Lehi, UT 84043","precinct":"25LE21","hd":"53","v_score":"0","decile":"1","lat":40.42288449405513,"lng":-111.85638594506035},{"vid":"0b119e93dd6e9e6100012e716494a842842412d38e67c44222dae7b732356c45","name":"Selene O'Kon","party":"","address":"599 W Parkview Dr, Lehi, UT 84043","precinct":"25LE21","hd":"53","v_score":"7.090117576","decile":"8","lat":40.42290537330373,"lng":-111.85902817977163},{"vid":"2237024","name":"Diana O'Hara","party":"Dem","address":"515 W 2280 N, Lehi, UT 84043","precinct":"25LE21","hd":"53","v_score":"5.687348376","decile":"7","lat":40.416610970058095,"lng":-111.85767744539847},{"vid":"2242370","name":"Katherin Marvin","party":"Rep","address":"531 W 2600 N, Lehi, UT 84043","precinct":"25LE21","hd":"53","v_score":"4.064235245","decile":"6","lat":40.42046452351361,"lng":-111.85800081338861},{"vid":"512e405a439b18741bf843ce248dd894fcccd79d5515c74ecf51ec69231ce3cf","name":"Beadie Dickinson","party":"Rep","address":"494 W 2540 N, Lehi, UT 84043","precinct":"25LE21","hd":"53","v_score":"0","decile":"1","lat":40.420140034411716,"lng":-111.85745083836119},{"vid":"9668b033a2d84d75d53f02c458b55eeff0c1148c277b1f434b9a2245e754c667","name":"Alwin Zieme","party":"Rep","address":"400 W 2730 N, Lehi, UT 84043","precinct":"25LE21","hd":"53","v_score":"0","decile":"1","lat":40.42253047487382,"lng":-111.85596730510514},{"vid":"2253745","name":"Kate Bergnaum","party":"","address":"3126 N Park Cottage Way, Lehi, UT 84043","precinct":"25LE21","hd":"53","v_score":"2.315214949","decile":"5","lat":40.427094692151435,"lng":-111.85585150280252},{"vid":"2255667","name":"Dr. Kandy Wisozk PhD","party":"","address":"2580 N 600 W, Lehi, UT 84043","precinct":"25LE21","hd":"53","v_score":"3.997370217","decile":"6","lat":40.42052924562738,"lng":-111.85901396032541},{"vid":"cd6c4b8a89abdc516a3b76c13940bb12a335baa53af75fd54a44e8d88338ecf8","name":"Dr. Sunday Zemlak MD","party":"","address":"607 W 2660 N, Lehi, UT 84043","precinct":"25LE21","hd":"53","v_score":"3.93832808","decile":"6","lat":40.42127691857578,"lng":-111.85924489525615},{"vid":"68e41af1cb781dd4a3a362e227523022ed854f241b2ef0bbf719ef66a5042bb5","name":"Mrs. Claire Lemke MD","party":"","address":"744 W Ridgeline Dr, Lehi, UT 84043","precinct":"25LE21","hd":"53","v_score":"5.258122542","decile":"7","lat":40.4239666598602,"lng":-111.86153979921392},{"vid":"2b922ba48d40436a98aa30968c4f2f63db0880cf384238e3d046f6b6e6b37277","name":"Ms. Shanna Crona","party":"Dem","address":"607 W 2660 N, Lehi, UT 84043","precinct":"25LE21","hd":"53","v_score":"3.93832808","decile":"6","lat":40.42127691857578,"lng":-111.85924489525615},{"vid":"2263858","name":"Ewell Douglas I","party":"Dem","address":"550 W 2450 N, Lehi, UT 84043","precinct":"25LE21","hd":"53","v_score":"9.897826925","decile":"8","lat":40.41933013459451,"lng":-111.85835864236998},{"vid":"12ac9a5a48f96d14d648643b4e5d546fdc9ef92800f4c285ae78cc440dda1183","name":"Lyda Leuschke","party":"Dem","address":"529 W 2540 N, Lehi, UT 84043","precinct":"25LE21","hd":"53","v_score":"0","decile":"1","lat":40.41965705668496,"lng":-111.85805597461827},{"vid":"5a4d32acd7009c7b240089c58d2e2071d77d17cc9cd7b8d7eda84dd61e82e434","name":"Verl Schuster","party":"Rep","address":"3064 N Park Place St, Lehi, UT 84043","precinct":"25LE21","hd":"53","v_score":"1.623113131","decile":"5","lat":40.42632251778839,"lng":-111.85912674561888},{"vid":"6208bece24c14cf69fa78553cb2c80699c0ee7cf38490229b4ac3ae7c6f9e706","name":"Arminda Bauch","party":"","address":"362 W 3050 N, Lehi, UT 84043","precinct":"25LE21","hd":"53","v_score":"1.121327652","decile":"3","lat":40.426419505130646,"lng":-111.85509830316602},{"vid":"2278068","name":"Olen Durgan","party":"Rep","address":"711 W Sandhill Dr, Lehi, UT 84043","precinct":"25LE21","hd":"53","v_score":"1.121327652","decile":"3","lat":40.42206155455539,"lng":-111.8609894283888},{"vid":"866fb577dea174b4c0fe515ac2f692709578c737ae245d9490e47b224fb4f516","name":"Loraine Kassulke","party":"","address":"2979 N Park Ridge Dr, Lehi, UT 84043","precinct":"25LE21","hd":"53","v_score":"1.623113131","decile":"5","lat":40.425262919907404,"lng":-111.86138945033058},{"vid":"2283276","name":"Mr. Jaden Glover Sr.","party":"Dem","address":"774 W Parkview Dr, Lehi, UT 84043","precinct":"25LE21","hd":"53","v_score":"3.93832808","decile":"6","lat":40.423139077574845,"lng":-111.86176698352978},{"vid":"2287904","name":"Miss Celina Stracke PhD","party":"Dem","address":"551 W 2450 N, Lehi, UT 84043","precinct":"25LE21","hd":"53","v_score":"1.193887297","decile":"3","lat":40.4188506845424,"lng":-111.85829353714944},{"vid":"2288077","name":"Jakayla Bednar","party":"Rep","address":"2698 N 780 W, Lehi, UT 84043","precinct":"25LE21","hd":"53","v_score":"1.193887297","decile":"3","lat":40.42188304648513,"lng":-111.86153851342532},{"vid":"c84ea6bc53be2f44626e99c2b924c54f58e0dc307853253cb1d909c6e4cd9132","name":"Miss Rosita Douglas","party":"Rep","address":"401 W 2730 N, Lehi, UT 84043","precinct":"25LE21","hd":"53","v_score":"10.5601719","decile":"9","lat":40.422227882465485,"lng":-111.85593902592373},{"vid":"4c0e2841ed2ebae7e0df0319d08d970225867e7408f0144d18b0c508174eddb3","name":"Jacquez Botsford","party":"","address":"581 W 2325 N, Lehi, UT 84043","precinct":"25LE21","hd":"53","v_score":"0","decile":"1","lat":40.41734504680307,"lng":-111.85898211722},{"vid":"dff22db4720557ebf8cf2c72b89e044a7596d8d804915a025916db97c6cfbfe4","name":"Audy Heaney","party":"","address":"584 W 2280 N, Lehi, UT 84043","precinct":"25LE21","hd":"53","v_score":"3.93832808","decile":"6","lat":40.41694448884078,"lng":-111.85900454241117},{"vid":"2300886","name":"Annice Hoppe","party":"","address":"369 W 2875 N, Lehi, UT 84043","precinct":"25LE21","hd":"53","v_score":"10.7597751","decile":"9","lat":40.4237546109193,"lng":-111.85555265899931},{"vid":"2301082","name":"Shawnte Rice","party":"","address":"613 W Parkview Dr, Lehi, UT 84043","precinct":"25LE21","hd":"53","v_score":"3.93832808","decile":"6","lat":40.4228216656983,"lng":-111.8593277242319},{"vid":"2301427","name":"Goldia Casper","party":"Dem","address":"419 W 2600 N, Lehi, UT 84043","precinct":"25LE21","hd":"53","v_score":"6.954919332","decile":"8","lat":40.42047287221146,"lng":-111.85617326119132},{"vid":"e07c2514ea8e57a4ef52090bd37df3489d992daac908b8d7e8c41c4f06b9e1c3","name":"Dr. Orren Terry DDS","party":"Dem","address":"542 W Trail Side Dr, Lehi, UT 84043","precinct":"25LE21","hd":"53","v_score":"0","decile":"1","lat":40.42484891435641,"lng":-111.85886129181335},{"vid":"2303183","name":"Grayling Smith","party":"","address":"495 W 2325 N, Lehi, UT 84043","precinct":"25LE21","hd":"53","v_score":"2.315214949","decile":"5","lat":40.417314373222055,"lng":-111.85738670170416},{"vid":"2308133","name":"Heriberto Effertz-Lakin","party":"Rep","address":"744 W 3160 N, Lehi, UT 84043","precinct":"25LE21","hd":"53","v_score":"29.29144165","decile":"10","lat":40.427599990737825,"lng":-111.86124221820198},{"vid":"2320670","name":"Mr. Booker Renner V","party":"Rep","address":"2244 N 490 W, Lehi, UT 84043","precinct":"25LE21","hd":"53","v_score":"1.193887297","decile":"3","lat":40.41607141799276,"lng":-111.85615287196936},{"vid":"2328049","name":"Mr. Cleave Rippin DDS","party":"Dem","address":"359 W 2925 N, Lehi, UT 84043","precinct":"25LE21","hd":"53","v_score":"6.954919332","decile":"8","lat":40.42461613984811,"lng":-111.85512924042573},{"vid":"2331356","name":"Nery Simonis-Kunde","party":"Dem","address":"420 W 2325 N, Lehi, UT 84043","precinct":"25LE21","hd":"53","v_score":"9.61867875","decile":"8","lat":40.41774605660288,"lng":-111.85622456882807},{"vid":"2350772","name":"Jeptha Corkery","party":"Dem","address":"779 W 2920 N, Lehi, UT 84043","precinct":"25LE21","hd":"53","v_score":"2.744440783","decile":"5","lat":40.424251433872406,"lng":-111.86198613375049},{"vid":"2351942","name":"Babyboy Abernathy","party":"","address":"762 W Ridgeline Dr, Lehi, UT 84043","precinct":"25LE21","hd":"53","v_score":"0","decile":"1","lat":40.42396573049729,"lng":-111.86184023402333},{"vid":"2353905","name":"Josette Ledner","party":"","address":"566 W 2325 N, Lehi, UT 84043","precinct":"25LE21","hd":"53","v_score":"16.29714955","decile":"9","lat":40.41773867093808,"lng":-111.8586335503828},{"vid":"2356109","name":"Rutherford Champlin","party":"Rep","address":"495 W 2325 N, Lehi, UT 84043","precinct":"25LE21","hd":"53","v_score":"0","decile":"1","lat":40.417314373222055,"lng":-111.85738670170416},{"vid":"2357351","name":"Aretha Champlin","party":"","address":"2838 N 780 W, Lehi, UT 84043","precinct":"25LE21","hd":"53","v_score":"1.121327652","decile":"3","lat":40.42359985269998,"lng":-111.8617747224431},{"vid":"2359434","name":"Darwyn Rosenbaum DVM","party":"Rep","address":"3029 N Park Ridge Dr, Lehi, UT 84043","precinct":"25LE21","hd":"53","v_score":"10.52632313","decile":"9","lat":40.42586594964181,"lng":-111.86171771576618},{"vid":"2362500","name":"Rahn Schaefer","party":"Dem","address":"401 W 2730 N, Lehi, UT 84043","precinct":"25LE21","hd":"53","v_score":"2.876042565","decile":"6","lat":40.422227882465485,"lng":-111.85593902592373},{"vid":"2371204","name":"Roe Douglas","party":"Dem","address":"588 W 2375 N, Lehi, UT 84043","precinct":"25LE21","hd":"53","v_score":"3.93832808","decile":"6","lat":40.418412958627464,"lng":-111.8590205297952},{"vid":"2372196","name":"Gladis Huel PhD","party":"Dem","address":"2643 N 640 W, Lehi, UT 84043","precinct":"25LE21","hd":"53","v_score":"2.315214949","decile":"5","lat":40.421149056533004,"lng":-111.85998816114255},{"vid":"2373231","name":"Rayne Willms-Schulist","party":"Dem","address":"3115 N Park Villas Dr, Lehi, UT 84043","precinct":"25LE21","hd":"53","v_score":"3.93832808","decile":"6","lat":40.42694105225289,"lng":-111.86071018259116},{"vid":"2373694","name":"Leslie Sporer","party":"","address":"533 W 2450 N, Lehi, UT 84043","precinct":"25LE21","hd":"53","v_score":"1.121327652","decile":"3","lat":40.41885161507021,"lng":-111.85798941664224},{"vid":"2386355","name":"Mr. Dimitrios Hudson","party":"","address":"349 W 2875 N, Lehi, UT 84043","precinct":"25LE21","hd":"53","v_score":"0","decile":"1","lat":40.423756036425566,"lng":-111.85512854294382},{"vid":"2393795","name":"Harlow Shields PhD","party":"Dem","address":"359 W 2925 N, Lehi, UT 84043","precinct":"25LE21","hd":"53","v_score":"5.83359168","decile":"7","lat":40.42461613984811,"lng":-111.85512924042573},{"vid":"2400984","name":"Roberto Hessel","party":"","address":"2954 N 425 W, Lehi, UT 84043","precinct":"25LE21","hd":"53","v_score":"1.121327652","decile":"3","lat":40.42503177697829,"lng":-111.8556593890393},{"vid":"2402666","name":"Eithel Kerluke","party":"Rep","address":"367 W 2660 N, Lehi, UT 84043","precinct":"25LE21","hd":"53","v_score":"18.27552205","decile":"10","lat":40.42138426898774,"lng":-111.85540932625779},{"vid":"2403095","name":"Alfredo O'Conner II","party":"Dem","address":"708 W 3160 N, Lehi, UT 84043","precinct":"25LE21","hd":"53","v_score":"1.121327652","decile":"3","lat":40.42772017020565,"lng":-111.86060336158512},{"vid":"2403097","name":"Ashleigh McDermott-Renner","party":"Dem","address":"708 W 3160 N, Lehi, UT 84043","precinct":"25LE21","hd":"53","v_score":"2.315214949","decile":"5","lat":40.42772017020565,"lng":-111.86060336158512},{"vid":"2408905","name":"Pernell Marquardt","party":"","address":"321 W 2375 N, Lehi, UT 84043","precinct":"25LE21","hd":"53","v_score":"7.013961469","decile":"8","lat":40.41812549925062,"lng":-111.85467422995046},{"vid":"2409251","name":"Buena Wolf MD","party":"","address":"2242 N 430 W, Lehi, UT 84043","precinct":"25LE21","hd":"53","v_score":"1.121327652","decile":"3","lat":40.41609897216516,"lng":-111.85517937121743},{"vid":"2410115","name":"Lynsey Ernser","party":"","address":"514 W Parkview Dr, Lehi, UT 84043","precinct":"25LE21","hd":"53","v_score":"2.744440783","decile":"5","lat":40.42425874727648,"lng":-111.85774281762218},{"vid":"2410123","name":"Ms. Arvilla Flatley","party":"Rep","address":"514 W Parkview Dr, Lehi, UT 84043","precinct":"25LE21","hd":"53","v_score":"1.121327652","decile":"3","lat":40.42425874727648,"lng":-111.85774281762218},{"vid":"2411523","name":"Carly Friesen","party":"Dem","address":"534 W 2375 N, Lehi, UT 84043","precinct":"25LE21","hd":"53","v_score":"1.121327652","decile":"3","lat":40.418525465170525,"lng":-111.85804853351345},{"vid":"2411531","name":"Dr. Glenn Ziemann","party":"Rep","address":"534 W 2375 N, Lehi, UT 84043","precinct":"25LE21","hd":"53","v_score":"2.315214949","decile":"5","lat":40.418525465170525,"lng":-111.85804853351345},{"vid":"2412314","name":"Elenora Sporer","party":"","address":"349 W 2875 N, Lehi, UT 84043","precinct":"25LE21","hd":"53","v_score":"6.027167436","decile":"7","lat":40.423756036425566,"lng":-111.85512854294382},{"vid":"2413161","name":"Kennard Weissnat-Davis","party":"","address":"3115 N Park Villas Dr, Lehi, UT 84043","precinct":"25LE21","hd":"53","v_score":"3.93832808","decile":"6","lat":40.42694105225289,"lng":-111.86071018259116},{"vid":"2418857","name":"Vinton Goodwin","party":"Dem","address":"2242 N 430 W, Lehi, UT 84043","precinct":"25LE21","hd":"53","v_score":"6.52928996","decile":"7","lat":40.41609897216516,"lng":-111.85517937121743},{"vid":"2420161","name":"Calhoun Ferry","party":"Dem","address":"542 W 2660 N, Lehi, UT 84043","precinct":"25LE21","hd":"53","v_score":"3.93832808","decile":"6","lat":40.42174312153299,"lng":-111.85833763580607},{"vid":"2423797","name":"Dr. Kurtis Volkman","party":"Dem","address":"2852 N Trail Side Ct, Lehi, UT 84043","precinct":"25LE21","hd":"53","v_score":"2.315214949","decile":"5","lat":40.424001246651834,"lng":-111.85691258773075},{"vid":"2425847","name":"Julian Herman","party":"Dem","address":"372 W 2200 N, Lehi, UT 84043","precinct":"25LE21","hd":"53","v_score":"2.315214949","decile":"5","lat":40.41520077719684,"lng":-111.85505372391073},{"vid":"2426754","name":"Essie Kling","party":"Rep","address":"542 W Trail Side Dr, Lehi, UT 84043","precinct":"25LE21","hd":"53","v_score":"0","decile":"1","lat":40.42484891435641,"lng":-111.85886129181335},{"vid":"2426818","name":"Perry McGlynn","party":"","address":"588 W 2375 N, Lehi, UT 84043","precinct":"25LE21","hd":"53","v_score":"1.121327652","decile":"3","lat":40.418412958627464,"lng":-111.8590205297952},{"vid":"2427716","name":"Arely Price","party":"","address":"495 W 2325 N, Lehi, UT 84043","precinct":"25LE21","hd":"53","v_score":"4.137918904","decile":"7","lat":40.417314373222055,"lng":-111.85738670170416},{"vid":"2430399","name":"Darla Kemmer DVM","party":"Dem","address":"345 W 2800 N, Lehi, UT 84043","precinct":"25LE21","hd":"53","v_score":"3.93832808","decile":"6","lat":40.422968443304576,"lng":-111.85506575014298},{"vid":"2432961","name":"Dereck Kling","party":"","address":"475 W 2540 N, Lehi, UT 84043","precinct":"25LE21","hd":"53","v_score":"1.121327652","decile":"3","lat":40.41962748039137,"lng":-111.85706153477781},{"vid":"2439434","name":"Georgina Kihn-Abshire","party":"","address":"565 W 2325 N, Lehi, UT 84043","precinct":"25LE21","hd":"53","v_score":"2.315214949","decile":"5","lat":40.417310770712625,"lng":-111.85856437794995},{"vid":"2440520","name":"Falon Cartwright","party":"Dem","address":"744 W Ridgeline Dr, Lehi, UT 84043","precinct":"25LE21","hd":"53","v_score":"1.193887297","decile":"3","lat":40.4239666598602,"lng":-111.86153979921392},{"vid":"2441714","name":"Erie Runte","party":"Rep","address":"2809 N Trail Side Dr, Lehi, UT 84043","precinct":"25LE21","hd":"53","v_score":"2.315214949","decile":"5","lat":40.42315911479067,"lng":-111.85871564158995},{"vid":"2444046","name":"Florance Gutmann","party":"Rep","address":"2809 N Trail Side Dr, Lehi, UT 84043","precinct":"25LE21","hd":"53","v_score":"1.121327652","decile":"3","lat":40.42315911479067,"lng":-111.85871564158995},{"vid":"2444201","name":"Alphonsine Bartell-Altenwerth","party":"","address":"2655 N 640 W, Lehi, UT 84043","precinct":"25LE21","hd":"53","v_score":"2.315214949","decile":"5","lat":40.421383966090815,"lng":-111.8599890556849},{"vid":"2444211","name":"Littleton Schmidt","party":"","address":"2360 N 600 W, Lehi, UT 84043","precinct":"25LE21","hd":"53","v_score":"5.761032035","decile":"7","lat":40.41811231597943,"lng":-111.85898901159274},{"vid":"2448795","name":"Rahn Treutel DDS","party":"","address":"497 W 2280 N, Lehi, UT 84043","precinct":"25LE21","hd":"53","v_score":"1.121327652","decile":"3","lat":40.416611869703125,"lng":-111.85738302921163},{"vid":"2460706","name":"Thomas Cartwright-Lakin","party":"Rep","address":"459 W 2600 N, Lehi, UT 84043","precinct":"25LE21","hd":"53","v_score":"1.121327652","decile":"3","lat":40.420470083157234,"lng":-111.85678244597572},{"vid":"2463322","name":"Abe Lynch","party":"","address":"389 W 2225 N, Lehi, UT 84043","precinct":"25LE21","hd":"53","v_score":"14.63972567","decile":"9","lat":40.415491986294775,"lng":-111.85525179596297},{"vid":"2464820","name":"Hale Bednar-Blanda","party":"Dem","address":"441 W 2280 N, Lehi, UT 84043","precinct":"25LE21","hd":"53","v_score":"2.817000428","decile":"6","lat":40.41661456371385,"lng":-111.85649978011213},{"vid":"2468353","name":"Rillie Walsh DVM","party":"","address":"531 W 2325 N, Lehi, UT 84043","precinct":"25LE21","hd":"53","v_score":"0","decile":"1","lat":40.4173125732668,"lng":-111.8579755401864},{"vid":"2469189","name":"Miss Averie Blanda","party":"Rep","address":"531 W 2375 N, Lehi, UT 84043","precinct":"25LE21","hd":"53","v_score":"0","decile":"1","lat":40.4180459542602,"lng":-111.8580032215922},{"vid":"2473933","name":"Dr. Roby Walker DDS","party":"Rep","address":"3115 N Park Ridge Dr, Lehi, UT 84043","precinct":"25LE21","hd":"53","v_score":"5.83359168","decile":"7","lat":40.42693906587029,"lng":-111.86172342671576},{"vid":"2474431","name":"Terrence Feeney","party":"Dem","address":"422 W 2280 N, Lehi, UT 84043","precinct":"25LE21","hd":"53","v_score":"1.623113131","decile":"5","lat":40.417043386335635,"lng":-111.85626651440262},{"vid":"2492286","name":"Miss Missouri D'Amore MD","party":"Rep","address":"2994 N 425 W, Lehi, UT 84043","precinct":"25LE21","hd":"53","v_score":"0","decile":"1","lat":40.425474274226964,"lng":-111.85560240973389},{"vid":"2493596","name":"Jarvis Mueller MD","party":"","address":"2764 N Trail Side Dr, Lehi, UT 84043","precinct":"25LE21","hd":"53","v_score":"2.817000428","decile":"6","lat":40.42272674476168,"lng":-111.85794302187674},{"vid":"2496687","name":"Dusty Crist-Brakus","party":"Rep","address":"771 W Parkview Dr, Lehi, UT 84043","precinct":"25LE21","hd":"53","v_score":"1.193887297","decile":"3","lat":40.42284683313913,"lng":-111.86175984497297},{"vid":"2499321","name":"Queen Glover","party":"Dem","address":"2843 N Trail Side Dr, Lehi, UT 84043","precinct":"25LE21","hd":"53","v_score":"0","decile":"1","lat":40.42365695063813,"lng":-111.8593904864136},{"vid":"2511952","name":"Miss Yamilex Lindgren","party":"Rep","address":"476 W 2540 N, Lehi, UT 84043","precinct":"25LE21","hd":"53","v_score":"1.193887297","decile":"4","lat":40.420141256808854,"lng":-111.8571462465978},{"vid":"2512264","name":"Mr. Montana Runte","party":"","address":"774 W Parkview Dr, Lehi, UT 84043","precinct":"25LE21","hd":"53","v_score":"0","decile":"1","lat":40.423139077574845,"lng":-111.86176698352978},{"vid":"2520612","name":"Dr. Tavaris Zboncak IV","party":"Dem","address":"439 W 2325 N, Lehi, UT 84043","precinct":"25LE21","hd":"53","v_score":"0","decile":"1","lat":40.41731709456166,"lng":-111.85650344416052},{"vid":"2522842","name":"Candido Altenwerth","party":"Rep","address":"422 W 2540 N, Lehi, UT 84043","precinct":"25LE21","hd":"53","v_score":"0","decile":"1","lat":40.420144863406875,"lng":-111.85623247238561},{"vid":"2523178","name":"Dr. Lucero Fay","party":"Rep","address":"3014 N Park Place St, Lehi, UT 84043","precinct":"25LE21","hd":"53","v_score":"9.338633761","decile":"8","lat":40.425654350162986,"lng":-111.85905582480191},{"vid":"2524641","name":"Lawerence Kuhlman","party":"Dem","address":"744 W Sandhill Dr, Lehi, UT 84043","precinct":"25LE21","hd":"53","v_score":"0","decile":"1","lat":40.42240618360612,"lng":-111.86176074687712},{"vid":"2526678","name":"Isabel Steuber","party":"","address":"2681 N 640 W, Lehi, UT 84043","precinct":"25LE21","hd":"53","v_score":"0","decile":"1","lat":40.42161799138987,"lng":-111.8600689780771},{"vid":"2532726","name":"Teri Graham","party":"Dem","address":"757 W 2920 N, Lehi, UT 84043","precinct":"25LE21","hd":"53","v_score":"2.817000428","decile":"6","lat":40.42425241315278,"lng":-111.86166894760682},{"vid":"2533821","name":"Montie Klein","party":"","address":"367 W 2800 N, Lehi, UT 84043","precinct":"25LE21","hd":"53","v_score":"0","decile":"1","lat":40.42300940043692,"lng":-111.85538296943118},{"vid":"2534151","name":"Dr. Rona Connelly","party":"Rep","address":"421 W 2375 N, Lehi, UT 84043","precinct":"25LE21","hd":"53","v_score":"1.623113131","decile":"5","lat":40.41805137759363,"lng":-111.85622616010379},{"vid":"2536592","name":"Boone Wolff","party":"","address":"494 W 2540 N, Lehi, UT 84043","precinct":"25LE21","hd":"53","v_score":"1.193887297","decile":"4","lat":40.420140034411716,"lng":-111.85745083836119},{"vid":"2543603","name":"Dr. Lafayette Reichert III","party":"Dem","address":"2799 N 425 W, Lehi, UT 84043","precinct":"25LE21","hd":"53","v_score":"0","decile":"1","lat":40.42313699083727,"lng":-111.8563867812122},{"vid":"2544579","name":"Charlee Bergstrom PhD","party":"Rep","address":"421 W 2540 N, Lehi, UT 84043","precinct":"25LE21","hd":"53","v_score":"0","decile":"1","lat":40.41966262979979,"lng":-111.8562297582158},{"vid":"2547904","name":"Meg Yundt","party":"Rep","address":"2559 N 300 W, Lehi, UT 84043","precinct":"25LE21","hd":"53","v_score":"5.407962308","decile":"7","lat":40.42003899632532,"lng":-111.85468319730575},{"vid":"2548772","name":"Elianna Ebert","party":"Rep","address":"329 W 2225 N, Lehi, UT 84043","precinct":"25LE21","hd":"53","v_score":"0","decile":"1","lat":40.41555634331087,"lng":-111.85462506929368},{"vid":"2548853","name":"Derrick Rogahn","party":"Rep","address":"398 W 2660 N, Lehi, UT 84043","precinct":"25LE21","hd":"53","v_score":"1.193887297","decile":"4","lat":40.421732742791434,"lng":-111.85591314942448},{"vid":"2550868","name":"Solon Sanford I","party":"","address":"455 W 2925 N, Lehi, UT 84043","precinct":"25LE21","hd":"53","v_score":"3.711952487","decile":"6","lat":40.424619115285054,"lng":-111.85623664865336},{"vid":"2553470","name":"Mr. Alston Brown","party":"","address":"2820 N Park View Ct, Lehi, UT 84043","precinct":"25LE21","hd":"53","v_score":"1.193887297","decile":"4","lat":40.42333316445262,"lng":-111.85693222996514},{"vid":"2556216","name":"Jaylene Weimann MD","party":"","address":"350 W 2730 N, Lehi, UT 84043","precinct":"25LE21","hd":"53","v_score":"1.193887297","decile":"4","lat":40.422665185328995,"lng":-111.855188088521},{"vid":"2561350","name":"Olive Reichel","party":"Dem","address":"479 W 2225 N, Lehi, UT 84043","precinct":"25LE21","hd":"53","v_score":"5.693042993","decile":"7","lat":40.4155442167164,"lng":-111.85620603466569},{"vid":"2577812","name":"Dr. Arnett Jacobs","party":"","address":"348 W 2660 N, Lehi, UT 84043","precinct":"25LE21","hd":"53","v_score":"1.193887297","decile":"4","lat":40.42178631665393,"lng":-111.85506454767264},{"vid":"2589561","name":"Florance Hyatt","party":"Rep","address":"2773 N Park View Ct, Lehi, UT 84043","precinct":"25LE21","hd":"53","v_score":"7.549608095","decile":"8","lat":40.42271504330023,"lng":-111.8575284472322},{"vid":"2589926","name":"Shon Vandervort","party":"Dem","address":"3127 N 325 W, Lehi, UT 84043","precinct":"25LE21","hd":"53","v_score":"10.06767328","decile":"9","lat":40.42715266936492,"lng":-111.85509582330678},{"vid":"2590383","name":"Unknown Crist","party":"Dem","address":"3127 N 325 W, Lehi, UT 84043","precinct":"25LE21","hd":"53","v_score":"4.732607667","decile":"7","lat":40.42715266936492,"lng":-111.85509582330678},{"vid":"2590451","name":"Deborah Crooks DVM","party":"","address":"2423 N 380 W, Lehi, UT 84043","precinct":"25LE21","hd":"53","v_score":"2.817000428","decile":"6","lat":40.41892762987032,"lng":-111.85581706408776},{"vid":"2592670","name":"Dr. Ladonna Kreiger DVM","party":"Dem","address":"402 W 2540 N, Lehi, UT 84043","precinct":"25LE21","hd":"53","v_score":"1.193887297","decile":"4","lat":40.420035107068074,"lng":-111.85582280999898},{"vid":"2594609","name":"Rice Jerde","party":"Dem","address":"360 W 2450 N, Lehi, UT 84043","precinct":"25LE21","hd":"53","v_score":"0","decile":"1","lat":40.41922946546315,"lng":-111.85546892831321},{"vid":"2603687","name":"Ada Kessler","party":"Dem","address":"2788 N Park View Ct, Lehi, UT 84043","precinct":"25LE21","hd":"53","v_score":"0","decile":"1","lat":40.4228129125015,"lng":-111.85689879433401},{"vid":"2606998","name":"Geno Collier","party":"Dem","address":"3123 N Park Cottage Way, Lehi, UT 84043","precinct":"25LE21","hd":"53","v_score":"1.193887297","decile":"4","lat":40.42704997332878,"lng":-111.85626799051431},{"vid":"2608379","name":"Judy Rowe DDS","party":"Dem","address":"583 W Trail Side Dr, Lehi, UT 84043","precinct":"25LE21","hd":"53","v_score":"8.284004873","decile":"8","lat":40.424226199533344,"lng":-111.85882156925477},{"vid":"2616779","name":"Deanne Skiles","party":"","address":"534 W 2375 N, Lehi, UT 84043","precinct":"25LE21","hd":"53","v_score":"2.817000428","decile":"6","lat":40.418525465170525,"lng":-111.85804853351345},{"vid":"2621093","name":"Mr. Alvan Kuhic DVM","party":"","address":"3015 N 300 W, Lehi, UT 84043","precinct":"25LE21","hd":"53","v_score":"4.499155696","decile":"7","lat":40.4257678469064,"lng":-111.85493989766242},{"vid":"2625154","name":"Zelda Toy","party":"Rep","address":"441 W 3200 N, Lehi, UT 84043","precinct":"25LE21","hd":"53","v_score":"16.72856503","decile":"9","lat":40.427721577259504,"lng":-111.85592577344953},{"vid":"2632617","name":"Beatrice Jast","party":"Dem","address":"2644 N 780 W, Lehi, UT 84043","precinct":"25LE21","hd":"53","v_score":"2.817000428","decile":"6","lat":40.42128381884079,"lng":-111.86156495276052},{"vid":"2634061","name":"Crawford Mayert","party":"Rep","address":"419 W 2600 N, Lehi, UT 84043","precinct":"25LE21","hd":"53","v_score":"2.817000428","decile":"6","lat":40.42047287221146,"lng":-111.85617326119132},{"vid":"2637141","name":"Zita Will","party":"Rep","address":"476 W 2540 N, Lehi, UT 84043","precinct":"25LE21","hd":"53","v_score":"1.193887297","decile":"4","lat":40.420141256808854,"lng":-111.8571462465978},{"vid":"2640592","name":"Clare Leuschke","party":"Rep","address":"400 W 2875 N, Lehi, UT 84043","precinct":"25LE21","hd":"53","v_score":"0","decile":"1","lat":40.424166960760346,"lng":-111.85602057518406},{"vid":"2644628","name":"Kenna Murray","party":"","address":"3013 N 425 W, Lehi, UT 84043","precinct":"25LE21","hd":"53","v_score":"2.817000428","decile":"6","lat":40.425764056657,"lng":-111.85623718297133},{"vid":"2649135","name":"Rahn Barrows","party":"Dem","address":"459 W 2325 N, Lehi, UT 84043","precinct":"25LE21","hd":"53","v_score":"0","decile":"1","lat":40.41731619725139,"lng":-111.85679786304227},{"vid":"2655576","name":"Ruthann Keeling-Casper","party":"Rep","address":"329 W 2225 N, Lehi, UT 84043","precinct":"25LE21","hd":"53","v_score":"4.069929862","decile":"6","lat":40.41555634331087,"lng":-111.85462506929368},{"vid":"2658123","name":"Timmothy Prosacco","party":"Rep","address":"549 W 2375 N, Lehi, UT 84043","precinct":"25LE21","hd":"53","v_score":"0","decile":"1","lat":40.41804507528865,"lng":-111.85829046275519},{"vid":"2658965","name":"Dirk Abernathy","party":"","address":"2242 N 430 W, Lehi, UT 84043","precinct":"25LE21","hd":"53","v_score":"4.214075011","decile":"7","lat":40.41609897216516,"lng":-111.85517937121743},{"vid":"2659373","name":"Gussie Hilll-Toy","party":"Dem","address":"570 W 2375 N, Lehi, UT 84043","precinct":"25LE21","hd":"53","v_score":"1.193887297","decile":"4","lat":40.41852360287482,"lng":-111.85865673446298},{"vid":"2665350","name":"Jessye Carter MD","party":"Dem","address":"2945 N Park Place Ct, Lehi, UT 84043","precinct":"25LE21","hd":"53","v_score":"1.193887297","decile":"4","lat":40.424872489068534,"lng":-111.86014222014461},{"vid":"2669336","name":"Charle Hegmann","party":"Rep","address":"477 W 2600 N, Lehi, UT 84043","precinct":"25LE21","hd":"53","v_score":"1.193887297","decile":"4","lat":40.42046871482322,"lng":-111.85708703702045},{"vid":"2669651","name":"Parthenia Wyman","party":"Dem","address":"342 W 2540 N, Lehi, UT 84043","precinct":"25LE21","hd":"53","v_score":"1.193887297","decile":"4","lat":40.42014936180602,"lng":-111.8550977974145},{"vid":"2672009","name":"Garnett Medhurst","party":"Dem","address":"477 W 2450 N, Lehi, UT 84043","precinct":"25LE21","hd":"53","v_score":"0","decile":"2","lat":40.41885440282372,"lng":-111.85707705476136},{"vid":"2673155","name":"Mr. Maddox Rogahn Sr.","party":"Rep","address":"3064 N Park Place St, Lehi, UT 84043","precinct":"25LE21","hd":"53","v_score":"0","decile":"2","lat":40.42632251778839,"lng":-111.85912674561888},{"vid":"2684447","name":"Dr. Nayely Feeney DDS","party":"Rep","address":"479 W 2325 N, Lehi, UT 84043","precinct":"25LE21","hd":"53","v_score":"0","decile":"2","lat":40.4173152719002,"lng":-111.85709228210374},{"vid":"2685264","name":"Donnell Douglas","party":"Dem","address":"3047 N Park Cottage Way, Lehi, UT 84043","precinct":"25LE21","hd":"53","v_score":"1.193887297","decile":"4","lat":40.42609289958221,"lng":-111.85617681429774},{"vid":"2686679","name":"Genie Ernser","party":"","address":"2221 N 490 W, Lehi, UT 84043","precinct":"25LE21","hd":"53","v_score":"0","decile":"2","lat":40.415669756934946,"lng":-111.85670688149067},{"vid":"2688749","name":"Koby Spinka-Schroeder","party":"","address":"732 W Parkview Dr, Lehi, UT 84043","precinct":"25LE21","hd":"53","v_score":"7.090117576","decile":"8","lat":40.42324132605499,"lng":-111.86107508257149},{"vid":"2691776","name":"Dr. Webb Pfannerstill I","party":"Dem","address":"762 W 2920 N, Lehi, UT 84043","precinct":"25LE21","hd":"53","v_score":"0","decile":"2","lat":40.42474480096731,"lng":-111.8616868748358},{"vid":"2693319","name":"Cortney Veum","party":"Rep","address":"2621 N 425 W, Lehi, UT 84043","precinct":"25LE21","hd":"53","v_score":"0","decile":"2","lat":40.42089399158904,"lng":-111.85630611664084},{"vid":"2694801","name":"Bailey Johnston Sr.","party":"","address":"530 W 2540 N, Lehi, UT 84043","precinct":"25LE21","hd":"53","v_score":"1.193887297","decile":"4","lat":40.42013760083331,"lng":-111.85806002224729},{"vid":"2700612","name":"Kellie Langworth PhD","party":"Rep","address":"582 W 2325 N, Lehi, UT 84043","precinct":"25LE21","hd":"53","v_score":"0","decile":"2","lat":40.41764701260282,"lng":-111.85901072240608},{"vid":"2705868","name":"Dr. Lawerence Bogisich","party":"","address":"734 W Sandhill Dr, Lehi, UT 84043","precinct":"25LE21","hd":"53","v_score":"0","decile":"2","lat":40.42250295115943,"lng":-111.86135887959367},{"vid":"2707222","name":"Aditya Kub III","party":"Dem","address":"511 W 2540 N, Lehi, UT 84043","precinct":"25LE21","hd":"53","v_score":"2.876042565","decile":"6","lat":40.41965798733842,"lng":-111.85775163456283},{"vid":"2708216","name":"Lucy Huel-Rosenbaum","party":"Rep","address":"355 W 3200 N, Lehi, UT 84043","precinct":"25LE21","hd":"53","v_score":"1.193887297","decile":"4","lat":40.42778061409944,"lng":-111.85501863068515},{"vid":"2708558","name":"Zebulon Wolff","party":"Dem","address":"3037 N Park Place St, Lehi, UT 84043","precinct":"25LE21","hd":"53","v_score":"8.284004873","decile":"8","lat":40.42599396246326,"lng":-111.85968133041814},{"vid":"2715898","name":"Kayden Strosin","party":"","address":"355 W 3200 N, Lehi, UT 84043","precinct":"25LE21","hd":"53","v_score":"1.193887297","decile":"4","lat":40.42778061409944,"lng":-111.85501863068515},{"vid":"2726279","name":"Anika Brakus DDS","party":"","address":"362 W 2280 N, Lehi, UT 84043","precinct":"25LE21","hd":"53","v_score":"1.193887297","decile":"4","lat":40.41704607171156,"lng":-111.85538325973359},{"vid":"2729555","name":"Hetty Koch","party":"","address":"513 W 2450 N, Lehi, UT 84043","precinct":"25LE21","hd":"53","v_score":"4.214075011","decile":"7","lat":40.418852545187676,"lng":-111.85768529631474},{"vid":"2729629","name":"Jamie Wilkinson","party":"","address":"511 W 2375 N, Lehi, UT 84043","precinct":"25LE21","hd":"53","v_score":"0","decile":"2","lat":40.41804683282136,"lng":-111.8577159804292},{"vid":"2735192","name":"Leana Nitzsche","party":"Rep","address":"322 W 2375 N, Lehi, UT 84043","precinct":"25LE21","hd":"53","v_score":"0","decile":"2","lat":40.41842624337011,"lng":-111.85467563777578},{"vid":"2735784","name":"Cornelius Osinski-Thiel","party":"Dem","address":"586 W 2450 N, Lehi, UT 84043","precinct":"25LE21","hd":"53","v_score":"1.193887297","decile":"4","lat":40.41921855670149,"lng":-111.85902703674716},{"vid":"2737611","name":"Dr. Elana Sporer MD","party":"","address":"537 W Sandhill Dr, Lehi, UT 84043","precinct":"25LE21","hd":"53","v_score":"1.193887297","decile":"4","lat":40.4220615538715,"lng":-111.85834566207346},{"vid":"2738779","name":"Roselyn Kiehn","party":"Rep","address":"3126 N Park Cottage Way, Lehi, UT 84043","precinct":"25LE21","hd":"53","v_score":"1.193887297","decile":"4","lat":40.427094692151435,"lng":-111.85585150280252},{"vid":"2747271","name":"Alvia Herzog-Hand","party":"Dem","address":"361 W 2540 N, Lehi, UT 84043","precinct":"25LE21","hd":"53","v_score":"0","decile":"2","lat":40.41973433044263,"lng":-111.85546741767641},{"vid":"2750874","name":"Gabriel Hills V","party":"","address":"2946 N Park Place Ct, Lehi, UT 84043","precinct":"25LE21","hd":"53","v_score":"0","decile":"2","lat":40.424942781061056,"lng":-111.85952454310977},{"vid":"2755217","name":"Octave Gleason-Haag","party":"","address":"2643 N 640 W, Lehi, UT 84043","precinct":"25LE21","hd":"53","v_score":"1.193887297","decile":"4","lat":40.421149056533004,"lng":-111.85998816114255},{"vid":"2760496","name":"Corie Haley","party":"Dem","address":"2681 N 640 W, Lehi, UT 84043","precinct":"25LE21","hd":"53","v_score":"0","decile":"2","lat":40.42161799138987,"lng":-111.8600689780771},{"vid":"2771169","name":"Karlie Skiles-Schroeder","party":"Rep","address":"533 W Parkview Dr, Lehi, UT 84043","precinct":"25LE21","hd":"53","v_score":"0","decile":"2","lat":40.42339003170901,"lng":-111.85842394834103},{"vid":"2771792","name":"Demond Keebler","party":"Rep","address":"679 W 3160 N, Lehi, UT 84043","precinct":"25LE21","hd":"53","v_score":"1.193887297","decile":"4","lat":40.42729711639757,"lng":-111.86018676240434},{"vid":"2771838","name":"Dixie Howell MD","party":"","address":"367 W 2660 N, Lehi, UT 84043","precinct":"25LE21","hd":"53","v_score":"1.193887297","decile":"4","lat":40.42138426898774,"lng":-111.85540932625779},{"vid":"2776569","name":"Jeremy Emard-Champlin","party":"Dem","address":"561 W 2660 N, Lehi, UT 84043","precinct":"25LE21","hd":"53","v_score":"0","decile":"2","lat":40.42127874372871,"lng":-111.85865003482758},{"vid":"2777507","name":"Brian Lindgren-Walker","party":"","address":"372 W 2200 N, Lehi, UT 84043","precinct":"25LE21","hd":"53","v_score":"1.193887297","decile":"4","lat":40.41520077719684,"lng":-111.85505372391073},{"vid":"2777920","name":"Wirt Toy","party":"","address":"3112 N Park Place St, Lehi, UT 84043","precinct":"25LE21","hd":"53","v_score":"0","decile":"2","lat":40.42691384753152,"lng":-111.85903793545208},{"vid":"2780606","name":"Chalmers Kilback-Corkery","party":"Dem","address":"337 W 3200 N, Lehi, UT 84043","precinct":"25LE21","hd":"53","v_score":"0","decile":"2","lat":40.42778114884597,"lng":-111.85488935592925},{"vid":"2789639","name":"Fernando Homenick-Koss","party":"Dem","address":"3123 N Park Cottage Way, Lehi, UT 84043","precinct":"25LE21","hd":"53","v_score":"0","decile":"2","lat":40.42704997332878,"lng":-111.85626799051431},{"vid":"2789858","name":"Valinda Block","party":"Dem","address":"3061 N Park Villas Dr, Lehi, UT 84043","precinct":"25LE21","hd":"53","v_score":"1.193887297","decile":"4","lat":40.4263003565339,"lng":-111.86055101473782},{"vid":"2790051","name":"Brennon Casper-Hegmann","party":"Rep","address":"2994 N 425 W, Lehi, UT 84043","precinct":"25LE21","hd":"53","v_score":"0","decile":"2","lat":40.425474274226964,"lng":-111.85560240973389},{"vid":"2790291","name":"Theola Labadie","party":"Rep","address":"2391 N 380 W, Lehi, UT 84043","precinct":"25LE21","hd":"53","v_score":"0","decile":"2","lat":40.418422806444724,"lng":-111.85581442526842},{"vid":"2793783","name":"Miss Whitney Windler DDS","party":"","address":"3016 N 425 W, Lehi, UT 84043","precinct":"25LE21","hd":"53","v_score":"1.193887297","decile":"4","lat":40.42576624261872,"lng":-111.8554864193862},{"vid":"2794043","name":"Shonda O'Kon","party":"","address":"491 W 2200 N, Lehi, UT 84043","precinct":"25LE21","hd":"53","v_score":"0","decile":"2","lat":40.415036311012955,"lng":-111.85642425582026},{"vid":"2796662","name":"Holly Leuschke","party":"Dem","address":"340 W 2325 N, Lehi, UT 84043","precinct":"25LE21","hd":"53","v_score":"5.407962308","decile":"7","lat":40.41774951601269,"lng":-111.85508605589476},{"vid":"2801033","name":"Deontae Padberg","party":"","address":"2698 N 780 W, Lehi, UT 84043","precinct":"25LE21","hd":"53","v_score":"0","decile":"2","lat":40.42188304648513,"lng":-111.86153851342532},{"vid":"2801933","name":"Dr. Governor Kutch","party":"","address":"345 W 2800 N, Lehi, UT 84043","precinct":"25LE21","hd":"53","v_score":"1.193887297","decile":"4","lat":40.422968443304576,"lng":-111.85506575014298},{"vid":"2802862","name":"Katia D'Amore","party":"","address":"441 W 2540 N, Lehi, UT 84043","precinct":"25LE21","hd":"53","v_score":"1.193887297","decile":"4","lat":40.4196617028395,"lng":-111.8565341336649},{"vid":"2802918","name":"Jere Emmerich","party":"","address":"367 W 2800 N, Lehi, UT 84043","precinct":"25LE21","hd":"53","v_score":"0","decile":"2","lat":40.42300940043692,"lng":-111.85538296943118},{"vid":"2803552","name":"Lulla Johnston MD","party":"Rep","address":"583 W Trail Side Dr, Lehi, UT 84043","precinct":"25LE21","hd":"53","v_score":"7.090117576","decile":"8","lat":40.424226199533344,"lng":-111.85882156925477},{"vid":"2808626","name":"Douglass Lubowitz-Lueilwitz","party":"Rep","address":"698 W Ridgeline Dr, Lehi, UT 84043","precinct":"25LE21","hd":"53","v_score":"1.193887297","decile":"4","lat":40.42402855268774,"lng":-111.86048591154459},{"vid":"2810101","name":"Jacob Dicki","party":"","address":"2391 N 380 W, Lehi, UT 84043","precinct":"25LE21","hd":"53","v_score":"1.193887297","decile":"4","lat":40.418422806444724,"lng":-111.85581442526842},{"vid":"2811859","name":"Finley Quigley II","party":"Dem","address":"567 W 2375 N, Lehi, UT 84043","precinct":"25LE21","hd":"53","v_score":"1.193887297","decile":"4","lat":40.418044195769966,"lng":-111.85857770481651},{"vid":"2812659","name":"Mr. Karl Jacobi V","party":"","address":"2773 N Park View Ct, Lehi, UT 84043","precinct":"25LE21","hd":"53","v_score":"1.193887297","decile":"4","lat":40.42271504330023,"lng":-111.8575284472322},{"vid":"2815571","name":"Alissa Blanda","party":"","address":"3081 N Park Cottage Way, Lehi, UT 84043","precinct":"25LE21","hd":"53","v_score":"1.193887297","decile":"4","lat":40.42659991807784,"lng":-111.85626616549698},{"vid":"2816827","name":"Ms. Darcie Baumbach DVM","party":"Rep","address":"533 W 2660 N, Lehi, UT 84043","precinct":"25LE21","hd":"53","v_score":"0","decile":"2","lat":40.42128065641886,"lng":-111.85802526373399},{"vid":"2817394","name":"Mr. Christop Oberbrunner DVM","party":"","address":"513 W 2450 N, Lehi, UT 84043","precinct":"25LE21","hd":"53","v_score":"0","decile":"2","lat":40.418852545187676,"lng":-111.85768529631474},{"vid":"2818918","name":"Lucy Littel","party":"Dem","address":"547 W 2325 N, Lehi, UT 84043","precinct":"25LE21","hd":"53","v_score":"1.193887297","decile":"4","lat":40.41731167253685,"lng":-111.85826995960716},{"vid":"2822714","name":"Pratt Abernathy","party":"","address":"513 W 2600 N, Lehi, UT 84043","precinct":"25LE21","hd":"53","v_score":"1.193887297","decile":"4","lat":40.420465921118364,"lng":-111.85769622162522},{"vid":"2823908","name":"Miss Isla Douglas","party":"Rep","address":"470 W 2225 N, Lehi, UT 84043","precinct":"25LE21","hd":"53","v_score":"1.193887297","decile":"4","lat":40.41583276941718,"lng":-111.85620725715923},{"vid":"2825961","name":"Mrs. Selma Hilpert DVM","party":"Dem","address":"534 W 2280 N, Lehi, UT 84043","precinct":"25LE21","hd":"53","v_score":"2.876042565","decile":"6","lat":40.41703796743483,"lng":-111.85803302212379},{"vid":"2826991","name":"Dola Williamson","party":"Rep","address":"570 W 2375 N, Lehi, UT 84043","precinct":"25LE21","hd":"53","v_score":"1.193887297","decile":"4","lat":40.41852360287482,"lng":-111.85865673446298},{"vid":"2830824","name":"Mateo Hauck","party":"Dem","address":"376 W 2600 N, Lehi, UT 84043","precinct":"25LE21","hd":"53","v_score":"2.876042565","decile":"6","lat":40.4210321861021,"lng":-111.85555238606115},{"vid":"2834583","name":"Dr. Jep Leffler PhD","party":"","address":"3081 N Park Cottage Way, Lehi, UT 84043","precinct":"25LE21","hd":"53","v_score":"0","decile":"2","lat":40.42659991807784,"lng":-111.85626616549698},{"vid":"2836669","name":"Ahmad Jones","party":"","address":"350 W 2730 N, Lehi, UT 84043","precinct":"25LE21","hd":"53","v_score":"0","decile":"2","lat":40.422665185328995,"lng":-111.855188088521},{"vid":"2836819","name":"Dr. Donato Schaefer","party":"","address":"2662 N Park View Ct, Lehi, UT 84043","precinct":"25LE21","hd":"53","v_score":"1.193887297","decile":"4","lat":40.42146088400202,"lng":-111.85692238186554},{"vid":"2837163","name":"Carmen VonRueden-Ullrich","party":"","address":"2769 N 425 W, Lehi, UT 84043","precinct":"25LE21","hd":"53","v_score":"1.193887297","decile":"4","lat":40.42288449405513,"lng":-111.85638594506035},{"vid":"2837194","name":"Dottie Satterfield","party":"Rep","address":"330 W 2225 N, Lehi, UT 84043","precinct":"25LE21","hd":"53","v_score":"1.193887297","decile":"4","lat":40.41582400163613,"lng":-111.85466489997891},{"vid":"2839223","name":"Kalene Greenholt-Stiedemann","party":"","address":"520 W Parkview Dr, Lehi, UT 84043","precinct":"25LE21","hd":"53","v_score":"1.193887297","decile":"4","lat":40.42421129353488,"lng":-111.85804832780236},{"vid":"2841335","name":"Lovell Botsford","party":"Dem","address":"477 W 2600 N, Lehi, UT 84043","precinct":"25LE21","hd":"53","v_score":"0","decile":"2","lat":40.42046871482322,"lng":-111.85708703702045},{"vid":"2846326","name":"Dola Armstrong","party":"Dem","address":"583 W Trail Side Dr, Lehi, UT 84043","precinct":"25LE21","hd":"53","v_score":"4.069929862","decile":"7","lat":40.424226199533344,"lng":-111.85882156925477},{"vid":"2850482","name":"Sharleen Abbott DVM","party":"Dem","address":"322 W 2375 N, Lehi, UT 84043","precinct":"25LE21","hd":"53","v_score":"1.193887297","decile":"4","lat":40.41842624337011,"lng":-111.85467563777578},{"vid":"2851008","name":"Ms. Queenie Cruickshank","party":"","address":"803 W 2920 N, Lehi, UT 84043","precinct":"25LE21","hd":"53","v_score":"0","decile":"2","lat":40.424308610491764,"lng":-111.8623880064134},{"vid":"2852704","name":"Kaitlyn Gislason","party":"Rep","address":"648 W Parkview Dr, Lehi, UT 84043","precinct":"25LE21","hd":"53","v_score":"1.193887297","decile":"4","lat":40.423214496419156,"lng":-111.86004541296151},{"vid":"2853198","name":"Beda Ortiz","party":"","address":"430 W 2200 N, Lehi, UT 84043","precinct":"25LE21","hd":"53","v_score":"1.193887297","decile":"4","lat":40.41519930151274,"lng":-111.85534095016168},{"vid":"2855155","name":"Grove Nienow","party":"","address":"332 W 2200 N, Lehi, UT 84043","precinct":"25LE21","hd":"53","v_score":"1.193887297","decile":"4","lat":40.415097269197474,"lng":-111.85464443624151},{"vid":"2855394","name":"Leonardo Hoppe DDS","party":"Dem","address":"2951 N 425 W, Lehi, UT 84043","precinct":"25LE21","hd":"53","v_score":"1.193887297","decile":"4","lat":40.42503798778064,"lng":-111.8560055379189},{"vid":"2860982","name":"Joann Schneider","party":"","address":"462 W 2280 N, Lehi, UT 84043","precinct":"25LE21","hd":"53","v_score":"8.284004873","decile":"8","lat":40.41704156476103,"lng":-111.85685534965093},{"vid":"2869164","name":"Deja Bartoletti","party":"","address":"393 W 3050 N, Lehi, UT 84043","precinct":"25LE21","hd":"53","v_score":"0","decile":"2","lat":40.426043597954084,"lng":-111.85547162718775},{"vid":"2869168","name":"Annamae Harber","party":"","address":"393 W 3050 N, Lehi, UT 84043","precinct":"25LE21","hd":"53","v_score":"1.193887297","decile":"4","lat":40.426043597954084,"lng":-111.85547162718775},{"vid":"2881023","name":"Kenyatta O'Keefe","party":"Dem","address":"3029 N Park Ridge Dr, Lehi, UT 84043","precinct":"25LE21","hd":"53","v_score":"1.193887297","decile":"4","lat":40.42586594964181,"lng":-111.86171771576618},{"vid":"d4308d047c711a712c06a0927f2f18b28007be593f13513896ca8bf583fd9577","name":"Stasia Little-Haag","party":"Dem","address":"2244 N 490 W, Lehi, UT 84043","precinct":"25LE21","hd":"53","v_score":"0","decile":"2","lat":40.41607141799276,"lng":-111.85615287196936},{"vid":"2894312","name":"Keenen Breitenberg","party":"Rep","address":"2580 N 600 W, Lehi, UT 84043","precinct":"25LE21","hd":"53","v_score":"2.876042565","decile":"6","lat":40.42052924562738,"lng":-111.85901396032541},{"vid":"2894618","name":"Kevin Ebert","party":"Dem","address":"3135 N 300 W, Lehi, UT 84043","precinct":"25LE21","hd":"53","v_score":"0","decile":"2","lat":40.42728427911444,"lng":-111.85474387664358},{"vid":"2904604","name":"Jaida Legros","party":"Dem","address":"2855 N 425 W, Lehi, UT 84043","precinct":"25LE21","hd":"53","v_score":"0","decile":"2","lat":40.42382869963506,"lng":-111.85634286270347},{"vid":"2915561","name":"Sherwin Lueilwitz","party":"Dem","address":"409 W 3050 N, Lehi, UT 84043","precinct":"25LE21","hd":"53","v_score":"2.876042565","decile":"6","lat":40.4260573326839,"lng":-111.85572636959067},{"vid":"2917989","name":"Ms. Leone Hills DDS","party":"Dem","address":"3135 N 300 W, Lehi, UT 84043","precinct":"25LE21","hd":"53","v_score":"0","decile":"2","lat":40.42728427911444,"lng":-111.85474387664358},{"vid":"2918290","name":"Candido Greenholt III","party":"","address":"420 W 2325 N, Lehi, UT 84043","precinct":"25LE21","hd":"53","v_score":"0","decile":"2","lat":40.41774605660288,"lng":-111.85622456882807},{"vid":"2922307","name":"Marlin Hintz","party":"Dem","address":"698 W Ridgeline Dr, Lehi, UT 84043","precinct":"25LE21","hd":"53","v_score":"0","decile":"2","lat":40.42402855268774,"lng":-111.86048591154459},{"vid":"2924940","name":"Harlon Sawayn","party":"Dem","address":"498 W 2375 N, Lehi, UT 84043","precinct":"25LE21","hd":"53","v_score":"0","decile":"2","lat":40.418527324867306,"lng":-111.85744029591267},{"vid":"2941525","name":"Bobby Wuckert","party":"Dem","address":"2257 N 300 W, Lehi, UT 84043","precinct":"25LE21","hd":"53","v_score":"0","decile":"2","lat":40.416357928830976,"lng":-111.8548162080021},{"vid":"2946524","name":"Eda Torphy","party":"","address":"3015 N 300 W, Lehi, UT 84043","precinct":"25LE21","hd":"53","v_score":"7.090117576","decile":"8","lat":40.4257678469064,"lng":-111.85493989766242},{"vid":"2947604","name":"Henretta Parisian","party":"Dem","address":"561 W 2660 N, Lehi, UT 84043","precinct":"25LE21","hd":"53","v_score":"0","decile":"2","lat":40.42127874372871,"lng":-111.85865003482758},{"vid":"2970634","name":"Esker Roberts","party":"Rep","address":"367 W 2800 N, Lehi, UT 84043","precinct":"25LE21","hd":"53","v_score":"0","decile":"2","lat":40.42300940043692,"lng":-111.85538296943118},{"vid":"2981842","name":"Brayan Zieme","party":"","address":"450 W 2225 N, Lehi, UT 84043","precinct":"25LE21","hd":"53","v_score":"0","decile":"2","lat":40.41583870311251,"lng":-111.85557055775284},{"vid":"2984715","name":"Lizzie Morar","party":"Dem","address":"2235 N 490 W, Lehi, UT 84043","precinct":"25LE21","hd":"53","v_score":"0","decile":"2","lat":40.41590222487787,"lng":-111.85667356842653},{"vid":"50a6e59cb2b52e4721377f4fcc2dd354ec6fe60c3ad5bae616a22c6e6ab581be","name":"Cliffie Skiles","party":"","address":"3094 N Park Ridge Dr, Lehi, UT 84043","precinct":"25LE21","hd":"53","v_score":"25.88985458","decile":"10","lat":40.42658119373351,"lng":-111.86119434238563},{"vid":"3039926","name":"Zeta Senger","party":"Rep","address":"2970 N Park Ridge Dr, Lehi, UT 84043","precinct":"25LE21","hd":"53","v_score":"25.56562396","decile":"10","lat":40.425221490680954,"lng":-111.86096944440554},{"vid":"3042642","name":"Omari Miller","party":"","address":"2699 N 640 W, Lehi, UT 84043","precinct":"25LE21","hd":"53","v_score":"5.40460374","decile":"7","lat":40.42186207305013,"lng":-111.86003037830777},{"vid":"3042652","name":"Fuller Douglas PhD","party":"","address":"2699 N 640 W, Lehi, UT 84043","precinct":"25LE21","hd":"53","v_score":"5.40460374","decile":"7","lat":40.42186207305013,"lng":-111.86003037830777},{"vid":"3043641","name":"Dr. Westin Grant","party":"Dem","address":"422 W 2540 N, Lehi, UT 84043","precinct":"25LE21","hd":"53","v_score":"9.842769839","decile":"8","lat":40.420144863406875,"lng":-111.85623247238561},{"vid":"3080222","name":"Arturo Dickinson","party":"Dem","address":"2335 N 380 W, Lehi, UT 84043","precinct":"25LE21","hd":"53","v_score":"13.080119","decile":"9","lat":40.417656843902805,"lng":-111.85581039586529},{"vid":"3100409","name":"Aja Hills","party":"Dem","address":"521 W Parkview Dr, Lehi, UT 84043","precinct":"25LE21","hd":"53","v_score":"11.99259879","decile":"9","lat":40.42384553867064,"lng":-111.85802574304958},{"vid":"3118172","name":"Emilio O'Reilly","party":"Dem","address":"349 W 2875 N, Lehi, UT 84043","precinct":"25LE21","hd":"53","v_score":"25.28454428","decile":"10","lat":40.423756036425566,"lng":-111.85512854294382},{"vid":"3134975","name":"Rosalyn Dietrich","party":"","address":"3114 N Park Villas Dr, Lehi, UT 84043","precinct":"25LE21","hd":"53","v_score":"2.315214949","decile":"5","lat":40.426942937702506,"lng":-111.86009778165835},{"vid":"3158986","name":"Wally Leannon","party":"","address":"707 W Ridgeline Dr, Lehi, UT 84043","precinct":"25LE21","hd":"53","v_score":"0","decile":"2","lat":40.423482585632435,"lng":-111.8608085055346},{"vid":"1b66587f283e2e0bd29f4a30324ec10e26b1ace0812b9b30d33af6e4bcb18ae9","name":"Mr. Willard Shanahan","party":"Rep","address":"578 W Trail Side Dr, Lehi, UT 84043","precinct":"25LE21","hd":"53","v_score":"10.7597751","decile":"9","lat":40.42444914122509,"lng":-111.859266759843},{"vid":"d4920aea21c460b30d992ec1a63cafa4c7b9b2b061456527d4efaea414b5bfc5","name":"Dollye Kilback-Torphy","party":"Dem","address":"2799 N 425 W, Lehi, UT 84043","precinct":"25LE21","hd":"53","v_score":"5.530510904","decile":"7","lat":40.42313699083727,"lng":-111.8563867812122},{"vid":"22c251223952c36e95554f9293203622a928eed032fc5469fb269c446f9fc1ca","name":"Savanah Strosin","party":"Rep","address":"2799 N 425 W, Lehi, UT 84043","precinct":"25LE21","hd":"53","v_score":"8.547102156","decile":"8","lat":40.42313699083727,"lng":-111.8563867812122},{"vid":"3223645","name":"Casey Little","party":"","address":"3133 N 325 W, Lehi, UT 84043","precinct":"25LE21","hd":"53","v_score":"13.01661254","decile":"9","lat":40.42724854669342,"lng":-111.85511242719757},{"vid":"3223666","name":"Daryle Halvorson","party":"Dem","address":"3133 N 325 W, Lehi, UT 84043","precinct":"25LE21","hd":"53","v_score":"13.01661254","decile":"9","lat":40.42724854669342,"lng":-111.85511242719757},{"vid":"3273458","name":"Mose Bergnaum","party":"Rep","address":"3081 N Park Cottage Way, Lehi, UT 84043","precinct":"25LE21","hd":"53","v_score":"7.947838735","decile":"8","lat":40.42659991807784,"lng":-111.85626616549698},{"vid":"3306195","name":"Nylah Dicki","party":"","address":"744 W Ridgeline Dr, Lehi, UT 84043","precinct":"25LE21","hd":"53","v_score":"8.347511332","decile":"8","lat":40.4239666598602,"lng":-111.86153979921392},{"vid":"3306711","name":"Eldridge Krajcik","party":"Dem","address":"2820 N Park View Ct, Lehi, UT 84043","precinct":"25LE21","hd":"53","v_score":"8.280646305","decile":"8","lat":40.42333316445262,"lng":-111.85693222996514},{"vid":"3306729","name":"Coleen Haley DVM","party":"Rep","address":"2820 N Park View Ct, Lehi, UT 84043","precinct":"25LE21","hd":"53","v_score":"8.280646305","decile":"8","lat":40.42333316445262,"lng":-111.85693222996514},{"vid":"3316898","name":"Ms. Syble Koelpin DVM","party":"Dem","address":"708 W 3160 N, Lehi, UT 84043","precinct":"25LE21","hd":"53","v_score":"2.315214949","decile":"5","lat":40.42772017020565,"lng":-111.86060336158512},{"vid":"3352033","name":"Mr. Olin Feeney","party":"Rep","address":"3127 N 325 W, Lehi, UT 84043","precinct":"25LE21","hd":"53","v_score":"35.67570205","decile":"10","lat":40.42715266936492,"lng":-111.85509582330678},{"vid":"3379705","name":"Furman Towne","party":"Rep","address":"3038 N Park Place St, Lehi, UT 84043","precinct":"25LE21","hd":"53","v_score":"2.876042565","decile":"6","lat":40.42601613184911,"lng":-111.85906651535286},{"vid":"73c095eda596cdd940d2818f7720663a5e697852a4439736686cd8f65935b4ce","name":"Leeroy Stark III","party":"Dem","address":"459 W 2325 N, Lehi, UT 84043","precinct":"25LE21","hd":"53","v_score":"8.280646305","decile":"8","lat":40.41731619725139,"lng":-111.85679786304227},{"vid":"3437583","name":"Stone Denesik","party":"Dem","address":"476 W 2375 N, Lehi, UT 84043","precinct":"25LE21","hd":"53","v_score":"0","decile":"2","lat":40.418528253484645,"lng":-111.85713617612414},{"vid":"3522849","name":"Miss Charlotta Kuhic","party":"Dem","address":"400 W 2730 N, Lehi, UT 84043","precinct":"25LE21","hd":"53","v_score":"4.210716443","decile":"7","lat":40.42253047487382,"lng":-111.85596730510514},{"vid":"3531764","name":"Delila Ritchie","party":"","address":"3003 N Park Ridge Dr, Lehi, UT 84043","precinct":"25LE21","hd":"53","v_score":"5.40460374","decile":"7","lat":40.425554971074135,"lng":-111.86155651804378},{"vid":"57243c4e9f35f30cb962d4bf0c7370b9bcd51f58cafaaaf9dac097c119cf3965","name":"Jennie Bruen","party":"Dem","address":"2932 N Trail Side Ct, Lehi, UT 84043","precinct":"25LE21","hd":"53","v_score":"4.465184987","decile":"7","lat":40.4250032050904,"lng":-111.85688546263158},{"vid":"3557299","name":"Quinn Fadel","party":"Dem","address":"322 W 2375 N, Lehi, UT 84043","precinct":"25LE21","hd":"53","v_score":"5.815909755","decile":"7","lat":40.41842624337011,"lng":-111.85467563777578},{"vid":"4115514","name":"Anaya Rogahn","party":"","address":"379 W 3175 N, Lehi, UT 84043","precinct":"25LE21","hd":"53","v_score":"1.193887297","decile":"4","lat":40.42744766201657,"lng":-111.85533035794649},{"vid":"5547173","name":"Jarod Veum","party":"","address":"693 W Parkview Dr, Lehi, UT 84043","precinct":"25LE21","hd":"53","v_score":"3.93832808","decile":"6","lat":40.4227930138071,"lng":-111.86069769672736},{"vid":"5559670","name":"Denice Stark","party":"","address":"2970 N Park Ridge Dr, Lehi, UT 84043","precinct":"25LE21","hd":"53","v_score":"20.21891274","decile":"10","lat":40.425221490680954,"lng":-111.86096944440554},{"vid":"5840954","name":"Berta Glover","party":"","address":"514 W Parkview Dr, Lehi, UT 84043","precinct":"25LE21","hd":"53","v_score":"6.814370645","decile":"8","lat":40.42425874727648,"lng":-111.85774281762218},{"vid":"5904471","name":"Theo Schroeder-Okuneva","party":"Rep","address":"514 W Parkview Dr, Lehi, UT 84043","precinct":"25LE21","hd":"53","v_score":"6.814370645","decile":"8","lat":40.42425874727648,"lng":-111.85774281762218},{"vid":"6036772","name":"Denise Schoen","party":"","address":"434 W 3075 N, Lehi, UT 84043","precinct":"25LE21","hd":"53","v_score":"14.39358922","decile":"9","lat":40.426635569959046,"lng":-111.85591278597761},{"vid":"ef2910ebf5c96172925e04fd004bd5f32a3f5e9e60a3eb6dc8eb4b67c5b5a012","name":"Gilman Hagenes","party":"Rep","address":"2954 N 425 W, Lehi, UT 84043","precinct":"25LE21","hd":"53","v_score":"11.35141108","decile":"9","lat":40.42503177697829,"lng":-111.8556593890393},{"vid":"6152646","name":"Kristian Windler","party":"Rep","address":"439 W 2600 N, Lehi, UT 84043","precinct":"25LE21","hd":"53","v_score":"11.99595736","decile":"9","lat":40.420471477752756,"lng":-111.85647785331402},{"vid":"6156008","name":"Mrs. Ouida Koch MD","party":"Dem","address":"433 W 2925 N, Lehi, UT 84043","precinct":"25LE21","hd":"53","v_score":"2.587603312","decile":"5","lat":40.42468958208153,"lng":-111.85586545580587},{"vid":"6168934","name":"Donnie Willms","party":"Dem","address":"3135 N 300 W, Lehi, UT 84043","precinct":"25LE21","hd":"53","v_score":"1.46627566","decile":"4","lat":40.42728427911444,"lng":-111.85474387664358},{"vid":"6171739","name":"Gerhardt Emard","party":"Dem","address":"461 W 2375 N, Lehi, UT 84043","precinct":"25LE21","hd":"53","v_score":"18.97275282","decile":"10","lat":40.41804947356579,"lng":-111.85685112541313},{"vid":"6171748","name":"Hattie Moore","party":"Dem","address":"461 W 2375 N, Lehi, UT 84043","precinct":"25LE21","hd":"53","v_score":"16.27751858","decile":"9","lat":40.41804947356579,"lng":-111.85685112541313},{"vid":"6173513","name":"Jamya Cremin","party":"","address":"530 W 2540 N, Lehi, UT 84043","precinct":"25LE21","hd":"53","v_score":"12.768328","decile":"9","lat":40.42013760083331,"lng":-111.85806002224729},{"vid":"6174905","name":"Elgie Mosciski","party":"Rep","address":"461 W 2375 N, Lehi, UT 84043","precinct":"25LE21","hd":"53","v_score":"18.97275282","decile":"10","lat":40.41804947356579,"lng":-111.85685112541313},{"vid":"6175196","name":"Annie Abbott","party":"Rep","address":"3047 N Park Cottage Way, Lehi, UT 84043","precinct":"25LE21","hd":"53","v_score":"2.315214949","decile":"5","lat":40.42609289958221,"lng":-111.85617681429774},{"vid":"1b485fe6ea311cb2453254c2395aa4f5d5f94f7cc63557ac5fe735f42ca9060e","name":"Barnie Grady","party":"","address":"3115 N Park Cottage Way, Lehi, UT 84043","precinct":"25LE21","hd":"53","v_score":"2.315214949","decile":"5","lat":40.42694239925663,"lng":-111.85626753650577},{"vid":"6206987","name":"Jamar Johns","party":"","address":"324 W 2875 N, Lehi, UT 84043","precinct":"25LE21","hd":"53","v_score":"31.06727652","decile":"10","lat":40.42420728876215,"lng":-111.85477387352829},{"vid":"fcfdeb6300eaee68c63682a324185a2867ad44bdb4a8ecf60caaf019ab8fd64c","name":"Juli Hand","party":"Dem","address":"514 W 2450 N, Lehi, UT 84043","precinct":"25LE21","hd":"53","v_score":"31.82104997","decile":"10","lat":40.41933199673114,"lng":-111.85774992956044},{"vid":"6214338","name":"Mr. Quint Blick Sr.","party":"Dem","address":"372 W 2200 N, Lehi, UT 84043","precinct":"25LE21","hd":"53","v_score":"2.315214949","decile":"5","lat":40.41520077719684,"lng":-111.85505372391073},{"vid":"6215537","name":"Alwina Cummerata MD","party":"","address":"566 W 2325 N, Lehi, UT 84043","precinct":"25LE21","hd":"53","v_score":"22.18184494","decile":"10","lat":40.41773867093808,"lng":-111.8586335503828},{"vid":"6216768","name":"Young Bashirian","party":"","address":"402 W 2280 N, Lehi, UT 84043","precinct":"25LE21","hd":"53","v_score":"6.881235673","decile":"8","lat":40.41704428200808,"lng":-111.85597209588018},{"vid":"6217971","name":"Merwin Terry","party":"Rep","address":"2873 N 425 W, Lehi, UT 84043","precinct":"25LE21","hd":"53","v_score":"8.280646305","decile":"8","lat":40.42407055799706,"lng":-111.85628128337638},{"vid":"6226934","name":"Malaya Welch","party":"","address":"475 W 2540 N, Lehi, UT 84043","precinct":"25LE21","hd":"53","v_score":"5.40460374","decile":"7","lat":40.41962748039137,"lng":-111.85706153477781},{"vid":"6227771","name":"Kyle West","party":"Dem","address":"788 W Ridgeline Dr, Lehi, UT 84043","precinct":"25LE21","hd":"53","v_score":"5.40460374","decile":"7","lat":40.42391132200935,"lng":-111.86224310534293},{"vid":"6232443","name":"Audrey Hyatt","party":"Dem","address":"491 W 2200 N, Lehi, UT 84043","precinct":"25LE21","hd":"53","v_score":"8.216702423","decile":"8","lat":40.415036311012955,"lng":-111.85642425582026},{"vid":"6245702","name":"Tamie Beahan","party":"","address":"327 W 2925 N, Lehi, UT 84043","precinct":"25LE21","hd":"53","v_score":"3.93832808","decile":"6","lat":40.42470685243315,"lng":-111.85469123916181},{"vid":"6246001","name":"Guy Lowe","party":"","address":"567 W 2280 N, Lehi, UT 84043","precinct":"25LE21","hd":"53","v_score":"32.9448582","decile":"10","lat":40.416608267156086,"lng":-111.8585606937793},{"vid":"6260505","name":"Acy Monahan","party":"","address":"401 W 2730 N, Lehi, UT 84043","precinct":"25LE21","hd":"53","v_score":"31.82104997","decile":"10","lat":40.422227882465485,"lng":-111.85593902592373},