[{"vid":"502005","name":"Nathanael Goyette","party":"","address":"1377 S 100 E, Apt N1, Lehi, UT 84043","precinct":"25LE35","hd":"52","v_score":"17.75698939","decile":"10","lat":40.370701484832544,"lng":-111.84725455780051,"phone":"(104) 936-2633","sd":"22","ssbd":"11","lsbd":"School Board Aspen Peaks 6"},{"vid":"897ed33c1c3a987baf0e3701cbe0f6e6af6ea73b9e6f2f65467f8818c63314c9","name":"Bridgette Lindgren","party":"","address":"1377 S 100 E, # N1, Lehi, UT 84043","precinct":"25LE35","hd":"52","v_score":"20.85968874","decile":"10","lat":40.370701484832544,"lng":-111.84725455780051,"phone":"(385) 463-9508","sd":"22","ssbd":"11","lsbd":"School Board Aspen Peaks 6"},{"vid":"503580","name":"Demario Weissnat","party":"Dem","address":"1861 S Weeping Willow Way, Lehi, UT 84043","precinct":"25LE35","hd":"52","v_score":"8.507303088","decile":"8","lat":40.36576687049711,"lng":-111.83957418982837,"phone":"(460) 423-9868","sd":"22","ssbd":"11","lsbd":"School Board Aspen Peaks 6"},{"vid":"1224462","name":"Gail Swift","party":"","address":"2508 N 300 E, Lehi, UT 84043","precinct":"25LE35","hd":"52","v_score":"31.82081144","decile":"10","lat":40.41977308987593,"lng":-111.84497511224069,"phone":"(655) 972-5163","sd":"22","ssbd":"11","lsbd":"School Board Aspen Peaks 6"},{"vid":"a0a4af8bef7840b9c9ffcb389278f642a9cdcebcd05110dfa437f5ec57d9c907","name":"Mr. Daryl Moen","party":"Dem","address":"1321 S 740 E, Lehi, UT 84043","precinct":"25LE35","hd":"52","v_score":"8.280646305","decile":"8","lat":40.37225974233936,"lng":-111.83656979023127,"phone":"(155) 440-1274","sd":"22","ssbd":"11","lsbd":"School Board Aspen Peaks 6"},{"vid":"1230571","name":"Tatsuo Jacobs","party":"Dem","address":"825 E Meadow Marsh Dr, Lehi, UT 84043","precinct":"25LE35","hd":"52","v_score":"3.781490609","decile":"6","lat":40.36681614304696,"lng":-111.83576217729156,"phone":"(240) 708-8533","sd":"22","ssbd":"11","lsbd":"School Board Aspen Peaks 6"},{"vid":"1239255","name":"Rolla Anderson","party":"","address":"1375 S Dragonfly Dr, Lehi, UT 84043","precinct":"25LE35","hd":"52","v_score":"8.347511332","decile":"8","lat":40.37153351781289,"lng":-111.83576800984478,"phone":"(915) 464-3513","sd":"22","ssbd":"11","lsbd":"School Board Aspen Peaks 6"},{"vid":"1259164","name":"Dr. Nallely Ernser DVM","party":"","address":"750 E Sandhill Ct, Lehi, UT 84043","precinct":"25LE35","hd":"52","v_score":"8.670935747","decile":"8","lat":40.36618414874822,"lng":-111.83740380559004,"phone":"(118) 176-6405","sd":"22","ssbd":"11","lsbd":"School Board Aspen Peaks 6"},{"vid":"1274116","name":"Matthias Powlowski","party":"Rep","address":"1303 S 50 E, Unit 1, Lehi, UT 84043","precinct":"25LE35","hd":"52","v_score":"1.193887297","decile":"3","lat":40.37177059676677,"lng":-111.84776092159717,"phone":"(283) 859-8675","sd":"22","ssbd":"11","lsbd":"School Board Aspen Peaks 6"},{"vid":"1276804","name":"Arah Daniel DDS","party":"Dem","address":"234 E 1450 S, Lehi, UT 84043","precinct":"25LE35","hd":"52","v_score":"3.93832808","decile":"6","lat":40.37027765017472,"lng":-111.84566238468925,"phone":"(275) 845-4677","sd":"22","ssbd":"11","lsbd":"School Board Aspen Peaks 6"},{"vid":"1280022","name":"Ivey Konopelski","party":"Dem","address":"1376 S 50 E, Unit 1, Lehi, UT 84043","precinct":"25LE35","hd":"52","v_score":"35.12606409","decile":"10","lat":40.370696615058804,"lng":-111.84882628256096,"phone":"(420) 516-0601","sd":"22","ssbd":"11","lsbd":"School Board Aspen Peaks 6"},{"vid":"1286897","name":"Micheal Wolf Jr.","party":"Rep","address":"584 E 1540 S, Lehi, UT 84043","precinct":"25LE35","hd":"52","v_score":"5.258122542","decile":"7","lat":40.36930509177702,"lng":-111.84019916009429,"phone":"(885) 576-0938","sd":"22","ssbd":"11","lsbd":"School Board Aspen Peaks 6"},{"vid":"1290149","name":"Nichole Beatty","party":"","address":"1992 S Meadow Marsh Dr, Lehi, UT 84043","precinct":"25LE35","hd":"52","v_score":"1.193887297","decile":"3","lat":40.36432121920782,"lng":-111.83604146913918,"phone":"(246) 785-0323","sd":"22","ssbd":"11","lsbd":"School Board Aspen Peaks 6"},{"vid":"1291013","name":"Aleck Kovacek","party":"","address":"572 E 1540 S, Lehi, UT 84043","precinct":"25LE35","hd":"52","v_score":"8.347511332","decile":"8","lat":40.36935330402364,"lng":-111.84038992237546,"phone":"(779) 458-2033","sd":"22","ssbd":"11","lsbd":"School Board Aspen Peaks 6"},{"vid":"1292883","name":"Mrs. Montana Armstrong","party":"Dem","address":"713 E 1470 S, Lehi, UT 84043","precinct":"25LE35","hd":"52","v_score":"4.210716443","decile":"7","lat":40.370668309260935,"lng":-111.83792072477095,"phone":"(959) 201-9379","sd":"22","ssbd":"11","lsbd":"School Board Aspen Peaks 6"},{"vid":"1306068","name":"Anabelle Tromp-Boyle","party":"Rep","address":"1960 S Meadow Marsh Dr, Lehi, UT 84043","precinct":"25LE35","hd":"52","v_score":"3.781490609","decile":"6","lat":40.36476109111251,"lng":-111.83591106391849,"phone":"(300) 893-9464","sd":"22","ssbd":"11","lsbd":"School Board Aspen Peaks 6"},{"vid":"1311522","name":"Ellery Weissnat-Grady","party":"","address":"1771 S 710 E, Lehi, UT 84043","precinct":"25LE35","hd":"52","v_score":"11.52389434","decile":"9","lat":40.366787044800425,"lng":-111.83798855017673,"phone":"(546) 290-4363","sd":"22","ssbd":"11","lsbd":"School Board Aspen Peaks 6"},{"vid":"1318317","name":"Kolten Nolan","party":"Dem","address":"2017 S Meadow Marsh Dr, Lehi, UT 84043","precinct":"25LE35","hd":"52","v_score":"5.40460374","decile":"7","lat":40.364067986519984,"lng":-111.83548870232752,"phone":"(279) 540-5980","sd":"22","ssbd":"11","lsbd":"School Board Aspen Peaks 6"},{"vid":"1318887","name":"Elyssa Kemmer","party":"","address":"1992 S Meadow Marsh Dr, Lehi, UT 84043","precinct":"25LE35","hd":"52","v_score":"2.817000428","decile":"6","lat":40.36432121920782,"lng":-111.83604146913918,"phone":"(327) 956-2025","sd":"22","ssbd":"11","lsbd":"School Board Aspen Peaks 6"},{"vid":"1320744","name":"Deven Gibson","party":"Dem","address":"758 E Meadow Marsh Dr, Lehi, UT 84043","precinct":"25LE35","hd":"52","v_score":"23.44745832","decile":"10","lat":40.36699892211404,"lng":-111.8372005294831,"phone":"(886) 108-6369","sd":"22","ssbd":"11","lsbd":"School Board Aspen Peaks 6"},{"vid":"1323275","name":"Ms. Carleen Douglas","party":"","address":"1829 S 900 E, Lehi, UT 84043","precinct":"25LE35","hd":"52","v_score":"15.64437057","decile":"9","lat":40.366146511814186,"lng":-111.83411866662594,"phone":"(689) 791-4711","sd":"22","ssbd":"11","lsbd":"School Board Aspen Peaks 6"},{"vid":"1324755","name":"Dr. Sonny Ryan","party":"Dem","address":"1619 S 530 E, Lehi, UT 84043","precinct":"25LE35","hd":"52","v_score":"4.137918904","decile":"7","lat":40.3686887620415,"lng":-111.84074134636887,"phone":"(883) 502-8541","sd":"22","ssbd":"11","lsbd":"School Board Aspen Peaks 6"},{"vid":"1331022","name":"Colette Collins","party":"Dem","address":"209 E 1400 S, Lehi, UT 84043","precinct":"25LE35","hd":"52","v_score":"2.315214949","decile":"5","lat":40.371371544005264,"lng":-111.84607350643047,"phone":"(788) 172-6829","sd":"22","ssbd":"11","lsbd":"School Board Aspen Peaks 6"},{"vid":"1333615","name":"Harvy Kulas-Greenfelder","party":"","address":"209 E 1400 S, Lehi, UT 84043","precinct":"25LE35","hd":"52","v_score":"2.315214949","decile":"5","lat":40.371371544005264,"lng":-111.84607350643047,"phone":"(140) 503-6828","sd":"22","ssbd":"11","lsbd":"School Board Aspen Peaks 6"},{"vid":"1346205","name":"Michelina Heathcote","party":"Rep","address":"586 E 1590 S, Lehi, UT 84043","precinct":"25LE35","hd":"52","v_score":"12.6552766","decile":"9","lat":40.36879240197482,"lng":-111.84022431939012,"phone":"(799) 718-1167","sd":"22","ssbd":"11","lsbd":"School Board Aspen Peaks 6"},{"vid":"1346299","name":"Isaak Blick","party":"Dem","address":"1396 S Grey Goose Rd, Lehi, UT 84043","precinct":"25LE35","hd":"52","v_score":"0","decile":"1","lat":40.371292029112176,"lng":-111.8385515091383,"phone":"(734) 777-5885","sd":"22","ssbd":"11","lsbd":"School Board Aspen Peaks 6"},{"vid":"1357831","name":"Deidre Klocko","party":"Rep","address":"1989 S 750 E, Lehi, UT 84043","precinct":"25LE35","hd":"52","v_score":"1.121327652","decile":"3","lat":40.364326585267875,"lng":-111.83641098394476,"phone":"(230) 857-8029","sd":"22","ssbd":"11","lsbd":"School Board Aspen Peaks 6"},{"vid":"a0343d77fa0feb62e5a7b9fb8648bfc9eac3ad2c86c8f378d075802649a63f02","name":"Mrs. Kasey Schinner","party":"Rep","address":"256 E 1450 S, Lehi, UT 84043","precinct":"25LE35","hd":"52","v_score":"22.1678045","decile":"10","lat":40.370317079243385,"lng":-111.84515791107437,"phone":"(453) 170-1977","sd":"22","ssbd":"11","lsbd":"School Board Aspen Peaks 6"},{"vid":"1367371","name":"Kendal Kris","party":"Rep","address":"1973 S 750 E, Lehi, UT 84043","precinct":"25LE35","hd":"52","v_score":"6.814370645","decile":"8","lat":40.36451864815627,"lng":-111.83640622323308,"phone":"(569) 444-8789","sd":"22","ssbd":"11","lsbd":"School Board Aspen Peaks 6"},{"vid":"1377317","name":"Shaneka Conroy DVM","party":"Dem","address":"594 E 1590 S, Lehi, UT 84043","precinct":"25LE35","hd":"52","v_score":"9.99960731","decile":"9","lat":40.36879325133816,"lng":-111.8400736295165,"phone":"(315) 694-3550","sd":"22","ssbd":"11","lsbd":"School Board Aspen Peaks 6"},{"vid":"1379473","name":"Jayvion Fritsch","party":"","address":"2057 S 750 E, Lehi, UT 84043","precinct":"25LE35","hd":"52","v_score":"8.347511332","decile":"8","lat":40.363558307570734,"lng":-111.83643006038847,"phone":"(968) 759-3657","sd":"22","ssbd":"11","lsbd":"School Board Aspen Peaks 6"},{"vid":"0eeba085941150ee4d29d5c568d8076e32f8044b044312fc12e6d0bf7c0f2416","name":"Shedrick Green","party":"Dem","address":"2007 S 900 E, Lehi, UT 84043","precinct":"25LE35","hd":"52","v_score":"18.45422016","decile":"10","lat":40.36404092955411,"lng":-111.83420752345233,"phone":"(882) 202-1768","sd":"22","ssbd":"11","lsbd":"School Board Aspen Peaks 6"},{"vid":"feb1f01f185f7dd4fb9157c3ff5100fecfc6ad12061e04d765afef0bb2305061","name":"Zula Waelchi","party":"Dem","address":"2019 S 900 E, Lehi, UT 84043","precinct":"25LE35","hd":"52","v_score":"7.090117576","decile":"8","lat":40.36384969022625,"lng":-111.83421186303381,"phone":"(943) 274-3546","sd":"22","ssbd":"11","lsbd":"School Board Aspen Peaks 6"},{"vid":"255f7fc92423edc9c67e20b5ad56058b509714c37ebeca15f3048bcc98374024","name":"Rylee Kertzmann MD","party":"","address":"267 E 1400 S, Lehi, UT 84043","precinct":"25LE35","hd":"52","v_score":"29.68367038","decile":"10","lat":40.37140120731268,"lng":-111.84495100899541,"phone":"(469) 044-0144","sd":"22","ssbd":"11","lsbd":"School Board Aspen Peaks 6"},{"vid":"dd4d95d16426f13eaa313db6575c549298ff19346ca7c604f9c7c3aa3682cf81","name":"Zilpha Gerhold","party":"","address":"267 E 1400 S, Lehi, UT 84043","precinct":"25LE35","hd":"52","v_score":"29.68367038","decile":"10","lat":40.37140120731268,"lng":-111.84495100899541,"phone":"(997) 139-9221","sd":"22","ssbd":"11","lsbd":"School Board Aspen Peaks 6"},{"vid":"1427834","name":"Ebenezer Becker","party":"Dem","address":"830 E 2100 S, Lehi, UT 84043","precinct":"25LE35","hd":"52","v_score":"3.781490609","decile":"6","lat":40.36273510421193,"lng":-111.83598456751346,"phone":"(701) 597-2476","sd":"22","ssbd":"11","lsbd":"School Board Aspen Peaks 6"},{"vid":"3889a0e9b8096555a450b6afdecfaf88159f6bd555432da1f7430d03c833c4c3","name":"Lular Weissnat","party":"Dem","address":"251 E 1290 S, Lehi, UT 84043","precinct":"25LE35","hd":"52","v_score":"14.25581744","decile":"9","lat":40.372285392031365,"lng":-111.84524738599919,"phone":"(653) 167-9140","sd":"22","ssbd":"11","lsbd":"School Board Aspen Peaks 6"},{"vid":"e12fea852df9429c8b0b163a811f97dde7db4e993837b7acc3a754b81801a1e1","name":"Denzell Rath-Reilly","party":"","address":"1501 S Dragonfly Dr, Lehi, UT 84043","precinct":"25LE35","hd":"52","v_score":"0","decile":"1","lat":40.37006149154286,"lng":-111.83632054587387,"phone":"(662) 177-2069","sd":"22","ssbd":"11","lsbd":"School Board Aspen Peaks 6"},{"vid":"d2b729c6efeb45a14fc6c5b6f299a749c3c3b22ddd94e90c6374650429acddc7","name":"Richelle Morar DVM","party":"Dem","address":"1969 S Meadow Marsh Dr, Lehi, UT 84043","precinct":"25LE35","hd":"52","v_score":"3.781490609","decile":"6","lat":40.36475233824463,"lng":-111.83547168338515,"phone":"(403) 688-9219","sd":"22","ssbd":"11","lsbd":"School Board Aspen Peaks 6"},{"vid":"1459288","name":"Mrs. Pollie Predovic DDS","party":"","address":"790 E 2100 S, Lehi, UT 84043","precinct":"25LE35","hd":"52","v_score":"1.623113131","decile":"4","lat":40.36272279684923,"lng":-111.83648662424764,"phone":"(747) 901-6368","sd":"22","ssbd":"11","lsbd":"School Board Aspen Peaks 6"},{"vid":"1469774","name":"Rey Wilkinson","party":"","address":"668 E Bullrush Pkwy, Lehi, UT 84043","precinct":"25LE35","hd":"52","v_score":"5.40460374","decile":"7","lat":40.36551750770028,"lng":-111.83877000297704,"phone":"(791) 198-2970","sd":"22","ssbd":"11","lsbd":"School Board Aspen Peaks 6"},{"vid":"1474749","name":"Mrs. Arleth Erdman","party":"Rep","address":"235 E 1400 S, Lehi, UT 84043","precinct":"25LE35","hd":"52","v_score":"1.46627566","decile":"4","lat":40.37145711979095,"lng":-111.8455513696288,"phone":"(429) 703-1758","sd":"22","ssbd":"11","lsbd":"School Board Aspen Peaks 6"},{"vid":"1480912","name":"Adriana Hegmann","party":"Dem","address":"1417 S 740 E, Lehi, UT 84043","precinct":"25LE35","hd":"52","v_score":"2.315214949","decile":"5","lat":40.37125706023644,"lng":-111.83692117546283,"phone":"(197) 834-5944","sd":"22","ssbd":"11","lsbd":"School Board Aspen Peaks 6"},{"vid":"1496911","name":"Tyshawn Carroll I","party":"","address":"1364 S Grey Goose Rd, Lehi, UT 84043","precinct":"25LE35","hd":"52","v_score":"0","decile":"1","lat":40.371796618772954,"lng":-111.83834550833743,"phone":"(983) 866-3283","sd":"22","ssbd":"11","lsbd":"School Board Aspen Peaks 6"},{"vid":"1498172","name":"Maude Lubowitz","party":"Dem","address":"808 E Meadow Marsh Dr, Lehi, UT 84043","precinct":"25LE35","hd":"52","v_score":"2.315214949","decile":"5","lat":40.36667873564652,"lng":-111.8362923537351,"phone":"(688) 217-4168","sd":"22","ssbd":"11","lsbd":"School Board Aspen Peaks 6"},{"vid":"8a41cad4e6a4e2dde4607c348a0a83159358234da1ef290c5185dc19fb4e9b1e","name":"Jule Jaskolski","party":"Dem","address":"256 E 1450 S, Lehi, UT 84043","precinct":"25LE35","hd":"52","v_score":"16.72520646","decile":"9","lat":40.370317079243385,"lng":-111.84515791107437,"phone":"(784) 660-8740","sd":"22","ssbd":"11","lsbd":"School Board Aspen Peaks 6"},{"vid":"1513309","name":"Dr. Sullivan Crist","party":"Dem","address":"2068 S Meadow Marsh Dr, Lehi, UT 84043","precinct":"25LE35","hd":"52","v_score":"16.11772682","decile":"9","lat":40.36336088744563,"lng":-111.83606530970815,"phone":"(194) 692-4742","sd":"22","ssbd":"11","lsbd":"School Board Aspen Peaks 6"},{"vid":"1515845","name":"Dionte Beer","party":"Dem","address":"686 E Bullrush Pkwy, Lehi, UT 84043","precinct":"25LE35","hd":"52","v_score":"1.46627566","decile":"4","lat":40.36535413413537,"lng":-111.83849477220969,"phone":"(149) 972-6454","sd":"22","ssbd":"11","lsbd":"School Board Aspen Peaks 6"},{"vid":"7c3eca99abb04820d297d7f6f500181c5359946cd41fdf085ef5930721ce215e","name":"Woodie Friesen","party":"","address":"1238 S 50 E, Unit 4, Lehi, UT 84043","precinct":"25LE35","hd":"52","v_score":"1.121327652","decile":"3","lat":40.3726436642736,"lng":-111.84855852459881,"phone":"(581) 908-7696","sd":"22","ssbd":"11","lsbd":"School Board Aspen Peaks 6"},{"vid":"73d0c1a97e6cc5d1ed55f610ba7c56de0b56ba4f2c7d878d106b9882037664de","name":"Miss Maricela Torp PhD","party":"","address":"657 E 1590 S, Lehi, UT 84043","precinct":"25LE35","hd":"52","v_score":"1.121327652","decile":"3","lat":40.36919081838342,"lng":-111.83905372438404,"phone":"(620) 226-6779","sd":"22","ssbd":"11","lsbd":"School Board Aspen Peaks 6"},{"vid":"1528973","name":"Nicole McKenzie DDS","party":"","address":"1804 S 900 E, Lehi, UT 84043","precinct":"25LE35","hd":"52","v_score":"8.280646305","decile":"8","lat":40.36642136067964,"lng":-111.83472785419515,"phone":"(742) 927-9259","sd":"22","ssbd":"11","lsbd":"School Board Aspen Peaks 6"},{"vid":"1530777","name":"Brenden Labadie","party":"Dem","address":"1250 S 300 E, Lehi, UT 84043","precinct":"25LE35","hd":"52","v_score":"3.781490609","decile":"6","lat":40.37246579426446,"lng":-111.84488786698303,"phone":"(932) 741-0780","sd":"22","ssbd":"11","lsbd":"School Board Aspen Peaks 6"},{"vid":"1541948","name":"Alyce Schoen","party":"Rep","address":"758 E Meadow Marsh Dr, Lehi, UT 84043","precinct":"25LE35","hd":"52","v_score":"23.44745832","decile":"10","lat":40.36699892211404,"lng":-111.8372005294831,"phone":"(978) 571-1902","sd":"22","ssbd":"11","lsbd":"School Board Aspen Peaks 6"},{"vid":"1546343","name":"Beckett Bruen","party":"Dem","address":"646 E 1590 S, Lehi, UT 84043","precinct":"25LE35","hd":"52","v_score":"3.93832808","decile":"6","lat":40.36872252554551,"lng":-111.83929658230416,"phone":"(616) 662-0268","sd":"22","ssbd":"11","lsbd":"School Board Aspen Peaks 6"},{"vid":"1550789","name":"Ingeborg Labadie","party":"Rep","address":"598 E 1540 S, Lehi, UT 84043","precinct":"25LE35","hd":"52","v_score":"0","decile":"1","lat":40.36925671113019,"lng":-111.84000780276911,"phone":"(362) 372-4503","sd":"22","ssbd":"11","lsbd":"School Board Aspen Peaks 6"},{"vid":"1551853","name":"Kathaleen Kozey-Ankunding","party":"Rep","address":"1250 S 300 E, Lehi, UT 84043","precinct":"25LE35","hd":"52","v_score":"15.0180437","decile":"9","lat":40.37246579426446,"lng":-111.84488786698303,"phone":"(621) 866-4809","sd":"22","ssbd":"11","lsbd":"School Board Aspen Peaks 6"},{"vid":"ccecb51aa1598846a973d07c1ddd3bc5fd735a9ccd8e30e79684810ff4f0016c","name":"Mr. Haywood Johnson V","party":"Dem","address":"594 E 1590 S, Lehi, UT 84043","precinct":"25LE35","hd":"52","v_score":"11.30609121","decile":"9","lat":40.36879325133816,"lng":-111.8400736295165,"phone":"(237) 340-0940","sd":"22","ssbd":"11","lsbd":"School Board Aspen Peaks 6"},{"vid":"1558205","name":"Lone Kuphal","party":"Dem","address":"763 E Sandhill Ct, Lehi, UT 84043","precinct":"25LE35","hd":"52","v_score":"1.193887297","decile":"3","lat":40.366530109348844,"lng":-111.83695317471091,"phone":"(222) 077-4256","sd":"22","ssbd":"11","lsbd":"School Board Aspen Peaks 6"},{"vid":"1565247","name":"Berneice Kemmer","party":"Dem","address":"1955 S 750 E, Lehi, UT 84043","precinct":"25LE35","hd":"52","v_score":"2.315214949","decile":"5","lat":40.36476149351029,"lng":-111.8364362919583,"phone":"(323) 748-4583","sd":"22","ssbd":"11","lsbd":"School Board Aspen Peaks 6"},{"vid":"1574369","name":"Cathi Shanahan","party":"Rep","address":"802 E Grey Goose Rd, Lehi, UT 84043","precinct":"25LE35","hd":"52","v_score":"36.55341911","decile":"10","lat":40.37254141740155,"lng":-111.83664765510557,"phone":"(263) 748-5712","sd":"22","ssbd":"11","lsbd":"School Board Aspen Peaks 6"},{"vid":"1595413","name":"Creed Thompson III","party":"Dem","address":"815 E Meadow Marsh Dr, Lehi, UT 84043","precinct":"25LE35","hd":"52","v_score":"8.347511332","decile":"8","lat":40.367031193812444,"lng":-111.83640431580513,"phone":"(617) 739-5788","sd":"22","ssbd":"11","lsbd":"School Board Aspen Peaks 6"},{"vid":"1602449","name":"Dr. Hassie Jerde MD","party":"Dem","address":"1609 S 530 E, Lehi, UT 84043","precinct":"25LE35","hd":"52","v_score":"2.315214949","decile":"5","lat":40.36876559617066,"lng":-111.84074377361675,"phone":"(484) 228-9298","sd":"22","ssbd":"11","lsbd":"School Board Aspen Peaks 6"},{"vid":"1629806","name":"Mr. Kendal O'Reilly","party":"Dem","address":"645 E 1530 S, Lehi, UT 84043","precinct":"25LE35","hd":"52","v_score":"3.93832808","decile":"6","lat":40.36984277923788,"lng":-111.83931111614433,"phone":"(950) 175-6456","sd":"22","ssbd":"11","lsbd":"School Board Aspen Peaks 6"},{"vid":"1631803","name":"Miss Altie Wunsch DVM","party":"","address":"848 E 2100 S, Lehi, UT 84043","precinct":"25LE35","hd":"52","v_score":"13.61621523","decile":"9","lat":40.362741329831266,"lng":-111.83572962545615,"phone":"(913) 967-9067","sd":"22","ssbd":"11","lsbd":"School Board Aspen Peaks 6"},{"vid":"ed85de3973ed5f07fc508073dd7518cab7defde68f7042fc009a01cbdbf02643","name":"Sondra Mueller","party":"","address":"652 E Bullrush Pkwy, Lehi, UT 84043","precinct":"25LE35","hd":"52","v_score":"14.18213378","decile":"9","lat":40.36564528181003,"lng":-111.83915517277602,"phone":"(452) 737-7841","sd":"22","ssbd":"11","lsbd":"School Board Aspen Peaks 6"},{"vid":"1648664","name":"Mr. Jase O'Connell I","party":"Rep","address":"743 E Bullrush Pkwy, Lehi, UT 84043","precinct":"25LE35","hd":"52","v_score":"1.193887297","decile":"3","lat":40.36509895012991,"lng":-111.83752727142547,"phone":"(320) 394-8394","sd":"22","ssbd":"11","lsbd":"School Board Aspen Peaks 6"},{"vid":"1650731","name":"Dr. Elonzo Reilly","party":"Rep","address":"2007 S 900 E, Lehi, UT 84043","precinct":"25LE35","hd":"52","v_score":"11.36410258","decile":"9","lat":40.36404092955411,"lng":-111.83420752345233,"phone":"(832) 740-8058","sd":"22","ssbd":"11","lsbd":"School Board Aspen Peaks 6"},{"vid":"81319da09b56e4b4df50c2c39d33cbe149ff0ccdc8ad3410d4453af943393bed","name":"Braedon Cole","party":"","address":"1804 S 900 E, Lehi, UT 84043","precinct":"25LE35","hd":"52","v_score":"5.40460374","decile":"7","lat":40.36642136067964,"lng":-111.83472785419515,"phone":"(487) 962-6536","sd":"22","ssbd":"11","lsbd":"School Board Aspen Peaks 6"},{"vid":"1658510","name":"Kiana Homenick","party":"","address":"61 E 1230 S, Unit 1, Lehi, UT 84043","precinct":"25LE35","hd":"52","v_score":"11.30609121","decile":"9","lat":40.37286537888344,"lng":-111.84803164867097,"phone":"(217) 673-3892","sd":"22","ssbd":"11","lsbd":"School Board Aspen Peaks 6"},{"vid":"1660758","name":"Demetra Bauch PhD","party":"","address":"235 E 1400 S, Lehi, UT 84043","precinct":"25LE35","hd":"52","v_score":"1.46627566","decile":"4","lat":40.37145711979095,"lng":-111.8455513696288,"phone":"(988) 149-6435","sd":"22","ssbd":"11","lsbd":"School Board Aspen Peaks 6"},{"vid":"1663451","name":"Kenny O'Hara","party":"Rep","address":"661 E 1470 S, Lehi, UT 84043","precinct":"25LE35","hd":"52","v_score":"11.02844566","decile":"9","lat":40.37067923350744,"lng":-111.83892525847124,"phone":"(854) 623-0420","sd":"22","ssbd":"11","lsbd":"School Board Aspen Peaks 6"},{"vid":"1669755","name":"Dr. Joel Okuneva MD","party":"","address":"2026 S Bullrush Pkwy, Lehi, UT 84043","precinct":"25LE35","hd":"52","v_score":"3.781490609","decile":"6","lat":40.36389037544473,"lng":-111.83804845101098,"phone":"(141) 803-3278","sd":"22","ssbd":"11","lsbd":"School Board Aspen Peaks 6"},{"vid":"1678921","name":"Ms. Lella Wisoky DVM","party":"","address":"1393 S Grey Goose Rd, Lehi, UT 84043","precinct":"25LE35","hd":"52","v_score":"16.15945023","decile":"9","lat":40.37140067493385,"lng":-111.83819185225656,"phone":"(716) 204-0672","sd":"22","ssbd":"11","lsbd":"School Board Aspen Peaks 6"},{"vid":"1682637","name":"Keena Bernier-Kunde","party":"Dem","address":"577 E 1590 S, Lehi, UT 84043","precinct":"25LE35","hd":"52","v_score":"10.15822798","decile":"9","lat":40.36910344223376,"lng":-111.84038016703079,"phone":"(371) 395-7811","sd":"22","ssbd":"11","lsbd":"School Board Aspen Peaks 6"},{"vid":"1695562","name":"Pasquale Gleichner","party":"Dem","address":"1738 S 710 E, Lehi, UT 84043","precinct":"25LE35","hd":"52","v_score":"5.407962308","decile":"7","lat":40.36721130763991,"lng":-111.83834898586275,"phone":"(278) 249-7735","sd":"22","ssbd":"11","lsbd":"School Board Aspen Peaks 6"},{"vid":"705503c48729e50da6f0395841f010ed715c85616ef3472b0c877e38c65b90fd","name":"Dr. Dennis Reichel DVM","party":"","address":"1804 S 900 E, Lehi, UT 84043","precinct":"25LE35","hd":"52","v_score":"0","decile":"1","lat":40.36642136067964,"lng":-111.83472785419515,"phone":"(282) 671-9807","sd":"22","ssbd":"11","lsbd":"School Board Aspen Peaks 6"},{"vid":"1704291","name":"Josiah Hayes-Emard","party":"","address":"617 E 1540 S, Lehi, UT 84043","precinct":"25LE35","hd":"52","v_score":"2.315214949","decile":"5","lat":40.36960056645501,"lng":-111.8398107609048,"phone":"(990) 227-6690","sd":"22","ssbd":"11","lsbd":"School Board Aspen Peaks 6"},{"vid":"1704943","name":"Jasmyne Braun","party":"","address":"710 E 1590 S, Lehi, UT 84043","precinct":"25LE35","hd":"52","v_score":"29.36024596","decile":"10","lat":40.36870867768988,"lng":-111.83802300227794,"phone":"(989) 620-5878","sd":"22","ssbd":"11","lsbd":"School Board Aspen Peaks 6"},{"vid":"1710453","name":"Mr. Jasper Heaney","party":"Rep","address":"774 E Meadow Marsh Dr, Lehi, UT 84043","precinct":"25LE35","hd":"52","v_score":"15.09129713","decile":"9","lat":40.36684313625636,"lng":-111.83694066212865,"phone":"(978) 893-7425","sd":"22","ssbd":"11","lsbd":"School Board Aspen Peaks 6"},{"vid":"1722539","name":"Dr. Monroe Rice MD","party":"","address":"639 E 1900 S, Lehi, UT 84043","precinct":"25LE35","hd":"52","v_score":"4.210716443","decile":"7","lat":40.36531039293518,"lng":-111.83926878532246,"phone":"(703) 003-7824","sd":"22","ssbd":"11","lsbd":"School Board Aspen Peaks 6"},{"vid":"1744674","name":"Hall Schneider","party":"Rep","address":"1446 S 200 E, Lehi, UT 84043","precinct":"25LE35","hd":"52","v_score":"3.93832808","decile":"6","lat":40.37058945968897,"lng":-111.8465252308927,"phone":"(426) 880-7037","sd":"22","ssbd":"11","lsbd":"School Board Aspen Peaks 6"},{"vid":"d097829a83f4209f6630fc57465ff8c75045b5d08eefb6ab04aa13ae6211cf34","name":"Saul Farrell","party":"Rep","address":"1693 S Spring Creek Ranch Rd, Lehi, UT 84043","precinct":"25LE35","hd":"52","v_score":"0","decile":"1","lat":40.367698275216945,"lng":-111.83600504838327,"phone":"(706) 434-2015","sd":"22","ssbd":"11","lsbd":"School Board Aspen Peaks 6"},{"vid":"1756306","name":"Amma Feest","party":"","address":"1547 S 740 E, Lehi, UT 84043","precinct":"25LE35","hd":"52","v_score":"5.40460374","decile":"7","lat":40.36953645140832,"lng":-111.8373425060912,"phone":"(668) 909-7258","sd":"22","ssbd":"11","lsbd":"School Board Aspen Peaks 6"},{"vid":"1757285","name":"Izola Casper","party":"Rep","address":"2084 S Meadow Marsh Dr, Lehi, UT 84043","precinct":"25LE35","hd":"52","v_score":"5.40460374","decile":"7","lat":40.36307961525494,"lng":-111.83595186846789,"phone":"(643) 093-2874","sd":"22","ssbd":"11","lsbd":"School Board Aspen Peaks 6"},{"vid":"1761857","name":"Mr. Ebb Marvin Jr.","party":"Dem","address":"1753 S 900 E, Lehi, UT 84043","precinct":"25LE35","hd":"52","v_score":"1.193887297","decile":"3","lat":40.36689501916357,"lng":-111.83414789310412,"phone":"(855) 322-7342","sd":"22","ssbd":"11","lsbd":"School Board Aspen Peaks 6"},{"vid":"1765942","name":"Mr. Skyler Bauch","party":"Dem","address":"235 E 1450 S, Lehi, UT 84043","precinct":"25LE35","hd":"52","v_score":"2.744440783","decile":"5","lat":40.37071945017047,"lng":-111.84566569300476,"phone":"(604) 406-9928","sd":"22","ssbd":"11","lsbd":"School Board Aspen Peaks 6"},{"vid":"1771781","name":"Ashton Schaden MD","party":"Rep","address":"802 E Grey Goose Rd, Lehi, UT 84043","precinct":"25LE35","hd":"52","v_score":"36.55341911","decile":"10","lat":40.37254141740155,"lng":-111.83664765510557,"phone":"(931) 242-5634","sd":"22","ssbd":"11","lsbd":"School Board Aspen Peaks 6"},{"vid":"1777562","name":"Stella Oberbrunner-Welch","party":"Dem","address":"2025 S Bullrush Pkwy, Lehi, UT 84043","precinct":"25LE35","hd":"52","v_score":"6.724398202","decile":"8","lat":40.363910550418545,"lng":-111.83739863452794,"phone":"(158) 687-1277","sd":"22","ssbd":"11","lsbd":"School Board Aspen Peaks 6"},{"vid":"1792180","name":"Dr. Kailyn Oberbrunner DVM","party":"Rep","address":"892 E 1630 S, Lehi, UT 84043","precinct":"25LE35","hd":"52","v_score":"5.191257514","decile":"7","lat":40.36787809899381,"lng":-111.83457883718489,"phone":"(719) 015-0797","sd":"22","ssbd":"11","lsbd":"School Board Aspen Peaks 6"},{"vid":"1795247","name":"Gerald Prohaska","party":"Dem","address":"2065 S Meadow Marsh Dr, Lehi, UT 84043","precinct":"25LE35","hd":"52","v_score":"23.03559211","decile":"10","lat":40.36343419001857,"lng":-111.83550442949253,"phone":"(219) 330-0894","sd":"22","ssbd":"11","lsbd":"School Board Aspen Peaks 6"},{"vid":"1801018","name":"Chloe Bode","party":"","address":"828 E Grey Goose Rd, Lehi, UT 84043","precinct":"25LE35","hd":"52","v_score":"3.781490609","decile":"6","lat":40.37250749083854,"lng":-111.8361007649548,"phone":"(756) 152-2530","sd":"22","ssbd":"11","lsbd":"School Board Aspen Peaks 6"},{"vid":"1804340","name":"David Gottlieb","party":"","address":"652 E Bullrush Pkwy, Lehi, UT 84043","precinct":"25LE35","hd":"52","v_score":"16.72536877","decile":"9","lat":40.36564528181003,"lng":-111.83915517277602,"phone":"(696) 147-3106","sd":"22","ssbd":"11","lsbd":"School Board Aspen Peaks 6"},{"vid":"1805485","name":"Nina Howell","party":"Dem","address":"828 E Grey Goose Rd, Lehi, UT 84043","precinct":"25LE35","hd":"52","v_score":"30.53757589","decile":"10","lat":40.37250749083854,"lng":-111.8361007649548,"phone":"(380) 732-4708","sd":"22","ssbd":"11","lsbd":"School Board Aspen Peaks 6"},{"vid":"862fd90d9891c6f88d8d0a33b89be751114c6bdf945de41d884168efa803cc00","name":"Dr. Chace Prosacco Sr.","party":"Rep","address":"2057 S 750 E, Lehi, UT 84043","precinct":"25LE35","hd":"52","v_score":"1.193887297","decile":"3","lat":40.363558307570734,"lng":-111.83643006038847,"phone":"(307) 857-6961","sd":"22","ssbd":"11","lsbd":"School Board Aspen Peaks 6"},{"vid":"1811227","name":"Hallie O'Conner","party":"Rep","address":"574 E 1590 S, Lehi, UT 84043","precinct":"25LE35","hd":"52","v_score":"5.40460374","decile":"7","lat":40.368830481915346,"lng":-111.84044916968202,"phone":"(140) 355-6488","sd":"22","ssbd":"11","lsbd":"School Board Aspen Peaks 6"},{"vid":"1819237","name":"Ms. Leah Schuster","party":"Rep","address":"1861 S Weeping Willow Way, Lehi, UT 84043","precinct":"25LE35","hd":"52","v_score":"5.40460374","decile":"7","lat":40.36576687049711,"lng":-111.83957418982837,"phone":"(180) 867-6833","sd":"22","ssbd":"11","lsbd":"School Board Aspen Peaks 6"},{"vid":"1833227","name":"Jayden Wisoky","party":"Rep","address":"1690 S Weeping Willow Way, Lehi, UT 84043","precinct":"25LE35","hd":"52","v_score":"3.102699348","decile":"6","lat":40.36775959077556,"lng":-111.84015062376018,"phone":"(203) 805-4712","sd":"22","ssbd":"11","lsbd":"School Board Aspen Peaks 6"},{"vid":"1842129","name":"Dr. Martin McLaughlin Sr.","party":"","address":"1702 S 900 E, Lehi, UT 84043","precinct":"25LE35","hd":"52","v_score":"26.85320151","decile":"10","lat":40.36756750321976,"lng":-111.83468163572408,"phone":"(583) 897-9426","sd":"22","ssbd":"11","lsbd":"School Board Aspen Peaks 6"},{"vid":"1852429","name":"Dr. Daija Sawayn","party":"Rep","address":"1717 S Spring Creek Ranch Rd, Lehi, UT 84043","precinct":"25LE35","hd":"52","v_score":"0","decile":"1","lat":40.36750321645492,"lng":-111.83612913431932,"phone":"(936) 433-7885","sd":"22","ssbd":"11","lsbd":"School Board Aspen Peaks 6"},{"vid":"1855427","name":"Jace Kertzmann","party":"","address":"1693 S 900 E, Lehi, UT 84043","precinct":"25LE35","hd":"52","v_score":"3.781490609","decile":"6","lat":40.36764401238214,"lng":-111.83413307413586,"phone":"(132) 446-0767","sd":"22","ssbd":"11","lsbd":"School Board Aspen Peaks 6"},{"vid":"1858206","name":"Ms. Karolyn Will","party":"","address":"831 E Sandhill Ct, Lehi, UT 84043","precinct":"25LE35","hd":"52","v_score":"1.193887297","decile":"3","lat":40.366149596620886,"lng":-111.83588823572923,"phone":"(540) 528-5585","sd":"22","ssbd":"11","lsbd":"School Board Aspen Peaks 6"},{"vid":"1858843","name":"Foch Witting","party":"","address":"657 E 1530 S, Lehi, UT 84043","precinct":"25LE35","hd":"52","v_score":"8.280646305","decile":"8","lat":40.369927589090814,"lng":-111.83901034312203,"phone":"(126) 801-1290","sd":"22","ssbd":"11","lsbd":"School Board Aspen Peaks 6"},{"vid":"84091f59e9683edc8a97d7f9260023e6d85475e9f5892aeadbbdd5dcb946968b","name":"Miguelangel Smith","party":"Rep","address":"892 E 1630 S, Lehi, UT 84043","precinct":"25LE35","hd":"52","v_score":"9.600440767","decile":"8","lat":40.36787809899381,"lng":-111.83457883718489,"phone":"(209) 460-6190","sd":"22","ssbd":"11","lsbd":"School Board Aspen Peaks 6"},{"vid":"1867675","name":"Colby Ruecker","party":"","address":"1624 S 530 E, Lehi, UT 84043","precinct":"25LE35","hd":"52","v_score":"0","decile":"1","lat":40.36860174638682,"lng":-111.8412338865306,"phone":"(894) 167-3031","sd":"22","ssbd":"11","lsbd":"School Board Aspen Peaks 6"},{"vid":"1877863","name":"Dr. Miriam Ward","party":"Rep","address":"1624 S 530 E, Lehi, UT 84043","precinct":"25LE35","hd":"52","v_score":"3.102699348","decile":"6","lat":40.36860174638682,"lng":-111.8412338865306,"phone":"(105) 850-9433","sd":"22","ssbd":"11","lsbd":"School Board Aspen Peaks 6"},{"vid":"1890422","name":"Omar Brekke","party":"","address":"764 E Sandhill Ct, Lehi, UT 84043","precinct":"25LE35","hd":"52","v_score":"8.280646305","decile":"8","lat":40.366109893816336,"lng":-111.83713253144221,"phone":"(287) 002-8279","sd":"22","ssbd":"11","lsbd":"School Board Aspen Peaks 6"},{"vid":"1891654","name":"Ms. Nila Schowalter","party":"Rep","address":"1402 S 200 E, Lehi, UT 84043","precinct":"25LE35","hd":"52","v_score":"6.881235673","decile":"8","lat":40.371258579326835,"lng":-111.84652208031883,"phone":"(214) 771-6112","sd":"22","ssbd":"11","lsbd":"School Board Aspen Peaks 6"},{"vid":"1898563","name":"Lorin Jacobs-Ryan","party":"Rep","address":"1429 S 740 E, Lehi, UT 84043","precinct":"25LE35","hd":"52","v_score":"39.27888801","decile":"10","lat":40.37101386851032,"lng":-111.83699538528846,"phone":"(995) 456-2791","sd":"22","ssbd":"11","lsbd":"School Board Aspen Peaks 6"},{"vid":"1899164","name":"Dandre Dooley II","party":"Dem","address":"1298 S Grey Goose Rd, Lehi, UT 84043","precinct":"25LE35","hd":"52","v_score":"1.121327652","decile":"3","lat":40.3725507215222,"lng":-111.83750235495012,"phone":"(762) 411-7811","sd":"22","ssbd":"11","lsbd":"School Board Aspen Peaks 6"},{"vid":"13c03150ef3221a5a8f22a7de24ecf3d71716c3d8530db11e6e01b70a36f17e2","name":"Mauro Schmitt","party":"","address":"1393 S 740 E, Lehi, UT 84043","precinct":"25LE35","hd":"52","v_score":"5.659072284","decile":"7","lat":40.371461644987136,"lng":-111.83688272855683,"phone":"(341) 437-1182","sd":"22","ssbd":"11","lsbd":"School Board Aspen Peaks 6"},{"vid":"1908248","name":"Leonel VonRueden","party":"","address":"669 E Bullrush Pkwy, Lehi, UT 84043","precinct":"25LE35","hd":"52","v_score":"1.121327652","decile":"3","lat":40.36590366547643,"lng":-111.83867998599943,"phone":"(556) 189-6484","sd":"22","ssbd":"11","lsbd":"School Board Aspen Peaks 6"},{"vid":"1914959","name":"Metha Grimes-Barrows","party":"Rep","address":"1324 S Dragonfly Dr, Lehi, UT 84043","precinct":"25LE35","hd":"52","v_score":"10.4936397","decile":"9","lat":40.37225997133502,"lng":-111.83592756208148,"phone":"(434) 380-7771","sd":"22","ssbd":"11","lsbd":"School Board Aspen Peaks 6"},{"vid":"1915895","name":"Eden Johns","party":"Dem","address":"1451 S Dragonfly Dr, Lehi, UT 84043","precinct":"25LE35","hd":"52","v_score":"9.61867875","decile":"8","lat":40.37064672754149,"lng":-111.83614194229008,"phone":"(544) 762-6871","sd":"22","ssbd":"11","lsbd":"School Board Aspen Peaks 6"},{"vid":"1917703","name":"Mr. Taft Wunsch","party":"","address":"1717 S Spring Creek Ranch Rd, Lehi, UT 84043","precinct":"25LE35","hd":"52","v_score":"2.587603312","decile":"5","lat":40.36750321645492,"lng":-111.83612913431932,"phone":"(504) 933-2023","sd":"22","ssbd":"11","lsbd":"School Board Aspen Peaks 6"},{"vid":"1920074","name":"Mr. Offie Gleichner DVM","party":"Rep","address":"1340 S 740 E, Lehi, UT 84043","precinct":"25LE35","hd":"52","v_score":"22.10816128","decile":"10","lat":40.37209899563578,"lng":-111.83704152562761,"phone":"(521) 954-7513","sd":"22","ssbd":"11","lsbd":"School Board Aspen Peaks 6"},{"vid":"686ab53af535052e14e4bb544aff1a608c598f25d0e806fd369ac06f1229ae30","name":"Dr. Jim Crooks","party":"","address":"212 E 1500 S, Lehi, UT 84043","precinct":"25LE35","hd":"52","v_score":"6.657533174","decile":"7","lat":40.369540213210385,"lng":-111.84609201008243,"phone":"(890) 250-1491","sd":"22","ssbd":"11","lsbd":"School Board Aspen Peaks 6"},{"vid":"1924585","name":"Jay Renner DVM","party":"Rep","address":"1340 S 740 E, Lehi, UT 84043","precinct":"25LE35","hd":"52","v_score":"22.10816128","decile":"10","lat":40.37209899563578,"lng":-111.83704152562761,"phone":"(484) 714-9050","sd":"22","ssbd":"11","lsbd":"School Board Aspen Peaks 6"},{"vid":"1942470","name":"Gladis Lakin","party":"","address":"697 E 1530 S, Lehi, UT 84043","precinct":"25LE35","hd":"52","v_score":"8.347511332","decile":"8","lat":40.36991939714929,"lng":-111.8382569607682,"phone":"(840) 224-3809","sd":"22","ssbd":"11","lsbd":"School Board Aspen Peaks 6"},{"vid":"1945879","name":"Montana Schultz MD","party":"Dem","address":"61 E 1230 S, Unit 4, Lehi, UT 84043","precinct":"25LE35","hd":"52","v_score":"5.191257514","decile":"7","lat":40.37286537888344,"lng":-111.84803164867097,"phone":"(115) 443-6362","sd":"22","ssbd":"11","lsbd":"School Board Aspen Peaks 6"},{"vid":"1953027","name":"Colten Feest","party":"Dem","address":"1717 S Spring Creek Ranch Rd, Lehi, UT 84043","precinct":"25LE35","hd":"52","v_score":"5.258122542","decile":"7","lat":40.36750321645492,"lng":-111.83612913431932,"phone":"(471) 885-7864","sd":"22","ssbd":"11","lsbd":"School Board Aspen Peaks 6"},{"vid":"1961659","name":"Damian Gibson","party":"Rep","address":"1442 S Dragonfly Dr, Lehi, UT 84043","precinct":"25LE35","hd":"52","v_score":"12.49472132","decile":"9","lat":40.37077591264945,"lng":-111.83668854486226,"phone":"(251) 343-5639","sd":"22","ssbd":"11","lsbd":"School Board Aspen Peaks 6"},{"vid":"1970145","name":"Randel O'Keefe I","party":"Dem","address":"2084 S Bullrush Pkwy, Lehi, UT 84043","precinct":"25LE35","hd":"52","v_score":"15.43762891","decile":"9","lat":40.36312240612909,"lng":-111.83808858001234,"phone":"(633) 988-5139","sd":"22","ssbd":"11","lsbd":"School Board Aspen Peaks 6"},{"vid":"1970787","name":"Geraldine Predovic","party":"","address":"577 E 1540 S, Lehi, UT 84043","precinct":"25LE35","hd":"52","v_score":"1.121327652","decile":"3","lat":40.3697497295705,"lng":-111.84030482963982,"phone":"(613) 730-0584","sd":"22","ssbd":"11","lsbd":"School Board Aspen Peaks 6"},{"vid":"1973564","name":"Andra Wilkinson I","party":"Rep","address":"288 E 1290 S, Lehi, UT 84043","precinct":"25LE35","hd":"52","v_score":"1.46627566","decile":"4","lat":40.371817986647265,"lng":-111.84460581698613,"phone":"(480) 145-3242","sd":"22","ssbd":"11","lsbd":"School Board Aspen Peaks 6"},{"vid":"1998013","name":"Julisa Nicolas","party":"","address":"216 E 1450 S, Lehi, UT 84043","precinct":"25LE35","hd":"52","v_score":"0","decile":"1","lat":40.370336434220384,"lng":-111.84609162372367,"phone":"(731) 886-1790","sd":"22","ssbd":"11","lsbd":"School Board Aspen Peaks 6"},{"vid":"2002547","name":"Waymon Kuphal","party":"Rep","address":"638 E 1530 S, Lehi, UT 84043","precinct":"25LE35","hd":"52","v_score":"1.121327652","decile":"3","lat":40.36953533650436,"lng":-111.83944547388325,"phone":"(284) 603-6268","sd":"22","ssbd":"11","lsbd":"School Board Aspen Peaks 6"},{"vid":"2010234","name":"Vernell Gerlach","party":"","address":"638 E 1530 S, Lehi, UT 84043","precinct":"25LE35","hd":"52","v_score":"5.40460374","decile":"7","lat":40.36953533650436,"lng":-111.83944547388325,"phone":"(543) 904-8989","sd":"22","ssbd":"11","lsbd":"School Board Aspen Peaks 6"},{"vid":"2018027","name":"Elvira Sawayn","party":"","address":"770 E 1530 S, Lehi, UT 84043","precinct":"25LE35","hd":"52","v_score":"2.315214949","decile":"5","lat":40.36942661712178,"lng":-111.8369365729761,"phone":"(301) 159-3942","sd":"22","ssbd":"11","lsbd":"School Board Aspen Peaks 6"},{"vid":"9954d65dc685da7d5e89d64b7aa8d8c328aa80039d48fcf91ba25c8901c234a2","name":"Denton Torphy","party":"Dem","address":"1308 S Grey Goose Rd, Lehi, UT 84043","precinct":"25LE35","hd":"52","v_score":"1.121327652","decile":"3","lat":40.372470119530746,"lng":-111.83772297719015,"phone":"(590) 533-4350","sd":"22","ssbd":"11","lsbd":"School Board Aspen Peaks 6"},{"vid":"2056962","name":"Huey Koch","party":"Rep","address":"1451 S 270 E, Lehi, UT 84043","precinct":"25LE35","hd":"52","v_score":"3.93832808","decile":"6","lat":40.37038649541908,"lng":-111.84474034561713,"phone":"(160) 318-9327","sd":"22","ssbd":"11","lsbd":"School Board Aspen Peaks 6"},{"vid":"2057044","name":"Mr. Hershell Shields","party":"","address":"2063 S 900 E, Lehi, UT 84043","precinct":"25LE35","hd":"52","v_score":"23.83031838","decile":"10","lat":40.36346718858728,"lng":-111.83422054201712,"phone":"(771) 994-3828","sd":"22","ssbd":"11","lsbd":"School Board Aspen Peaks 6"},{"vid":"2058847","name":"Dr. Alisson Howe","party":"","address":"234 E 1450 S, Lehi, UT 84043","precinct":"25LE35","hd":"52","v_score":"3.93832808","decile":"6","lat":40.37027765017472,"lng":-111.84566238468925,"phone":"(649) 770-3398","sd":"22","ssbd":"11","lsbd":"School Board Aspen Peaks 6"},{"vid":"2060222","name":"Miss Jaycee Hilll MD","party":"","address":"2063 S 900 E, Lehi, UT 84043","precinct":"25LE35","hd":"52","v_score":"22.20720525","decile":"10","lat":40.36346718858728,"lng":-111.83422054201712,"phone":"(169) 965-8830","sd":"22","ssbd":"11","lsbd":"School Board Aspen Peaks 6"},{"vid":"2060738","name":"Dr. Etter Kiehn DVM","party":"","address":"1535 S 270 E, Lehi, UT 84043","precinct":"25LE35","hd":"52","v_score":"9.405332525","decile":"8","lat":40.36929743828069,"lng":-111.84480268184443,"phone":"(467) 254-4784","sd":"22","ssbd":"11","lsbd":"School Board Aspen Peaks 6"},{"vid":"2060869","name":"Jerod Swaniawski","party":"Dem","address":"1438 S 200 E, Lehi, UT 84043","precinct":"25LE35","hd":"52","v_score":"1.121327652","decile":"3","lat":40.37075631216151,"lng":-111.8465262652129,"phone":"(617) 107-1991","sd":"22","ssbd":"11","lsbd":"School Board Aspen Peaks 6"},{"vid":"2063478","name":"Rudy Waelchi","party":"Dem","address":"1238 S 50 E, Lehi, UT 84043","precinct":"25LE35","hd":"52","v_score":"0","decile":"1","lat":40.3726436642736,"lng":-111.84855852459881,"phone":"(435) 955-0325","sd":"22","ssbd":"11","lsbd":"School Board Aspen Peaks 6"},{"vid":"2065665","name":"Miss Lela Walter","party":"Dem","address":"725 E Meadow Marsh Dr, Lehi, UT 84043","precinct":"25LE35","hd":"52","v_score":"11.885774","decile":"9","lat":40.36732883754895,"lng":-111.83790535793173,"phone":"(293) 226-1982","sd":"22","ssbd":"11","lsbd":"School Board Aspen Peaks 6"},{"vid":"12bbfe17f9df349d693482cbb12f21d198b1405cfe2cd3ba94be0c48475af593","name":"Dr. Maximo D'Amore DDS","party":"Rep","address":"815 E Meadow Marsh Dr, Lehi, UT 84043","precinct":"25LE35","hd":"52","v_score":"8.347511332","decile":"8","lat":40.367031193812444,"lng":-111.83640431580513,"phone":"(510) 666-3196","sd":"22","ssbd":"11","lsbd":"School Board Aspen Peaks 6"},{"vid":"2092074","name":"Dr. Orla Nolan","party":"Rep","address":"1741 S 900 E, Lehi, UT 84043","precinct":"25LE35","hd":"52","v_score":"1.121327652","decile":"3","lat":40.367082274100454,"lng":-111.83414417964842,"phone":"(703) 061-0496","sd":"22","ssbd":"11","lsbd":"School Board Aspen Peaks 6"},{"vid":"2092824","name":"Lou Collier","party":"","address":"725 E Meadow Marsh Dr, Lehi, UT 84043","precinct":"25LE35","hd":"52","v_score":"21.99248283","decile":"10","lat":40.36732883754895,"lng":-111.83790535793173,"phone":"(937) 141-4285","sd":"22","ssbd":"11","lsbd":"School Board Aspen Peaks 6"},{"vid":"2096136","name":"Arvin Denesik III","party":"Dem","address":"1741 S 900 E, Lehi, UT 84043","precinct":"25LE35","hd":"52","v_score":"11.16899434","decile":"9","lat":40.367082274100454,"lng":-111.83414417964842,"phone":"(382) 225-9352","sd":"22","ssbd":"11","lsbd":"School Board Aspen Peaks 6"},{"vid":"2096599","name":"Dr. Darrel Macejkovic IV","party":"Dem","address":"586 E 1590 S, Lehi, UT 84043","precinct":"25LE35","hd":"52","v_score":"3.781490609","decile":"6","lat":40.36879240197482,"lng":-111.84022431939012,"phone":"(389) 853-0817","sd":"22","ssbd":"11","lsbd":"School Board Aspen Peaks 6"},{"vid":"2096611","name":"Lorraine Raynor","party":"Dem","address":"586 E 1590 S, Lehi, UT 84043","precinct":"25LE35","hd":"52","v_score":"3.781490609","decile":"6","lat":40.36879240197482,"lng":-111.84022431939012,"phone":"(596) 412-1936","sd":"22","ssbd":"11","lsbd":"School Board Aspen Peaks 6"},{"vid":"2105323","name":"Meghann O'Kon-Bechtelar","party":"","address":"1451 S 270 E, Lehi, UT 84043","precinct":"25LE35","hd":"52","v_score":"2.315214949","decile":"5","lat":40.37038649541908,"lng":-111.84474034561713,"phone":"(130) 242-7847","sd":"22","ssbd":"11","lsbd":"School Board Aspen Peaks 6"},{"vid":"6011b04147aabbc86ac9745897916f673268f9afb68476e7d1fb0aff93338359","name":"Alfie Ritchie","party":"Dem","address":"1559 S 530 E, Lehi, UT 84043","precinct":"25LE35","hd":"52","v_score":"20.50004641","decile":"10","lat":40.36930600820648,"lng":-111.84075410837478,"phone":"(879) 450-5054","sd":"22","ssbd":"11","lsbd":"School Board Aspen Peaks 6"},{"vid":"2114255","name":"Sie Roob","party":"","address":"1477 S 740 E, Lehi, UT 84043","precinct":"25LE35","hd":"52","v_score":"8.274713794","decile":"8","lat":40.37029825498109,"lng":-111.83723863523336,"phone":"(528) 874-9948","sd":"22","ssbd":"11","lsbd":"School Board Aspen Peaks 6"},{"vid":"b3b1ea5c06b5a5ca6497645845283300991682a96365a211c938924099e44527","name":"Hurley Smitham","party":"Dem","address":"737 E Sandhill Ct, Lehi, UT 84043","precinct":"25LE35","hd":"52","v_score":"0","decile":"1","lat":40.3666905983676,"lng":-111.83740954851964,"phone":"(954) 297-3124","sd":"22","ssbd":"11","lsbd":"School Board Aspen Peaks 6"},{"vid":"2144774","name":"Anna D'Amore PhD","party":"Rep","address":"751 E Sandhill Ct, Lehi, UT 84043","precinct":"25LE35","hd":"52","v_score":"0","decile":"1","lat":40.366610354316656,"lng":-111.83718136080681,"phone":"(343) 653-2629","sd":"22","ssbd":"11","lsbd":"School Board Aspen Peaks 6"},{"vid":"2161319","name":"Afton Stracke","party":"Rep","address":"778 E 2100 S, Lehi, UT 84043","precinct":"25LE35","hd":"52","v_score":"2.817000428","decile":"6","lat":40.36271666691851,"lng":-111.83673765773514,"phone":"(551) 720-6008","sd":"22","ssbd":"11","lsbd":"School Board Aspen Peaks 6"},{"vid":"99f22b5a66c1323175e1bc03d63bc3e89fe73d02bab45c06934440aa748242ca","name":"Jemima Price","party":"","address":"1375 S 740 E, Lehi, UT 84043","precinct":"25LE35","hd":"52","v_score":"2.587603312","decile":"5","lat":40.37166724928769,"lng":-111.83680543947348,"phone":"(774) 176-7417","sd":"22","ssbd":"11","lsbd":"School Board Aspen Peaks 6"},{"vid":"6628f1a7387434e0379790253e4f73bda2452ed29e0e99a4f2936e2c7e8cfa0c","name":"Nathalie Braun PhD","party":"Dem","address":"1913 S 900 E, Lehi, UT 84043","precinct":"25LE35","hd":"52","v_score":"3.781490609","decile":"6","lat":40.36513873376582,"lng":-111.8341386716956,"phone":"(152) 973-1075","sd":"22","ssbd":"11","lsbd":"School Board Aspen Peaks 6"},{"vid":"2169260","name":"Wiliam Ferry","party":"","address":"1233 S 100 E, Unit 1, Lehi, UT 84043","precinct":"25LE35","hd":"52","v_score":"2.587603312","decile":"5","lat":40.37248717636048,"lng":-111.8472596744247,"phone":"(212) 592-3068","sd":"22","ssbd":"11","lsbd":"School Board Aspen Peaks 6"},{"vid":"2170903","name":"Dr. Bettyjane Brekke","party":"Dem","address":"1599 S 530 E, Lehi, UT 84043","precinct":"25LE35","hd":"52","v_score":"1.193887297","decile":"3","lat":40.36885228350388,"lng":-111.84074650719018,"phone":"(724) 348-2967","sd":"22","ssbd":"11","lsbd":"School Board Aspen Peaks 6"},{"vid":"a1666f8ea0e76e4d38c4560e9c9adc3949ed8b90559b2e6ed03aba4800749686","name":"Tyshawn Bartell","party":"Dem","address":"288 E 1290 S, Lehi, UT 84043","precinct":"25LE35","hd":"52","v_score":"0","decile":"1","lat":40.371817986647265,"lng":-111.84460581698613,"phone":"(592) 404-1567","sd":"22","ssbd":"11","lsbd":"School Board Aspen Peaks 6"},{"vid":"759addc4796cdb841b10480572926d076d555cc8bbfe3615af94d08d78ca1783","name":"Angelia Herman","party":"Rep","address":"1417 S 740 E, Lehi, UT 84043","precinct":"25LE35","hd":"52","v_score":"0","decile":"1","lat":40.37125706023644,"lng":-111.83692117546283,"phone":"(491) 635-2120","sd":"22","ssbd":"11","lsbd":"School Board Aspen Peaks 6"},{"vid":"b5452c1e496f424b9d1845b19be9c25cf29d5e7ff0bc4050205de1eadde763f0","name":"Floyd Muller","party":"","address":"771 E Meadow Marsh Dr, Lehi, UT 84043","precinct":"25LE35","hd":"52","v_score":"0","decile":"1","lat":40.367288598598044,"lng":-111.83703553351336,"phone":"(424) 434-4778","sd":"22","ssbd":"11","lsbd":"School Board Aspen Peaks 6"},{"vid":"2193451","name":"Miss Vesta Shields","party":"Rep","address":"597 E 1590 S, Lehi, UT 84043","precinct":"25LE35","hd":"52","v_score":"0","decile":"1","lat":40.36907092743167,"lng":-111.8399967198941,"phone":"(810) 463-6030","sd":"22","ssbd":"11","lsbd":"School Board Aspen Peaks 6"},{"vid":"0486942577926a0db2f502f5576c81d42e98e8a7728ed46f1c8470077267ceda","name":"Roseanna Stehr","party":"Rep","address":"638 E 1530 S, Lehi, UT 84043","precinct":"25LE35","hd":"52","v_score":"1.193887297","decile":"3","lat":40.36953533650436,"lng":-111.83944547388325,"phone":"(341) 620-7831","sd":"22","ssbd":"11","lsbd":"School Board Aspen Peaks 6"},{"vid":"f93480d5b0c3d40aeddb4ad929646ac113453a05edc286224c5aef2550716074","name":"Skye Gutmann","party":"Dem","address":"778 E 2100 S, Lehi, UT 84043","precinct":"25LE35","hd":"52","v_score":"1.193887297","decile":"3","lat":40.36271666691851,"lng":-111.83673765773514,"phone":"(833) 787-5038","sd":"22","ssbd":"11","lsbd":"School Board Aspen Peaks 6"},{"vid":"7af35c845f1599bd3f721f0651c81e7d479280c958ccc00e4c43b3a0eb830717","name":"Karol Hoeger-Gulgowski","party":"","address":"671 E 1530 S, Lehi, UT 84043","precinct":"25LE35","hd":"52","v_score":"3.93832808","decile":"6","lat":40.36992485940192,"lng":-111.83875923938628,"phone":"(613) 810-9144","sd":"22","ssbd":"11","lsbd":"School Board Aspen Peaks 6"},{"vid":"6b76bc6cb0f6aeb4c73b86d97530df45cb1f66222b68fcfe6a48b6401f3e0a9d","name":"Ms. Fallon Parisian MD","party":"Rep","address":"739 E 1675 S, Lehi, UT 84043","precinct":"25LE35","hd":"52","v_score":"1.623113131","decile":"5","lat":40.36801889582697,"lng":-111.83748373816621,"phone":"(721) 661-1466","sd":"22","ssbd":"11","lsbd":"School Board Aspen Peaks 6"},{"vid":"5f9cbd81dd7202b42dc716b8cc22867a800385a1c05bdccf2e5efe651357d8d0","name":"Mrs. Lyndia Murphy DVM","party":"","address":"2075 S 750 E, Lehi, UT 84043","precinct":"25LE35","hd":"52","v_score":"0","decile":"1","lat":40.36336624468395,"lng":-111.83643481984252,"phone":"(901) 300-8868","sd":"22","ssbd":"11","lsbd":"School Board Aspen Peaks 6"},{"vid":"12a40e343d9771df10496989280f85084ae860c4d4be12264e83cd1603f7856b","name":"Maura Lindgren","party":"Rep","address":"1741 S 900 E, Lehi, UT 84043","precinct":"25LE35","hd":"52","v_score":"0","decile":"1","lat":40.367082274100454,"lng":-111.83414417964842,"phone":"(662) 590-0798","sd":"22","ssbd":"11","lsbd":"School Board Aspen Peaks 6"},{"vid":"2224827","name":"Darrin Monahan","party":"Dem","address":"684 E 1470 S, Lehi, UT 84043","precinct":"25LE35","hd":"52","v_score":"9.344081435","decile":"8","lat":40.37023222780912,"lng":-111.8385022793535,"phone":"(169) 532-5991","sd":"22","ssbd":"11","lsbd":"School Board Aspen Peaks 6"},{"vid":"f02e2e19df4449d49574021ff04a881d9360d641d71a678de526a9b51aef7124","name":"Curtiss Skiles","party":"Rep","address":"1277 S 200 E, Lehi, UT 84043","precinct":"25LE35","hd":"52","v_score":"12.90602733","decile":"9","lat":40.372102923514,"lng":-111.84592741792143,"phone":"(808) 966-0558","sd":"22","ssbd":"11","lsbd":"School Board Aspen Peaks 6"},{"vid":"d786b2bdcc9dde6214359dd61ae7d5ecde5b62e9333c43be79956c18f996df4e","name":"Loriann Harris","party":"Dem","address":"269 E 1210 S, Lehi, UT 84043","precinct":"25LE35","hd":"52","v_score":"1.193887297","decile":"3","lat":40.37319476827524,"lng":-111.84503590115008,"phone":"(874) 672-4548","sd":"22","ssbd":"11","lsbd":"School Board Aspen Peaks 6"},{"vid":"b8c65c584b78fb347164ffb681753d8a57dfcb11540bc032a57b2b986dbca238","name":"Lorelei Bogan","party":"Dem","address":"724 E 1675 S, Lehi, UT 84043","precinct":"25LE35","hd":"52","v_score":"9.839815554","decile":"8","lat":40.36773590410542,"lng":-111.83790074255764,"phone":"(855) 314-4756","sd":"22","ssbd":"11","lsbd":"School Board Aspen Peaks 6"},{"vid":"e07b2e620f1b1766688775c6dd0a723e6936e6ea2e971630f37946f136586e86","name":"Stanford Bogan","party":"Dem","address":"232 E 1500 S, Lehi, UT 84043","precinct":"25LE35","hd":"52","v_score":"2.315214949","decile":"5","lat":40.36946646939866,"lng":-111.84553955759131,"phone":"(652) 259-5905","sd":"22","ssbd":"11","lsbd":"School Board Aspen Peaks 6"},{"vid":"3d3bd4c176ca56933fdf411ea03d7bcfd3eb2cc8ad70af76d3810db3a75e5afb","name":"Mrs. Bula Leannon","party":"Rep","address":"1831 S Meadow Marsh Dr, Lehi, UT 84043","precinct":"25LE35","hd":"52","v_score":"1.121327652","decile":"3","lat":40.36607941719654,"lng":-111.83546563634586,"phone":"(983) 336-9612","sd":"22","ssbd":"11","lsbd":"School Board Aspen Peaks 6"},{"vid":"2265789","name":"Mrs. Kristy Shields","party":"Dem","address":"1417 S 740 E, Lehi, UT 84043","precinct":"25LE35","hd":"52","v_score":"5.331806201","decile":"7","lat":40.37125706023644,"lng":-111.83692117546283,"phone":"(132) 165-0462","sd":"22","ssbd":"11","lsbd":"School Board Aspen Peaks 6"},{"vid":"2272360","name":"Westin Tromp","party":"","address":"837 E Grey Goose Rd, Lehi, UT 84043","precinct":"25LE35","hd":"52","v_score":"3.93832808","decile":"6","lat":40.37293573528201,"lng":-111.83590311744629,"phone":"(813) 860-5924","sd":"22","ssbd":"11","lsbd":"School Board Aspen Peaks 6"},{"vid":"51e196e3979cfdfe23f847a86cee38d58f0a192c86ec2667ab7b397b0433a826","name":"Zariah Ebert MD","party":"Dem","address":"688 E Sandhill Ct, Lehi, UT 84043","precinct":"25LE35","hd":"52","v_score":"1.193887297","decile":"3","lat":40.36656882805601,"lng":-111.83843621293562,"phone":"(669) 369-4338","sd":"22","ssbd":"11","lsbd":"School Board Aspen Peaks 6"},{"vid":"b2a167b4f053506b521934f45f2ee39bad00dff63a13864a0523244f3af9763b","name":"Sudie Koelpin","party":"","address":"269 E 1210 S, Lehi, UT 84043","precinct":"25LE35","hd":"52","v_score":"2.817000428","decile":"6","lat":40.37319476827524,"lng":-111.84503590115008,"phone":"(699) 840-1851","sd":"22","ssbd":"11","lsbd":"School Board Aspen Peaks 6"},{"vid":"2317947","name":"Ignatius Blanda II","party":"Dem","address":"1557 S 270 E, Lehi, UT 84043","precinct":"25LE35","hd":"52","v_score":"6.52928996","decile":"7","lat":40.36903471180135,"lng":-111.84485908365797,"phone":"(508) 082-7453","sd":"22","ssbd":"11","lsbd":"School Board Aspen Peaks 6"},{"vid":"2326236","name":"Naomi Kuhic","party":"Rep","address":"1661 S 900 E, Lehi, UT 84043","precinct":"25LE35","hd":"52","v_score":"2.817000428","decile":"6","lat":40.3678327283522,"lng":-111.83417667987311,"phone":"(770) 712-2946","sd":"22","ssbd":"11","lsbd":"School Board Aspen Peaks 6"},{"vid":"2328382","name":"Dr. Cliff Terry IV","party":"","address":"1442 S Dragonfly Dr, Lehi, UT 84043","precinct":"25LE35","hd":"52","v_score":"8.284004873","decile":"8","lat":40.37077591264945,"lng":-111.83668854486226,"phone":"(210) 065-5087","sd":"22","ssbd":"11","lsbd":"School Board Aspen Peaks 6"},{"vid":"2333713","name":"Larkin Boyer","party":"","address":"256 E 1450 S, Lehi, UT 84043","precinct":"25LE35","hd":"52","v_score":"10.52632313","decile":"9","lat":40.370317079243385,"lng":-111.84515791107437,"phone":"(677) 078-2606","sd":"22","ssbd":"11","lsbd":"School Board Aspen Peaks 6"},{"vid":"2342621","name":"Heyward Bernier","party":"Rep","address":"1913 S 900 E, Lehi, UT 84043","precinct":"25LE35","hd":"52","v_score":"1.193887297","decile":"3","lat":40.36513873376582,"lng":-111.8341386716956,"phone":"(601) 767-8036","sd":"22","ssbd":"11","lsbd":"School Board Aspen Peaks 6"},{"vid":"2357721","name":"Jefferson Kuvalis Jr.","party":"Dem","address":"1442 S Dragonfly Dr, Lehi, UT 84043","precinct":"25LE35","hd":"52","v_score":"2.315214949","decile":"5","lat":40.37077591264945,"lng":-111.83668854486226,"phone":"(341) 857-4468","sd":"22","ssbd":"11","lsbd":"School Board Aspen Peaks 6"},{"vid":"2372847","name":"Concepcion Kuhn","party":"Dem","address":"1973 S 750 E, Lehi, UT 84043","precinct":"25LE35","hd":"52","v_score":"2.315214949","decile":"5","lat":40.36451864815627,"lng":-111.83640622323308,"phone":"(915) 384-3292","sd":"22","ssbd":"11","lsbd":"School Board Aspen Peaks 6"},{"vid":"2372856","name":"Ms. Hester Medhurst","party":"Dem","address":"1775 S Meadow Marsh Dr, Lehi, UT 84043","precinct":"25LE35","hd":"52","v_score":"1.121327652","decile":"3","lat":40.36660846813112,"lng":-111.83567427367912,"phone":"(222) 260-5777","sd":"22","ssbd":"11","lsbd":"School Board Aspen Peaks 6"},{"vid":"2372972","name":"Hartwell Beahan-Batz","party":"Rep","address":"1299 S 100 E, Unit K1, Lehi, UT 84043","precinct":"25LE35","hd":"52","v_score":"3.93832808","decile":"6","lat":40.37165237981276,"lng":-111.84725959950524,"phone":"(767) 408-3868","sd":"22","ssbd":"11","lsbd":"School Board Aspen Peaks 6"},{"vid":"2385830","name":"Miss Georgette Zieme DDS","party":"","address":"2068 S Bullrush Pkwy, Lehi, UT 84043","precinct":"25LE35","hd":"52","v_score":"3.664562647","decile":"6","lat":40.363314466562066,"lng":-111.83808382469059,"phone":"(873) 964-5649","sd":"22","ssbd":"11","lsbd":"School Board Aspen Peaks 6"},{"vid":"2387195","name":"Mr. Diane Baumbach V","party":"Rep","address":"1804 S 900 E, Lehi, UT 84043","precinct":"25LE35","hd":"52","v_score":"2.817000428","decile":"6","lat":40.36642136067964,"lng":-111.83472785419515,"phone":"(830) 730-7994","sd":"22","ssbd":"11","lsbd":"School Board Aspen Peaks 6"},{"vid":"2387554","name":"Ivy Quigley-West","party":"Dem","address":"668 E 1900 S, Lehi, UT 84043","precinct":"25LE35","hd":"52","v_score":"2.315214949","decile":"5","lat":40.364734977183446,"lng":-111.8387461413151,"phone":"(290) 229-4781","sd":"22","ssbd":"11","lsbd":"School Board Aspen Peaks 6"},{"vid":"2387901","name":"Mrs. Bina Kilback","party":"Dem","address":"572 E 1540 S, Lehi, UT 84043","precinct":"25LE35","hd":"52","v_score":"2.315214949","decile":"5","lat":40.36935330402364,"lng":-111.84038992237546,"phone":"(517) 949-9024","sd":"22","ssbd":"11","lsbd":"School Board Aspen Peaks 6"},{"vid":"2390895","name":"Milan Leffler-Anderson","party":"Rep","address":"574 E 1590 S, Lehi, UT 84043","precinct":"25LE35","hd":"52","v_score":"0","decile":"1","lat":40.368830481915346,"lng":-111.84044916968202,"phone":"(231) 201-6187","sd":"22","ssbd":"11","lsbd":"School Board Aspen Peaks 6"},{"vid":"2393831","name":"Jarred McKenzie","party":"Rep","address":"837 E Grey Goose Rd, Lehi, UT 84043","precinct":"25LE35","hd":"52","v_score":"2.817000428","decile":"6","lat":40.37293573528201,"lng":-111.83590311744629,"phone":"(104) 737-8301","sd":"22","ssbd":"11","lsbd":"School Board Aspen Peaks 6"},{"vid":"2405883","name":"Sybil Schroeder DVM","party":"Rep","address":"1780 S Weeping Willow Way, Lehi, UT 84043","precinct":"25LE35","hd":"52","v_score":"0","decile":"1","lat":40.36638588765321,"lng":-111.84015847898834,"phone":"(816) 116-0990","sd":"22","ssbd":"11","lsbd":"School Board Aspen Peaks 6"},{"vid":"2427379","name":"Dr. Babyboy Gusikowski","party":"Dem","address":"1906 S 900 E, Lehi, UT 84043","precinct":"25LE35","hd":"52","v_score":"2.315214949","decile":"5","lat":40.365252332952714,"lng":-111.83477827492096,"phone":"(575) 186-7794","sd":"22","ssbd":"11","lsbd":"School Board Aspen Peaks 6"},{"vid":"2430651","name":"Adriana Emmerich PhD","party":"","address":"2026 S Bullrush Pkwy, Lehi, UT 84043","precinct":"25LE35","hd":"52","v_score":"2.817000428","decile":"6","lat":40.36389037544473,"lng":-111.83804845101098,"phone":"(706) 049-5878","sd":"22","ssbd":"11","lsbd":"School Board Aspen Peaks 6"},{"vid":"2455161","name":"Mrs. Francine Witting","party":"Dem","address":"1694 S Spring Creek Ranch Rd, Lehi, UT 84043","precinct":"25LE35","hd":"52","v_score":"2.315214949","decile":"5","lat":40.367671603458355,"lng":-111.83657743642836,"phone":"(387) 948-5470","sd":"22","ssbd":"11","lsbd":"School Board Aspen Peaks 6"},{"vid":"2472561","name":"Ayesha Stokes","party":"Rep","address":"724 E 1675 S, Lehi, UT 84043","precinct":"25LE35","hd":"52","v_score":"2.817000428","decile":"6","lat":40.36773590410542,"lng":-111.83790074255764,"phone":"(215) 646-9172","sd":"22","ssbd":"11","lsbd":"School Board Aspen Peaks 6"},{"vid":"2472937","name":"Rustin Schultz-Klocko","party":"Rep","address":"1481 S Dragonfly Dr, Lehi, UT 84043","precinct":"25LE35","hd":"52","v_score":"0","decile":"1","lat":40.37025656096397,"lng":-111.8362610125437,"phone":"(877) 422-6018","sd":"22","ssbd":"11","lsbd":"School Board Aspen Peaks 6"},{"vid":"2473146","name":"Vernon Terry","party":"","address":"598 E 1540 S, Lehi, UT 84043","precinct":"25LE35","hd":"52","v_score":"0","decile":"1","lat":40.36925671113019,"lng":-111.84000780276911,"phone":"(886) 830-8257","sd":"22","ssbd":"11","lsbd":"School Board Aspen Peaks 6"},{"vid":"2474761","name":"Leona Robel","party":"Dem","address":"1458 S Dragonfly Dr, Lehi, UT 84043","precinct":"25LE35","hd":"52","v_score":"0","decile":"1","lat":40.370602181456825,"lng":-111.83674154636235,"phone":"(260) 941-8031","sd":"22","ssbd":"11","lsbd":"School Board Aspen Peaks 6"},{"vid":"2477895","name":"Mr. Lish Feil","party":"","address":"227 E 1600 S, Lehi, UT 84043","precinct":"25LE35","hd":"52","v_score":"0","decile":"1","lat":40.36908934255678,"lng":-111.84576116392292,"phone":"(157) 833-8356","sd":"22","ssbd":"11","lsbd":"School Board Aspen Peaks 6"},{"vid":"2480023","name":"Chandler O'Conner","party":"Dem","address":"2025 S Bullrush Pkwy, Lehi, UT 84043","precinct":"25LE35","hd":"52","v_score":"0","decile":"1","lat":40.363910550418545,"lng":-111.83739863452794,"phone":"(597) 770-3202","sd":"22","ssbd":"11","lsbd":"School Board Aspen Peaks 6"},{"vid":"2486594","name":"Hezzie Hudson PhD","party":"Rep","address":"1376 S 740 E, Lehi, UT 84043","precinct":"25LE35","hd":"52","v_score":"1.193887297","decile":"3","lat":40.371717049439845,"lng":-111.83730131817217,"phone":"(861) 334-4396","sd":"22","ssbd":"11","lsbd":"School Board Aspen Peaks 6"},{"vid":"2487343","name":"Lorena Johnston","party":"Dem","address":"1860 S Weeping Willow Way, Lehi, UT 84043","precinct":"25LE35","hd":"52","v_score":"0","decile":"1","lat":40.36568546917092,"lng":-111.84016250721372,"phone":"(929) 602-4752","sd":"22","ssbd":"11","lsbd":"School Board Aspen Peaks 6"},{"vid":"2494264","name":"Zed Johnson","party":"","address":"1559 S 530 E, Lehi, UT 84043","precinct":"25LE35","hd":"52","v_score":"0","decile":"1","lat":40.36930600820648,"lng":-111.84075410837478,"phone":"(936) 910-9201","sd":"22","ssbd":"11","lsbd":"School Board Aspen Peaks 6"},{"vid":"2495488","name":"Jerilynn Armstrong DVM","party":"Dem","address":"638 E 1530 S, Lehi, UT 84043","precinct":"25LE35","hd":"52","v_score":"0","decile":"1","lat":40.36953533650436,"lng":-111.83944547388325,"phone":"(225) 823-6314","sd":"22","ssbd":"11","lsbd":"School Board Aspen Peaks 6"},{"vid":"2548455","name":"Mr. Alvy Harris III","party":"","address":"1599 S 530 E, Lehi, UT 84043","precinct":"25LE35","hd":"52","v_score":"1.193887297","decile":"4","lat":40.36885228350388,"lng":-111.84074650719018,"phone":"(542) 104-4065","sd":"22","ssbd":"11","lsbd":"School Board Aspen Peaks 6"},{"vid":"2554139","name":"Verdie Kertzmann-Boyle","party":"Rep","address":"577 E 1590 S, Lehi, UT 84043","precinct":"25LE35","hd":"52","v_score":"0","decile":"1","lat":40.36910344223376,"lng":-111.84038016703079,"phone":"(143) 531-4041","sd":"22","ssbd":"11","lsbd":"School Board Aspen Peaks 6"},{"vid":"2562442","name":"Vada Hyatt-Hane","party":"Dem","address":"722 E 1530 S, Lehi, UT 84043","precinct":"25LE35","hd":"52","v_score":"0","decile":"1","lat":40.369528829881595,"lng":-111.83769296016183,"phone":"(123) 527-4722","sd":"22","ssbd":"11","lsbd":"School Board Aspen Peaks 6"},{"vid":"2565299","name":"Johnathan Luettgen-O'Reilly","party":"","address":"572 E 1540 S, Lehi, UT 84043","precinct":"25LE35","hd":"52","v_score":"1.193887297","decile":"4","lat":40.36935330402364,"lng":-111.84038992237546,"phone":"(675) 519-7382","sd":"22","ssbd":"11","lsbd":"School Board Aspen Peaks 6"},{"vid":"2567543","name":"Earley Borer-Volkman","party":"Dem","address":"1941 S Bullrush Pkwy, Lehi, UT 84043","precinct":"25LE35","hd":"52","v_score":"0","decile":"1","lat":40.36487966877542,"lng":-111.83740903093926,"phone":"(265) 366-6848","sd":"22","ssbd":"11","lsbd":"School Board Aspen Peaks 6"},{"vid":"2568792","name":"Willene Oberbrunner","party":"Dem","address":"1560 S 530 E, Lehi, UT 84043","precinct":"25LE35","hd":"52","v_score":"0","decile":"1","lat":40.36926972251978,"lng":-111.84125488321305,"phone":"(979) 955-0804","sd":"22","ssbd":"11","lsbd":"School Board Aspen Peaks 6"},{"vid":"2595834","name":"Miss Effie Monahan","party":"Rep","address":"1367 S Grey Goose Rd, Lehi, UT 84043","precinct":"25LE35","hd":"52","v_score":"5.693042993","decile":"7","lat":40.37169673131585,"lng":-111.8378902843694,"phone":"(783) 934-9310","sd":"22","ssbd":"11","lsbd":"School Board Aspen Peaks 6"},{"vid":"2598515","name":"Morgan Kassulke","party":"Dem","address":"791 E Sandhill Ct, Lehi, UT 84043","precinct":"25LE35","hd":"52","v_score":"1.193887297","decile":"4","lat":40.36636964294524,"lng":-111.8364967585017,"phone":"(411) 597-8976","sd":"22","ssbd":"11","lsbd":"School Board Aspen Peaks 6"},{"vid":"2603965","name":"Malia Turner","party":"Dem","address":"1381 S Grey Goose Rd, Lehi, UT 84043","precinct":"25LE35","hd":"52","v_score":"5.693042993","decile":"7","lat":40.37158482050536,"lng":-111.83803688661718,"phone":"(933) 925-0214","sd":"22","ssbd":"11","lsbd":"School Board Aspen Peaks 6"},{"vid":"2608760","name":"Lorna Becker-Effertz","party":"Dem","address":"1874 S 900 E, Lehi, UT 84043","precinct":"25LE35","hd":"52","v_score":"1.623113131","decile":"5","lat":40.365672248058324,"lng":-111.83478206560615,"phone":"(535) 309-6682","sd":"22","ssbd":"11","lsbd":"School Board Aspen Peaks 6"},{"vid":"2609267","name":"Mr. Osborn Rice PhD","party":"","address":"1376 S 740 E, Lehi, UT 84043","precinct":"25LE35","hd":"52","v_score":"0","decile":"1","lat":40.371717049439845,"lng":-111.83730131817217,"phone":"(606) 848-1508","sd":"22","ssbd":"11","lsbd":"School Board Aspen Peaks 6"},{"vid":"2611046","name":"Storm Luettgen","party":"Dem","address":"1693 S Spring Creek Ranch Rd, Lehi, UT 84043","precinct":"25LE35","hd":"52","v_score":"1.193887297","decile":"4","lat":40.367698275216945,"lng":-111.83600504838327,"phone":"(104) 423-7441","sd":"22","ssbd":"11","lsbd":"School Board Aspen Peaks 6"},{"vid":"2614756","name":"Nakisha Borer-Prosacco","party":"Rep","address":"1323 S Dragonfly Dr, Lehi, UT 84043","precinct":"25LE35","hd":"52","v_score":"0","decile":"1","lat":40.372221694879684,"lng":-111.83538767521125,"phone":"(126) 401-0733","sd":"22","ssbd":"11","lsbd":"School Board Aspen Peaks 6"},{"vid":"2629886","name":"Cyndi O'Connell","party":"","address":"2084 S Bullrush Pkwy, Lehi, UT 84043","precinct":"25LE35","hd":"52","v_score":"13.01661254","decile":"9","lat":40.36312240612909,"lng":-111.83808858001234,"phone":"(720) 565-2494","sd":"22","ssbd":"11","lsbd":"School Board Aspen Peaks 6"},{"vid":"2630221","name":"Amina Gibson-Walsh","party":"","address":"1487 S 270 E, Lehi, UT 84043","precinct":"25LE35","hd":"52","v_score":"5.693042993","decile":"7","lat":40.3698586287105,"lng":-111.8447178977879,"phone":"(783) 967-9288","sd":"22","ssbd":"11","lsbd":"School Board Aspen Peaks 6"},{"vid":"2643223","name":"Mr. Gregorio O'Keefe IV","party":"Dem","address":"1983 S Bullrush Pkwy, Lehi, UT 84043","precinct":"25LE35","hd":"52","v_score":"2.817000428","decile":"6","lat":40.36440786560249,"lng":-111.8373607355813,"phone":"(810) 978-8803","sd":"22","ssbd":"11","lsbd":"School Board Aspen Peaks 6"},{"vid":"2646990","name":"Johathan Klein","party":"","address":"815 E Meadow Marsh Dr, Lehi, UT 84043","precinct":"25LE35","hd":"52","v_score":"1.193887297","decile":"4","lat":40.367031193812444,"lng":-111.83640431580513,"phone":"(500) 213-0436","sd":"22","ssbd":"11","lsbd":"School Board Aspen Peaks 6"},{"vid":"2658371","name":"Dr. Margarita Schinner","party":"Dem","address":"1762 S 900 E, Lehi, UT 84043","precinct":"25LE35","hd":"52","v_score":"1.193887297","decile":"4","lat":40.36680251007829,"lng":-111.8347775352225,"phone":"(985) 148-6692","sd":"22","ssbd":"11","lsbd":"School Board Aspen Peaks 6"},{"vid":"2660139","name":"Margarete Lockman","party":"Dem","address":"1351 S Grey Goose Rd, Lehi, UT 84043","precinct":"25LE35","hd":"52","v_score":"0","decile":"1","lat":40.37187843190816,"lng":-111.83766942017189,"phone":"(855) 285-7007","sd":"22","ssbd":"11","lsbd":"School Board Aspen Peaks 6"},{"vid":"2668540","name":"Taurus Johnson DDS","party":"Rep","address":"727 E 1675 S, Lehi, UT 84043","precinct":"25LE35","hd":"52","v_score":"0","decile":"1","lat":40.368059160351855,"lng":-111.83791306864865,"phone":"(565) 238-1490","sd":"22","ssbd":"11","lsbd":"School Board Aspen Peaks 6"},{"vid":"2670347","name":"Olar Kshlerin","party":"Rep","address":"184 E 1290 S, Lehi, UT 84043","precinct":"25LE35","hd":"52","v_score":"1.193887297","decile":"4","lat":40.37174969349247,"lng":-111.84663709899333,"phone":"(829) 834-5843","sd":"22","ssbd":"11","lsbd":"School Board Aspen Peaks 6"},{"vid":"2684366","name":"Serenity Rohan","party":"","address":"213 E 1450 S, Lehi, UT 84043","precinct":"25LE35","hd":"52","v_score":"1.193887297","decile":"4","lat":40.37062260313212,"lng":-111.84609797485734,"phone":"(782) 419-7727","sd":"22","ssbd":"11","lsbd":"School Board Aspen Peaks 6"},{"vid":"2690211","name":"Davy Trantow","party":"","address":"751 E 1675 S, Lehi, UT 84043","precinct":"25LE35","hd":"52","v_score":"0","decile":"2","lat":40.368061624874116,"lng":-111.83719833927236,"phone":"(908) 627-3542","sd":"22","ssbd":"11","lsbd":"School Board Aspen Peaks 6"},{"vid":"2690480","name":"Toni Fay","party":"","address":"1569 S 530 E, Lehi, UT 84043","precinct":"25LE35","hd":"52","v_score":"6.462591196","decile":"7","lat":40.36922917359833,"lng":-111.8407516795099,"phone":"(541) 618-3597","sd":"22","ssbd":"11","lsbd":"School Board Aspen Peaks 6"},{"vid":"2693590","name":"Sedrick Funk","party":"Rep","address":"1586 S 530 E, Lehi, UT 84043","precinct":"25LE35","hd":"52","v_score":"0","decile":"2","lat":40.36903927415676,"lng":-111.84124763362907,"phone":"(421) 477-7334","sd":"22","ssbd":"11","lsbd":"School Board Aspen Peaks 6"},{"vid":"2695986","name":"Mrs. Helga Gleichner DDS","party":"","address":"1481 S Dragonfly Dr, Lehi, UT 84043","precinct":"25LE35","hd":"52","v_score":"0","decile":"2","lat":40.37025656096397,"lng":-111.8362610125437,"phone":"(356) 441-3881","sd":"22","ssbd":"11","lsbd":"School Board Aspen Peaks 6"},{"vid":"2700659","name":"Rosey Bradtke","party":"","address":"1693 S Spring Creek Ranch Rd, Lehi, UT 84043","precinct":"25LE35","hd":"52","v_score":"1.193887297","decile":"4","lat":40.367698275216945,"lng":-111.83600504838327,"phone":"(277) 653-5530","sd":"22","ssbd":"11","lsbd":"School Board Aspen Peaks 6"},{"vid":"2701779","name":"Ms. Krysta Wiegand","party":"Dem","address":"1281 S 50 E, Unit 1, Lehi, UT 84043","precinct":"25LE35","hd":"52","v_score":"9.338633761","decile":"8","lat":40.37212726518231,"lng":-111.84780227661926,"phone":"(839) 230-3237","sd":"22","ssbd":"11","lsbd":"School Board Aspen Peaks 6"},{"vid":"2704472","name":"Riley Connelly","party":"Rep","address":"1863 S 900 E, Lehi, UT 84043","precinct":"25LE35","hd":"52","v_score":"0","decile":"2","lat":40.36577151680968,"lng":-111.83417097244075,"phone":"(741) 333-4227","sd":"22","ssbd":"11","lsbd":"School Board Aspen Peaks 6"},{"vid":"2712588","name":"Garrick Konopelski","party":"","address":"668 E 1900 S, Lehi, UT 84043","precinct":"25LE35","hd":"52","v_score":"0","decile":"2","lat":40.364734977183446,"lng":-111.8387461413151,"phone":"(840) 413-9091","sd":"22","ssbd":"11","lsbd":"School Board Aspen Peaks 6"},{"vid":"2727447","name":"Mr. Xavier Dooley I","party":"","address":"688 E Sandhill Ct, Lehi, UT 84043","precinct":"25LE35","hd":"52","v_score":"1.193887297","decile":"4","lat":40.36656882805601,"lng":-111.83843621293562,"phone":"(495) 212-2243","sd":"22","ssbd":"11","lsbd":"School Board Aspen Peaks 6"},{"vid":"2745384","name":"Kaley Bogisich","party":"","address":"545 E 1540 S, Lehi, UT 84043","precinct":"25LE35","hd":"52","v_score":"1.193887297","decile":"4","lat":40.3697765274319,"lng":-111.8407875298356,"phone":"(510) 497-0831","sd":"22","ssbd":"11","lsbd":"School Board Aspen Peaks 6"},{"vid":"2759592","name":"Ryne Howe Jr.","party":"Dem","address":"289 E 1400 S, Lehi, UT 84043","precinct":"25LE35","hd":"52","v_score":"8.284004873","decile":"8","lat":40.37136157202319,"lng":-111.8446285415439,"phone":"(921) 355-4902","sd":"22","ssbd":"11","lsbd":"School Board Aspen Peaks 6"},{"vid":"2760538","name":"Kaylan Kris-Luettgen","party":"Rep","address":"2090 S 750 E, Lehi, UT 84043","precinct":"25LE35","hd":"52","v_score":"8.284004873","decile":"8","lat":40.363045052582244,"lng":-111.8368587035149,"phone":"(783) 909-2254","sd":"22","ssbd":"11","lsbd":"School Board Aspen Peaks 6"},{"vid":"2771438","name":"Wm Conroy","party":"Rep","address":"1381 S Grey Goose Rd, Lehi, UT 84043","precinct":"25LE35","hd":"52","v_score":"0","decile":"2","lat":40.37158482050536,"lng":-111.83803688661718,"phone":"(584) 463-2634","sd":"22","ssbd":"11","lsbd":"School Board Aspen Peaks 6"},{"vid":"2782489","name":"Burnell Roberts","party":"Rep","address":"878 E 1630 S, Lehi, UT 84043","precinct":"25LE35","hd":"52","v_score":"1.193887297","decile":"4","lat":40.36783250444064,"lng":-111.83493733710422,"phone":"(555) 677-7786","sd":"22","ssbd":"11","lsbd":"School Board Aspen Peaks 6"},{"vid":"2794583","name":"Rashaan Parisian MD","party":"","address":"1342 S Grey Goose Rd, Lehi, UT 84043","precinct":"25LE35","hd":"52","v_score":"4.069929862","decile":"7","lat":40.37209449806913,"lng":-111.8381424068845,"phone":"(740) 104-1222","sd":"22","ssbd":"11","lsbd":"School Board Aspen Peaks 6"},{"vid":"2794627","name":"Myrta Miller","party":"Dem","address":"665 E 1900 S, Lehi, UT 84043","precinct":"25LE35","hd":"52","v_score":"1.193887297","decile":"4","lat":40.36519964797843,"lng":-111.83874570180487,"phone":"(589) 958-4726","sd":"22","ssbd":"11","lsbd":"School Board Aspen Peaks 6"},{"vid":"2794723","name":"Margarita Kling","party":"Rep","address":"1941 S Bullrush Pkwy, Lehi, UT 84043","precinct":"25LE35","hd":"52","v_score":"0","decile":"2","lat":40.36487966877542,"lng":-111.83740903093926,"phone":"(478) 373-0017","sd":"22","ssbd":"11","lsbd":"School Board Aspen Peaks 6"},{"vid":"2800648","name":"Gustaf Nolan","party":"Dem","address":"248 E 1210 S, Lehi, UT 84043","precinct":"25LE35","hd":"52","v_score":"8.284004873","decile":"8","lat":40.37265768325636,"lng":-111.84530745544393,"phone":"(680) 172-7133","sd":"22","ssbd":"11","lsbd":"School Board Aspen Peaks 6"},{"vid":"2802931","name":"Layton Orn-McClure","party":"Rep","address":"1394 S Dragonfly Dr, Lehi, UT 84043","precinct":"25LE35","hd":"52","v_score":"0","decile":"2","lat":40.37139796390056,"lng":-111.83648739880074,"phone":"(615) 005-1329","sd":"22","ssbd":"11","lsbd":"School Board Aspen Peaks 6"},{"vid":"2803033","name":"Brandie Lynch","party":"","address":"1941 S Bullrush Pkwy, Lehi, UT 84043","precinct":"25LE35","hd":"52","v_score":"0","decile":"2","lat":40.36487966877542,"lng":-111.83740903093926,"phone":"(848) 397-9468","sd":"22","ssbd":"11","lsbd":"School Board Aspen Peaks 6"},{"vid":"2804222","name":"Stephaine Padberg","party":"Dem","address":"625 E Bullrush Pkwy, Lehi, UT 84043","precinct":"25LE35","hd":"52","v_score":"0","decile":"2","lat":40.366047992404965,"lng":-111.83962595328224,"phone":"(228) 103-9729","sd":"22","ssbd":"11","lsbd":"School Board Aspen Peaks 6"},{"vid":"2805264","name":"Miss Bev Larkin","party":"","address":"1323 S Dragonfly Dr, Lehi, UT 84043","precinct":"25LE35","hd":"52","v_score":"1.193887297","decile":"4","lat":40.372221694879684,"lng":-111.83538767521125,"phone":"(387) 878-9236","sd":"22","ssbd":"11","lsbd":"School Board Aspen Peaks 6"},{"vid":"2813031","name":"Lary Monahan","party":"","address":"1661 S 900 E, Lehi, UT 84043","precinct":"25LE35","hd":"52","v_score":"1.193887297","decile":"4","lat":40.3678327283522,"lng":-111.83417667987311,"phone":"(130) 293-2385","sd":"22","ssbd":"11","lsbd":"School Board Aspen Peaks 6"},{"vid":"2816879","name":"Miss Abby Greenholt","party":"","address":"1262 S 50 E, Unit 3, Lehi, UT 84043","precinct":"25LE35","hd":"52","v_score":"1.193887297","decile":"4","lat":40.372282774852785,"lng":-111.8485709659062,"phone":"(586) 374-0409","sd":"22","ssbd":"11","lsbd":"School Board Aspen Peaks 6"},{"vid":"2822642","name":"Dr. Oland Willms Sr.","party":"Rep","address":"882 E Grey Goose Rd, Lehi, UT 84043","precinct":"25LE35","hd":"52","v_score":"1.193887297","decile":"4","lat":40.37248095467613,"lng":-111.83507564829588,"phone":"(153) 190-0194","sd":"22","ssbd":"11","lsbd":"School Board Aspen Peaks 6"},{"vid":"2824161","name":"Martika Vandervort-Runolfsdottir","party":"Rep","address":"1554 S 270 E, Lehi, UT 84043","precinct":"25LE35","hd":"52","v_score":"0","decile":"2","lat":40.369001998121824,"lng":-111.84533162805056,"phone":"(555) 860-2880","sd":"22","ssbd":"11","lsbd":"School Board Aspen Peaks 6"},{"vid":"2843067","name":"Asher Trantow-Reichel","party":"Rep","address":"229 E 1210 S, Lehi, UT 84043","precinct":"25LE35","hd":"52","v_score":"0","decile":"2","lat":40.373204377000135,"lng":-111.84572133303651,"phone":"(484) 772-7510","sd":"22","ssbd":"11","lsbd":"School Board Aspen Peaks 6"},{"vid":"2844489","name":"Josefita Gibson-Eichmann","party":"","address":"1609 S 530 E, Lehi, UT 84043","precinct":"25LE35","hd":"52","v_score":"1.193887297","decile":"4","lat":40.36876559617066,"lng":-111.84074377361675,"phone":"(763) 542-7856","sd":"22","ssbd":"11","lsbd":"School Board Aspen Peaks 6"},{"vid":"2844779","name":"Giuliana Murphy","party":"Dem","address":"1467 S Dragonfly Dr, Lehi, UT 84043","precinct":"25LE35","hd":"52","v_score":"8.954959708","decile":"8","lat":40.37045165733339,"lng":-111.83620147741689,"phone":"(562) 790-5733","sd":"22","ssbd":"11","lsbd":"School Board Aspen Peaks 6"},{"vid":"2846889","name":"Braylon Breitenberg","party":"Rep","address":"1693 S 900 E, Lehi, UT 84043","precinct":"25LE35","hd":"52","v_score":"0","decile":"2","lat":40.36764401238214,"lng":-111.83413307413586,"phone":"(375) 738-6356","sd":"22","ssbd":"11","lsbd":"School Board Aspen Peaks 6"},{"vid":"2847124","name":"David McClure","party":"","address":"1375 S 740 E, Lehi, UT 84043","precinct":"25LE35","hd":"52","v_score":"1.193887297","decile":"4","lat":40.37166724928769,"lng":-111.83680543947348,"phone":"(605) 054-9490","sd":"22","ssbd":"11","lsbd":"School Board Aspen Peaks 6"},{"vid":"2855458","name":"Nan Paucek","party":"Dem","address":"212 E 1290 S, Lehi, UT 84043","precinct":"25LE35","hd":"52","v_score":"1.193887297","decile":"4","lat":40.37175325231251,"lng":-111.84599594801887,"phone":"(582) 411-7716","sd":"22","ssbd":"11","lsbd":"School Board Aspen Peaks 6"},{"vid":"2889654","name":"Zenas Pfannerstill-Gibson","party":"","address":"1652 S 710 E, Lehi, UT 84043","precinct":"25LE35","hd":"52","v_score":"0","decile":"2","lat":40.368180462519376,"lng":-111.83827682150128,"phone":"(866) 680-0241","sd":"22","ssbd":"11","lsbd":"School Board Aspen Peaks 6"},{"vid":"2898061","name":"Dr. Trenton Gusikowski","party":"","address":"2091 S 750 E, Lehi, UT 84043","precinct":"25LE35","hd":"52","v_score":"0","decile":"2","lat":40.36307061435282,"lng":-111.8365151874704,"phone":"(639) 052-5727","sd":"22","ssbd":"11","lsbd":"School Board Aspen Peaks 6"},{"vid":"2901970","name":"Shelby Dach-Wolf","party":"Rep","address":"742 E Meadow Marsh Dr, Lehi, UT 84043","precinct":"25LE35","hd":"52","v_score":"0","decile":"2","lat":40.36704865004384,"lng":-111.8374279766241,"phone":"(929) 157-7839","sd":"22","ssbd":"11","lsbd":"School Board Aspen Peaks 6"},{"vid":"2905289","name":"Tayshaun Sanford-Larkin","party":"Rep","address":"1694 S Spring Creek Ranch Rd, Lehi, UT 84043","precinct":"25LE35","hd":"52","v_score":"0","decile":"2","lat":40.367671603458355,"lng":-111.83657743642836,"phone":"(260) 465-0288","sd":"22","ssbd":"11","lsbd":"School Board Aspen Peaks 6"},{"vid":"2913345","name":"Mr. Admiral Bashirian DDS","party":"Dem","address":"1376 S 740 E, Lehi, UT 84043","precinct":"25LE35","hd":"52","v_score":"0","decile":"2","lat":40.371717049439845,"lng":-111.83730131817217,"phone":"(262) 276-1013","sd":"22","ssbd":"11","lsbd":"School Board Aspen Peaks 6"},{"vid":"2919015","name":"Ms. Vannie Yundt","party":"Rep","address":"848 E 2100 S, Lehi, UT 84043","precinct":"25LE35","hd":"52","v_score":"0","decile":"2","lat":40.362741329831266,"lng":-111.83572962545615,"phone":"(647) 762-1132","sd":"22","ssbd":"11","lsbd":"School Board Aspen Peaks 6"},{"vid":"2925759","name":"Dr. Nataly Baumbach DDS","party":"Rep","address":"1560 S 530 E, Lehi, UT 84043","precinct":"25LE35","hd":"52","v_score":"0","decile":"2","lat":40.36926972251978,"lng":-111.84125488321305,"phone":"(555) 024-9367","sd":"22","ssbd":"11","lsbd":"School Board Aspen Peaks 6"},{"vid":"2926806","name":"Dr. Durward Blick","party":"Dem","address":"848 E 1630 S, Lehi, UT 84043","precinct":"25LE35","hd":"52","v_score":"0","decile":"2","lat":40.36792009588469,"lng":-111.8354175615232,"phone":"(419) 129-7498","sd":"22","ssbd":"11","lsbd":"School Board Aspen Peaks 6"},{"vid":"2934153","name":"Roswell Schowalter","party":"","address":"256 E 1450 S, Lehi, UT 84043","precinct":"25LE35","hd":"52","v_score":"0","decile":"2","lat":40.370317079243385,"lng":-111.84515791107437,"phone":"(828) 732-9940","sd":"22","ssbd":"11","lsbd":"School Board Aspen Peaks 6"},{"vid":"2937128","name":"Meg Price","party":"Rep","address":"1467 S Dragonfly Dr, Lehi, UT 84043","precinct":"25LE35","hd":"52","v_score":"0","decile":"2","lat":40.37045165733339,"lng":-111.83620147741689,"phone":"(869) 311-1525","sd":"22","ssbd":"11","lsbd":"School Board Aspen Peaks 6"},{"vid":"2945792","name":"Mr. Amerigo Casper III","party":"","address":"597 E 1590 S, Lehi, UT 84043","precinct":"25LE35","hd":"52","v_score":"0","decile":"2","lat":40.36907092743167,"lng":-111.8399967198941,"phone":"(347) 694-8064","sd":"22","ssbd":"11","lsbd":"School Board Aspen Peaks 6"},{"vid":"2946313","name":"Dr. Carnell Legros MD","party":"Dem","address":"1358 S 50 E, Unit 1, Lehi, UT 84043","precinct":"25LE35","hd":"52","v_score":"2.876042565","decile":"6","lat":40.371058302355785,"lng":-111.8485644748596,"phone":"(832) 450-5219","sd":"22","ssbd":"11","lsbd":"School Board Aspen Peaks 6"},{"vid":"2947866","name":"Jacques Walker DVM","party":"Dem","address":"1349 S Dragonfly Dr, Lehi, UT 84043","precinct":"25LE35","hd":"52","v_score":"7.090117576","decile":"8","lat":40.371832120487376,"lng":-111.83558053052849,"phone":"(608) 276-3231","sd":"22","ssbd":"11","lsbd":"School Board Aspen Peaks 6"},{"vid":"2947945","name":"Braylon Pfeffer","party":"Rep","address":"1710 S Weeping Willow Way, Lehi, UT 84043","precinct":"25LE35","hd":"52","v_score":"0","decile":"2","lat":40.367553762947516,"lng":-111.84015182516703,"phone":"(207) 486-7608","sd":"22","ssbd":"11","lsbd":"School Board Aspen Peaks 6"},{"vid":"2956657","name":"Marin Quitzon","party":"","address":"1307 S Grey Goose Rd, Lehi, UT 84043","precinct":"25LE35","hd":"52","v_score":"2.876042565","decile":"6","lat":40.37241471924001,"lng":-111.83700057865441,"phone":"(844) 278-0131","sd":"22","ssbd":"11","lsbd":"School Board Aspen Peaks 6"},{"vid":"2960812","name":"Cristy Emmerich","party":"Dem","address":"787 E 1950 S, Lehi, UT 84043","precinct":"25LE35","hd":"52","v_score":"0","decile":"2","lat":40.36503969037833,"lng":-111.83648310782709,"phone":"(517) 340-7310","sd":"22","ssbd":"11","lsbd":"School Board Aspen Peaks 6"},{"vid":"2967644","name":"Colten Moen","party":"","address":"739 E 1675 S, Lehi, UT 84043","precinct":"25LE35","hd":"52","v_score":"0","decile":"2","lat":40.36801889582697,"lng":-111.83748373816621,"phone":"(652) 646-1692","sd":"22","ssbd":"11","lsbd":"School Board Aspen Peaks 6"},{"vid":"2972896","name":"Auther Blick","party":"Dem","address":"1552 S 530 E, Lehi, UT 84043","precinct":"25LE35","hd":"52","v_score":"0","decile":"2","lat":40.36934724806494,"lng":-111.84125733866806,"phone":"(659) 511-2792","sd":"22","ssbd":"11","lsbd":"School Board Aspen Peaks 6"},{"vid":"8e8a8f55b6ace3378118b89e21ec1477d49f23ac43649079d7bfd7896aa2206f","name":"Dr. Elvis Gislason","party":"Rep","address":"251 E 1290 S, Lehi, UT 84043","precinct":"25LE35","hd":"52","v_score":"14.25581744","decile":"9","lat":40.372285392031365,"lng":-111.84524738599919,"phone":"(594) 119-0682","sd":"22","ssbd":"11","lsbd":"School Board Aspen Peaks 6"},{"vid":"3032984","name":"Mcarthur Kozey","party":"Dem","address":"574 E 1590 S, Lehi, UT 84043","precinct":"25LE35","hd":"52","v_score":"0","decile":"2","lat":40.368830481915346,"lng":-111.84044916968202,"phone":"(739) 056-3639","sd":"22","ssbd":"11","lsbd":"School Board Aspen Peaks 6"},{"vid":"3074434","name":"Handy Steuber","party":"","address":"738 E 1590 S, Lehi, UT 84043","precinct":"25LE35","hd":"52","v_score":"8.421194992","decile":"8","lat":40.36874665272133,"lng":-111.83746685714566,"phone":"(671) 017-6357","sd":"22","ssbd":"11","lsbd":"School Board Aspen Peaks 6"},{"vid":"3081344","name":"Darcie Senger","party":"","address":"614 E 1900 S, Lehi, UT 84043","precinct":"25LE35","hd":"52","v_score":"2.315214949","decile":"5","lat":40.36504178738981,"lng":-111.83993472040616,"phone":"(239) 367-4500","sd":"22","ssbd":"11","lsbd":"School Board Aspen Peaks 6"},{"vid":"3091424","name":"Gisselle Hagenes","party":"","address":"1377 S 100 E, Apt N2, Lehi, UT 84043","precinct":"25LE35","hd":"52","v_score":"12.50033525","decile":"9","lat":40.370701484832544,"lng":-111.84725455780051,"phone":"(660) 884-3441","sd":"22","ssbd":"11","lsbd":"School Board Aspen Peaks 6"},{"vid":"0c5f716e94a1f3cc4b551b6636725f721cf6c44d163ad83a5347c8e582f8f659","name":"Minor Stehr","party":"Rep","address":"1377 S 100 E, Apt N2, Lehi, UT 84043","precinct":"25LE35","hd":"52","v_score":"22.46742893","decile":"10","lat":40.370701484832544,"lng":-111.84725455780051,"phone":"(874) 634-0417","sd":"22","ssbd":"11","lsbd":"School Board Aspen Peaks 6"},{"vid":"45a66070ef2a538df3a2375242d9646631e048d75bc8ec6e282590db2a6b8da8","name":"Dr. Tyreek Gislason","party":"","address":"640 E 1900 S, Lehi, UT 84043","precinct":"25LE35","hd":"52","v_score":"11.02844566","decile":"9","lat":40.36490840277967,"lng":-111.83935407969255,"phone":"(205) 761-4759","sd":"22","ssbd":"11","lsbd":"School Board Aspen Peaks 6"},{"vid":"3102645","name":"Odalys Bogan","party":"Dem","address":"2017 S Meadow Marsh Dr, Lehi, UT 84043","precinct":"25LE35","hd":"52","v_score":"5.40460374","decile":"7","lat":40.364067986519984,"lng":-111.83548870232752,"phone":"(262) 506-5289","sd":"22","ssbd":"11","lsbd":"School Board Aspen Peaks 6"},{"vid":"3dfa9e7accd961fc735017e6ec1366798825b99de2be6d71abe0ba6794244387","name":"Trevon Reilly-Tremblay","party":"","address":"1321 S Grey Goose Rd, Lehi, UT 84043","precinct":"25LE35","hd":"52","v_score":"19.91044312","decile":"10","lat":40.372205127031584,"lng":-111.8372823788758,"phone":"(128) 005-3970","sd":"22","ssbd":"11","lsbd":"School Board Aspen Peaks 6"},{"vid":"3116563","name":"Leonard Jerde","party":"Rep","address":"1204 S 50 E, Unit 3, Lehi, UT 84043","precinct":"25LE35","hd":"52","v_score":"32.00858122","decile":"10","lat":40.37300455805799,"lng":-111.84856273122963,"phone":"(863) 455-1530","sd":"22","ssbd":"11","lsbd":"School Board Aspen Peaks 6"},{"vid":"3137116","name":"Medora Crist","party":"Rep","address":"1303 S 50 E, Unit 3, Lehi, UT 84043","precinct":"25LE35","hd":"52","v_score":"5.40460374","decile":"7","lat":40.37177059676677,"lng":-111.84776092159717,"phone":"(855) 618-5955","sd":"22","ssbd":"11","lsbd":"School Board Aspen Peaks 6"},{"vid":"83077096f8a2fb50d2bba189b6804563a29088dfcab045ca6c342680627d3b62","name":"Krysten McClure","party":"","address":"1303 S 50 E, Unit 3, Lehi, UT 84043","precinct":"25LE35","hd":"52","v_score":"5.40460374","decile":"7","lat":40.37177059676677,"lng":-111.84776092159717,"phone":"(124) 510-5582","sd":"22","ssbd":"11","lsbd":"School Board Aspen Peaks 6"},{"vid":"11de12e4c9bee4d7d5f0995291e870b83b747400dd467d98e104936120085703","name":"Buna Nicolas-Purdy","party":"","address":"2048 S 900 E, Lehi, UT 84043","precinct":"25LE35","hd":"52","v_score":"2.315214949","decile":"5","lat":40.363610030200086,"lng":-111.83482510550837,"phone":"(205) 972-4638","sd":"22","ssbd":"11","lsbd":"School Board Aspen Peaks 6"},{"vid":"3152142","name":"Carsen Oberbrunner","party":"Rep","address":"2048 S 900 E, Lehi, UT 84043","precinct":"25LE35","hd":"52","v_score":"2.315214949","decile":"5","lat":40.363610030200086,"lng":-111.83482510550837,"phone":"(719) 913-9345","sd":"22","ssbd":"11","lsbd":"School Board Aspen Peaks 6"},{"vid":"3190932","name":"Justine Kuphal","party":"","address":"862 E 1630 S, Lehi, UT 84043","precinct":"25LE35","hd":"52","v_score":"16.34722249","decile":"9","lat":40.36789747976946,"lng":-111.835183059639,"phone":"(981) 981-3997","sd":"22","ssbd":"11","lsbd":"School Board Aspen Peaks 6"},{"vid":"15456e6a4516e67909cd438edeb2feee4ac8b73d7c766a09a81527b1ae7586ff","name":"Mrs. Nancie O'Hara","party":"","address":"1351 S Grey Goose Rd, Lehi, UT 84043","precinct":"25LE35","hd":"52","v_score":"3.781490609","decile":"6","lat":40.37187843190816,"lng":-111.83766942017189,"phone":"(374) 361-0830","sd":"22","ssbd":"11","lsbd":"School Board Aspen Peaks 6"},{"vid":"3240861","name":"Mr. Coley Dooley II","party":"Dem","address":"697 E 1530 S, Lehi, UT 84043","precinct":"25LE35","hd":"52","v_score":"6.724398202","decile":"8","lat":40.36991939714929,"lng":-111.8382569607682,"phone":"(697) 079-0097","sd":"22","ssbd":"11","lsbd":"School Board Aspen Peaks 6"},{"vid":"d61ec07c03abee8edbbdee0e485276e2700d0ef39946ef44208d91b27bc38b0a","name":"Deidre Green","party":"Dem","address":"1294 S 50 E, Unit 2, Lehi, UT 84043","precinct":"25LE35","hd":"52","v_score":"26.20798537","decile":"10","lat":40.37192199779183,"lng":-111.84853676219242,"phone":"(622) 385-6789","sd":"22","ssbd":"11","lsbd":"School Board Aspen Peaks 6"},{"vid":"01e0108770003193c04301346108c845907a615fe96ab2d25de05701de56404a","name":"Sonya Runolfsson","party":"","address":"1294 S 50 E, Unit 2, Lehi, UT 84043","precinct":"25LE35","hd":"52","v_score":"20.51100492","decile":"10","lat":40.37192199779183,"lng":-111.84853676219242,"phone":"(188) 333-6758","sd":"22","ssbd":"11","lsbd":"School Board Aspen Peaks 6"},{"vid":"82e2022ff49d83871bac1794e0fa5c1917892011fa4eb8225925e40ed2923330","name":"Keion Goyette","party":"","address":"1463 S 270 E, Lehi, UT 84043","precinct":"25LE35","hd":"52","v_score":"0","decile":"2","lat":40.37017793101476,"lng":-111.84473879278934,"phone":"(391) 876-4969","sd":"22","ssbd":"11","lsbd":"School Board Aspen Peaks 6"},{"vid":"4198e976399624b49e2677aaad30a48881e4a7ea9b95b15234e58d56f3d40872","name":"Claude Ruecker","party":"Dem","address":"222 E 1500 S, Lehi, UT 84043","precinct":"25LE35","hd":"52","v_score":"5.40460374","decile":"7","lat":40.36951272739895,"lng":-111.84582803163215,"phone":"(136) 307-2554","sd":"22","ssbd":"11","lsbd":"School Board Aspen Peaks 6"},{"vid":"ca22224cd5e2d3e7e44acd774d4202f124e60f311410f7b54cffb585e3764398","name":"Obie Reynolds","party":"Dem","address":"1437 S 270 E, Lehi, UT 84043","precinct":"25LE35","hd":"52","v_score":"1.193887297","decile":"4","lat":40.37059506013614,"lng":-111.84474189934323,"phone":"(855) 857-1210","sd":"22","ssbd":"11","lsbd":"School Board Aspen Peaks 6"},{"vid":"3384515","name":"Elvira White MD","party":"Rep","address":"1330 S Grey Goose Rd, Lehi, UT 84043","precinct":"25LE35","hd":"52","v_score":"2.315214949","decile":"5","lat":40.372219714398256,"lng":-111.83800258482918,"phone":"(258) 177-1148","sd":"22","ssbd":"11","lsbd":"School Board Aspen Peaks 6"},{"vid":"3386076","name":"Buell Hirthe V","party":"Rep","address":"2508 N 300 E, Lehi, UT 84043","precinct":"25LE35","hd":"52","v_score":"28.13856687","decile":"10","lat":40.41977308987593,"lng":-111.84497511224069,"phone":"(977) 413-1006","sd":"22","ssbd":"11","lsbd":"School Board Aspen Peaks 6"},{"vid":"02415a4ee25e44d76fe1efb726bbb88f185267619d961f974eaf4708772b4e23","name":"Shelia DuBuque DVM","party":"","address":"1463 S 270 E, Lehi, UT 84043","precinct":"25LE35","hd":"52","v_score":"6.657533174","decile":"7","lat":40.37017793101476,"lng":-111.84473879278934,"phone":"(856) 436-7894","sd":"22","ssbd":"11","lsbd":"School Board Aspen Peaks 6"},{"vid":"3454094","name":"Lilah Cassin","party":"","address":"1407 S Grey Goose Rd, Lehi, UT 84043","precinct":"25LE35","hd":"52","v_score":"5.815909755","decile":"7","lat":40.37119881851054,"lng":-111.83819487292608,"phone":"(558) 488-5691","sd":"22","ssbd":"11","lsbd":"School Board Aspen Peaks 6"},{"vid":"3490938","name":"Mr. Gary Kunde II","party":"Rep","address":"1822 S 900 E, Lehi, UT 84043","precinct":"25LE35","hd":"52","v_score":"11.23922619","decile":"9","lat":40.36623725851123,"lng":-111.83477087367568,"phone":"(867) 039-5968","sd":"22","ssbd":"11","lsbd":"School Board Aspen Peaks 6"},{"vid":"3500830","name":"Mr. Augustus Kirlin","party":"Rep","address":"665 E 1900 S, Lehi, UT 84043","precinct":"25LE35","hd":"52","v_score":"7.493443096","decile":"8","lat":40.36519964797843,"lng":-111.83874570180487,"phone":"(340) 195-7571","sd":"22","ssbd":"11","lsbd":"School Board Aspen Peaks 6"},{"vid":"3510371","name":"Tex Harber","party":"","address":"1237 S 200 E, Lehi, UT 84043","precinct":"25LE35","hd":"52","v_score":"8.670935747","decile":"8","lat":40.37278084094203,"lng":-111.84589589382395,"phone":"(196) 797-3053","sd":"22","ssbd":"11","lsbd":"School Board Aspen Peaks 6"},{"vid":"3511362","name":"Alanna Ullrich","party":"Dem","address":"1358 S 50 E, Unit 3, Lehi, UT 84043","precinct":"25LE35","hd":"52","v_score":"1.623113131","decile":"5","lat":40.371058302355785,"lng":-111.8485644748596,"phone":"(674) 151-6495","sd":"22","ssbd":"11","lsbd":"School Board Aspen Peaks 6"},{"vid":"3521651","name":"Beula Emmerich","party":"Dem","address":"1183 S 100 E, Apt 2, Lehi, UT 84043","precinct":"25LE35","hd":"52","v_score":"11.38334565","decile":"9","lat":40.37319249941956,"lng":-111.8469996669472,"phone":"(762) 512-4006","sd":"22","ssbd":"11","lsbd":"School Board Aspen Peaks 6"},{"vid":"3570968","name":"Lanette Berge DVM","party":"Rep","address":"1694 S Spring Creek Ranch Rd, Lehi, UT 84043","precinct":"25LE35","hd":"52","v_score":"2.315214949","decile":"5","lat":40.367671603458355,"lng":-111.83657743642836,"phone":"(130) 528-3443","sd":"22","ssbd":"11","lsbd":"School Board Aspen Peaks 6"},{"vid":"3572206","name":"Shaylee Stamm","party":"","address":"1407 S Dragonfly Dr, Lehi, UT 84043","precinct":"25LE35","hd":"52","v_score":"11.78361243","decile":"9","lat":40.371245779866484,"lng":-111.83594646221108,"phone":"(307) 313-1566","sd":"22","ssbd":"11","lsbd":"School Board Aspen Peaks 6"},{"vid":"3572547","name":"Ebenezer Shields","party":"","address":"1204 S 50 E, Unit 1, Lehi, UT 84043","precinct":"25LE35","hd":"52","v_score":"21.46269022","decile":"10","lat":40.37300455805799,"lng":-111.84856273122963,"phone":"(509) 139-9109","sd":"22","ssbd":"11","lsbd":"School Board Aspen Peaks 6"},{"vid":"4007617","name":"Hester Thompson","party":"Dem","address":"1463 S 270 E, Lehi, UT 84043","precinct":"25LE35","hd":"52","v_score":"0","decile":"2","lat":40.37017793101476,"lng":-111.84473879278934,"phone":"(361) 004-7694","sd":"22","ssbd":"11","lsbd":"School Board Aspen Peaks 6"},{"vid":"4010074","name":"Vernetta Gorczany","party":"Dem","address":"1899 S 900 E, Lehi, UT 84043","precinct":"25LE35","hd":"52","v_score":"0","decile":"2","lat":40.365397022540925,"lng":-111.83417824484194,"phone":"(658) 164-9852","sd":"22","ssbd":"11","lsbd":"School Board Aspen Peaks 6"},{"vid":"4449314","name":"Lutie Farrell","party":"","address":"848 E 1630 S, Lehi, UT 84043","precinct":"25LE35","hd":"52","v_score":"1.121327652","decile":"3","lat":40.36792009588469,"lng":-111.8354175615232,"phone":"(220) 162-1714","sd":"22","ssbd":"11","lsbd":"School Board Aspen Peaks 6"},{"vid":"4459423","name":"Lindsey Donnelly","party":"Rep","address":"1942 S 750 E, Lehi, UT 84043","precinct":"25LE35","hd":"52","v_score":"0","decile":"2","lat":40.364825498016344,"lng":-111.83680856044508,"phone":"(463) 199-2854","sd":"22","ssbd":"11","lsbd":"School Board Aspen Peaks 6"},{"vid":"56aaea621762e84ba13dbc29d5d780935f3ba73c8e4ca87fd85ce5d5ab88cb10","name":"Courtney Kuphal","party":"Dem","address":"1863 S 900 E, Lehi, UT 84043","precinct":"25LE35","hd":"52","v_score":"2.587603312","decile":"5","lat":40.36577151680968,"lng":-111.83417097244075,"phone":"(817) 242-3507","sd":"22","ssbd":"11","lsbd":"School Board Aspen Peaks 6"},{"vid":"deb3f16175c1770c613c1ea813564139a0c78c17548d92920648780f28e0455a","name":"Gerhardt Ullrich","party":"","address":"282 E 1210 S, Lehi, UT 84043","precinct":"25LE35","hd":"52","v_score":"3.781490609","decile":"6","lat":40.37279790676202,"lng":-111.84466820872859,"phone":"(608) 929-4257","sd":"22","ssbd":"11","lsbd":"School Board Aspen Peaks 6"},{"vid":"d42f2abd38940cb2a1def59545353231b723660e7490676536f82e6775cb70d8","name":"Breanne Mosciski","party":"","address":"1693 S Spring Creek Ranch Rd, Lehi, UT 84043","precinct":"25LE35","hd":"52","v_score":"8.347511332","decile":"8","lat":40.367698275216945,"lng":-111.83600504838327,"phone":"(600) 717-3648","sd":"22","ssbd":"11","lsbd":"School Board Aspen Peaks 6"},{"vid":"5226110","name":"Dr. Kyleigh Volkman DDS","party":"Rep","address":"282 E 1210 S, Lehi, UT 84043","precinct":"25LE35","hd":"52","v_score":"3.781490609","decile":"6","lat":40.37279790676202,"lng":-111.84466820872859,"phone":"(298) 415-2072","sd":"22","ssbd":"11","lsbd":"School Board Aspen Peaks 6"},{"vid":"5540208","name":"Ms. Rhona Moore PhD","party":"Rep","address":"671 E 1590 S, Lehi, UT 84043","precinct":"25LE35","hd":"52","v_score":"25.97773618","decile":"10","lat":40.369188055402134,"lng":-111.83879959697893,"phone":"(733) 868-0001","sd":"22","ssbd":"11","lsbd":"School Board Aspen Peaks 6"},{"vid":"5548899","name":"Connor Grant-Ernser","party":"","address":"752 E 1675 S, Lehi, UT 84043","precinct":"25LE35","hd":"52","v_score":"5.40460374","decile":"7","lat":40.3676828666394,"lng":-111.83723343601274,"phone":"(739) 057-7782","sd":"22","ssbd":"11","lsbd":"School Board Aspen Peaks 6"},{"vid":"59adf4648814fae60fbfd126ce1956520229881346baf64e2c3fdbe56ed5a214","name":"Jett Miller-Gottlieb","party":"Rep","address":"707 E 1900 S, Lehi, UT 84043","precinct":"25LE35","hd":"52","v_score":"5.815909755","decile":"7","lat":40.36514033059612,"lng":-111.8380377236203,"phone":"(888) 304-1449","sd":"22","ssbd":"11","lsbd":"School Board Aspen Peaks 6"},{"vid":"c3601a7dd81d1b695034fc6b3e9ab6b08d3843c5edd44e4dcfc9cc8662d49db4","name":"Miss Rebekah Hagenes DVM","party":"","address":"2091 S 750 E, Lehi, UT 84043","precinct":"25LE35","hd":"52","v_score":"3.781490609","decile":"6","lat":40.36307061435282,"lng":-111.8365151874704,"phone":"(603) 306-1831","sd":"22","ssbd":"11","lsbd":"School Board Aspen Peaks 6"},{"vid":"5560893","name":"Elana Johnson DDS","party":"Dem","address":"625 E Bullrush Pkwy, Lehi, UT 84043","precinct":"25LE35","hd":"52","v_score":"4.069929862","decile":"7","lat":40.366047992404965,"lng":-111.83962595328224,"phone":"(964) 150-0968","sd":"22","ssbd":"11","lsbd":"School Board Aspen Peaks 6"},{"vid":"5562851","name":"Candido Maggio Jr.","party":"Rep","address":"1863 S 900 E, Lehi, UT 84043","precinct":"25LE35","hd":"52","v_score":"2.315214949","decile":"5","lat":40.36577151680968,"lng":-111.83417097244075,"phone":"(895) 277-4836","sd":"22","ssbd":"11","lsbd":"School Board Aspen Peaks 6"},