[{"id":"227","name":"Yair Crooks I","party":"","address":"2043 N 1100 E, Lehi, UT 84043","precinct":"25LE10","hd":"53","v_score":"15.95616156","decile":"9","lat":40.418025382285,"lng":-111.831976155454},{"id":"553","name":"Agnes Ratke","party":"Rep","address":"1174 N 1000 E, Lehi, UT 84043","precinct":"25LE10","hd":"53","v_score":"9.116556227","decile":"8","lat":40.401758432799,"lng":-111.833163316663},{"id":"663","name":"Ms. Macey Jakubowski","party":"Rep","address":"1787 N 750 E, Lehi, UT 84043","precinct":"25LE10","hd":"53","v_score":"20.30142438","decile":"10","lat":40.409754833997,"lng":-111.837412988115},{"id":"1273","name":"Mal Schmeler","party":"Rep","address":"1000 E Cedar Hollow Rd, Lehi, UT 84043","precinct":"25LE10","hd":"53","v_score":"9.757278238","decile":"8","lat":40.404957408811,"lng":-111.833860669546},{"id":"1717","name":"Jair Veum","party":"Dem","address":"370 E 1650 N, Lehi, UT 84043","precinct":"25LE10","hd":"53","v_score":"18.35167816","decile":"10","lat":40.408021122169,"lng":-111.844468587969},{"id":"1883","name":"Dr. Gennaro Sauer Jr.","party":"","address":"694 E 1775 N, Apt D, Lehi, UT 84043","precinct":"25LE10","hd":"53","v_score":"1.121327652","decile":"3","lat":40.409329017648,"lng":-111.837777498106},{"id":"1884","name":"Margarite Bogan","party":"","address":"1546 N Summer Crest Dr, Lehi, UT 84043","precinct":"25LE10","hd":"53","v_score":"6.657533174","decile":"7","lat":40.406439289835,"lng":-111.836184701527},{"id":"4017","name":"Idabelle Gottlieb","party":"","address":"828 E 1475 N, Lehi, UT 84043","precinct":"25LE10","hd":"53","v_score":"10.52632313","decile":"9","lat":40.405618525386,"lng":-111.835895040699},{"id":"4087","name":"Archibald Prosacco","party":"Rep","address":"320 E 1650 N, Lehi, UT 84043","precinct":"25LE10","hd":"53","v_score":"7.934314529","decile":"8","lat":40.408020449054,"lng":-111.84457527804},{"id":"4346","name":"Elia Kiehn","party":"Dem","address":"340 E 1650 N, Lehi, UT 84043","precinct":"25LE10","hd":"53","v_score":"2.744440783","decile":"5","lat":40.4080207183,"lng":-111.844532602011},{"id":"6122","name":"Dr. Lucretia Heller DDS","party":"","address":"691 E 1775 N, Apt D, Lehi, UT 84043","precinct":"25LE10","hd":"53","v_score":"2.817000428","decile":"6","lat":40.409443447621,"lng":-111.83779477842},{"id":"6758","name":"Toby Tillman","party":"Rep","address":"1802 N 800 E, Lehi, UT 84043","precinct":"25LE10","hd":"53","v_score":"2.587603312","decile":"5","lat":40.40949278644,"lng":-111.836330128637},{"id":"6882","name":"Meg Bode","party":"Rep","address":"1580 N Summer Crest Dr, Lehi, UT 84043","precinct":"25LE10","hd":"53","v_score":"3.781490609","decile":"6","lat":40.406697743379,"lng":-111.835759765804},{"id":"7082","name":"Hildegard Kling","party":"Dem","address":"1533 N Fitzgerald Ln, Lehi, UT 84043","precinct":"25LE10","hd":"53","v_score":"1.121327652","decile":"3","lat":40.406883242101,"lng":-111.833302229164},{"id":"7156","name":"Alexandre Koepp","party":"Dem","address":"1730 N 750 E, Lehi, UT 84043","precinct":"25LE10","hd":"53","v_score":"9.104889369","decile":"8","lat":40.408638293883,"lng":-111.837229574881},{"id":"8186","name":"Lark Goodwin DDS","party":"Rep","address":"1399 N Cedar Ridge Rd, Lehi, UT 84043","precinct":"25LE10","hd":"53","v_score":"9.55742766","decile":"8","lat":40.405839646625,"lng":-111.832314348417},{"id":"8658","name":"Lexus Rath-Veum","party":"Dem","address":"1656 N Oak Dr, Lehi, UT 84043","precinct":"25LE10","hd":"53","v_score":"5.40460374","decile":"7","lat":40.408347854154,"lng":-111.834525076906},{"id":"9258","name":"Mrs. Wanita Anderson","party":"Dem","address":"1161 E Cedar Hollow Rd, Lehi, UT 84043","precinct":"25LE10","hd":"53","v_score":"1.193887297","decile":"3","lat":40.407014173043,"lng":-111.831545324017},{"id":"10911","name":"Benjamin Dooley","party":"Rep","address":"1889 N Airport Dr, Lehi, UT 84043","precinct":"25LE10","hd":"53","v_score":"9.674124426","decile":"8","lat":40.411333956823,"lng":-111.835991208807},{"id":"11201","name":"Ms. Raelyn Herzog DVM","party":"Rep","address":"1510 N 300 E, Lehi, UT 84043","precinct":"25LE10","hd":"53","v_score":"23.35295938","decile":"10","lat":40.406357824273,"lng":-111.844593893516},{"id":"11300","name":"Jeremey Leffler","party":"Dem","address":"1041 E 2040 N, Lehi, UT 84043","precinct":"25LE10","hd":"53","v_score":"23.95587272","decile":"10","lat":40.412931293094,"lng":-111.833281819907},{"id":"12672","name":"Brion Cummerata III","party":"","address":"1920 N Airport Dr, Lehi, UT 84043","precinct":"25LE10","hd":"53","v_score":"6.724398202","decile":"8","lat":40.411704221028,"lng":-111.835336844937},{"id":"12831","name":"Victory Robel","party":"Dem","address":"1835 N 900 E, Lehi, UT 84043","precinct":"25LE10","hd":"53","v_score":"2.315214949","decile":"5","lat":40.410350597368,"lng":-111.834607333552},{"id":"12973","name":"Ms. Ossie Labadie DDS","party":"Rep","address":"755 E Cedar Hollow Rd, Lehi, UT 84043","precinct":"25LE10","hd":"53","v_score":"18.11188939","decile":"10","lat":40.404651278674,"lng":-111.836626816358},{"id":"13289","name":"Turner Robel","party":"Rep","address":"1710 N 800 E, Lehi, UT 84043","precinct":"25LE10","hd":"53","v_score":"1.46627566","decile":"4","lat":40.408348538635,"lng":-111.836333534287},{"id":"13297","name":"Miss Oline Quigley DDS","party":"Dem","address":"1415 N 600 E, Lehi, UT 84043","precinct":"25LE10","hd":"53","v_score":"25.91972481","decile":"10","lat":40.40456929086,"lng":-111.839985352995},{"id":"13517","name":"Deja Harris-Schmeler","party":"","address":"706 E Airport Dr, Lehi, UT 84043","precinct":"25LE10","hd":"53","v_score":"1.193887297","decile":"3","lat":40.410149811025,"lng":-111.838321714982},{"id":"13984","name":"Ms. Phyliss Bergnaum","party":"Dem","address":"1345 N Cedar Hollow Blvd, Lehi, UT 84043","precinct":"25LE10","hd":"53","v_score":"11.32212024","decile":"9","lat":40.403732909748,"lng":-111.833055528455},{"id":"14128","name":"Mrs. Melodee Cassin DVM","party":"Dem","address":"1871 N Airport Dr, Lehi, UT 84043","precinct":"25LE10","hd":"53","v_score":"13.11447181","decile":"9","lat":40.411162934577,"lng":-111.83618952186},{"id":"14346","name":"Miss Carisa Pfannerstill DVM","party":"Rep","address":"1817 N Airport Dr, Lehi, UT 84043","precinct":"25LE10","hd":"53","v_score":"21.07999247","decile":"10","lat":40.410595798832,"lng":-111.836861744945},{"id":"14363","name":"Aiyanna Bogisich","party":"Rep","address":"1801 N 800 E, Lehi, UT 84043","precinct":"25LE10","hd":"53","v_score":"4.064235245","decile":"6","lat":40.409468171181,"lng":-111.83648069749},{"id":"14364","name":"Emanuel Morissette-Haag","party":"Dem","address":"1440 N Summer Crest Dr, Lehi, UT 84043","precinct":"25LE10","hd":"53","v_score":"23.74778107","decile":"10","lat":40.40522833628,"lng":-111.83704088681},{"id":"14438","name":"Dr. Burton Luettgen I","party":"Rep","address":"1701 N Oak Dr, Lehi, UT 84043","precinct":"25LE10","hd":"53","v_score":"15.43762891","decile":"9","lat":40.408496791528,"lng":-111.834671314356},{"id":"15168","name":"Orris Quitzon","party":"Rep","address":"1783 N 900 E, Lehi, UT 84043","precinct":"25LE10","hd":"53","v_score":"6.783421459","decile":"8","lat":40.409883184991,"lng":-111.834604996552},{"id":"15474","name":"Alexandre Wuckert","party":"Rep","address":"1881 N 800 E, Lehi, UT 84043","precinct":"25LE10","hd":"53","v_score":"10.5815213","decile":"9","lat":40.410389059904,"lng":-111.835928303409},{"id":"16115","name":"Abbey Paucek-Nikolaus","party":"Dem","address":"1802 N 800 E, Lehi, UT 84043","precinct":"25LE10","hd":"53","v_score":"6.798081861","decile":"8","lat":40.40949278644,"lng":-111.836330128637},{"id":"16372","name":"Carly Russel","party":"Dem","address":"933 E Mesa Ave, Lehi, UT 84043","precinct":"25LE10","hd":"53","v_score":"2.744440783","decile":"5","lat":40.409168585439,"lng":-111.83471446165},{"id":"16752","name":"Richie Ziemann","party":"Rep","address":"1675 N 1200 E, Lehi, UT 84043","precinct":"25LE10","hd":"53","v_score":"0","decile":"1","lat":40.408872782825,"lng":-111.830405992724},{"id":"16865","name":"Dante Gleichner","party":"","address":"1428 N Summer Crest Dr, Lehi, UT 84043","precinct":"25LE10","hd":"53","v_score":"1.121327652","decile":"3","lat":40.405044604513,"lng":-111.837038335004},{"id":"17205","name":"Deric Langosh Sr.","party":"Rep","address":"691 E 1775 N, Apt A, Lehi, UT 84043","precinct":"25LE10","hd":"53","v_score":"1.46627566","decile":"4","lat":40.409443447621,"lng":-111.83779477842},{"id":"17980","name":"Dereon Grimes","party":"Dem","address":"697 E 1725 N, Lehi, UT 84043","precinct":"25LE10","hd":"53","v_score":"2.315214949","decile":"5","lat":40.408638293921,"lng":-111.837729087336},{"id":"18239","name":"Lakesha Reichel","party":"Dem","address":"1701 N Oak Dr, Lehi, UT 84043","precinct":"25LE10","hd":"53","v_score":"12.49472132","decile":"9","lat":40.408496791528,"lng":-111.834671314356},{"id":"18514","name":"Leana Nader DVM","party":"Rep","address":"1560 N Summer Crest Dr, Lehi, UT 84043","precinct":"25LE10","hd":"53","v_score":"1.193887297","decile":"3","lat":40.406532243761,"lng":-111.836005679128},{"id":"18817","name":"Manervia Borer","party":"Dem","address":"1562 N Fitzgerald Ln, Lehi, UT 84043","precinct":"25LE10","hd":"53","v_score":"14.53302059","decile":"9","lat":40.406874293844,"lng":-111.834130856132},{"id":"18834","name":"Coleen Osinski MD","party":"Rep","address":"2075 N Airport Dr, Lehi, UT 84043","precinct":"25LE10","hd":"53","v_score":"4.905839784","decile":"7","lat":40.413357298294,"lng":-111.833642122671},{"id":"19316","name":"Shamika Swaniawski-Runte","party":"Dem","address":"943 E 1900 N, Lehi, UT 84043","precinct":"25LE10","hd":"53","v_score":"11.54697831","decile":"9","lat":40.411412666083,"lng":-111.831018829463},{"id":"19732","name":"Rory Medhurst","party":"","address":"1689 N Oak Dr, Lehi, UT 84043","precinct":"25LE10","hd":"53","v_score":"10.87160818","decile":"9","lat":40.408456850015,"lng":-111.834673533334},{"id":"19874","name":"Aryan Graham","party":"Rep","address":"1847 N Mesa Dr, Lehi, UT 84043","precinct":"25LE10","hd":"53","v_score":"5.40460374","decile":"7","lat":40.410203191254,"lng":-111.836331278622},{"id":"20100","name":"Jevon Kutch","party":"Rep","address":"1471 N Summer Crest Dr, Lehi, UT 84043","precinct":"25LE10","hd":"53","v_score":"1.46627566","decile":"4","lat":40.405587294225,"lng":-111.837195565564},{"id":"20617","name":"Kordell Schuster","party":"Rep","address":"898 E 1680 N, Lehi, UT 84043","precinct":"25LE10","hd":"53","v_score":"2.315214949","decile":"5","lat":40.40801070239,"lng":-111.835064132421},{"id":"20621","name":"Derl Kirlin-Trantow","party":"","address":"1712 N 750 E, Lehi, UT 84043","precinct":"25LE10","hd":"53","v_score":"5.659072284","decile":"7","lat":40.408347932868,"lng":-111.837227093939},{"id":"21397","name":"Bartley Fisher II","party":"","address":"853 E 1475 N, Lehi, UT 84043","precinct":"25LE10","hd":"53","v_score":"1.121327652","decile":"3","lat":40.405807849278,"lng":-111.835814443752},{"id":"21551","name":"Jill Langworth","party":"Dem","address":"653 E Airport Dr, Lehi, UT 84043","precinct":"25LE10","hd":"53","v_score":"12.24706734","decile":"9","lat":40.410261502101,"lng":-111.839121127549},{"id":"22690","name":"Miss Maura Klein","party":"Rep","address":"1041 E 2040 N, Lehi, UT 84043","precinct":"25LE10","hd":"53","v_score":"16.48582198","decile":"9","lat":40.412931293094,"lng":-111.833281819907},{"id":"23650","name":"Corbin Durgan","party":"Dem","address":"1730 N 600 E, Lehi, UT 84043","precinct":"25LE10","hd":"53","v_score":"5.530510904","decile":"7","lat":40.408203510032,"lng":-111.839896535132},{"id":"24848","name":"Chana Hammes DDS","party":"","address":"913 E 1900 N, Lehi, UT 84043","precinct":"25LE10","hd":"53","v_score":"1.121327652","decile":"3","lat":40.411410293116,"lng":-111.831334074146},{"id":"25067","name":"Cierra Russel","party":"Dem","address":"1590 N 300 E, Lehi, UT 84043","precinct":"25LE10","hd":"53","v_score":"10.52632313","decile":"9","lat":40.407189078508,"lng":-111.844605825285},{"id":"25392","name":"Alverta Luettgen","party":"Rep","address":"1717 N 800 E, Lehi, UT 84043","precinct":"25LE10","hd":"53","v_score":"1.121327652","decile":"3","lat":40.408423423184,"lng":-111.836483806997},{"id":"25716","name":"Hollie Schuppe V","party":"","address":"743 E Airport Dr, Lehi, UT 84043","precinct":"25LE10","hd":"53","v_score":"0","decile":"1","lat":40.410266583137,"lng":-111.837721272348},{"id":"27791","name":"Morton Bednar V","party":"Dem","address":"2007 N Airport Dr, Lehi, UT 84043","precinct":"25LE10","hd":"53","v_score":"8.903210001","decile":"8","lat":40.412633675233,"lng":-111.834474072313},{"id":"28430","name":"Tiney Frami","party":"","address":"1616 N Summer Crest Dr, Lehi, UT 84043","precinct":"25LE10","hd":"53","v_score":"3.93832808","decile":"6","lat":40.407091286212,"lng":-111.835486582181},{"id":"29718","name":"Camilo Gusikowski","party":"Rep","address":"1730 N 600 E, Lehi, UT 84043","precinct":"25LE10","hd":"53","v_score":"3.781490609","decile":"6","lat":40.408203510032,"lng":-111.839896535132},{"id":"30063","name":"Yadira Brown PhD","party":"","address":"1574 N Fitzgerald Ln, Lehi, UT 84043","precinct":"25LE10","hd":"53","v_score":"6.881235673","decile":"8","lat":40.40688543932,"lng":-111.83442682395},{"id":"30067","name":"Mr. Mathews Rogahn V","party":"Rep","address":"886 E 1680 N, Lehi, UT 84043","precinct":"25LE10","hd":"53","v_score":"6.724398202","decile":"8","lat":40.408010702394,"lng":-111.835111635814},{"id":"30233","name":"Lyda Schmeler","party":"","address":"1889 N Airport Dr, Lehi, UT 84043","precinct":"25LE10","hd":"53","v_score":"0","decile":"1","lat":40.411333956823,"lng":-111.835991208807},{"id":"31081","name":"Humphrey Simonis","party":"Dem","address":"1399 N Cedar Ridge Rd, Lehi, UT 84043","precinct":"25LE10","hd":"53","v_score":"5.659072284","decile":"7","lat":40.405839646625,"lng":-111.832314348417},{"id":"31104","name":"Mariann Hagenes PhD","party":"","address":"898 E 1680 N, Lehi, UT 84043","precinct":"25LE10","hd":"53","v_score":"8.280646305","decile":"8","lat":40.40801070239,"lng":-111.835064132421},{"id":"31395","name":"Ms. Shania Hartmann","party":"Rep","address":"1151 E Cedar Ridge Rd, Lehi, UT 84043","precinct":"25LE10","hd":"53","v_score":"4.064235245","decile":"6","lat":40.40554056369,"lng":-111.830779283915},{"id":"31996","name":"Justen Hegmann","party":"Dem","address":"1401 N 600 E, Lehi, UT 84043","precinct":"25LE10","hd":"53","v_score":"5.530510904","decile":"7","lat":40.404389498814,"lng":-111.839982095916},{"id":"32422","name":"Leah McKenzie","party":"","address":"618 E Airport Dr, Lehi, UT 84043","precinct":"25LE10","hd":"53","v_score":"2.744440783","decile":"5","lat":40.410144967103,"lng":-111.839656243606},{"id":"33035","name":"Quiana Kunze MD","party":"","address":"1730 N 750 E, Lehi, UT 84043","precinct":"25LE10","hd":"53","v_score":"2.315214949","decile":"5","lat":40.408638293883,"lng":-111.837229574881},{"id":"34398","name":"Ham Hilpert","party":"Rep","address":"1423 N 1150 E, Lehi, UT 84043","precinct":"25LE10","hd":"53","v_score":"13.76893698","decile":"9","lat":40.405933037466,"lng":-111.832373778931},{"id":"34653","name":"Mrs. Jordan DuBuque","party":"Rep","address":"1661 N 800 E, Lehi, UT 84043","precinct":"25LE10","hd":"53","v_score":"23.00387674","decile":"10","lat":40.407891128625,"lng":-111.836477685247},{"id":"34655","name":"Miguelangel Streich","party":"","address":"1661 N 800 E, Lehi, UT 84043","precinct":"25LE10","hd":"53","v_score":"20.2867476","decile":"10","lat":40.407891128625,"lng":-111.836477685247},{"id":"35391","name":"Tommie Ullrich","party":"Dem","address":"759 E Airport Dr, Lehi, UT 84043","precinct":"25LE10","hd":"53","v_score":"2.315214949","decile":"5","lat":40.410297331547,"lng":-111.837375748748},{"id":"36350","name":"Dr. Reed Balistreri","party":"Rep","address":"848 E 2000 N, Lehi, UT 84043","precinct":"25LE10","hd":"53","v_score":"10.52632313","decile":"9","lat":40.412483701958,"lng":-111.836015329071},{"id":"36351","name":"Mrs. Marty Howell","party":"Dem","address":"848 E 2000 N, Lehi, UT 84043","precinct":"25LE10","hd":"53","v_score":"10.52632313","decile":"9","lat":40.412483701958,"lng":-111.836015329071},{"id":"36548","name":"Orlena Johnson","party":"Rep","address":"898 E 1680 N, Lehi, UT 84043","precinct":"25LE10","hd":"53","v_score":"3.781490609","decile":"6","lat":40.40801070239,"lng":-111.835064132421},{"id":"36890","name":"Yaretzi Kuhn","party":"Rep","address":"1783 N Summer Crest Dr, Lehi, UT 84043","precinct":"25LE10","hd":"53","v_score":"2.315214949","decile":"5","lat":40.40869174484,"lng":-111.835611568967},{"id":"36925","name":"Paisley Mohr MD","party":"","address":"1375 N 1125 E, Lehi, UT 84043","precinct":"25LE10","hd":"53","v_score":"5.687348376","decile":"7","lat":40.405737193951,"lng":-111.831444566669},{"id":"37449","name":"Velia Windler","party":"Rep","address":"862 E 2070 N, Lehi, UT 84043","precinct":"25LE10","hd":"53","v_score":"4.210716443","decile":"7","lat":40.413218745527,"lng":-111.835729032926},{"id":"39406","name":"Chalmers Sanford","party":"","address":"2051 N 825 E, Lehi, UT 84043","precinct":"25LE10","hd":"53","v_score":"14.04503691","decile":"9","lat":40.413128767796,"lng":-111.836235195451},{"id":"40173","name":"Jim Adams-Heaney","party":"Dem","address":"1650 N Summer Crest Dr, Lehi, UT 84043","precinct":"25LE10","hd":"53","v_score":"5.40460374","decile":"7","lat":40.407594293864,"lng":-111.835452077452},{"id":"40710","name":"Briley Turner","party":"Dem","address":"2051 N 825 E, Lehi, UT 84043","precinct":"25LE10","hd":"53","v_score":"6.954919332","decile":"8","lat":40.413128767796,"lng":-111.836235195451},{"id":"40717","name":"Dr. Jarrell Kling","party":"Rep","address":"898 E 2070 N, Lehi, UT 84043","precinct":"25LE10","hd":"53","v_score":"4.283276088","decile":"7","lat":40.413221631532,"lng":-111.835524847032},{"id":"41314","name":"Orval Halvorson","party":"","address":"1920 N 1150 E, Lehi, UT 84043","precinct":"25LE10","hd":"53","v_score":"3.93832808","decile":"6","lat":40.411440172429,"lng":-111.831460573487},{"id":"41889","name":"Kaliyah Hodkiewicz","party":"Rep","address":"1908 N Airport Dr, Lehi, UT 84043","precinct":"25LE10","hd":"53","v_score":"10.14056997","decile":"9","lat":40.411543520483,"lng":-111.835535807538},{"id":"42416","name":"Bess Swift","party":"Dem","address":"1560 N Summer Crest Dr, Lehi, UT 84043","precinct":"25LE10","hd":"53","v_score":"5.258122542","decile":"7","lat":40.406532243761,"lng":-111.836005679128},{"id":"43018","name":"Nikki Kris DDS","party":"Dem","address":"2078 N 1100 E, Lehi, UT 84043","precinct":"25LE10","hd":"53","v_score":"2.315214949","decile":"5","lat":40.417745024307,"lng":-111.831827847572},{"id":"43053","name":"Lauren Schneider","party":"Rep","address":"691 E 1775 N, Apt C, Lehi, UT 84043","precinct":"25LE10","hd":"53","v_score":"15.43762891","decile":"9","lat":40.409443447621,"lng":-111.83779477842},{"id":"43428","name":"Alek Jacobson I","party":"Rep","address":"1177 N Cedar Hollow Blvd, Lehi, UT 84043","precinct":"25LE10","hd":"53","v_score":"8.514098276","decile":"8","lat":40.402153328388,"lng":-111.832195686918},{"id":"43510","name":"Mrs. Louanna Oberbrunner PhD","party":"Rep","address":"655 E Cedar Hollow Rd, Lehi, UT 84043","precinct":"25LE10","hd":"53","v_score":"0","decile":"1","lat":40.404560467901,"lng":-111.837939953583},{"id":"43701","name":"Kenyon Block","party":"","address":"853 E 1475 N, Lehi, UT 84043","precinct":"25LE10","hd":"53","v_score":"3.781490609","decile":"6","lat":40.405807849278,"lng":-111.835814443752},{"id":"44993","name":"Alvin Senger","party":"","address":"1825 N 800 E, Lehi, UT 84043","precinct":"25LE10","hd":"53","v_score":"2.660162957","decile":"5","lat":40.40977727047,"lng":-111.836451975731},{"id":"47019","name":"Dr. Sarina Stroman PhD","party":"","address":"904 E 2125 N, Lehi, UT 84043","precinct":"25LE10","hd":"53","v_score":"5.191257514","decile":"7","lat":40.413932701696,"lng":-111.834744207956},{"id":"47320","name":"Miss Nella Gaylord DVM","party":"Dem","address":"1114 N Cedar Hollow Blvd, Lehi, UT 84043","precinct":"25LE10","hd":"53","v_score":"8.497351098","decile":"8","lat":40.401460114115,"lng":-111.832042058784},{"id":"47534","name":"Mrs. Wende Reichert DDS","party":"","address":"1783 N 900 E, Lehi, UT 84043","precinct":"25LE10","hd":"53","v_score":"0","decile":"1","lat":40.409883184991,"lng":-111.834604996552},{"id":"48671","name":"Gladis Rice","party":"","address":"655 E Cedar Hollow Rd, Lehi, UT 84043","precinct":"25LE10","hd":"53","v_score":"3.93832808","decile":"6","lat":40.404560467901,"lng":-111.837939953583},{"id":"49412","name":"Ephriam Nader Sr.","party":"Rep","address":"1817 N Airport Dr, Lehi, UT 84043","precinct":"25LE10","hd":"53","v_score":"3.93832808","decile":"6","lat":40.410595798832,"lng":-111.836861744945},{"id":"50640","name":"Talmadge Hagenes","party":"","address":"1177 N Cedar Hollow Blvd, Lehi, UT 84043","precinct":"25LE10","hd":"53","v_score":"0","decile":"1","lat":40.402153328388,"lng":-111.832195686918},{"id":"51089","name":"Grafton Price","party":"Rep","address":"1819 N 900 E, Lehi, UT 84043","precinct":"25LE10","hd":"53","v_score":"3.781490609","decile":"6","lat":40.410206778175,"lng":-111.834606614475},{"id":"51203","name":"Siddie Kautzer","party":"","address":"1502 N 600 E, Lehi, UT 84043","precinct":"25LE10","hd":"53","v_score":"1.193887297","decile":"3","lat":40.40556947548,"lng":-111.839852971803},{"id":"51583","name":"Dr. Ladarius Abernathy","party":"Dem","address":"1147 N Cedar Hollow Blvd, Lehi, UT 84043","precinct":"25LE10","hd":"53","v_score":"0","decile":"1","lat":40.401817710204,"lng":-111.832194161425},{"id":"51741","name":"Glendon Pacocha","party":"","address":"762 E Airport Dr, Lehi, UT 84043","precinct":"25LE10","hd":"53","v_score":"5.40460374","decile":"7","lat":40.410186064057,"lng":-111.837339764048},{"id":"52937","name":"Cornelia Jerde","party":"Rep","address":"1675 N 1200 E, Lehi, UT 84043","precinct":"25LE10","hd":"53","v_score":"3.781490609","decile":"6","lat":40.408872782825,"lng":-111.830405992724},{"id":"53041","name":"Ms. Lalla Cummings PhD","party":"Rep","address":"988 E 2040 N, Lehi, UT 84043","precinct":"25LE10","hd":"53","v_score":"2.587603312","decile":"5","lat":40.412816701706,"lng":-111.83322952412},{"id":"53267","name":"Cleone Roberts-Thiel","party":"Dem","address":"1868 N 800 E, Lehi, UT 84043","precinct":"25LE10","hd":"53","v_score":"11.04973188","decile":"9","lat":40.410226903447,"lng":-111.835930050952},{"id":"53269","name":"Bliss Weissnat","party":"Rep","address":"1868 N 800 E, Lehi, UT 84043","precinct":"25LE10","hd":"53","v_score":"11.04973188","decile":"9","lat":40.410226903447,"lng":-111.835930050952},{"id":"54023","name":"Mrs. Grayce Hauck","party":"Dem","address":"1702 N Summer Crest Dr, Lehi, UT 84043","precinct":"25LE10","hd":"53","v_score":"5.40460374","decile":"7","lat":40.408138155745,"lng":-111.835450541312},{"id":"54892","name":"Isom Ledner","party":"","address":"1294 N Cedar Hollow Blvd, Lehi, UT 84043","precinct":"25LE10","hd":"53","v_score":"3.93832808","decile":"6","lat":40.40344741353,"lng":-111.832405997283},{"id":"55200","name":"Mrs. Zeta Bartell DDS","party":"Dem","address":"1742 N 750 E, Lehi, UT 84043","precinct":"25LE10","hd":"53","v_score":"1.121327652","decile":"3","lat":40.408836982033,"lng":-111.837229574855},{"id":"55494","name":"Tommie Reichel-Streich","party":"Rep","address":"885 E 1900 N, Lehi, UT 84043","precinct":"25LE10","hd":"53","v_score":"2.315214949","decile":"5","lat":40.411542258288,"lng":-111.834760237146},{"id":"55518","name":"Kandy Pollich","party":"Rep","address":"1590 N 300 E, Lehi, UT 84043","precinct":"25LE10","hd":"53","v_score":"1.121327652","decile":"3","lat":40.407189078508,"lng":-111.844605825285},{"id":"56098","name":"Elianna Wintheiser","party":"","address":"1177 N 1000 E, Lehi, UT 84043","precinct":"25LE10","hd":"53","v_score":"8.709634245","decile":"8","lat":40.40177043506,"lng":-111.833313834058},{"id":"56363","name":"Araminta Kshlerin","party":"Rep","address":"1546 N Summer Crest Dr, Lehi, UT 84043","precinct":"25LE10","hd":"53","v_score":"5.191257514","decile":"7","lat":40.406439289835,"lng":-111.836184701527},{"id":"56888","name":"Evelynn Shields","party":"Rep","address":"1177 N Cedar Hollow Blvd, Lehi, UT 84043","precinct":"25LE10","hd":"53","v_score":"4.214075011","decile":"7","lat":40.402153328388,"lng":-111.832195686918},{"id":"57200","name":"Rusty Littel","party":"","address":"618 E Airport Dr, Lehi, UT 84043","precinct":"25LE10","hd":"53","v_score":"17.00923073","decile":"9","lat":40.410144967103,"lng":-111.839656243606},{"id":"57222","name":"Christel Haley","party":"","address":"1471 N Summer Crest Dr, Lehi, UT 84043","precinct":"25LE10","hd":"53","v_score":"2.315214949","decile":"5","lat":40.405587294225,"lng":-111.837195565564},{"id":"57333","name":"Hervey Green Jr.","party":"","address":"1562 N Fitzgerald Ln, Lehi, UT 84043","precinct":"25LE10","hd":"53","v_score":"10.0942841","decile":"9","lat":40.406874293844,"lng":-111.834130856132},{"id":"57399","name":"Harrell Dach","party":"","address":"1753 N 800 E, Lehi, UT 84043","precinct":"25LE10","hd":"53","v_score":"0","decile":"1","lat":40.408871172326,"lng":-111.836482474351},{"id":"57889","name":"Peggy Muller-Becker","party":"","address":"862 E 2070 N, Lehi, UT 84043","precinct":"25LE10","hd":"53","v_score":"8.985747318","decile":"8","lat":40.413218745527,"lng":-111.835729032926},{"id":"58109","name":"Ms. Mellissa Wilkinson","party":"Dem","address":"1857 N 800 E, Lehi, UT 84043","precinct":"25LE10","hd":"53","v_score":"1.623113131","decile":"5","lat":40.410228024051,"lng":-111.836143017902},{"id":"59051","name":"Mr. Loy Sawayn Sr.","party":"","address":"1857 N 800 E, Lehi, UT 84043","precinct":"25LE10","hd":"53","v_score":"2.744440783","decile":"5","lat":40.410228024051,"lng":-111.836143017902},{"id":"59213","name":"Dr. Arlan Blanda DVM","party":"","address":"988 E 2040 N, Lehi, UT 84043","precinct":"25LE10","hd":"53","v_score":"2.817000428","decile":"6","lat":40.412816701706,"lng":-111.83322952412},{"id":"59359","name":"Bev Reichert-Carter","party":"Dem","address":"1801 N 800 E, Lehi, UT 84043","precinct":"25LE10","hd":"53","v_score":"0","decile":"1","lat":40.409468171181,"lng":-111.83648069749},{"id":"59772","name":"Mavis Turcotte-Pfeffer","party":"","address":"2051 N 825 E, Lehi, UT 84043","precinct":"25LE10","hd":"53","v_score":"8.284004873","decile":"8","lat":40.413128767796,"lng":-111.836235195451},{"id":"59949","name":"Maye Schimmel","party":"Rep","address":"2087 N 825 E, Lehi, UT 84043","precinct":"25LE10","hd":"53","v_score":"2.817000428","decile":"6","lat":40.413586564398,"lng":-111.836226570461},{"id":"60158","name":"Byrdie Smitham","party":"","address":"1502 N 600 E, Lehi, UT 84043","precinct":"25LE10","hd":"53","v_score":"7.172654892","decile":"8","lat":40.40556947548,"lng":-111.839852971803},{"id":"60494","name":"Mr. Dorsey Marks MD","party":"","address":"1562 N Fitzgerald Ln, Lehi, UT 84043","precinct":"25LE10","hd":"53","v_score":"3.93832808","decile":"6","lat":40.406874293844,"lng":-111.834130856132},{"id":"60596","name":"Dr. Lu Rempel DVM","party":"Rep","address":"1943 N 825 E, Lehi, UT 84043","precinct":"25LE10","hd":"53","v_score":"6.881235673","decile":"8","lat":40.411852319019,"lng":-111.836193780367},{"id":"60971","name":"Jolette Satterfield","party":"Rep","address":"1721 N 1200 E, Lehi, UT 84043","precinct":"25LE10","hd":"53","v_score":"1.121327652","decile":"3","lat":40.409297348856,"lng":-111.83041015508},{"id":"61494","name":"Winifred Waelchi-Tillman","party":"","address":"850 E 2070 N, Lehi, UT 84043","precinct":"25LE10","hd":"53","v_score":"2.315214949","decile":"5","lat":40.413217783526,"lng":-111.83579709489},{"id":"61549","name":"Mr. Judd Gaylord V","party":"","address":"1145 E Cedar Hollow Rd, Lehi, UT 84043","precinct":"25LE10","hd":"53","v_score":"5.258122542","decile":"7","lat":40.406988304787,"lng":-111.831627493788},{"id":"61593","name":"Dr. Montie Borer","party":"","address":"2078 N 1100 E, Lehi, UT 84043","precinct":"25LE10","hd":"53","v_score":"2.876042565","decile":"6","lat":40.417745024307,"lng":-111.831827847572},{"id":"62307","name":"Darrel Kulas","party":"Dem","address":"1294 N Cedar Hollow Blvd, Lehi, UT 84043","precinct":"25LE10","hd":"53","v_score":"2.315214949","decile":"5","lat":40.40344741353,"lng":-111.832405997283},{"id":"63385","name":"Mr. Palmer Oberbrunner II","party":"Rep","address":"1764 N 800 E, Lehi, UT 84043","precinct":"25LE10","hd":"53","v_score":"1.193887297","decile":"3","lat":40.409020162347,"lng":-111.836331535318},{"id":"64154","name":"Arvel O'Connell","party":"","address":"340 E 1650 N, Lehi, UT 84043","precinct":"25LE10","hd":"53","v_score":"4.064235245","decile":"6","lat":40.4080207183,"lng":-111.844532602011},{"id":"64257","name":"Mr. Seymour Wyman II","party":"Dem","address":"691 E 1775 N, Apt E, Lehi, UT 84043","precinct":"25LE10","hd":"53","v_score":"14.63972567","decile":"9","lat":40.409443447621,"lng":-111.83779477842},{"id":"64342","name":"Dr. Bose Morar","party":"","address":"759 E Airport Dr, Lehi, UT 84043","precinct":"25LE10","hd":"53","v_score":"4.064235245","decile":"6","lat":40.410297331547,"lng":-111.837375748748},{"id":"66103","name":"Reagan Nicolas MD","party":"Rep","address":"719 E 1725 N, Lehi, UT 84043","precinct":"25LE10","hd":"53","v_score":"0","decile":"1","lat":40.408638293916,"lng":-111.837653808772},{"id":"66213","name":"Deion Moore-Dickinson","party":"","address":"1755 N Summer Crest Dr, Lehi, UT 84043","precinct":"25LE10","hd":"53","v_score":"1.121327652","decile":"3","lat":40.408496764772,"lng":-111.835606016629},{"id":"66467","name":"Erla Beer-Swaniawski","party":"Dem","address":"1345 N Cedar Hollow Blvd, Lehi, UT 84043","precinct":"25LE10","hd":"53","v_score":"2.744440783","decile":"5","lat":40.403732909748,"lng":-111.833055528455},{"id":"66550","name":"Ashly Herman","party":"","address":"846 E 2125 N, Lehi, UT 84043","precinct":"25LE10","hd":"53","v_score":"1.193887297","decile":"3","lat":40.413929715031,"lng":-111.835481911544},{"id":"66941","name":"Dr. Arther Dibbert","party":"Dem","address":"1814 N 900 E, Lehi, UT 84043","precinct":"25LE10","hd":"53","v_score":"14.97385011","decile":"9","lat":40.410024872236,"lng":-111.834455208856},{"id":"67957","name":"Tolbert Greenholt-Kozey","party":"","address":"1817 N Airport Dr, Lehi, UT 84043","precinct":"25LE10","hd":"53","v_score":"3.93832808","decile":"6","lat":40.410595798832,"lng":-111.836861744945},{"id":"67978","name":"Kaydence Mosciski DDS","party":"","address":"1802 N 900 E, Lehi, UT 84043","precinct":"25LE10","hd":"53","v_score":"2.315214949","decile":"5","lat":40.409932417041,"lng":-111.834454746592},{"id":"69552","name":"Brittani Gutmann","party":"Rep","address":"1145 E Cedar Hollow Rd, Lehi, UT 84043","precinct":"25LE10","hd":"53","v_score":"2.315214949","decile":"5","lat":40.406988304787,"lng":-111.831627493788},{"id":"70146","name":"Mrs. Mickie Hane","party":"Dem","address":"1175 E Cedar Ridge Rd, Lehi, UT 84043","precinct":"25LE10","hd":"53","v_score":"2.315214949","decile":"5","lat":40.405475275927,"lng":-111.830561018578},{"id":"70147","name":"Ms. Scarlett Hills DDS","party":"Dem","address":"1175 E Cedar Ridge Rd, Lehi, UT 84043","precinct":"25LE10","hd":"53","v_score":"3.93832808","decile":"6","lat":40.405475275927,"lng":-111.830561018578},{"id":"70428","name":"Jayce Skiles","party":"","address":"1668 N Summer Crest Dr, Lehi, UT 84043","precinct":"25LE10","hd":"53","v_score":"2.315214949","decile":"5","lat":40.407750447072,"lng":-111.835452077431},{"id":"70651","name":"Mrs. Texas Feeney MD","party":"Rep","address":"1286 N Cedar Hollow Blvd, Apt B, Lehi, UT 84043","precinct":"25LE10","hd":"53","v_score":"2.315214949","decile":"5","lat":40.403385490662,"lng":-111.832321140045},{"id":"71613","name":"Casey Dare-Pfannerstill","party":"","address":"1997 N 825 E, Lehi, UT 84043","precinct":"25LE10","hd":"53","v_score":"0","decile":"1","lat":40.412461345753,"lng":-111.836245461273},{"id":"72369","name":"Abbigail Veum","party":"Rep","address":"1260 N Cedar Hollow Blvd, Lehi, UT 84043","precinct":"25LE10","hd":"53","v_score":"6.814370645","decile":"8","lat":40.403103642811,"lng":-111.832130715913},{"id":"73621","name":"Orren Gerhold","party":"","address":"1682 N 800 E, Lehi, UT 84043","precinct":"25LE10","hd":"53","v_score":"2.744440783","decile":"5","lat":40.408019227031,"lng":-111.836330368602},{"id":"74042","name":"Mrs. Nohely Grimes DDS","party":"Rep","address":"1814 N 900 E, Lehi, UT 84043","precinct":"25LE10","hd":"53","v_score":"1.193887297","decile":"3","lat":40.410024872236,"lng":-111.834455208856},{"id":"74609","name":"Lyndia Simonis","party":"Dem","address":"1322 N Cedar Hollow Blvd, Lehi, UT 84043","precinct":"25LE10","hd":"53","v_score":"2.315214949","decile":"5","lat":40.403663371146,"lng":-111.832710899929},{"id":"74760","name":"Norris Haag","party":"Rep","address":"1802 N Mesa Dr, Lehi, UT 84043","precinct":"25LE10","hd":"53","v_score":"4.499155696","decile":"7","lat":40.409609234306,"lng":-111.835326460905},{"id":"75923","name":"Maceo Nienow","party":"Dem","address":"655 E Cedar Hollow Rd, Lehi, UT 84043","precinct":"25LE10","hd":"53","v_score":"5.331806201","decile":"7","lat":40.404560467901,"lng":-111.837939953583},{"id":"75968","name":"Dr. Ronnie Marks","party":"Dem","address":"1260 N Cedar Hollow Blvd, Lehi, UT 84043","precinct":"25LE10","hd":"53","v_score":"6.954919332","decile":"8","lat":40.403103642811,"lng":-111.832130715913},{"id":"76089","name":"Philo D'Amore","party":"Dem","address":"618 E Airport Dr, Lehi, UT 84043","precinct":"25LE10","hd":"53","v_score":"1.121327652","decile":"3","lat":40.410144967103,"lng":-111.839656243606},{"id":"76589","name":"Vidal Gerhold","party":"Dem","address":"1145 E Cedar Hollow Rd, Lehi, UT 84043","precinct":"25LE10","hd":"53","v_score":"2.315214949","decile":"5","lat":40.406988304787,"lng":-111.831627493788},{"id":"76984","name":"Dr. Noble Senger","party":"","address":"830 E 1650 N, Lehi, UT 84043","precinct":"25LE10","hd":"53","v_score":"2.744440783","decile":"5","lat":40.40802731483,"lng":-111.843487039318},{"id":"77118","name":"Daryle Ward","party":"Rep","address":"2051 N 825 E, Lehi, UT 84043","precinct":"25LE10","hd":"53","v_score":"14.04503691","decile":"9","lat":40.413128767796,"lng":-111.836235195451},{"id":"77397","name":"Camden Mosciski I","party":"Dem","address":"1753 N 800 E, Lehi, UT 84043","precinct":"25LE10","hd":"53","v_score":"7.583918848","decile":"8","lat":40.408871172326,"lng":-111.836482474351},{"id":"77768","name":"Kacie Strosin","party":"","address":"1886 N 900 E, Lehi, UT 84043","precinct":"25LE10","hd":"53","v_score":"17.84989268","decile":"10","lat":40.410647844518,"lng":-111.83445757394},{"id":"77793","name":"Dimitri Halvorson","party":"","address":"1423 N 1150 E, Lehi, UT 84043","precinct":"25LE10","hd":"53","v_score":"0","decile":"1","lat":40.405933037466,"lng":-111.832373778931},{"id":"77799","name":"Mrs. Indiana Rath DVM","party":"","address":"1776 N 900 E, Lehi, UT 84043","precinct":"25LE10","hd":"53","v_score":"2.315214949","decile":"5","lat":40.40973209745,"lng":-111.834453745021},{"id":"78004","name":"Rozanne Herzog","party":"Dem","address":"1863 N 900 E, Lehi, UT 84043","precinct":"25LE10","hd":"53","v_score":"3.93832808","decile":"6","lat":40.41078311147,"lng":-111.834608070958},{"id":"78623","name":"Doris Schinner","party":"Rep","address":"1532 N Summer Crest Dr, Lehi, UT 84043","precinct":"25LE10","hd":"53","v_score":"2.744440783","decile":"5","lat":40.40634633591,"lng":-111.836363723925},{"id":"81058","name":"Mrs. Odile Kovacek","party":"Dem","address":"1228 N Cedar Hollow Blvd, Lehi, UT 84043","precinct":"25LE10","hd":"53","v_score":"8.946682677","decile":"8","lat":40.402735923921,"lng":-111.832053514534},{"id":"81140","name":"Nadine Davis","party":"Dem","address":"655 E Cedar Hollow Rd, Lehi, UT 84043","precinct":"25LE10","hd":"53","v_score":"1.623113131","decile":"5","lat":40.404560467901,"lng":-111.837939953583},{"id":"81512","name":"Mrs. Dana Vandervort","party":"","address":"1801 N 900 E, Lehi, UT 84043","precinct":"25LE10","hd":"53","v_score":"9.231763363","decile":"8","lat":40.410044981583,"lng":-111.834605805514},{"id":"81890","name":"Dr. Dillie Abbott","party":"","address":"1131 E Fitzgerald Ln, Lehi, UT 84043","precinct":"25LE10","hd":"53","v_score":"7.090117576","decile":"8","lat":40.406910516537,"lng":-111.833261317506},{"id":"83112","name":"Kit Sporer-Stroman","party":"Dem","address":"1362 N Cedar Hollow Blvd, Lehi, UT 84043","precinct":"25LE10","hd":"53","v_score":"1.193887297","decile":"3","lat":40.403949840567,"lng":-111.83316329937},{"id":"83352","name":"Colin Ortiz","party":"Rep","address":"897 E 1900 N, Lehi, UT 84043","precinct":"25LE10","hd":"53","v_score":"0","decile":"1","lat":40.41150315395,"lng":-111.834697670223},{"id":"83406","name":"Zeno Hyatt-Dare","party":"","address":"1177 N Cedar Hollow Blvd, Lehi, UT 84043","precinct":"25LE10","hd":"53","v_score":"9.638447451","decile":"8","lat":40.402153328388,"lng":-111.832195686918},{"id":"83555","name":"Talan Lang Jr.","party":"Dem","address":"1260 N Cedar Hollow Blvd, Lehi, UT 84043","precinct":"25LE10","hd":"53","v_score":"4.210478549","decile":"7","lat":40.403103642811,"lng":-111.832130715913},{"id":"84005","name":"Tegan Ledner","party":"Rep","address":"743 E 1725 N, Lehi, UT 84043","precinct":"25LE10","hd":"53","v_score":"0","decile":"1","lat":40.408638293909,"lng":-111.837571686701},{"id":"84103","name":"Dr. Alexandrea Keebler","party":"Rep","address":"717 E 1775 N, Lehi, UT 84043","precinct":"25LE10","hd":"53","v_score":"0","decile":"1","lat":40.409444433785,"lng":-111.837695175048},{"id":"84801","name":"Magdalene Beier","party":"","address":"2021 N 1200 E, Lehi, UT 84043","precinct":"25LE10","hd":"53","v_score":"12.81831199","decile":"9","lat":40.412700362723,"lng":-111.83044143736},{"id":"85022","name":"Mayo Blanda V","party":"Rep","address":"1598 N Summer Crest Dr, Lehi, UT 84043","precinct":"25LE10","hd":"53","v_score":"0","decile":"1","lat":40.406880704185,"lng":-111.835589467584},{"id":"85236","name":"Rollin Pfannerstill","party":"Dem","address":"1863 N 900 E, Lehi, UT 84043","precinct":"25LE10","hd":"53","v_score":"5.693042993","decile":"7","lat":40.41078311147,"lng":-111.834608070958},{"id":"85393","name":"Marland O'Hara","party":"Dem","address":"688 E Airport Dr, Lehi, UT 84043","precinct":"25LE10","hd":"53","v_score":"1.193887297","decile":"3","lat":40.410148820223,"lng":-111.838594686746},{"id":"85704","name":"Cyntha Sauer-West","party":"","address":"1325 N Cedar Hollow Blvd, Lehi, UT 84043","precinct":"25LE10","hd":"53","v_score":"8.284004873","decile":"8","lat":40.403589665819,"lng":-111.832829810816},{"id":"85718","name":"Nadine Swaniawski","party":"","address":"1668 N Summer Crest Dr, Lehi, UT 84043","precinct":"25LE10","hd":"53","v_score":"1.193887297","decile":"3","lat":40.407750447072,"lng":-111.835452077431},{"id":"86363","name":"Mickey Kozey","party":"Rep","address":"1656 N Oak Dr, Lehi, UT 84043","precinct":"25LE10","hd":"53","v_score":"1.193887297","decile":"4","lat":40.408347854154,"lng":-111.834525076906},{"id":"86476","name":"Archer Effertz","party":"Dem","address":"847 E 1475 N, Lehi, UT 84043","precinct":"25LE10","hd":"53","v_score":"1.193887297","decile":"4","lat":40.405783431943,"lng":-111.835857174093},{"id":"86645","name":"Hakeem Conroy","party":"","address":"1868 N 800 E, Lehi, UT 84043","precinct":"25LE10","hd":"53","v_score":"0","decile":"1","lat":40.410226903447,"lng":-111.835930050952},{"id":"86759","name":"Giovani Toy","party":"","address":"2021 N 1200 E, Lehi, UT 84043","precinct":"25LE10","hd":"53","v_score":"5.926494964","decile":"7","lat":40.412700362723,"lng":-111.83044143736},{"id":"87390","name":"Rubin Kohler","party":"Rep","address":"1783 N Summer Crest Dr, Lehi, UT 84043","precinct":"25LE10","hd":"53","v_score":"6.728543739","decile":"8","lat":40.40869174484,"lng":-111.835611568967},{"id":"87980","name":"Freeda Lind-Thompson","party":"Rep","address":"1814 N 900 E, Lehi, UT 84043","precinct":"25LE10","hd":"53","v_score":"1.193887297","decile":"4","lat":40.410024872236,"lng":-111.834455208856},{"id":"88255","name":"Finn Doyle-O'Conner","party":"Rep","address":"2057 N Airport Dr, Lehi, UT 84043","precinct":"25LE10","hd":"53","v_score":"3.711952487","decile":"6","lat":40.413224215998,"lng":-111.833795574723},{"id":"88549","name":"Clarice Cormier-Baumbach","party":"Rep","address":"1778 N 750 E, Lehi, UT 84043","precinct":"25LE10","hd":"53","v_score":"0","decile":"1","lat":40.409472685482,"lng":-111.837231199543},{"id":"88855","name":"Dr. Tyrik Green Jr.","party":"","address":"2078 N 1100 E, Lehi, UT 84043","precinct":"25LE10","hd":"53","v_score":"4.069929862","decile":"6","lat":40.417745024307,"lng":-111.831827847572},{"id":"88993","name":"Evonne Bahringer","party":"Rep","address":"1778 N 750 E, Lehi, UT 84043","precinct":"25LE10","hd":"53","v_score":"2.817000428","decile":"6","lat":40.409472685482,"lng":-111.837231199543},{"id":"89982","name":"Lannie Bogisich","party":"Dem","address":"2025 N 1100 E, Lehi, UT 84043","precinct":"25LE10","hd":"53","v_score":"4.905839784","decile":"7","lat":40.417836490552,"lng":-111.831977642815},{"id":"91299","name":"Jeanne Hauck","party":"Rep","address":"2015 N 825 E, Lehi, UT 84043","precinct":"25LE10","hd":"53","v_score":"0","decile":"1","lat":40.412747403707,"lng":-111.836242257798},{"id":"91434","name":"Dr. Wayde Huels Jr.","party":"Dem","address":"1114 N Cedar Hollow Blvd, Lehi, UT 84043","precinct":"25LE10","hd":"53","v_score":"2.817000428","decile":"6","lat":40.401460114115,"lng":-111.832042058784},{"id":"91756","name":"Elmo Schmidt","party":"","address":"1843 N 800 E, Lehi, UT 84043","precinct":"25LE10","hd":"53","v_score":"5.407962308","decile":"7","lat":40.410011425935,"lng":-111.836361867142},{"id":"91891","name":"Renea Marks DDS","party":"Dem","address":"1920 N Airport Dr, Lehi, UT 84043","precinct":"25LE10","hd":"53","v_score":"11.26156058","decile":"9","lat":40.411704221028,"lng":-111.835336844937},{"id":"92065","name":"Ethyl Renner","party":"","address":"1146 N 1000 E, Lehi, UT 84043","precinct":"25LE10","hd":"53","v_score":"0","decile":"1","lat":40.401586273973,"lng":-111.833162735068},{"id":"92159","name":"Ellis Donnelly","party":"","address":"1857 N 800 E, Lehi, UT 84043","precinct":"25LE10","hd":"53","v_score":"1.193887297","decile":"4","lat":40.410228024051,"lng":-111.836143017902},{"id":"93226","name":"Elfreda Ruecker","party":"Rep","address":"1598 N Summer Crest Dr, Lehi, UT 84043","precinct":"25LE10","hd":"53","v_score":"8.236277988","decile":"8","lat":40.406880704185,"lng":-111.835589467584},{"id":"94563","name":"Maddison Graham","party":"","address":"2085 N 1100 E, Lehi, UT 84043","precinct":"25LE10","hd":"53","v_score":"0","decile":"1","lat":40.418466129661,"lng":-111.831972684945},{"id":"94696","name":"Mr. Lyman Carroll","party":"Rep","address":"1776 N 900 E, Lehi, UT 84043","precinct":"25LE10","hd":"53","v_score":"0","decile":"1","lat":40.40973209745,"lng":-111.834453745021},{"id":"96298","name":"Jessie Crist DDS","party":"Rep","address":"2069 N 825 E, Lehi, UT 84043","precinct":"25LE10","hd":"53","v_score":"5.693042993","decile":"7","lat":40.413407638246,"lng":-111.836229967816},{"id":"96608","name":"Arlis Mueller-Aufderhar","party":"Rep","address":"1286 N Cedar Hollow Blvd, Lehi, UT 84043","precinct":"25LE10","hd":"53","v_score":"1.193887297","decile":"4","lat":40.403385490662,"lng":-111.832321140045},{"id":"96678","name":"Helene Auer","party":"Rep","address":"1911 N 1200 E, Lehi, UT 84043","precinct":"25LE10","hd":"53","v_score":"5.693042993","decile":"7","lat":40.411525424088,"lng":-111.830430092747},{"id":"97275","name":"Royce Russel","party":"Dem","address":"1869 N 800 E, Lehi, UT 84043","precinct":"25LE10","hd":"53","v_score":"6.355720798","decile":"7","lat":40.410308541978,"lng":-111.836035660656},{"id":"97819","name":"Elinor Crooks","party":"Rep","address":"1146 N 1000 E, Lehi, UT 84043","precinct":"25LE10","hd":"53","v_score":"1.623113131","decile":"5","lat":40.401586273973,"lng":-111.833162735068},{"id":"98018","name":"Lorelai Hintz","party":"","address":"1147 N Cedar Hollow Blvd, Lehi, UT 84043","precinct":"25LE10","hd":"53","v_score":"2.817000428","decile":"6","lat":40.401817710204,"lng":-111.832194161425},{"id":"98031","name":"Rowena Kirlin DDS","party":"","address":"1114 N Cedar Hollow Blvd, Lehi, UT 84043","precinct":"25LE10","hd":"53","v_score":"2.817000428","decile":"6","lat":40.401460114115,"lng":-111.832042058784},{"id":"98252","name":"Ewing Nicolas","party":"","address":"898 E 1680 N, Lehi, UT 84043","precinct":"25LE10","hd":"53","v_score":"5.693042993","decile":"7","lat":40.40801070239,"lng":-111.835064132421},{"id":"98398","name":"Charlotta Dooley","party":"Rep","address":"1997 N 825 E, Lehi, UT 84043","precinct":"25LE10","hd":"53","v_score":"0","decile":"1","lat":40.412461345753,"lng":-111.836245461273},{"id":"99512","name":"Nery Price","party":"Dem","address":"1916 N 1150 E, Lehi, UT 84043","precinct":"25LE10","hd":"53","v_score":"1.193887297","decile":"4","lat":40.411434196568,"lng":-111.831460573488},{"id":"99585","name":"Ms. Ina Satterfield","party":"Dem","address":"725 E Cedar Hollow Rd, Lehi, UT 84043","precinct":"25LE10","hd":"53","v_score":"9.638447451","decile":"8","lat":40.404620594084,"lng":-111.83703925375},{"id":"99706","name":"Alanzo Haley","party":"","address":"2026 N 1100 E, Lehi, UT 84043","precinct":"25LE10","hd":"53","v_score":"0","decile":"1","lat":40.417637640073,"lng":-111.831828693131},{"id":"100142","name":"Hadley Tromp","party":"Rep","address":"691 E 1775 N, Apt E, Lehi, UT 84043","precinct":"25LE10","hd":"53","v_score":"1.193887297","decile":"4","lat":40.409443447621,"lng":-111.83779477842},{"id":"100221","name":"Ciarra Schowalter","party":"Dem","address":"1817 N Airport Dr, Lehi, UT 84043","precinct":"25LE10","hd":"53","v_score":"1.193887297","decile":"4","lat":40.410595798832,"lng":-111.836861744945},{"id":"100274","name":"Alvin Pacocha-Romaguera","party":"","address":"743 E 1725 N, Lehi, UT 84043","precinct":"25LE10","hd":"53","v_score":"1.193887297","decile":"4","lat":40.408638293909,"lng":-111.837571686701},{"id":"101800","name":"Marcy Cummerata","party":"","address":"1616 N Summer Crest Dr, Lehi, UT 84043","precinct":"25LE10","hd":"53","v_score":"0","decile":"2","lat":40.407091286212,"lng":-111.835486582181},{"id":"103111","name":"Destany Steuber","party":"","address":"1718 N Summer Crest Dr, Lehi, UT 84043","precinct":"25LE10","hd":"53","v_score":"11.99595736","decile":"9","lat":40.40824870043,"lng":-111.835448138152},{"id":"103520","name":"Eddie Kuhn","party":"","address":"933 E Mesa Ave, Lehi, UT 84043","precinct":"25LE10","hd":"53","v_score":"0","decile":"2","lat":40.409168585439,"lng":-111.83471446165},{"id":"107393","name":"Luann Anderson","party":"","address":"1502 N 600 E, Lehi, UT 84043","precinct":"25LE10","hd":"53","v_score":"5.407962308","decile":"7","lat":40.40556947548,"lng":-111.839852971803},{"id":"107995","name":"Dr. Andres Adams","party":"","address":"1863 N 900 E, Lehi, UT 84043","precinct":"25LE10","hd":"53","v_score":"0","decile":"2","lat":40.41078311147,"lng":-111.834608070958},{"id":"108003","name":"Kristian Altenwerth-Bechtelar","party":"","address":"2025 N 1100 E, Lehi, UT 84043","precinct":"25LE10","hd":"53","v_score":"4.069929862","decile":"7","lat":40.417836490552,"lng":-111.831977642815},{"id":"108025","name":"Marleigh Jerde","party":"","address":"847 E 1475 N, Lehi, UT 84043","precinct":"25LE10","hd":"53","v_score":"0","decile":"2","lat":40.405783431943,"lng":-111.835857174093},{"id":"108674","name":"Anice Crooks","party":"","address":"1058 E 2040 N, Lehi, UT 84043","precinct":"25LE10","hd":"53","v_score":"2.876042565","decile":"6","lat":40.412863453003,"lng":-111.832691880347},{"id":"108957","name":"Maddison Wisozk","party":"","address":"1515 N 1200 E, Lehi, UT 84043","precinct":"25LE10","hd":"53","v_score":"4.069929862","decile":"7","lat":40.406309684167,"lng":-111.83033364052},{"id":"108958","name":"Karli Grimes","party":"Dem","address":"1515 N 1200 E, Lehi, UT 84043","precinct":"25LE10","hd":"53","v_score":"4.069929862","decile":"7","lat":40.406309684167,"lng":-111.83033364052},{"id":"108963","name":"Lazaro Harber","party":"Dem","address":"1515 N 1200 E, Lehi, UT 84043","precinct":"25LE10","hd":"53","v_score":"4.069929862","decile":"7","lat":40.406309684167,"lng":-111.83033364052},{"id":"109020","name":"Hillard Considine","party":"","address":"1131 E Fitzgerald Ln, Lehi, UT 84043","precinct":"25LE10","hd":"53","v_score":"7.090117576","decile":"8","lat":40.406910516537,"lng":-111.833261317506},{"id":"109291","name":"Tavares Wuckert","party":"","address":"1916 N 1150 E, Lehi, UT 84043","precinct":"25LE10","hd":"53","v_score":"1.193887297","decile":"4","lat":40.411434196568,"lng":-111.831460573488},{"id":"109876","name":"Thaddeus Hirthe","party":"Dem","address":"1802 N 900 E, Lehi, UT 84043","precinct":"25LE10","hd":"53","v_score":"8.284004873","decile":"8","lat":40.409932417041,"lng":-111.834454746592},{"id":"110298","name":"Haskell Yost","party":"Dem","address":"880 E 1900 N, Lehi, UT 84043","precinct":"25LE10","hd":"53","v_score":"1.193887297","decile":"4","lat":40.411466720272,"lng":-111.834876580565},{"id":"110626","name":"Mrs. Jettie Boehm DVM","party":"Rep","address":"798 E 1475 N, Lehi, UT 84043","precinct":"25LE10","hd":"53","v_score":"1.193887297","decile":"4","lat":40.405517376642,"lng":-111.836146549352},{"id":"110727","name":"Dr. Gaetano Botsford IV","party":"","address":"1787 N 750 E, A, Lehi, UT 84043","precinct":"25LE10","hd":"53","v_score":"1.193887297","decile":"4","lat":40.409754833997,"lng":-111.837412988115},{"id":"111771","name":"Arizona Mueller","party":"Dem","address":"743 E 1725 N, Lehi, UT 84043","precinct":"25LE10","hd":"53","v_score":"0","decile":"2","lat":40.408638293909,"lng":-111.837571686701},{"id":"112737","name":"Hence Wolff","party":"Dem","address":"2085 N 1100 E, Lehi, UT 84043","precinct":"25LE10","hd":"53","v_score":"0","decile":"2","lat":40.418466129661,"lng":-111.831972684945},{"id":"112888","name":"Finn O'Kon","party":"","address":"1580 N Summer Crest Dr, Lehi, UT 84043","precinct":"25LE10","hd":"53","v_score":"1.193887297","decile":"4","lat":40.406697743379,"lng":-111.835759765804},{"id":"113458","name":"Fayette Mueller","party":"Rep","address":"1274 N 940 E, Lehi, UT 84043","precinct":"25LE10","hd":"53","v_score":"0","decile":"2","lat":40.403677040354,"lng":-111.833851276911},{"id":"114945","name":"Elwin Jast","party":"Rep","address":"1228 N Cedar Hollow Blvd, Lehi, UT 84043","precinct":"25LE10","hd":"53","v_score":"1.193887297","decile":"4","lat":40.402735923921,"lng":-111.832053514534},{"id":"115240","name":"Dow Mayert I","party":"","address":"1228 N Cedar Hollow Blvd, Lehi, UT 84043","precinct":"25LE10","hd":"53","v_score":"2.876042565","decile":"6","lat":40.402735923921,"lng":-111.832053514534},{"id":"116517","name":"Pleas Grady","party":"Rep","address":"1718 N Summer Crest Dr, Lehi, UT 84043","precinct":"25LE10","hd":"53","v_score":"7.090117576","decile":"8","lat":40.40824870043,"lng":-111.835448138152},{"id":"116761","name":"Arlene Price","party":"","address":"2057 N Airport Dr, Lehi, UT 84043","precinct":"25LE10","hd":"53","v_score":"0","decile":"2","lat":40.413224215998,"lng":-111.833795574723},{"id":"117028","name":"Orra Leannon","party":"Rep","address":"1228 N Cedar Hollow Blvd, Lehi, UT 84043","precinct":"25LE10","hd":"53","v_score":"5.407962308","decile":"7","lat":40.402735923921,"lng":-111.832053514534},{"id":"117224","name":"Jed Cartwright MD","party":"","address":"1505 N 1200 E, Lehi, UT 84043","precinct":"25LE10","hd":"53","v_score":"0","decile":"2","lat":40.406103468196,"lng":-111.83033406021},{"id":"117503","name":"Dr. Tayshaun Littel DVM","party":"","address":"1911 N 1200 E, Lehi, UT 84043","precinct":"25LE10","hd":"53","v_score":"4.069929862","decile":"7","lat":40.411525424088,"lng":-111.830430092747},{"id":"117734","name":"Miss Zaria Jenkins DVM","party":"Rep","address":"1294 N Cedar Hollow Blvd, Lehi, UT 84043","precinct":"25LE10","hd":"53","v_score":"1.193887297","decile":"4","lat":40.40344741353,"lng":-111.832405997283},{"id":"118131","name":"Ms. Afton Abernathy","party":"","address":"649 E Cedar Hollow Rd, Lehi, UT 84043","precinct":"25LE10","hd":"53","v_score":"1.193887297","decile":"4","lat":40.404556086169,"lng":-111.838006277152},{"id":"118741","name":"Dr. Aleta Bednar","party":"Rep","address":"1202 N Cedar Hollow Blvd, Lehi, UT 84043","precinct":"25LE10","hd":"53","v_score":"1.193887297","decile":"4","lat":40.402445074333,"lng":-111.832048897912},{"id":"119005","name":"Mrs. Jacquelin Wisoky","party":"Rep","address":"2060 N Airport Dr, Lehi, UT 84043","precinct":"25LE10","hd":"53","v_score":"1.193887297","decile":"4","lat":40.413208631666,"lng":-111.83361327011},{"id":"119041","name":"Vena Blick","party":"","address":"1598 N Summer Crest Dr, Lehi, UT 84043","precinct":"25LE10","hd":"53","v_score":"1.193887297","decile":"4","lat":40.406880704185,"lng":-111.835589467584},{"id":"119338","name":"Elfie Cummerata","party":"","address":"1868 N 800 E, Lehi, UT 84043","precinct":"25LE10","hd":"53","v_score":"0","decile":"2","lat":40.410226903447,"lng":-111.835930050952},{"id":"120125","name":"Colby Strosin-Bode","party":"Dem","address":"659 E Cedar Hollow Rd, Lehi, UT 84043","precinct":"25LE10","hd":"53","v_score":"4.069929862","decile":"7","lat":40.404563389056,"lng":-111.83789573787},{"id":"120236","name":"Brittaney Stroman","party":"Rep","address":"691 E 1775 N, Lehi, UT 84043","precinct":"25LE10","hd":"53","v_score":"1.193887297","decile":"4","lat":40.409443447621,"lng":-111.83779477842},{"id":"121226","name":"Addie Sauer-Rodriguez","party":"Dem","address":"2060 N Airport Dr, Lehi, UT 84043","precinct":"25LE10","hd":"53","v_score":"1.193887297","decile":"4","lat":40.413208631666,"lng":-111.83361327011},{"id":"121754","name":"Reynolds Cassin","party":"Rep","address":"955 E 1960 N, Lehi, UT 84043","precinct":"25LE10","hd":"53","v_score":"1.193887297","decile":"4","lat":40.412109985552,"lng":-111.834217123562},{"id":"122542","name":"Mr. Blaze Durgan PhD","party":"Rep","address":"2085 N 1100 E, Lehi, UT 84043","precinct":"25LE10","hd":"53","v_score":"1.193887297","decile":"4","lat":40.418466129661,"lng":-111.831972684945},{"id":"123400","name":"Dr. Daron Gorczany III","party":"","address":"1997 N 825 E, Lehi, UT 84043","precinct":"25LE10","hd":"53","v_score":"1.193887297","decile":"4","lat":40.412461345753,"lng":-111.836245461273},{"id":"123565","name":"Abigale D'Amore DVM","party":"Dem","address":"952 E 1960 N, Lehi, UT 84043","precinct":"25LE10","hd":"53","v_score":"5.407962308","decile":"7","lat":40.412000960026,"lng":-111.834267708884},{"id":"123765","name":"Arie Robel-Hilll","party":"Dem","address":"1399 N Cedar Ridge Rd, Lehi, UT 84043","precinct":"25LE10","hd":"53","v_score":"1.193887297","decile":"4","lat":40.405839646625,"lng":-111.832314348417},{"id":"124687","name":"Della Stiedemann-Turner","party":"","address":"988 E 2040 N, Lehi, UT 84043","precinct":"25LE10","hd":"53","v_score":"0","decile":"2","lat":40.412816701706,"lng":-111.83322952412},{"id":"125080","name":"Elinor Schaefer","party":"Dem","address":"1580 N Fitzgerald Ln, Lehi, UT 84043","precinct":"25LE10","hd":"53","v_score":"0","decile":"2","lat":40.406918605305,"lng":-111.834461830245},{"id":"125292","name":"Drew Nader","party":"Dem","address":"1857 N 800 E, Lehi, UT 84043","precinct":"25LE10","hd":"53","v_score":"0","decile":"2","lat":40.410228024051,"lng":-111.836143017902},{"id":"126773","name":"Dr. Ari Ratke DVM","party":"Rep","address":"719 E 1725 N, Lehi, UT 84043","precinct":"25LE10","hd":"53","v_score":"0","decile":"2","lat":40.408638293916,"lng":-111.837653808772},{"id":"127402","name":"Josefina Pfannerstill","party":"Dem","address":"1916 N 1150 E, Lehi, UT 84043","precinct":"25LE10","hd":"53","v_score":"0","decile":"2","lat":40.411434196568,"lng":-111.831460573488},{"id":"127822","name":"Lemma Barton","party":"Rep","address":"1546 N Summer Crest Dr, Lehi, UT 84043","precinct":"25LE10","hd":"53","v_score":"2.876042565","decile":"6","lat":40.406439289835,"lng":-111.836184701527},{"id":"129792","name":"Dr. Dane Medhurst","party":"","address":"1756 N Summer Crest Dr, Lehi, UT 84043","precinct":"25LE10","hd":"53","v_score":"2.876042565","decile":"6","lat":40.40851369473,"lng":-111.835456073567},{"id":"129926","name":"Sydney Leuschke","party":"Rep","address":"1979 N 825 E, Lehi, UT 84043","precinct":"25LE10","hd":"53","v_score":"0","decile":"2","lat":40.41226315103,"lng":-111.836243936725},{"id":"130205","name":"Eve Wunsch","party":"","address":"846 E 2125 N, Lehi, UT 84043","precinct":"25LE10","hd":"53","v_score":"0","decile":"2","lat":40.413929715031,"lng":-111.835481911544},{"id":"131936","name":"Drew Kris Sr.","party":"","address":"1730 N 750 E, Lehi, UT 84043","precinct":"25LE10","hd":"53","v_score":"0","decile":"2","lat":40.408638293883,"lng":-111.837229574881},{"id":"132692","name":"Florance Zulauf","party":"","address":"897 E 1900 N, Lehi, UT 84043","precinct":"25LE10","hd":"53","v_score":"2.876042565","decile":"6","lat":40.41150315395,"lng":-111.834697670223},{"id":"132739","name":"Dr. Akeelah Schaden","party":"","address":"1802 N Mesa Ave, Lehi, UT 84043","precinct":"25LE10","hd":"53","v_score":"0","decile":"2","lat":40.409609234306,"lng":-111.835326460905},{"id":"133411","name":"Catina Rogahn","party":"Dem","address":"810 E 1650 N, Lehi, UT 84043","precinct":"25LE10","hd":"53","v_score":"0","decile":"2","lat":40.408027045584,"lng":-111.843529715347},{"id":"133426","name":"Ephram Morar","party":"","address":"655 E Cedar Hollow Rd, Lehi, UT 84043","precinct":"25LE10","hd":"53","v_score":"0","decile":"2","lat":40.404560467901,"lng":-111.837939953583},{"id":"133831","name":"Deonta Will","party":"Rep","address":"1440 N Summer Crest Dr, Lehi, UT 84043","precinct":"25LE10","hd":"53","v_score":"0","decile":"2","lat":40.40522833628,"lng":-111.83704088681},{"id":"134012","name":"Vicki Cummerata MD","party":"","address":"810 E 1650 N, Lehi, UT 84043","precinct":"25LE10","hd":"53","v_score":"0","decile":"2","lat":40.408027045584,"lng":-111.843529715347},{"id":"134156","name":"Thomas Ortiz","party":"","address":"1147 N Cedar Hollow Blvd, Lehi, UT 84043","precinct":"25LE10","hd":"53","v_score":"0","decile":"2","lat":40.401817710204,"lng":-111.832194161425},{"id":"136321","name":"Nila Romaguera","party":"Rep","address":"1853 N Airport Dr, Lehi, UT 84043","precinct":"25LE10","hd":"53","v_score":"19.22326505","decile":"10","lat":40.410991912331,"lng":-111.836387834912},{"id":"136668","name":"Dr. Jerad Kris DDS","party":"Dem","address":"1717 N 800 E, Lehi, UT 84043","precinct":"25LE10","hd":"53","v_score":"0","decile":"2","lat":40.408423423184,"lng":-111.836483806997},{"id":"136675","name":"Cole Schoen PhD","party":"","address":"970 E 2040 N, Lehi, UT 84043","precinct":"25LE10","hd":"53","v_score":"5.40460374","decile":"7","lat":40.412821400551,"lng":-111.833373102792},{"id":"137197","name":"Renee Nitzsche-Kuphal","party":"Dem","address":"931 E 1960 N, Lehi, UT 84043","precinct":"25LE10","hd":"53","v_score":"1.121327652","decile":"3","lat":40.412177666823,"lng":-111.83438915638},{"id":"137555","name":"Brittany Schmidt","party":"Dem","address":"1006 E 2040 N, Lehi, UT 84043","precinct":"25LE10","hd":"53","v_score":"3.781490609","decile":"6","lat":40.412816701695,"lng":-111.833098487479},{"id":"137625","name":"Lindy Koelpin","party":"","address":"1147 N 1000 E, Lehi, UT 84043","precinct":"25LE10","hd":"53","v_score":"11.29723756","decile":"9","lat":40.401585979174,"lng":-111.83331321092},{"id":"137972","name":"Galilea Lang","party":"","address":"1231 N Cedar Hollow Blvd, Lehi, UT 84043","precinct":"25LE10","hd":"53","v_score":"5.40460374","decile":"7","lat":40.402756911955,"lng":-111.83220433723},{"id":"138051","name":"Brenda Zieme-Schaden","party":"Dem","address":"2087 N 1200 E, Lehi, UT 84043","precinct":"25LE10","hd":"53","v_score":"0","decile":"2","lat":40.413588754839,"lng":-111.830451152745},{"id":"138968","name":"Tressa Rodriguez","party":"Dem","address":"1117 N Cedar Hollow Blvd, Lehi, UT 84043","precinct":"25LE10","hd":"53","v_score":"22.70037759","decile":"10","lat":40.40148209202,"lng":-111.832192635932},{"id":"139178","name":"Karlee Raynor","party":"Dem","address":"1375 N 1125 E, Lehi, UT 84043","precinct":"25LE10","hd":"53","v_score":"22.48959706","decile":"10","lat":40.405737193951,"lng":-111.831444566669},{"id":"139339","name":"Roberta Nienow","party":"","address":"2057 N Airport Dr, Lehi, UT 84043","precinct":"25LE10","hd":"53","v_score":"12.07513611","decile":"9","lat":40.413224215998,"lng":-111.833795574723},{"id":"139340","name":"Jermain Kiehn","party":"Rep","address":"2057 N Airport Dr, Lehi, UT 84043","precinct":"25LE10","hd":"53","v_score":"12.07513611","decile":"9","lat":40.413224215998,"lng":-111.833795574723},{"id":"139580","name":"Wood Jones III","party":"Rep","address":"955 E Fitzgerald Ln, Lehi, UT 84043","precinct":"25LE10","hd":"53","v_score":"18.45422016","decile":"10","lat":40.406766035289,"lng":-111.833899134373},{"id":"139583","name":"Bluford Reynolds","party":"Rep","address":"2105 N 1200 E, Lehi, UT 84043","precinct":"25LE10","hd":"53","v_score":"8.347511332","decile":"8","lat":40.413823586812,"lng":-111.830452677597},{"id":"139794","name":"Marcelle Kassulke","party":"","address":"2060 N Airport Dr, Lehi, UT 84043","precinct":"25LE10","hd":"53","v_score":"11.74656914","decile":"9","lat":40.413208631666,"lng":-111.83361327011},{"id":"140255","name":"Cheyenne Steuber","party":"","address":"939 E Cedar Hollow Rd, Lehi, UT 84043","precinct":"25LE10","hd":"53","v_score":"2.817000428","decile":"6","lat":40.404865735325,"lng":-111.834148433962},{"id":"140301","name":"West Kulas-Smitham","party":"Rep","address":"1943 N 825 E, Lehi, UT 84043","precinct":"25LE10","hd":"53","v_score":"8.347511332","decile":"8","lat":40.411852319019,"lng":-111.836193780367},{"id":"140330","name":"Orrie VonRueden","party":"Rep","address":"861 E 2070 N, Lehi, UT 84043","precinct":"25LE10","hd":"53","v_score":"26.83752922","decile":"10","lat":40.413333156853,"lng":-111.835743170006},{"id":"140924","name":"Annabella Will-Cassin","party":"Dem","address":"1345 N Cedar Hollow Blvd, Lehi, UT 84043","precinct":"25LE10","hd":"53","v_score":"16.11772682","decile":"9","lat":40.403732909748,"lng":-111.833055528455},{"id":"140973","name":"Cena Toy","party":"Dem","address":"1006 E 2040 N, Lehi, UT 84043","precinct":"25LE10","hd":"53","v_score":"3.781490609","decile":"6","lat":40.412816701695,"lng":-111.833098487479},{"id":"141194","name":"Alpha Rau","party":"Rep","address":"1753 N 800 E, Lehi, UT 84043","precinct":"25LE10","hd":"53","v_score":"2.315214949","decile":"5","lat":40.408871172326,"lng":-111.836482474351},{"id":"141379","name":"Delano Luettgen Jr.","party":"Dem","address":"837 E 2070 N, Lehi, UT 84043","precinct":"25LE10","hd":"53","v_score":"2.744440783","decile":"5","lat":40.413331232851,"lng":-111.835879293935},{"id":"142338","name":"Randolf Little II","party":"","address":"2026 N 1100 E, Lehi, UT 84043","precinct":"25LE10","hd":"53","v_score":"0","decile":"3","lat":40.417637640073,"lng":-111.831828693131},{"id":"142961","name":"Gonzalo Kulas","party":"","address":"1427 N 1200 E, Lehi, UT 84043","precinct":"25LE10","hd":"53","v_score":"6.814370645","decile":"8","lat":40.40492560211,"lng":-111.83034995332},{"id":"142962","name":"Elenore Larson-Feeney","party":"","address":"1931 N 1200 E, Lehi, UT 84043","precinct":"25LE10","hd":"53","v_score":"5.40460374","decile":"7","lat":40.411739036254,"lng":-111.83043337906},{"id":"142966","name":"Reginald Schowalter","party":"","address":"849 E 2070 N, Lehi, UT 84043","precinct":"25LE10","hd":"53","v_score":"2.315214949","decile":"5","lat":40.413332194852,"lng":-111.835811231971},{"id":"143894","name":"Mr. Huey Larson Sr.","party":"Rep","address":"1979 N 825 E, Lehi, UT 84043","precinct":"25LE10","hd":"53","v_score":"31.33526927","decile":"10","lat":40.41226315103,"lng":-111.836243936725},{"id":"144068","name":"Josephine Schimmel","party":"","address":"1756 N Summer Crest Dr, Lehi, UT 84043","precinct":"25LE10","hd":"53","v_score":"11.02844566","decile":"9","lat":40.40851369473,"lng":-111.835456073567},{"id":"144153","name":"Hardin Altenwerth II","party":"Dem","address":"1025 E Cedar Hollow Rd, Lehi, UT 84043","precinct":"25LE10","hd":"53","v_score":"3.781490609","decile":"6","lat":40.405682746771,"lng":-111.833376610323},{"id":"144366","name":"Doc Muller","party":"Dem","address":"1427 N 1200 E, Lehi, UT 84043","precinct":"25LE10","hd":"53","v_score":"6.814370645","decile":"8","lat":40.40492560211,"lng":-111.83034995332},{"id":"145050","name":"Jacquelin Volkman","party":"Rep","address":"2086 N 1100 E, Lehi, UT 84043","precinct":"25LE10","hd":"53","v_score":"2.315214949","decile":"5","lat":40.417761544958,"lng":-111.831827717486},{"id":"145442","name":"Miss Giuliana Streich DDS","party":"Rep","address":"1857 N 800 E, Lehi, UT 84043","precinct":"25LE10","hd":"53","v_score":"8.347511332","decile":"8","lat":40.410228024051,"lng":-111.836143017902},{"id":"145443","name":"Sybilla Kertzmann","party":"","address":"1857 N 800 E, Lehi, UT 84043","precinct":"25LE10","hd":"53","v_score":"8.347511332","decile":"8","lat":40.410228024051,"lng":-111.836143017902},{"id":"145504","name":"Mr. Freddy Walsh","party":"","address":"1179 N 1000 E, Lehi, UT 84043","precinct":"25LE10","hd":"53","v_score":"9.116556227","decile":"8","lat":40.401782732119,"lng":-111.8333138756},{"id":"145943","name":"Ms. Victorine Kessler DDS","party":"","address":"2085 N 1100 E, Lehi, UT 84043","precinct":"25LE10","hd":"53","v_score":"2.587603312","decile":"5","lat":40.418466129661,"lng":-111.831972684945},{"id":"146091","name":"Camren Kuphal","party":"Dem","address":"810 E 1650 N, Lehi, UT 84043","precinct":"25LE10","hd":"53","v_score":"2.315214949","decile":"5","lat":40.408027045584,"lng":-111.843529715347},{"id":"146122","name":"Ms. Romona Parker MD","party":"Dem","address":"1145 E Cedar Hollow Rd, Lehi, UT 84043","precinct":"25LE10","hd":"53","v_score":"1.121327652","decile":"3","lat":40.406988304787,"lng":-111.831627493788},{"id":"146760","name":"Dr. Eleonora Torphy","party":"Dem","address":"327 E 1650 N, Lehi, UT 84043","precinct":"25LE10","hd":"53","v_score":"8.347511332","decile":"8","lat":40.408135117287,"lng":-111.844563722107},{"id":"146893","name":"Libby Wilderman","party":"","address":"1591 N Summer Crest Dr, Lehi, UT 84043","precinct":"25LE10","hd":"53","v_score":"3.93832808","decile":"6","lat":40.407305279152,"lng":-111.835602567643},{"id":"147349","name":"Kent Ondricka","party":"Dem","address":"1413 N 1200 E, Lehi, UT 84043","precinct":"25LE10","hd":"53","v_score":"2.817000428","decile":"6","lat":40.404847158959,"lng":-111.830350530119},{"id":"147902","name":"Salvador Mertz","party":"Rep","address":"886 E 1680 N, Lehi, UT 84043","precinct":"25LE10","hd":"53","v_score":"3.781490609","decile":"6","lat":40.408010702394,"lng":-111.835111635814},{"id":"148686","name":"Adrianne Blick DDS","party":"Dem","address":"1776 N 900 E, Lehi, UT 84043","precinct":"25LE10","hd":"53","v_score":"0","decile":"3","lat":40.40973209745,"lng":-111.834453745021},{"id":"148735","name":"Aaron Bartoletti","party":"Dem","address":"1710 N 800 E, Lehi, UT 84043","precinct":"25LE10","hd":"53","v_score":"26.42077695","decile":"10","lat":40.408348538635,"lng":-111.836333534287},{"id":"149120","name":"Merle Bernhard","party":"","address":"1790 N 600 E, Lehi, UT 84043","precinct":"25LE10","hd":"53","v_score":"6.740427232","decile":"8","lat":40.408896695182,"lng":-111.839907998219},{"id":"150013","name":"Wayland Haley","party":"Rep","address":"1606 N 600 E, Lehi, UT 84043","precinct":"25LE10","hd":"53","v_score":"2.315214949","decile":"5","lat":40.406770927387,"lng":-111.839872844754},{"id":"150754","name":"Mrs. Jenilee Dickens MD","party":"Dem","address":"1507 N Summer Crest Dr, Lehi, UT 84043","precinct":"25LE10","hd":"53","v_score":"5.40460374","decile":"7","lat":40.406009032705,"lng":-111.8370456965},{"id":"151594","name":"Ardell Morar","party":"Rep","address":"830 E 1650 N, Lehi, UT 84043","precinct":"25LE10","hd":"53","v_score":"10.29877667","decile":"9","lat":40.40802731483,"lng":-111.843487039318},{"id":"152405","name":"Exa McDermott","party":"","address":"1753 N 800 E, Lehi, UT 84043","precinct":"25LE10","hd":"53","v_score":"18.98842511","decile":"10","lat":40.408871172326,"lng":-111.836482474351},{"id":"152436","name":"Berkley Koelpin","party":"","address":"913 E 1960 N, Lehi, UT 84043","precinct":"25LE10","hd":"53","v_score":"7.92266893","decile":"8","lat":40.412272956832,"lng":-111.834522233768},{"id":"153733","name":"Mykel Klocko-Hamill","party":"Dem","address":"2051 N 825 E, Lehi, UT 84043","precinct":"25LE10","hd":"53","v_score":"15.51131257","decile":"9","lat":40.413128767796,"lng":-111.836235195451},{"id":"154170","name":"Shani Prosacco","party":"Dem","address":"1228 N Cedar Hollow Blvd, Lehi, UT 84043","precinct":"25LE10","hd":"53","v_score":"31.06727652","decile":"10","lat":40.402735923921,"lng":-111.832053514534},{"id":"154298","name":"Lucinda Will-Kuphal","party":"","address":"1920 N Airport Dr, Lehi, UT 84043","precinct":"25LE10","hd":"53","v_score":"6.724398202","decile":"8","lat":40.411704221028,"lng":-111.835336844937},{"id":"154507","name":"Joella Hermann","party":"Dem","address":"759 E Airport Dr, Lehi, UT 84043","precinct":"25LE10","hd":"53","v_score":"2.587603312","decile":"5","lat":40.410297331547,"lng":-111.837375748748},{"id":"154739","name":"Trinity Berge","party":"Rep","address":"1814 N 900 E, Lehi, UT 84043","precinct":"25LE10","hd":"53","v_score":"23.55152958","decile":"10","lat":40.410024872236,"lng":-111.834455208856},{"id":"154937","name":"Ms. Christina Greenfelder","party":"Rep","address":"929 E 1900 N, Lehi, UT 84043","precinct":"25LE10","hd":"53","v_score":"0","decile":"3","lat":40.411411197736,"lng":-111.831166399442},{"id":"154956","name":"Rylan Adams MD","party":"","address":"1667 N 1200 E, Lehi, UT 84043","precinct":"25LE10","hd":"53","v_score":"13.61621523","decile":"9","lat":40.408682723878,"lng":-111.830400372902},{"id":"154975","name":"Maxwell Kutch-Corwin","party":"Rep","address":"862 E 2070 N, Lehi, UT 84043","precinct":"25LE10","hd":"53","v_score":"3.781490609","decile":"6","lat":40.413218745527,"lng":-111.835729032926},{"id":"155287","name":"Frances Kessler","party":"","address":"830 E 1650 N, Lehi, UT 84043","precinct":"25LE10","hd":"53","v_score":"3.781490609","decile":"6","lat":40.40802731483,"lng":-111.843487039318},{"id":"155656","name":"Davis Corkery","party":"Rep","address":"1863 N 900 E, Lehi, UT 84043","precinct":"25LE10","hd":"53","v_score":"13.84916389","decile":"9","lat":40.41078311147,"lng":-111.834608070958},{"id":"156606","name":"Ms. Athena Brown","party":"Rep","address":"860 E 1475 N, Lehi, UT 84043","precinct":"25LE10","hd":"53","v_score":"15.51131257","decile":"9","lat":40.405748751173,"lng":-111.835667145545},{"id":"156809","name":"Cyrus Crooks","party":"Rep","address":"1600 N 600 E, Lehi, UT 84043","precinct":"25LE10","hd":"53","v_score":"29.44416339","decile":"10","lat":40.406701608871,"lng":-111.839871698446},{"id":"157193","name":"Sara Gleichner","party":"","address":"2087 N 825 E, Lehi, UT 84043","precinct":"25LE10","hd":"53","v_score":"3.93832808","decile":"6","lat":40.413586564398,"lng":-111.836226570461},{"id":"157210","name":"Ilona Marvin-Erdman","party":"Dem","address":"1902 N 300 E, Lehi, UT 84043","precinct":"25LE10","hd":"53","v_score":"34.01018412","decile":"10","lat":40.411365416044,"lng":-111.844666255253},{"id":"157255","name":"Brittani Ziemann","party":"","address":"1911 N 1200 E, Lehi, UT 84043","precinct":"25LE10","hd":"53","v_score":"14.24014515","decile":"9","lat":40.411525424088,"lng":-111.830430092747},{"id":"157313","name":"Dr. Norma Herzog PhD","party":"Rep","address":"818 E 1650 N, Lehi, UT 84043","precinct":"25LE10","hd":"53","v_score":"16.78809392","decile":"9","lat":40.408027153283,"lng":-111.843512644935},{"id":"157379","name":"Thomasina Hammes","party":"","address":"759 E Airport Dr, Lehi, UT 84043","precinct":"25LE10","hd":"53","v_score":"3.781490609","decile":"6","lat":40.410297331547,"lng":-111.837375748748},{"id":"157489","name":"Winthrop McGlynn-Heidenreich","party":"Rep","address":"1801 N 800 E, Lehi, UT 84043","precinct":"25LE10","hd":"53","v_score":"11.29723756","decile":"9","lat":40.409468171181,"lng":-111.83648069749},{"id":"157649","name":"Elisa Kohler","party":"Dem","address":"1228 N Cedar Hollow Blvd, Lehi, UT 84043","precinct":"25LE10","hd":"53","v_score":"26.9144526","decile":"10","lat":40.402735923921,"lng":-111.832053514534},{"id":"157685","name":"Rhona Stoltenberg","party":"","address":"1778 N 750 E, Lehi, UT 84043","precinct":"25LE10","hd":"53","v_score":"5.191257514","decile":"7","lat":40.409472685482,"lng":-111.837231199543},{"id":"158099","name":"Ms. Christiana Wilderman MD","party":"","address":"1931 N 1200 E, Lehi, UT 84043","precinct":"25LE10","hd":"53","v_score":"5.40460374","decile":"7","lat":40.411739036254,"lng":-111.83043337906},{"id":"158654","name":"Dr. Talen Auer PhD","party":"Rep","address":"1953 N Airport Dr, Lehi, UT 84043","precinct":"25LE10","hd":"53","v_score":"8.363183621","decile":"8","lat":40.412159380781,"lng":-111.83501101273},{"id":"160162","name":"Laverne Labadie","party":"","address":"1502 N 600 E, Lehi, UT 84043","precinct":"25LE10","hd":"53","v_score":"24.79766382","decile":"10","lat":40.40556947548,"lng":-111.839852971803},{"id":"160488","name":"Lynwood Spencer","party":"","address":"1025 E Cedar Hollow Rd, Lehi, UT 84043","precinct":"25LE10","hd":"53","v_score":"3.781490609","decile":"6","lat":40.405682746771,"lng":-111.833376610323},{"id":"160570","name":"Lexie Gulgowski","party":"Dem","address":"2033 N 825 E, Lehi, UT 84043","precinct":"25LE10","hd":"53","v_score":"0","decile":"3","lat":40.412938085752,"lng":-111.836238726624},{"id":"160890","name":"Mr. Randall Sanford PhD","party":"","address":"1911 N 1200 E, Lehi, UT 84043","precinct":"25LE10","hd":"53","v_score":"14.24014515","decile":"9","lat":40.411525424088,"lng":-111.830430092747},{"id":"161046","name":"Ike Abernathy","party":"","address":"742 E 1775 N, Lehi, UT 84043","precinct":"25LE10","hd":"53","v_score":"5.40460374","decile":"7","lat":40.40933083826,"lng":-111.837593614958},{"id":"161271","name":"Lorenza Hintz","party":"","address":"1778 N 750 E, Lehi, UT 84043","precinct":"25LE10","hd":"53","v_score":"6.814370645","decile":"8","lat":40.409472685482,"lng":-111.837231199543},{"id":"161385","name":"Elige Pfannerstill-Fahey","party":"","address":"618 E Airport Dr, Lehi, UT 84043","precinct":"25LE10","hd":"53","v_score":"8.347511332","decile":"8","lat":40.410144967103,"lng":-111.839656243606},{"id":"161909","name":"Berton Mraz","party":"Dem","address":"1294 N Cedar Hollow Blvd, Lehi, UT 84043","precinct":"25LE10","hd":"53","v_score":"3.93832808","decile":"6","lat":40.40344741353,"lng":-111.832405997283},{"id":"162065","name":"Miss Kristen Runte PhD","party":"Rep","address":"1753 N 800 E, Lehi, UT 84043","precinct":"25LE10","hd":"53","v_score":"19.83227346","decile":"10","lat":40.408871172326,"lng":-111.836482474351},{"id":"162181","name":"Reagan Schoen","party":"Dem","address":"943 E 1960 N, Lehi, UT 84043","precinct":"25LE10","hd":"53","v_score":"33.76127607","decile":"10","lat":40.412128909991,"lng":-111.83433634746},{"id":"162266","name":"Kristina Rohan","party":"","address":"654 E Airport Dr, Lehi, UT 84043","precinct":"25LE10","hd":"53","v_score":"26.33466886","decile":"10","lat":40.410146948707,"lng":-111.839110300078},{"id":"162521","name":"Lexie Kulas-Balistreri","party":"Dem","address":"1863 N 900 E, Lehi, UT 84043","precinct":"25LE10","hd":"53","v_score":"22.70037759","decile":"10","lat":40.41078311147,"lng":-111.834608070958},{"id":"162627","name":"Araminta Nader DDS","party":"Dem","address":"933 E Mesa Ave, Lehi, UT 84043","precinct":"25LE10","hd":"53","v_score":"2.744440783","decile":"6","lat":40.409168585439,"lng":-111.83471446165},{"id":"162866","name":"Dr. Waymon Veum PhD","party":"Dem","address":"762 E Airport Dr, Lehi, UT 84043","precinct":"25LE10","hd":"53","v_score":"14.46680193","decile":"9","lat":40.410186064057,"lng":-111.837339764048},{"id":"163801","name":"Harvie Schaefer-Daugherty","party":"","address":"1661 N 1200 E, Lehi, UT 84043","precinct":"25LE10","hd":"53","v_score":"3.93832808","decile":"6","lat":40.408572121884,"lng":-111.830394915582},{"id":"163981","name":"Simeon Schimmel","party":"","address":"370 E 1650 N, Lehi, UT 84043","precinct":"25LE10","hd":"53","v_score":"38.99046514","decile":"10","lat":40.408021122169,"lng":-111.844468587969},{"id":"164005","name":"Susana King","party":"","address":"1870 N 900 E, Lehi, UT 84043","precinct":"25LE10","hd":"53","v_score":"29.44416339","decile":"10","lat":40.410555293453,"lng":-111.834457573952},{"id":"164358","name":"Mrs. Ednah Goyette DDS","party":"Dem","address":"1953 N Airport Dr, Lehi, UT 84043","precinct":"25LE10","hd":"53","v_score":"5.40460374","decile":"7","lat":40.412159380781,"lng":-111.83501101273},{"id":"164475","name":"Amiyah Konopelski DVM","party":"","address":"2041 N Airport Dr, Lehi, UT 84043","precinct":"25LE10","hd":"53","v_score":"3.781490609","decile":"6","lat":40.413006806349,"lng":-111.834048080907},{"id":"164802","name":"Edmund Dooley","party":"","address":"913 E Cedar Hollow Rd, Lehi, UT 84043","precinct":"25LE10","hd":"53","v_score":"7.549608095","decile":"8","lat":40.404820639641,"lng":-111.834457024618},{"id":"164946","name":"Mrs. Natalee Kihn","party":"Dem","address":"1650 N Summer Crest Dr, Lehi, UT 84043","precinct":"25LE10","hd":"53","v_score":"5.40460374","decile":"7","lat":40.407594293864,"lng":-111.835452077452},{"id":"164967","name":"Nash Lesch","party":"Rep","address":"1835 N Airport Dr, Lehi, UT 84043","precinct":"25LE10","hd":"53","v_score":"24.02273775","decile":"10","lat":40.410820890084,"lng":-111.836586147965},{"id":"165209","name":"Lem Mayer","party":"Dem","address":"725 E Cedar Hollow Rd, Lehi, UT 84043","precinct":"25LE10","hd":"53","v_score":"0","decile":"3","lat":40.404620594084,"lng":-111.83703925375},{"id":"165336","name":"Laurel Connelly","party":"","address":"1533 N Fitzgerald Ln, Lehi, UT 84043","precinct":"25LE10","hd":"53","v_score":"9.405332525","decile":"8","lat":40.406883242101,"lng":-111.833302229164},{"id":"165400","name":"Flor Cartwright","party":"","address":"2041 N Airport Dr, Lehi, UT 84043","precinct":"25LE10","hd":"53","v_score":"6.657533174","decile":"7","lat":40.413006806349,"lng":-111.834048080907},{"id":"165563","name":"Dax McClure","party":"Dem","address":"1175 E Cedar Ridge Rd, Lehi, UT 84043","precinct":"25LE10","hd":"53","v_score":"6.814370645","decile":"8","lat":40.405475275927,"lng":-111.830561018578},{"id":"165594","name":"Judge Cartwright","party":"Rep","address":"858 E 2125 N, Lehi, UT 84043","precinct":"25LE10","hd":"53","v_score":"0","decile":"3","lat":40.413931104185,"lng":-111.835329103374},{"id":"166148","name":"Rogers Heidenreich","party":"Rep","address":"2015 N 825 E, Lehi, UT 84043","precinct":"25LE10","hd":"53","v_score":"0","decile":"3","lat":40.412747403707,"lng":-111.836242257798},{"id":"166170","name":"Mr. Levar Price III","party":"","address":"1671 N 1200 E, Lehi, UT 84043","precinct":"25LE10","hd":"53","v_score":"1.121327652","decile":"3","lat":40.408835864039,"lng":-111.83040563078},{"id":"167635","name":"Mr. Quinn Purdy PhD","party":"","address":"1672 N Oak Dr, Lehi, UT 84043","precinct":"25LE10","hd":"53","v_score":"4.283276088","decile":"7","lat":40.408401157133,"lng":-111.834525076899},{"id":"167700","name":"Refugio Tremblay","party":"Rep","address":"1260 N Cedar Hollow Blvd, Lehi, UT 84043","precinct":"25LE10","hd":"53","v_score":"8.421194992","decile":"8","lat":40.403103642811,"lng":-111.832130715913},{"id":"168003","name":"Caleb Altenwerth","party":"","address":"1260 N Cedar Hollow Blvd, Lehi, UT 84043","precinct":"25LE10","hd":"53","v_score":"12.63527","decile":"9","lat":40.403103642811,"lng":-111.832130715913},{"id":"168355","name":"Silvester Rogahn","party":"","address":"688 E Airport Dr, Lehi, UT 84043","precinct":"25LE10","hd":"53","v_score":"3.93832808","decile":"6","lat":40.410148820223,"lng":-111.838594686746},{"id":"168588","name":"Kenyatta Harris-Rogahn","party":"Dem","address":"1325 N Cedar Hollow Blvd, Lehi, UT 84043","precinct":"25LE10","hd":"53","v_score":"18.46989245","decile":"10","lat":40.403589665819,"lng":-111.832829810816},{"id":"169371","name":"Tilda Ritchie","party":"","address":"1667 N 1200 E, Lehi, UT 84043","precinct":"25LE10","hd":"53","v_score":"5.40460374","decile":"7","lat":40.408682723878,"lng":-111.830400372902},{"id":"170306","name":"Rylee Cartwright","party":"Dem","address":"1689 N Oak Dr, Lehi, UT 84043","precinct":"25LE10","hd":"53","v_score":"10.87160818","decile":"9","lat":40.408456850015,"lng":-111.834673533334},{"id":"170877","name":"Clyda Volkman","party":"Dem","address":"898 E 1680 N, Lehi, UT 84043","precinct":"25LE10","hd":"53","v_score":"8.280646305","decile":"8","lat":40.40801070239,"lng":-111.835064132421},{"id":"171218","name":"Dr. Donavon Jaskolski II","party":"Rep","address":"1510 N 300 E, Lehi, UT 84043","precinct":"25LE10","hd":"53","v_score":"27.76743625","decile":"10","lat":40.406357824273,"lng":-111.844593893516},{"id":"171673","name":"Ira Rogahn Jr.","party":"","address":"1025 E Cedar Hollow Rd, Lehi, UT 84043","precinct":"25LE10","hd":"53","v_score":"3.781490609","decile":"6","lat":40.405682746771,"lng":-111.833376610323},{"id":"171883","name":"Prentice Schaden-Ankunding","party":"Rep","address":"1771 N 800 E, Lehi, UT 84043","precinct":"25LE10","hd":"53","v_score":"6.874237967","decile":"8","lat":40.409095046896,"lng":-111.836481808028},{"id":"171967","name":"Roel Kub","party":"Dem","address":"1870 N 900 E, Lehi, UT 84043","precinct":"25LE10","hd":"53","v_score":"29.44416339","decile":"10","lat":40.410555293453,"lng":-111.834457573952},{"id":"172151","name":"Mont Pagac","party":"","address":"1767 N 900 E, Lehi, UT 84043","precinct":"25LE10","hd":"53","v_score":"5.687348376","decile":"7","lat":40.409739365798,"lng":-111.834604277475},{"id":"172711","name":"Zora Schiller-Hyatt","party":"","address":"1560 N Summer Crest Dr, Lehi, UT 84043","precinct":"25LE10","hd":"53","v_score":"0","decile":"3","lat":40.406532243761,"lng":-111.836005679128},{"id":"172855","name":"Shameka White","party":"","address":"1718 N Summer Crest Dr, Lehi, UT 84043","precinct":"25LE10","hd":"53","v_score":"39.22709926","decile":"10","lat":40.40824870043,"lng":-111.835448138152},{"id":"173616","name":"Champ Weber","party":"Dem","address":"1847 N Mesa Dr, Lehi, UT 84043","precinct":"25LE10","hd":"53","v_score":"5.40460374","decile":"7","lat":40.410203191254,"lng":-111.836331278622},{"id":"173787","name":"Miss Ginny Mann","party":"Rep","address":"1439 N Summer Crest Dr, Lehi, UT 84043","precinct":"25LE10","hd":"53","v_score":"16.72520646","decile":"9","lat":40.405093828822,"lng":-111.837189510839},{"id":"174566","name":"Estill Watsica DVM","party":"","address":"1730 N 600 E, Lehi, UT 84043","precinct":"25LE10","hd":"53","v_score":"5.40460374","decile":"7","lat":40.408203510032,"lng":-111.839896535132},{"id":"174653","name":"Shelbi Abbott","party":"Dem","address":"2105 N 825 E, Lehi, UT 84043","precinct":"25LE10","hd":"53","v_score":"5.659072284","decile":"7","lat":40.413765490551,"lng":-111.836223173106},{"id":"174915","name":"Pedro Hartmann-Schulist","party":"Rep","address":"929 E 1900 N, Lehi, UT 84043","precinct":"25LE10","hd":"53","v_score":"0","decile":"3","lat":40.411411197736,"lng":-111.831166399442},{"id":"175762","name":"Elberta Jakubowski DVM","party":"Rep","address":"1224 N 1000 E, Lehi, UT 84043","precinct":"25LE10","hd":"53","v_score":"21.54171816","decile":"10","lat":40.402065859275,"lng":-111.833164355226},{"id":"176000","name":"Mrs. Abbey O'Reilly","party":"","address":"913 E Cedar Hollow Rd, Lehi, UT 84043","precinct":"25LE10","hd":"53","v_score":"20.93639495","decile":"10","lat":40.404820639641,"lng":-111.834457024618},{"id":"176257","name":"Hortense Wisozk-Franecki","party":"Rep","address":"1730 N 750 E, Lehi, UT 84043","precinct":"25LE10","hd":"53","v_score":"5.40460374","decile":"7","lat":40.408638293883,"lng":-111.837229574881},{"id":"176743","name":"Harrold Emard","party":"","address":"1869 N 800 E, Lehi, UT 84043","precinct":"25LE10","hd":"53","v_score":"7.92266893","decile":"8","lat":40.410308541978,"lng":-111.836035660656},{"id":"176862","name":"Erin Farrell II","party":"","address":"742 E 1775 N, Lehi, UT 84043","precinct":"25LE10","hd":"53","v_score":"3.93832808","decile":"6","lat":40.40933083826,"lng":-111.837593614958},{"id":"177244","name":"Miss Mertie Graham","party":"","address":"1827 N Mesa Dr, Lehi, UT 84043","precinct":"25LE10","hd":"53","v_score":"2.587603312","decile":"5","lat":40.409936741622,"lng":-111.835972728867},{"id":"177433","name":"Dr. Edw Marvin","party":"Dem","address":"1490 N Summer Crest Dr, Lehi, UT 84043","precinct":"25LE10","hd":"53","v_score":"2.315214949","decile":"5","lat":40.405955352712,"lng":-111.836912657289},{"id":"177595","name":"Mr. Jereme Roob MD","party":"Dem","address":"328 E 1650 N, Lehi, UT 84043","precinct":"25LE10","hd":"53","v_score":"3.93832808","decile":"6","lat":40.408020556752,"lng":-111.844558207628},{"id":"177859","name":"Shane Rau","party":"Rep","address":"1177 N 1000 E, Lehi, UT 84043","precinct":"25LE10","hd":"53","v_score":"9.830961897","decile":"8","lat":40.40177043506,"lng":-111.833313834058},{"id":"177860","name":"Mr. Tavian Corkery","party":"Rep","address":"1712 N 750 E, Lehi, UT 84043","precinct":"25LE10","hd":"53","v_score":"2.315214949","decile":"5","lat":40.408347932868,"lng":-111.837227093939},{"id":"178052","name":"Raquan Stark","party":"","address":"2051 N 825 E, Lehi, UT 84043","precinct":"25LE10","hd":"53","v_score":"15.51131257","decile":"9","lat":40.413128767796,"lng":-111.836235195451},{"id":"178392","name":"Johathan Lakin-Jenkins","party":"","address":"1471 N Summer Crest Dr, Lehi, UT 84043","precinct":"25LE10","hd":"53","v_score":"3.781490609","decile":"6","lat":40.405587294225,"lng":-111.837195565564},{"id":"178963","name":"Mrs. Mame Raynor DDS","party":"Dem","address":"2057 N 1200 E, Lehi, UT 84043","precinct":"25LE10","hd":"53","v_score":"2.587603312","decile":"5","lat":40.413197150325,"lng":-111.830447451577},{"id":"179109","name":"Ms. Birdella Pacocha MD","party":"Rep","address":"1746 N 800 E, Lehi, UT 84043","precinct":"25LE10","hd":"53","v_score":"6.954919332","decile":"8","lat":40.408796287776,"lng":-111.836332201641},{"id":"179433","name":"Dr. Daron Turcotte Jr.","party":"","address":"1718 N Summer Crest Dr, Lehi, UT 84043","precinct":"25LE10","hd":"53","v_score":"32.3802758","decile":"10","lat":40.40824870043,"lng":-111.835448138152},{"id":"179599","name":"Mr. Luc Satterfield Jr.","party":"Dem","address":"1175 E Cedar Ridge Rd, Lehi, UT 84043","precinct":"25LE10","hd":"53","v_score":"6.814370645","decile":"8","lat":40.405475275927,"lng":-111.830561018578},{"id":"179802","name":"Gayle Ferry","party":"Rep","address":"1127 E Cedar Hollow Rd, Lehi, UT 84043","precinct":"25LE10","hd":"53","v_score":"3.93832808","decile":"6","lat":40.406746128868,"lng":-111.832292616225},{"id":"180175","name":"Coby Hamill","party":"Rep","address":"669 E Airport Dr, Lehi, UT 84043","precinct":"25LE10","hd":"53","v_score":"3.781490609","decile":"6","lat":40.410262405396,"lng":-111.838872264402},{"id":"180403","name":"Maralyn Schiller-Gislason","party":"","address":"1147 N Cedar Hollow Blvd, Lehi, UT 84043","precinct":"25LE10","hd":"53","v_score":"4.210716443","decile":"7","lat":40.401817710204,"lng":-111.832194161425},{"id":"180449","name":"Jasmine O'Conner","party":"Dem","address":"1671 N 1200 E, Lehi, UT 84043","precinct":"25LE10","hd":"53","v_score":"1.121327652","decile":"3","lat":40.408835864039,"lng":-111.83040563078},{"id":"180535","name":"Jaycob Hammes","party":"Rep","address":"970 E 2040 N, Lehi, UT 84043","precinct":"25LE10","hd":"53","v_score":"12.49472132","decile":"9","lat":40.412821400551,"lng":-111.833373102792},{"id":"180538","name":"Brendan Wintheiser","party":"","address":"1580 N Summer Crest Dr, Lehi, UT 84043","precinct":"25LE10","hd":"53","v_score":"2.587603312","decile":"5","lat":40.406697743379,"lng":-111.835759765804},{"id":"180843","name":"Lennie Kulas","party":"","address":"1580 N Summer Crest Dr, Lehi, UT 84043","precinct":"25LE10","hd":"53","v_score":"1.121327652","decile":"3","lat":40.406697743379,"lng":-111.835759765804},{"id":"181286","name":"Fumiko Cremin-O'Reilly","party":"","address":"988 E 2040 N, Lehi, UT 84043","precinct":"25LE10","hd":"53","v_score":"17.54214055","decile":"9","lat":40.412816701706,"lng":-111.83322952412},{"id":"181371","name":"Ogden Hermiston III","party":"","address":"2075 N Airport Dr, Lehi, UT 84043","precinct":"25LE10","hd":"53","v_score":"26.85320151","decile":"10","lat":40.413357298294,"lng":-111.833642122671},{"id":"181432","name":"Miss Justina Emard","party":"Dem","address":"1827 N Mesa Ave, Lehi, UT 84043","precinct":"25LE10","hd":"53","v_score":"1.121327652","decile":"3","lat":40.409936741622,"lng":-111.835972728867}]