[{"id":"228","name":"Nevin Littel-Crona","party":"Rep","address":"2809 N Trail Side Dr, Lehi, UT 84043","precinct":"25LE21","hd":"53","v_score":"3.93832808","decile":"6","lat":40.423169602098,"lng":-111.858535638424},{"id":"387","name":"Amaya O'Hara","party":"","address":"419 W 2450 N, Lehi, UT 84043","precinct":"25LE21","hd":"53","v_score":"3.781490609","decile":"6","lat":40.418991676163,"lng":-111.855993367442},{"id":"522","name":"Mrs. Lisbeth Kessler","party":"Rep","address":"603 W Sandhill Dr, Lehi, UT 84043","precinct":"25LE21","hd":"53","v_score":"9.405332525","decile":"8","lat":40.422194702651,"lng":-111.859266054249},{"id":"1068","name":"Tamela Reinger","party":"Rep","address":"2669 N 425 W, Lehi, UT 84043","precinct":"25LE21","hd":"53","v_score":"6.896907962","decile":"8","lat":40.421760849692,"lng":-111.856199078407},{"id":"1704","name":"Yair Dickinson","party":"Rep","address":"459 W 2600 N, Lehi, UT 84043","precinct":"25LE21","hd":"53","v_score":"3.781490609","decile":"6","lat":40.42061235224,"lng":-111.85705355831},{"id":"2145","name":"Lilburn Rodriguez","party":"Rep","address":"359 W 2325 N, Lehi, UT 84043","precinct":"25LE21","hd":"53","v_score":"5.659072284","decile":"7","lat":40.417433702883,"lng":-111.855298129805},{"id":"2464","name":"Gail Greenfelder","party":"Rep","address":"564 W Trail Side Dr, Lehi, UT 84043","precinct":"25LE21","hd":"53","v_score":"1.121327652","decile":"3","lat":40.424588411184,"lng":-111.858843044179},{"id":"2522","name":"Karlie Roberts","party":"Rep","address":"402 W 2280 N, Lehi, UT 84043","precinct":"25LE21","hd":"53","v_score":"3.93832808","decile":"6","lat":40.416837294409,"lng":-111.856101136143},{"id":"2680","name":"Izaiah Streich MD","party":"Dem","address":"462 W 2280 N, Lehi, UT 84043","precinct":"25LE21","hd":"53","v_score":"14.24149408","decile":"9","lat":40.41683729448,"lng":-111.857017643786},{"id":"2722","name":"Natosha Halvorson","party":"","address":"376 W 2875 N, Lehi, UT 84043","precinct":"25LE21","hd":"53","v_score":"0","decile":"1","lat":40.424042416386,"lng":-111.855105280134},{"id":"3054","name":"Dorine Howe PhD","party":"","address":"505 W Sandhill Dr, Lehi, UT 84043","precinct":"25LE21","hd":"53","v_score":"4.137918904","decile":"7","lat":40.42219470255,"lng":-111.857959050656},{"id":"3353","name":"Vanesa Moore-Kris","party":"Rep","address":"460 W 2450 N, Lehi, UT 84043","precinct":"25LE21","hd":"53","v_score":"0","decile":"1","lat":40.41910809574,"lng":-111.856719806046},{"id":"3860","name":"Ms. Arvilla Klocko DVM","party":"Rep","address":"2244 N 490 W, Lehi, UT 84043","precinct":"25LE21","hd":"53","v_score":"1.121327652","decile":"3","lat":40.41584222757,"lng":-111.856302648147},{"id":"3909","name":"Essie Treutel-Blanda","party":"Dem","address":"342 W 2375 N, Lehi, UT 84043","precinct":"25LE21","hd":"53","v_score":"34.16997587","decile":"10","lat":40.418299233819,"lng":-111.854966351579},{"id":"3930","name":"Marcelle Will","party":"Rep","address":"368 W 2730 N, Lehi, UT 84043","precinct":"25LE21","hd":"53","v_score":"11.23922619","decile":"9","lat":40.422417293699,"lng":-111.855057156305},{"id":"4016","name":"Miss Maddison Kutch","party":"Dem","address":"2941 N Trail Side Ct, Lehi, UT 84043","precinct":"25LE21","hd":"53","v_score":"1.46627566","decile":"4","lat":40.425107623601,"lng":-111.857189080565},{"id":"4406","name":"Averi Murphy","party":"Dem","address":"342 W 2280 N, Lehi, UT 84043","precinct":"25LE21","hd":"53","v_score":"5.191257514","decile":"7","lat":40.416837294339,"lng":-111.8551846285},{"id":"4453","name":"Faye Adams","party":"","address":"339 W 2325 N, Lehi, UT 84043","precinct":"25LE21","hd":"53","v_score":"2.315214949","decile":"5","lat":40.417433702863,"lng":-111.855039317412},{"id":"4969","name":"Alvin Johns","party":"Rep","address":"339 W 2325 N, Lehi, UT 84043","precinct":"25LE21","hd":"53","v_score":"3.781490609","decile":"6","lat":40.417433702863,"lng":-111.855039317412},{"id":"5473","name":"Dr. Tayla Gerhold","party":"Rep","address":"569 W 2450 N, Lehi, UT 84043","precinct":"25LE21","hd":"53","v_score":"5.191257514","decile":"7","lat":40.418998207684,"lng":-111.858589567386},{"id":"5577","name":"Jaxton Brakus-Fadel","party":"Rep","address":"564 W Trail Side Dr, Lehi, UT 84043","precinct":"25LE21","hd":"53","v_score":"1.121327652","decile":"3","lat":40.424588411184,"lng":-111.858843044179},{"id":"6002","name":"Earley Hagenes","party":"","address":"2662 N Park View Ct, Lehi, UT 84043","precinct":"25LE21","hd":"53","v_score":"5.40460374","decile":"7","lat":40.421870910415,"lng":-111.857092620529},{"id":"6224","name":"Glennie Gleason","party":"","address":"2932 N Trail Side Ct, Lehi, UT 84043","precinct":"25LE21","hd":"53","v_score":"7.282185415","decile":"8","lat":40.425049691637,"lng":-111.857038551403},{"id":"6368","name":"Mrs. Jetta Rempel PhD","party":"","address":"2941 N Trail Side Ct, Lehi, UT 84043","precinct":"25LE21","hd":"53","v_score":"0","decile":"1","lat":40.425107623601,"lng":-111.857189080565},{"id":"7255","name":"Gaylon Leannon-Dach","party":"Dem","address":"493 W 2375 N, Lehi, UT 84043","precinct":"25LE21","hd":"53","v_score":"8.280646305","decile":"8","lat":40.418198094617,"lng":-111.857269908032},{"id":"7309","name":"Sanjuana Jacobi","party":"Dem","address":"345 W 2800 N, Lehi, UT 84043","precinct":"25LE21","hd":"53","v_score":"5.40460374","decile":"7","lat":40.423121702249,"lng":-111.855402629209},{"id":"7719","name":"Alyse Parisian","party":"Rep","address":"2946 N Trail Side Ct, Lehi, UT 84043","precinct":"25LE21","hd":"53","v_score":"1.193887297","decile":"3","lat":40.425119905982,"lng":-111.857038551394},{"id":"8030","name":"Ms. Krystal Quitzon","party":"Dem","address":"2929 N Trail Side Ct, Lehi, UT 84043","precinct":"25LE21","hd":"53","v_score":"12.38288823","decile":"9","lat":40.425051124595,"lng":-111.857189080572},{"id":"8219","name":"Inell Haag","party":"","address":"2962 Meadow View Dr, Lehi, UT 84043","precinct":"25LE21","hd":"53","v_score":"3.93832808","decile":"6","lat":40.425186657901,"lng":-111.862487035312},{"id":"8562","name":"Caitlin Sawayn","party":"Rep","address":"495 W 2600 N, Lehi, UT 84043","precinct":"25LE21","hd":"53","v_score":"1.46627566","decile":"4","lat":40.420603014802,"lng":-111.857585016435},{"id":"8637","name":"Caprice Crooks","party":"Rep","address":"377 W 3050 N, Lehi, UT 84043","precinct":"25LE21","hd":"53","v_score":"11.30609121","decile":"9","lat":40.290947147739,"lng":-112.043734680731},{"id":"9379","name":"Marilee Rath","party":"Rep","address":"2929 N Trail Side Ct, Lehi, UT 84043","precinct":"25LE21","hd":"53","v_score":"12.38288823","decile":"9","lat":40.425051124595,"lng":-111.857189080572},{"id":"10404","name":"Queen Cronin MD","party":"","address":"711 W Sandhill Dr, Lehi, UT 84043","precinct":"25LE21","hd":"53","v_score":"0","decile":"1","lat":40.422194702762,"lng":-111.860708066805},{"id":"10432","name":"Gerhard Borer","party":"Rep","address":"422 W 2280 N, Lehi, UT 84043","precinct":"25LE21","hd":"53","v_score":"5.40460374","decile":"7","lat":40.416837294433,"lng":-111.856406638691},{"id":"10922","name":"Dr. Garland Homenick MD","party":"Dem","address":"342 W 2280 N, Lehi, UT 84043","precinct":"25LE21","hd":"53","v_score":"2.744440783","decile":"5","lat":40.416837294339,"lng":-111.8551846285},{"id":"11225","name":"Aniyah Schmidt","party":"Dem","address":"514 W 2325 N, Lehi, UT 84043","precinct":"25LE21","hd":"53","v_score":"2.876042565","decile":"6","lat":40.417512207604,"lng":-111.857651252998},{"id":"12736","name":"Zakary Bednar PhD","party":"Rep","address":"3094 N Park Ridge Dr, Lehi, UT 84043","precinct":"25LE21","hd":"53","v_score":"10.17021529","decile":"9","lat":40.425883606568,"lng":-111.861313548675},{"id":"12876","name":"Mrs. Joan Mills","party":"","address":"514 W 2450 N, Lehi, UT 84043","precinct":"25LE21","hd":"53","v_score":"31.82104997","decile":"10","lat":40.419110447088,"lng":-111.857654438026},{"id":"12938","name":"Delilah Metz DVM","party":"Dem","address":"479 W 2225 N, Lehi, UT 84043","precinct":"25LE21","hd":"53","v_score":"34.01018412","decile":"10","lat":40.415595458178,"lng":-111.856125666494},{"id":"13136","name":"Mr. Polk Purdy","party":"Dem","address":"2946 N Trail Side Ct, Lehi, UT 84043","precinct":"25LE21","hd":"53","v_score":"1.121327652","decile":"3","lat":40.425119905982,"lng":-111.857038551394},{"id":"13275","name":"Santina Christiansen DVM","party":"Rep","address":"513 W 2450 N, Lehi, UT 84043","precinct":"25LE21","hd":"53","v_score":"11.02844566","decile":"9","lat":40.41899576925,"lng":-111.857620319407},{"id":"13849","name":"Wilford Davis II","party":"","address":"492 W 2600 N, Lehi, UT 84043","precinct":"25LE21","hd":"53","v_score":"5.40460374","decile":"7","lat":40.420718094475,"lng":-111.857558963769},{"id":"14179","name":"Orah Cronin","party":"Dem","address":"449 W 2225 N, Lehi, UT 84043","precinct":"25LE21","hd":"53","v_score":"5.40460374","decile":"7","lat":40.415602473379,"lng":-111.855867272569},{"id":"14199","name":"Zeno Kessler","party":"","address":"492 W 2600 N, Lehi, UT 84043","precinct":"25LE21","hd":"53","v_score":"5.40460374","decile":"7","lat":40.420718094475,"lng":-111.857558963769},{"id":"14808","name":"Hedwig Graham","party":"Dem","address":"2802 N Trail Side Dr, Lehi, UT 84043","precinct":"25LE21","hd":"53","v_score":"2.587603312","decile":"5","lat":40.423193933257,"lng":-111.858373224784},{"id":"15409","name":"Zaiden Cronin Jr.","party":"Rep","address":"481 W 2280 N, Lehi, UT 84043","precinct":"25LE21","hd":"53","v_score":"0","decile":"1","lat":40.416722703117,"lng":-111.857292596094},{"id":"15433","name":"Mr. Orson Jacobi","party":"Dem","address":"2644 N 780 W, Lehi, UT 84043","precinct":"25LE21","hd":"53","v_score":"22.6847053","decile":"10","lat":40.421268615498,"lng":-111.861835555109},{"id":"16189","name":"Tiara Wisoky","party":"Rep","address":"2802 N Park View Ct, Lehi, UT 84043","precinct":"25LE21","hd":"53","v_score":"9.55742766","decile":"8","lat":40.422714014781,"lng":-111.857099097376},{"id":"16791","name":"Harper Nicolas-Mosciski","party":"Rep","address":"509 W Parkview Dr, Lehi, UT 84043","precinct":"25LE21","hd":"53","v_score":"5.273794831","decile":"7","lat":40.42402170232,"lng":-111.857653509952},{"id":"17596","name":"Isabelle Bode","party":"","address":"442 W 2540 N, Lehi, UT 84043","precinct":"25LE21","hd":"53","v_score":"27.31008633","decile":"10","lat":40.419924294084,"lng":-111.856402375026},{"id":"17850","name":"Almeda Hickle-Lueilwitz","party":"","address":"2644 N 780 W, Lehi, UT 84043","precinct":"25LE21","hd":"53","v_score":"22.6847053","decile":"10","lat":40.421268615498,"lng":-111.861835555109},{"id":"18146","name":"Dr. Cannie Will PhD","party":"Dem","address":"442 W 2375 N, Lehi, UT 84043","precinct":"25LE21","hd":"53","v_score":"1.121327652","decile":"3","lat":40.418308329197,"lng":-111.856403512274},{"id":"18701","name":"Tobe Kuhlman","party":"Rep","address":"553 W Sandhill Dr, Lehi, UT 84043","precinct":"25LE21","hd":"53","v_score":"21.41280004","decile":"10","lat":40.422194702599,"lng":-111.85858634044},{"id":"18913","name":"Ms. Crista Orn MD","party":"Dem","address":"327 W 2800 N, Lehi, UT 84043","precinct":"25LE21","hd":"53","v_score":"2.817000428","decile":"6","lat":40.423121702243,"lng":-111.855327131536},{"id":"19224","name":"Ronan McGlynn","party":"","address":"3063 N Park Place St, Lehi, UT 84043","precinct":"25LE21","hd":"53","v_score":"5.40460374","decile":"7","lat":40.425044111095,"lng":-111.859914473375},{"id":"19262","name":"Stafford Stanton","party":"","address":"2244 N 490 W, Lehi, UT 84043","precinct":"25LE21","hd":"53","v_score":"2.315214949","decile":"5","lat":40.41584222757,"lng":-111.856302648147},{"id":"19559","name":"Ms. Martina Walker DDS","party":"Dem","address":"542 W 2660 N, Lehi, UT 84043","precinct":"25LE21","hd":"53","v_score":"3.93832808","decile":"6","lat":40.421532271466,"lng":-111.859458958389},{"id":"19803","name":"Kizzie Wolff","party":"","address":"3156 Meadow View Dr, Lehi, UT 84043","precinct":"25LE21","hd":"53","v_score":"2.817000428","decile":"6","lat":40.427420782073,"lng":-111.862283175494},{"id":"20086","name":"Isidore O'Reilly","party":"Rep","address":"513 W 2450 N, Lehi, UT 84043","precinct":"25LE21","hd":"53","v_score":"11.02844566","decile":"9","lat":40.41899576925,"lng":-111.857620319407},{"id":"20938","name":"Zella Hansen","party":"Rep","address":"324 W 2730 N, Lehi, UT 84043","precinct":"25LE21","hd":"53","v_score":"1.121327652","decile":"3","lat":40.422417293673,"lng":-111.854721606062},{"id":"21016","name":"Christoper Ratke","party":"Rep","address":"359 W 3050 N, Lehi, UT 84043","precinct":"25LE21","hd":"53","v_score":"0","decile":"1","lat":40.290947147739,"lng":-112.043734680731},{"id":"21039","name":"Michal Crona","party":"","address":"462 W 2540 N, Lehi, UT 84043","precinct":"25LE21","hd":"53","v_score":"11.46588297","decile":"9","lat":40.419924294111,"lng":-111.856749898388},{"id":"21138","name":"Selina Lynch-Lesch","party":"Dem","address":"515 W Parkview Dr, Lehi, UT 84043","precinct":"25LE21","hd":"53","v_score":"2.587603312","decile":"5","lat":40.423983869042,"lng":-111.857970573925},{"id":"21196","name":"Arnav Kassulke","party":"Dem","address":"578 W Trail Side Dr, Lehi, UT 84043","precinct":"25LE21","hd":"53","v_score":"10.7597751","decile":"9","lat":40.424363593641,"lng":-111.859094977211},{"id":"21402","name":"Fawn Schmeler-Crooks","party":"","address":"2235 N 490 W, Lehi, UT 84043","precinct":"25LE21","hd":"53","v_score":"0","decile":"1","lat":40.41574450597,"lng":-111.856452122055},{"id":"22212","name":"Deondre Haley","party":"Dem","address":"533 W 2660 N, Lehi, UT 84043","precinct":"25LE21","hd":"53","v_score":"1.46627566","decile":"4","lat":40.421418006405,"lng":-111.859443434314},{"id":"23600","name":"Tavaris McKenzie","party":"","address":"439 W 2600 N, Lehi, UT 84043","precinct":"25LE21","hd":"53","v_score":"0","decile":"1","lat":40.420617539706,"lng":-111.856758303796},{"id":"23966","name":"Delmus Kautzer","party":"","address":"2698 N 780 W, Lehi, UT 84043","precinct":"25LE21","hd":"53","v_score":"2.315214949","decile":"5","lat":40.421931294276,"lng":-111.861835554186},{"id":"23968","name":"Deasia Deckow-Purdy","party":"Rep","address":"462 W 2375 N, Lehi, UT 84043","precinct":"25LE21","hd":"53","v_score":"7.781882349","decile":"8","lat":40.418310070911,"lng":-111.856749672696},{"id":"25328","name":"Ima Veum","party":"","address":"519 W Sandhill Dr, Lehi, UT 84043","precinct":"25LE21","hd":"53","v_score":"19.22326505","decile":"10","lat":40.422194702557,"lng":-111.858054825818},{"id":"25466","name":"Denzel Pagac","party":"Rep","address":"2643 N 640 W, Lehi, UT 84043","precinct":"25LE21","hd":"53","v_score":"2.315214949","decile":"5","lat":40.421145041192,"lng":-111.859766911845},{"id":"25619","name":"Shardae Mills","party":"Dem","address":"323 W 2600 N, Lehi, UT 84043","precinct":"25LE21","hd":"53","v_score":"15.4533012","decile":"9","lat":40.42063770248,"lng":-111.854766888847},{"id":"25652","name":"Micayla Mayert","party":"Dem","address":"362 W 2375 N, Lehi, UT 84043","precinct":"25LE21","hd":"53","v_score":"14.52230958","decile":"9","lat":40.418300825824,"lng":-111.855166146202},{"id":"26773","name":"Ms. Henrietta Littel","party":"Dem","address":"626 W Parkview Dr, Lehi, UT 84043","precinct":"25LE21","hd":"53","v_score":"16.31473767","decile":"9","lat":40.423072542403,"lng":-111.859536934255},{"id":"27035","name":"Melody Braun","party":"Dem","address":"613 W Parkview Dr, Lehi, UT 84043","precinct":"25LE21","hd":"53","v_score":"2.315214949","decile":"5","lat":40.422951527347,"lng":-111.859564712374},{"id":"27286","name":"Tonya Denesik","party":"Dem","address":"421 W 2540 N, Lehi, UT 84043","precinct":"25LE21","hd":"53","v_score":"1.121327652","decile":"3","lat":40.41980970267,"lng":-111.856020099344},{"id":"27386","name":"Jonathon Mills","party":"Rep","address":"537 W Trail Side Dr, Lehi, UT 84043","precinct":"25LE21","hd":"53","v_score":"12.38288823","decile":"9","lat":40.424762469413,"lng":-111.858127800279},{"id":"27447","name":"Malissa Gulgowski-Towne","party":"","address":"2614 N 780 W, Lehi, UT 84043","precinct":"25LE21","hd":"53","v_score":"1.193887297","decile":"3","lat":40.42087240382,"lng":-111.861835555665},{"id":"27542","name":"Roe Lakin IV","party":"","address":"321 W 2540 N, Lehi, UT 84043","precinct":"25LE21","hd":"53","v_score":"11.05053808","decile":"9","lat":40.419802901708,"lng":-111.854754407971},{"id":"27618","name":"Valentina Schoen","party":"","address":"367 W 2660 N, Lehi, UT 84043","precinct":"25LE21","hd":"53","v_score":"19.24455128","decile":"10","lat":40.421483702433,"lng":-111.855392903768},{"id":"28391","name":"Melina Dare MD","party":"","address":"548 W 2325 N, Lehi, UT 84043","precinct":"25LE21","hd":"53","v_score":"2.315214949","decile":"5","lat":40.417501845637,"lng":-111.858238186949},{"id":"28715","name":"Shira Welch","party":"","address":"584 W Trail Side Dr, Lehi, UT 84043","precinct":"25LE21","hd":"53","v_score":"6.881235673","decile":"8","lat":40.424255741832,"lng":-111.859181556793},{"id":"29011","name":"Delinda Langworth","party":"Rep","address":"762 W Ridgeline Dr, Lehi, UT 84043","precinct":"25LE21","hd":"53","v_score":"1.193887297","decile":"3","lat":40.423787257063,"lng":-111.861724008627},{"id":"29474","name":"Allyn Kessler","party":"Rep","address":"548 W 2325 N, Lehi, UT 84043","precinct":"25LE21","hd":"53","v_score":"6.724398202","decile":"8","lat":40.417501845637,"lng":-111.858238186949},{"id":"29608","name":"Bell Harber","party":"Rep","address":"550 W 2450 N, Lehi, UT 84043","precinct":"25LE21","hd":"53","v_score":"20.91067752","decile":"10","lat":40.419112014653,"lng":-111.858277526013},{"id":"29639","name":"Helma Hand MD","party":"Rep","address":"493 W 2375 N, Lehi, UT 84043","precinct":"25LE21","hd":"53","v_score":"8.280646305","decile":"8","lat":40.418198094617,"lng":-111.857269908032},{"id":"30323","name":"Vonnie Tromp DDS","party":"Dem","address":"584 W 2280 N, Lehi, UT 84043","precinct":"25LE21","hd":"53","v_score":"15.61870689","decile":"9","lat":40.416837294623,"lng":-111.858881209328},{"id":"30772","name":"Ms. Odessa Marks MD","party":"Rep","address":"642 W Sandhill Dr, Lehi, UT 84043","precinct":"25LE21","hd":"53","v_score":"18.20183839","decile":"10","lat":40.422309294083,"lng":-111.859885576328},{"id":"31040","name":"Kaci Tillman","party":"Rep","address":"442 W 2280 N, Lehi, UT 84043","precinct":"25LE21","hd":"53","v_score":"7.493443096","decile":"8","lat":40.416837294456,"lng":-111.856712141239},{"id":"32309","name":"Lue Corkery-Beer","party":"Rep","address":"2559 N 300 W, Lehi, UT 84043","precinct":"25LE21","hd":"53","v_score":"27.05857207","decile":"10","lat":40.420343546131,"lng":-111.854548750384},{"id":"33022","name":"Dr. Whitney Macejkovic DVM","party":"Rep","address":"2918 N Park Ridge Dr, Lehi, UT 84043","precinct":"25LE21","hd":"53","v_score":"15.92261858","decile":"9","lat":40.424397261481,"lng":-111.86095355113},{"id":"33034","name":"Nelie Murphy","party":"","address":"2854 N 425 W, Lehi, UT 84043","precinct":"25LE21","hd":"53","v_score":"3.93832808","decile":"6","lat":40.423596478976,"lng":-111.856048552913},{"id":"33396","name":"Brent Ortiz","party":"Dem","address":"519 W Sandhill Dr, Lehi, UT 84043","precinct":"25LE21","hd":"53","v_score":"2.315214949","decile":"5","lat":40.422194702557,"lng":-111.858054825818},{"id":"33478","name":"Aydin Gerlach","party":"","address":"462 W 2540 N, Lehi, UT 84043","precinct":"25LE21","hd":"53","v_score":"31.35286052","decile":"10","lat":40.419924294111,"lng":-111.856749898388},{"id":"33721","name":"Ainsley Treutel","party":"Rep","address":"497 W 2280 N, Lehi, UT 84043","precinct":"25LE21","hd":"53","v_score":"9.050194508","decile":"8","lat":40.416722703136,"lng":-111.857536998133},{"id":"33788","name":"Micaela Hansen-Walker","party":"","address":"744 W Sandhill Dr, Lehi, UT 84043","precinct":"25LE21","hd":"53","v_score":"10.96719457","decile":"9","lat":40.422309294181,"lng":-111.861160561542},{"id":"33918","name":"Mrs. Annabelle Boyer","party":"","address":"497 W 2280 N, Lehi, UT 84043","precinct":"25LE21","hd":"53","v_score":"3.781490609","decile":"6","lat":40.416722703136,"lng":-111.857536998133},{"id":"33975","name":"Mr. Claiborne Muller","party":"Rep","address":"3015 N 300 W, Lehi, UT 84043","precinct":"25LE21","hd":"53","v_score":"22.76683584","decile":"10","lat":40.425545212361,"lng":-111.854534081236},{"id":"34596","name":"Dr. Demarion Skiles DDS","party":"","address":"319 W 2450 N, Lehi, UT 84043","precinct":"25LE21","hd":"53","v_score":"20.49533263","decile":"10","lat":40.418983738227,"lng":-111.854732673727},{"id":"35015","name":"Jaheim Nolan","party":"Dem","address":"402 W 2540 N, Lehi, UT 84043","precinct":"25LE21","hd":"53","v_score":"2.660162957","decile":"5","lat":40.41992429403,"lng":-111.855707328303},{"id":"35573","name":"Miss Ariane Rodriguez","party":"","address":"3013 N 425 W, Lehi, UT 84043","precinct":"25LE21","hd":"53","v_score":"5.360235423","decile":"7","lat":40.425452834655,"lng":-111.85589705054},{"id":"35617","name":"Maebelle Koepp","party":"Dem","address":"327 W 2800 N, Lehi, UT 84043","precinct":"25LE21","hd":"53","v_score":"9.757278238","decile":"8","lat":40.423121702243,"lng":-111.855327131536},{"id":"35666","name":"Oley Nader","party":"Dem","address":"505 W Sandhill Dr, Lehi, UT 84043","precinct":"25LE21","hd":"53","v_score":"1.121327652","decile":"3","lat":40.42219470255,"lng":-111.857959050656},{"id":"35931","name":"Jake Cassin-Bashirian","party":"Dem","address":"2630 N 425 W, Lehi, UT 84043","precinct":"25LE21","hd":"53","v_score":"7.830610533","decile":"8","lat":40.420969949633,"lng":-111.856048555857},{"id":"36289","name":"Artie Farrell-Kihn","party":"","address":"350 W 2875 N, Lehi, UT 84043","precinct":"25LE21","hd":"53","v_score":"7.650280567","decile":"8","lat":40.424043586567,"lng":-111.854911612673},{"id":"36908","name":"Rube Treutel","party":"Dem","address":"481 W 2660 N, Lehi, UT 84043","precinct":"25LE21","hd":"53","v_score":"34.01018412","decile":"10","lat":40.421483702476,"lng":-111.855959148696},{"id":"37242","name":"Jaron Mayer","party":"Rep","address":"360 W 2450 N, Lehi, UT 84043","precinct":"25LE21","hd":"53","v_score":"8.507303088","decile":"8","lat":40.419101666531,"lng":-111.855150666413},{"id":"37659","name":"Clemens Swift-Braun","party":"Dem","address":"613 W Parkview Dr, Lehi, UT 84043","precinct":"25LE21","hd":"53","v_score":"0","decile":"1","lat":40.422951527347,"lng":-111.859564712374},{"id":"37899","name":"Mr. Hosea Thiel","party":"","address":"668 W Sandhill Dr, Lehi, UT 84043","precinct":"25LE21","hd":"53","v_score":"8.363183621","decile":"8","lat":40.422309294108,"lng":-111.860210572559},{"id":"39164","name":"Waldo Runolfsson","party":"Dem","address":"2630 N 425 W, Lehi, UT 84043","precinct":"25LE21","hd":"53","v_score":"5.40460374","decile":"7","lat":40.420969949633,"lng":-111.856048555857},{"id":"39371","name":"Esker White","party":"Rep","address":"329 W 2200 N, Lehi, UT 84043","precinct":"25LE21","hd":"53","v_score":"1.121327652","decile":"3","lat":40.414854550876,"lng":-111.854761435988},{"id":"39574","name":"Mrs. Trudie Rohan","party":"Dem","address":"420 W 2450 N, Lehi, UT 84043","precinct":"25LE21","hd":"53","v_score":"4.137918904","decile":"7","lat":40.419106354001,"lng":-111.856027486061},{"id":"39599","name":"Eldon Renner","party":"Rep","address":"341 W 2540 N, Lehi, UT 84043","precinct":"25LE21","hd":"53","v_score":"5.40460374","decile":"7","lat":40.419804490746,"lng":-111.854951446795},{"id":"40165","name":"Hobart Pouros","party":"","address":"2669 N 425 W, Lehi, UT 84043","precinct":"25LE21","hd":"53","v_score":"6.896907962","decile":"8","lat":40.421760849692,"lng":-111.856199078407},{"id":"40263","name":"Ms. Cherry Schoen","party":"Rep","address":"327 W 2925 N, Lehi, UT 84043","precinct":"25LE21","hd":"53","v_score":"2.315214949","decile":"5","lat":40.424786702013,"lng":-111.854781175242},{"id":"40366","name":"Delle DuBuque","party":"","address":"2335 N 380 W, Lehi, UT 84043","precinct":"25LE21","hd":"53","v_score":"13.080119","decile":"9","lat":40.417851173054,"lng":-111.855677073984},{"id":"40810","name":"Mardell Denesik","party":"Dem","address":"567 W 2600 N, Lehi, UT 84043","precinct":"25LE21","hd":"53","v_score":"11.6505322","decile":"9","lat":40.420584339926,"lng":-111.858647932685},{"id":"40814","name":"Jaqueline Bashirian","party":"Dem","address":"567 W 2600 N, Lehi, UT 84043","precinct":"25LE21","hd":"53","v_score":"8.69195232","decile":"8","lat":40.420584339926,"lng":-111.858647932685},{"id":"40931","name":"Denis Schuppe III","party":"","address":"2991 N 425 W, Lehi, UT 84043","precinct":"25LE21","hd":"53","v_score":"2.587603312","decile":"5","lat":40.425344566793,"lng":-111.85589794533},{"id":"41086","name":"Dr. Aletha Kovacek MD","party":"Rep","address":"2360 N 600 W, Lehi, UT 84043","precinct":"25LE21","hd":"53","v_score":"4.069929862","decile":"6","lat":40.417883760592,"lng":-111.859102239588},{"id":"41156","name":"Dr. Elijah Lehner Sr.","party":"","address":"442 W 2375 N, Lehi, UT 84043","precinct":"25LE21","hd":"53","v_score":"0","decile":"1","lat":40.418308329197,"lng":-111.856403512274},{"id":"41580","name":"Alto Altenwerth","party":"","address":"456 W 2600 N, Lehi, UT 84043","precinct":"25LE21","hd":"53","v_score":"23.61947609","decile":"10","lat":40.420727431913,"lng":-111.857027505644},{"id":"41719","name":"Mr. Everette Ankunding","party":"Dem","address":"429 W 2200 N, Lehi, UT 84043","precinct":"25LE21","hd":"53","v_score":"6.881235673","decile":"8","lat":40.414864989492,"lng":-111.855617397066},{"id":"43098","name":"Dr. Milo Marquardt Sr.","party":"Dem","address":"2580 N 600 W, Lehi, UT 84043","precinct":"25LE21","hd":"53","v_score":"2.876042565","decile":"6","lat":40.420373365921,"lng":-111.859119010576},{"id":"43550","name":"Daquan Rohan","party":"","address":"698 W Ridgeline Dr, Lehi, UT 84043","precinct":"25LE21","hd":"53","v_score":"1.193887297","decile":"3","lat":40.423794293997,"lng":-111.860944552037},{"id":"43614","name":"Kanye Feest PhD","party":"","address":"401 W 2730 N, Lehi, UT 84043","precinct":"25LE21","hd":"53","v_score":"0","decile":"1","lat":40.422302702333,"lng":-111.85530119286},{"id":"43672","name":"Bryton Larson","party":"Dem","address":"2520 N 600 W, Lehi, UT 84043","precinct":"25LE21","hd":"53","v_score":"3.781490609","decile":"6","lat":40.419480541228,"lng":-111.859110909648},{"id":"44897","name":"Dr. Ovid Sauer","party":"Dem","address":"531 W 2600 N, Lehi, UT 84043","precinct":"25LE21","hd":"53","v_score":"1.193887297","decile":"3","lat":40.420593677364,"lng":-111.85811647456},{"id":"47045","name":"Maye Heidenreich","party":"Rep","address":"2391 N 380 W, Lehi, UT 84043","precinct":"25LE21","hd":"53","v_score":"0","decile":"1","lat":40.418452461508,"lng":-111.855678229323},{"id":"47693","name":"Davonte Gorczany MD","party":"Dem","address":"744 W Ridgeline Dr, Lehi, UT 84043","precinct":"25LE21","hd":"53","v_score":"2.744440783","decile":"5","lat":40.423789080123,"lng":-111.861541701182},{"id":"48007","name":"Virgie Casper PhD","party":"Dem","address":"2247 N 300 W, Lehi, UT 84043","precinct":"25LE21","hd":"53","v_score":"2.315214949","decile":"5","lat":40.416190639494,"lng":-111.854533571869},{"id":"48050","name":"Arietta Runolfsson","party":"Dem","address":"322 W 2375 N, Lehi, UT 84043","precinct":"25LE21","hd":"53","v_score":"6.027167436","decile":"7","lat":40.418297641814,"lng":-111.854766556955},{"id":"49536","name":"Howard McGlynn","party":"Dem","address":"496 W 2450 N, Lehi, UT 84043","precinct":"25LE21","hd":"53","v_score":"2.315214949","decile":"5","lat":40.419109663305,"lng":-111.857342894033},{"id":"50294","name":"Luella Kuhic","party":"","address":"549 W 2280 N, Lehi, UT 84043","precinct":"25LE21","hd":"53","v_score":"1.121327652","decile":"3","lat":40.416722703197,"lng":-111.858331304757},{"id":"50938","name":"Merry Boyle","party":"Dem","address":"531 W 2325 N, Lehi, UT 84043","precinct":"25LE21","hd":"53","v_score":"8.421194992","decile":"8","lat":40.417390698349,"lng":-111.858041354768},{"id":"50971","name":"Cinthia Stark","party":"Rep","address":"2215 N 490 W, Lehi, UT 84043","precinct":"25LE21","hd":"53","v_score":"2.315214949","decile":"5","lat":40.415390867164,"lng":-111.856448300629},{"id":"51123","name":"Dr. Crockett Graham","party":"","address":"2559 N 300 W, Lehi, UT 84043","precinct":"25LE21","hd":"53","v_score":"13.97135325","decile":"9","lat":40.420343546131,"lng":-111.854548750384},{"id":"51140","name":"Leonard Kshlerin","party":"Rep","address":"369 W 2875 N, Lehi, UT 84043","precinct":"25LE21","hd":"53","v_score":"3.781490609","decile":"6","lat":40.423928188674,"lng":-111.85504449544},{"id":"51273","name":"Authur Schuster-Schinner","party":"Dem","address":"399 W 2800 N, Lehi, UT 84043","precinct":"25LE21","hd":"53","v_score":"2.315214949","decile":"5","lat":40.423121702266,"lng":-111.855629122226},{"id":"52426","name":"Felicie DuBuque","party":"Dem","address":"321 W 2375 N, Lehi, UT 84043","precinct":"25LE21","hd":"53","v_score":"7.013961469","decile":"8","lat":40.418182897513,"lng":-111.854748152711},{"id":"52690","name":"Zana Shields","party":"Dem","address":"320 W 2325 N, Lehi, UT 84043","precinct":"25LE21","hd":"53","v_score":"0","decile":"1","lat":40.417548294225,"lng":-111.854748285502},{"id":"52772","name":"Jereme Brakus","party":"Rep","address":"475 W 2540 N, Lehi, UT 84043","precinct":"25LE21","hd":"53","v_score":"0","decile":"1","lat":40.419809702742,"lng":-111.85695841242},{"id":"52891","name":"Dr. Mae Jenkins","party":"","address":"519 W Sandhill Dr, Lehi, UT 84043","precinct":"25LE21","hd":"53","v_score":"3.93832808","decile":"6","lat":40.422194702557,"lng":-111.858054825818},{"id":"53588","name":"Leticia Schmidt","party":"","address":"2215 N 490 W, Lehi, UT 84043","precinct":"25LE21","hd":"53","v_score":"2.660162957","decile":"5","lat":40.415390867164,"lng":-111.856448300629},{"id":"53722","name":"Dr. Edd Corkery I","party":"Rep","address":"419 W 2600 N, Lehi, UT 84043","precinct":"25LE21","hd":"53","v_score":"9.682978083","decile":"8","lat":40.420622727171,"lng":-111.856463049282},{"id":"54022","name":"Maddox Satterfield","party":"","address":"2644 N 780 W, Lehi, UT 84043","precinct":"25LE21","hd":"53","v_score":"3.781490609","decile":"6","lat":40.421268615498,"lng":-111.861835555109},{"id":"54049","name":"Deacon Ziemann","party":"","address":"2630 N 425 W, Lehi, UT 84043","precinct":"25LE21","hd":"53","v_score":"13.75326469","decile":"9","lat":40.420969949633,"lng":-111.856048555857},{"id":"54591","name":"Cecelia Cassin","party":"","address":"512 W 2540 N, Lehi, UT 84043","precinct":"25LE21","hd":"53","v_score":"3.93832808","decile":"6","lat":40.419924294177,"lng":-111.857618706792},{"id":"54612","name":"Toy Rempel","party":"Rep","address":"2954 N 425 W, Lehi, UT 84043","precinct":"25LE21","hd":"53","v_score":"0","decile":"1","lat":40.425166680265,"lng":-111.855748883381},{"id":"55241","name":"Dr. Lovie Emmerich","party":"Dem","address":"322 W 2375 N, Lehi, UT 84043","precinct":"25LE21","hd":"53","v_score":"5.346711217","decile":"7","lat":40.418297641814,"lng":-111.854766556955},{"id":"56563","name":"Miss Rashida Conroy DDS","party":"Dem","address":"669 W Parkview Dr, Lehi, UT 84043","precinct":"25LE21","hd":"53","v_score":"3.93832808","decile":"6","lat":40.42292815121,"lng":-111.860256241131},{"id":"57285","name":"Ms. Kaley Moen","party":"Dem","address":"3094 N Park Ridge Dr, Lehi, UT 84043","precinct":"25LE21","hd":"53","v_score":"19.5311795","decile":"10","lat":40.425883606568,"lng":-111.861313548675},{"id":"58011","name":"Ms. Lashanda Green","party":"Rep","address":"421 W 2540 N, Lehi, UT 84043","precinct":"25LE21","hd":"53","v_score":"0","decile":"1","lat":40.41980970267,"lng":-111.856020099344},{"id":"58349","name":"Sterling Breitenberg","party":"Dem","address":"2241 N 430 W, Lehi, UT 84043","precinct":"25LE21","hd":"53","v_score":"0","decile":"1","lat":40.415858483201,"lng":-111.85546238954},{"id":"59717","name":"Donia Beatty","party":"Rep","address":"349 W 2875 N, Lehi, UT 84043","precinct":"25LE21","hd":"53","v_score":"2.315214949","decile":"5","lat":40.423929088814,"lng":-111.85489552047},{"id":"60295","name":"Branden Carroll","party":"","address":"2769 N 425 W, Lehi, UT 84043","precinct":"25LE21","hd":"53","v_score":"0","decile":"1","lat":40.422810933844,"lng":-111.856199079185},{"id":"60403","name":"Selene O'Kon","party":"","address":"599 W Parkview Dr, Lehi, UT 84043","precinct":"25LE21","hd":"53","v_score":"7.090117576","decile":"8","lat":40.422986420104,"lng":-111.859386661492},{"id":"60578","name":"Diana O'Hara","party":"Dem","address":"515 W 2280 N, Lehi, UT 84043","precinct":"25LE21","hd":"53","v_score":"5.687348376","decile":"7","lat":40.416722703157,"lng":-111.857811950426},{"id":"60976","name":"Katherin Marvin","party":"Rep","address":"531 W 2600 N, Lehi, UT 84043","precinct":"25LE21","hd":"53","v_score":"4.064235245","decile":"6","lat":40.420593677364,"lng":-111.85811647456},{"id":"61789","name":"Beadie Dickinson","party":"Rep","address":"494 W 2540 N, Lehi, UT 84043","precinct":"25LE21","hd":"53","v_score":"0","decile":"1","lat":40.419924294153,"lng":-111.857305935767},{"id":"61814","name":"Alwin Zieme","party":"Rep","address":"400 W 2730 N, Lehi, UT 84043","precinct":"25LE21","hd":"53","v_score":"0","decile":"1","lat":40.422417293717,"lng":-111.855301192845},{"id":"62073","name":"Dr. Kandy Wisozk PhD","party":"","address":"2580 N 600 W, Lehi, UT 84043","precinct":"25LE21","hd":"53","v_score":"3.997370217","decile":"6","lat":40.420373365921,"lng":-111.859119010576},{"id":"62381","name":"Dr. Sunday Zemlak MD","party":"","address":"607 W 2660 N, Lehi, UT 84043","precinct":"25LE21","hd":"53","v_score":"3.93832808","decile":"6","lat":40.421416048406,"lng":-111.859521754507},{"id":"62470","name":"Mrs. Claire Lemke MD","party":"","address":"744 W Ridgeline Dr, Lehi, UT 84043","precinct":"25LE21","hd":"53","v_score":"5.258122542","decile":"7","lat":40.423789080123,"lng":-111.861541701182},{"id":"62619","name":"Ms. Shanna Crona","party":"Dem","address":"607 W 2660 N, Lehi, UT 84043","precinct":"25LE21","hd":"53","v_score":"3.93832808","decile":"6","lat":40.421416048406,"lng":-111.859521754507},{"id":"62878","name":"Ewell Douglas I","party":"Dem","address":"550 W 2450 N, Lehi, UT 84043","precinct":"25LE21","hd":"53","v_score":"9.897826925","decile":"8","lat":40.419112014653,"lng":-111.858277526013},{"id":"62995","name":"Lyda Leuschke","party":"Dem","address":"529 W 2540 N, Lehi, UT 84043","precinct":"25LE21","hd":"53","v_score":"0","decile":"1","lat":40.419809702815,"lng":-111.857896725497},{"id":"63270","name":"Arminda Bauch","party":"","address":"362 W 3050 N, Lehi, UT 84043","precinct":"25LE21","hd":"53","v_score":"1.121327652","decile":"3","lat":40.290947147739,"lng":-112.043734680731},{"id":"64086","name":"Olen Durgan","party":"Rep","address":"711 W Sandhill Dr, Lehi, UT 84043","precinct":"25LE21","hd":"53","v_score":"1.121327652","decile":"3","lat":40.422194702762,"lng":-111.860708066805},{"id":"64578","name":"Loraine Kassulke","party":"","address":"2979 N Park Ridge Dr, Lehi, UT 84043","precinct":"25LE21","hd":"53","v_score":"1.623113131","decile":"5","lat":40.425165858022,"lng":-111.861200726986},{"id":"64614","name":"Mr. Jaden Glover Sr.","party":"Dem","address":"774 W Parkview Dr, Lehi, UT 84043","precinct":"25LE21","hd":"53","v_score":"3.93832808","decile":"6","lat":40.423032530782,"lng":-111.861513107627},{"id":"64938","name":"Miss Celina Stracke PhD","party":"Dem","address":"551 W 2450 N, Lehi, UT 84043","precinct":"25LE21","hd":"53","v_score":"1.193887297","decile":"3","lat":40.418997423902,"lng":-111.858278023393},{"id":"64973","name":"Jakayla Bednar","party":"Rep","address":"2698 N 780 W, Lehi, UT 84043","precinct":"25LE21","hd":"53","v_score":"1.193887297","decile":"3","lat":40.421931294276,"lng":-111.861835554186},{"id":"65133","name":"Miss Rosita Douglas","party":"Rep","address":"401 W 2730 N, Lehi, UT 84043","precinct":"25LE21","hd":"53","v_score":"10.5601719","decile":"9","lat":40.422302702333,"lng":-111.85530119286},{"id":"65625","name":"Jacquez Botsford","party":"","address":"581 W 2325 N, Lehi, UT 84043","precinct":"25LE21","hd":"53","v_score":"0","decile":"1","lat":40.41737698398,"lng":-111.858818179116},{"id":"66168","name":"Audy Heaney","party":"","address":"584 W 2280 N, Lehi, UT 84043","precinct":"25LE21","hd":"53","v_score":"3.93832808","decile":"6","lat":40.416837294623,"lng":-111.858881209328},{"id":"66367","name":"Annice Hoppe","party":"","address":"369 W 2875 N, Lehi, UT 84043","precinct":"25LE21","hd":"53","v_score":"10.7597751","decile":"9","lat":40.423928188674,"lng":-111.85504449544},{"id":"66406","name":"Shawnte Rice","party":"","address":"613 W Parkview Dr, Lehi, UT 84043","precinct":"25LE21","hd":"53","v_score":"3.93832808","decile":"6","lat":40.422951527347,"lng":-111.859564712374},{"id":"66466","name":"Goldia Casper","party":"Dem","address":"419 W 2600 N, Lehi, UT 84043","precinct":"25LE21","hd":"53","v_score":"6.954919332","decile":"8","lat":40.420622727171,"lng":-111.856463049282},{"id":"66511","name":"Dr. Orren Terry DDS","party":"Dem","address":"542 W Trail Side Dr, Lehi, UT 84043","precinct":"25LE21","hd":"53","v_score":"0","decile":"1","lat":40.42482947731,"lng":-111.858314133817},{"id":"66713","name":"Grayling Smith","party":"","address":"495 W 2325 N, Lehi, UT 84043","precinct":"25LE21","hd":"53","v_score":"2.315214949","decile":"5","lat":40.417400572695,"lng":-111.857482041238},{"id":"67982","name":"Mr. Booker Renner V","party":"Rep","address":"2244 N 490 W, Lehi, UT 84043","precinct":"25LE21","hd":"53","v_score":"1.193887297","decile":"3","lat":40.41584222757,"lng":-111.856302648147},{"id":"68516","name":"Mr. Cleave Rippin DDS","party":"Dem","address":"359 W 2925 N, Lehi, UT 84043","precinct":"25LE21","hd":"53","v_score":"6.954919332","decile":"8","lat":40.424786702036,"lng":-111.85507975262},{"id":"68816","name":"Nery Simonis-Kunde","party":"Dem","address":"420 W 2325 N, Lehi, UT 84043","precinct":"25LE21","hd":"53","v_score":"9.61867875","decile":"8","lat":40.417540855397,"lng":-111.85602855325},{"id":"70668","name":"Jeptha Corkery","party":"Dem","address":"779 W 2920 N, Lehi, UT 84043","precinct":"25LE21","hd":"53","v_score":"2.744440783","decile":"5","lat":40.424421345114,"lng":-111.861639233664},{"id":"70746","name":"Babyboy Abernathy","party":"","address":"762 W Ridgeline Dr, Lehi, UT 84043","precinct":"25LE21","hd":"53","v_score":"0","decile":"1","lat":40.423787257063,"lng":-111.861724008627},{"id":"70935","name":"Josette Ledner","party":"","address":"566 W 2325 N, Lehi, UT 84043","precinct":"25LE21","hd":"53","v_score":"16.29714955","decile":"9","lat":40.417496359889,"lng":-111.858548916688},{"id":"71093","name":"Rutherford Champlin","party":"Rep","address":"495 W 2325 N, Lehi, UT 84043","precinct":"25LE21","hd":"53","v_score":"0","decile":"1","lat":40.417400572695,"lng":-111.857482041238},{"id":"71181","name":"Aretha Champlin","party":"","address":"2838 N 780 W, Lehi, UT 84043","precinct":"25LE21","hd":"53","v_score":"1.121327652","decile":"3","lat":40.42329766068,"lng":-111.861839180503},{"id":"71362","name":"Darwyn Rosenbaum DVM","party":"Rep","address":"3029 N Park Ridge Dr, Lehi, UT 84043","precinct":"25LE21","hd":"53","v_score":"10.52632313","decile":"9","lat":40.425703752166,"lng":-111.861450580942},{"id":"71623","name":"Rahn Schaefer","party":"Dem","address":"401 W 2730 N, Lehi, UT 84043","precinct":"25LE21","hd":"53","v_score":"2.876042565","decile":"6","lat":40.422302702333,"lng":-111.85530119286},{"id":"72445","name":"Roe Douglas","party":"Dem","address":"588 W 2375 N, Lehi, UT 84043","precinct":"25LE21","hd":"53","v_score":"3.93832808","decile":"6","lat":40.418321043712,"lng":-111.858930483351},{"id":"72516","name":"Gladis Huel PhD","party":"Dem","address":"2643 N 640 W, Lehi, UT 84043","precinct":"25LE21","hd":"53","v_score":"2.315214949","decile":"5","lat":40.421145041192,"lng":-111.859766911845},{"id":"72658","name":"Leslie Sporer","party":"","address":"533 W 2450 N, Lehi, UT 84043","precinct":"25LE21","hd":"53","v_score":"1.121327652","decile":"3","lat":40.418996640119,"lng":-111.857966479399},{"id":"73404","name":"Mr. Dimitrios Hudson","party":"","address":"349 W 2875 N, Lehi, UT 84043","precinct":"25LE21","hd":"53","v_score":"0","decile":"1","lat":40.423929088814,"lng":-111.85489552047},{"id":"74188","name":"Harlow Shields PhD","party":"Dem","address":"359 W 2925 N, Lehi, UT 84043","precinct":"25LE21","hd":"53","v_score":"5.83359168","decile":"7","lat":40.424786702036,"lng":-111.85507975262},{"id":"74818","name":"Roberto Hessel","party":"","address":"2954 N 425 W, Lehi, UT 84043","precinct":"25LE21","hd":"53","v_score":"1.121327652","decile":"3","lat":40.425166680265,"lng":-111.855748883381},{"id":"74963","name":"Eithel Kerluke","party":"Rep","address":"367 W 2660 N, Lehi, UT 84043","precinct":"25LE21","hd":"53","v_score":"18.27552205","decile":"10","lat":40.421483702433,"lng":-111.855392903768},{"id":"75577","name":"Pernell Marquardt","party":"","address":"321 W 2375 N, Lehi, UT 84043","precinct":"25LE21","hd":"53","v_score":"7.013961469","decile":"8","lat":40.418182897513,"lng":-111.854748152711},{"id":"75603","name":"Buena Wolf MD","party":"","address":"2242 N 430 W, Lehi, UT 84043","precinct":"25LE21","hd":"53","v_score":"1.121327652","decile":"3","lat":40.415867687224,"lng":-111.85531212596},{"id":"75652","name":"Lynsey Ernser","party":"","address":"514 W Parkview Dr, Lehi, UT 84043","precinct":"25LE21","hd":"53","v_score":"2.744440783","decile":"5","lat":40.424136293703,"lng":-111.857637339933},{"id":"75654","name":"Ms. Arvilla Flatley","party":"Rep","address":"514 W Parkview Dr, Lehi, UT 84043","precinct":"25LE21","hd":"53","v_score":"1.121327652","decile":"3","lat":40.424136293703,"lng":-111.857637339933},{"id":"75782","name":"Carly Friesen","party":"Dem","address":"534 W 2375 N, Lehi, UT 84043","precinct":"25LE21","hd":"53","v_score":"1.121327652","decile":"3","lat":40.418316341083,"lng":-111.857995850213},{"id":"75784","name":"Dr. Glenn Ziemann","party":"Rep","address":"534 W 2375 N, Lehi, UT 84043","precinct":"25LE21","hd":"53","v_score":"2.315214949","decile":"5","lat":40.418316341083,"lng":-111.857995850213},{"id":"75863","name":"Elenora Sporer","party":"","address":"349 W 2875 N, Lehi, UT 84043","precinct":"25LE21","hd":"53","v_score":"6.027167436","decile":"7","lat":40.423929088814,"lng":-111.85489552047},{"id":"76339","name":"Vinton Goodwin","party":"Dem","address":"2242 N 430 W, Lehi, UT 84043","precinct":"25LE21","hd":"53","v_score":"6.52928996","decile":"7","lat":40.415867687224,"lng":-111.85531212596},{"id":"76506","name":"Calhoun Ferry","party":"Dem","address":"542 W 2660 N, Lehi, UT 84043","precinct":"25LE21","hd":"53","v_score":"3.93832808","decile":"6","lat":40.421532271466,"lng":-111.859458958389},{"id":"76808","name":"Dr. Kurtis Volkman","party":"Dem","address":"2852 N Trail Side Ct, Lehi, UT 84043","precinct":"25LE21","hd":"53","v_score":"2.315214949","decile":"5","lat":40.424470748592,"lng":-111.857036303076},{"id":"77023","name":"Julian Herman","party":"Dem","address":"372 W 2200 N, Lehi, UT 84043","precinct":"25LE21","hd":"53","v_score":"2.315214949","decile":"5","lat":40.41497372057,"lng":-111.855135648435},{"id":"77105","name":"Lester Reichert","party":"Rep","address":"3046 Meadow View Dr, Lehi, UT 84043","precinct":"25LE21","hd":"53","v_score":"9.830961897","decile":"8","lat":40.42604929031,"lng":-111.862326000318},{"id":"77149","name":"Essie Kling","party":"Rep","address":"542 W Trail Side Dr, Lehi, UT 84043","precinct":"25LE21","hd":"53","v_score":"0","decile":"1","lat":40.42482947731,"lng":-111.858314133817},{"id":"77156","name":"Perry McGlynn","party":"","address":"588 W 2375 N, Lehi, UT 84043","precinct":"25LE21","hd":"53","v_score":"1.121327652","decile":"3","lat":40.418321043712,"lng":-111.858930483351},{"id":"77233","name":"Arely Price","party":"","address":"495 W 2325 N, Lehi, UT 84043","precinct":"25LE21","hd":"53","v_score":"4.137918904","decile":"7","lat":40.417400572695,"lng":-111.857482041238},{"id":"77452","name":"Darla Kemmer DVM","party":"Dem","address":"345 W 2800 N, Lehi, UT 84043","precinct":"25LE21","hd":"53","v_score":"3.93832808","decile":"6","lat":40.423121702249,"lng":-111.855402629209},{"id":"77648","name":"Dereck Kling","party":"","address":"475 W 2540 N, Lehi, UT 84043","precinct":"25LE21","hd":"53","v_score":"1.121327652","decile":"3","lat":40.419809702742,"lng":-111.85695841242},{"id":"78278","name":"Georgina Kihn-Abshire","party":"","address":"565 W 2325 N, Lehi, UT 84043","precinct":"25LE21","hd":"53","v_score":"2.315214949","decile":"5","lat":40.417381372578,"lng":-111.858569595325},{"id":"78435","name":"Falon Cartwright","party":"Dem","address":"744 W Ridgeline Dr, Lehi, UT 84043","precinct":"25LE21","hd":"53","v_score":"1.193887297","decile":"3","lat":40.423789080123,"lng":-111.861541701182},{"id":"78616","name":"Erie Runte","party":"Rep","address":"2809 N Trail Side Dr, Lehi, UT 84043","precinct":"25LE21","hd":"53","v_score":"2.315214949","decile":"5","lat":40.423169602098,"lng":-111.858535638424},{"id":"79048","name":"Florance Gutmann","party":"Rep","address":"2809 N Trail Side Dr, Lehi, UT 84043","precinct":"25LE21","hd":"53","v_score":"1.121327652","decile":"3","lat":40.423169602098,"lng":-111.858535638424},{"id":"79067","name":"Alphonsine Bartell-Altenwerth","party":"","address":"2655 N 640 W, Lehi, UT 84043","precinct":"25LE21","hd":"53","v_score":"2.315214949","decile":"5","lat":40.421278026097,"lng":-111.859769033927},{"id":"79069","name":"Littleton Schmidt","party":"","address":"2360 N 600 W, Lehi, UT 84043","precinct":"25LE21","hd":"53","v_score":"5.761032035","decile":"7","lat":40.417883760592,"lng":-111.859102239588},{"id":"79789","name":"Rahn Treutel DDS","party":"","address":"497 W 2280 N, Lehi, UT 84043","precinct":"25LE21","hd":"53","v_score":"1.121327652","decile":"3","lat":40.416722703136,"lng":-111.857536998133},{"id":"81236","name":"Thomas Cartwright-Lakin","party":"Rep","address":"459 W 2600 N, Lehi, UT 84043","precinct":"25LE21","hd":"53","v_score":"1.121327652","decile":"3","lat":40.42061235224,"lng":-111.85705355831},{"id":"81382","name":"Abe Lynch","party":"","address":"389 W 2225 N, Lehi, UT 84043","precinct":"25LE21","hd":"53","v_score":"14.63972567","decile":"9","lat":40.415614210663,"lng":-111.855227330041},{"id":"81490","name":"Hale Bednar-Blanda","party":"Dem","address":"441 W 2280 N, Lehi, UT 84043","precinct":"25LE21","hd":"53","v_score":"2.817000428","decile":"6","lat":40.41672270307,"lng":-111.856681590999},{"id":"81845","name":"Rillie Walsh DVM","party":"","address":"531 W 2325 N, Lehi, UT 84043","precinct":"25LE21","hd":"53","v_score":"0","decile":"1","lat":40.417390698349,"lng":-111.858041354768},{"id":"81938","name":"Miss Averie Blanda","party":"Rep","address":"531 W 2375 N, Lehi, UT 84043","precinct":"25LE21","hd":"53","v_score":"0","decile":"1","lat":40.418201403874,"lng":-111.857927612833},{"id":"82446","name":"Terrence Feeney","party":"Dem","address":"422 W 2280 N, Lehi, UT 84043","precinct":"25LE21","hd":"53","v_score":"1.623113131","decile":"5","lat":40.416837294433,"lng":-111.856406638691},{"id":"82860","name":"Jetta Marquardt","party":"Dem","address":"2898 N Park Ridge Dr, Lehi, UT 84043","precinct":"25LE21","hd":"53","v_score":"0","decile":"1","lat":40.424295056236,"lng":-111.860953551143},{"id":"84195","name":"Miss Missouri D'Amore MD","party":"Rep","address":"2994 N 425 W, Lehi, UT 84043","precinct":"25LE21","hd":"53","v_score":"0","decile":"1","lat":40.425363530923,"lng":-111.855747256491},{"id":"84350","name":"Jarvis Mueller MD","party":"","address":"2764 N Trail Side Dr, Lehi, UT 84043","precinct":"25LE21","hd":"53","v_score":"2.817000428","decile":"6","lat":40.422879540184,"lng":-111.858175375042},{"id":"84683","name":"Dusty Crist-Brakus","party":"Rep","address":"771 W Parkview Dr, Lehi, UT 84043","precinct":"25LE21","hd":"53","v_score":"1.193887297","decile":"3","lat":40.422918081995,"lng":-111.861494766133},{"id":"84950","name":"Queen Glover","party":"Dem","address":"2843 N Trail Side Dr, Lehi, UT 84043","precinct":"25LE21","hd":"53","v_score":"0","decile":"1","lat":40.423457238068,"lng":-111.858888813662},{"id":"85404","name":"Maverick Pacocha","party":"","address":"3138 Meadow View Dr, Lehi, UT 84043","precinct":"25LE21","hd":"53","v_score":"1.193887297","decile":"3","lat":40.427203451911,"lng":-111.862282262371},{"id":"86361","name":"Miss Yamilex Lindgren","party":"Rep","address":"476 W 2540 N, Lehi, UT 84043","precinct":"25LE21","hd":"53","v_score":"1.193887297","decile":"4","lat":40.419924294129,"lng":-111.856993164741},{"id":"86418","name":"Mr. Montana Runte","party":"","address":"774 W Parkview Dr, Lehi, UT 84043","precinct":"25LE21","hd":"53","v_score":"0","decile":"1","lat":40.423032530782,"lng":-111.861513107627},{"id":"87134","name":"Dr. Tavaris Zboncak IV","party":"Dem","address":"439 W 2325 N, Lehi, UT 84043","precinct":"25LE21","hd":"53","v_score":"0","decile":"1","lat":40.417415932788,"lng":-111.856611997969},{"id":"87379","name":"Candido Altenwerth","party":"Rep","address":"422 W 2540 N, Lehi, UT 84043","precinct":"25LE21","hd":"53","v_score":"0","decile":"1","lat":40.419924294057,"lng":-111.856054851665},{"id":"87561","name":"Lawerence Kuhlman","party":"Dem","address":"744 W Sandhill Dr, Lehi, UT 84043","precinct":"25LE21","hd":"53","v_score":"0","decile":"1","lat":40.422309294181,"lng":-111.861160561542},{"id":"87902","name":"Isabel Steuber","party":"","address":"2681 N 640 W, Lehi, UT 84043","precinct":"25LE21","hd":"53","v_score":"0","decile":"1","lat":40.421792904601,"lng":-111.859777667754},{"id":"88498","name":"Teri Graham","party":"Dem","address":"757 W 2920 N, Lehi, UT 84043","precinct":"25LE21","hd":"53","v_score":"2.817000428","decile":"6","lat":40.424420444952,"lng":-111.861488458552},{"id":"88593","name":"Montie Klein","party":"","address":"367 W 2800 N, Lehi, UT 84043","precinct":"25LE21","hd":"53","v_score":"0","decile":"1","lat":40.423121702256,"lng":-111.855494904142},{"id":"88622","name":"Dr. Rona Connelly","party":"Rep","address":"421 W 2375 N, Lehi, UT 84043","precinct":"25LE21","hd":"53","v_score":"1.623113131","decile":"5","lat":40.418191824444,"lng":-111.856023730515},{"id":"88864","name":"Nakia Ebert DDS","party":"Dem","address":"3096 Meadow View Dr, Lehi, UT 84043","precinct":"25LE21","hd":"53","v_score":"1.623113131","decile":"5","lat":40.426698405061,"lng":-111.862270632393},{"id":"88889","name":"Boone Wolff","party":"","address":"494 W 2540 N, Lehi, UT 84043","precinct":"25LE21","hd":"53","v_score":"1.193887297","decile":"4","lat":40.419924294153,"lng":-111.857305935767},{"id":"89555","name":"Dr. Lafayette Reichert III","party":"Dem","address":"2799 N 425 W, Lehi, UT 84043","precinct":"25LE21","hd":"53","v_score":"0","decile":"1","lat":40.42312170231,"lng":-111.856199079144},{"id":"89651","name":"Charlee Bergstrom PhD","party":"Rep","address":"421 W 2540 N, Lehi, UT 84043","precinct":"25LE21","hd":"53","v_score":"0","decile":"1","lat":40.41980970267,"lng":-111.856020099344},{"id":"89994","name":"Meg Yundt","party":"Rep","address":"2559 N 300 W, Lehi, UT 84043","precinct":"25LE21","hd":"53","v_score":"5.407962308","decile":"7","lat":40.420343546131,"lng":-111.854548750384},{"id":"90112","name":"Elianna Ebert","party":"Rep","address":"329 W 2225 N, Lehi, UT 84043","precinct":"25LE21","hd":"53","v_score":"0","decile":"1","lat":40.415609590671,"lng":-111.854749164738},{"id":"90125","name":"Derrick Rogahn","party":"Rep","address":"398 W 2660 N, Lehi, UT 84043","precinct":"25LE21","hd":"53","v_score":"1.193887297","decile":"4","lat":40.421598293829,"lng":-111.855551849697},{"id":"90271","name":"Solon Sanford I","party":"","address":"455 W 2925 N, Lehi, UT 84043","precinct":"25LE21","hd":"53","v_score":"3.711952487","decile":"6","lat":40.424800194309,"lng":-111.856283641234},{"id":"90526","name":"Mr. Alston Brown","party":"","address":"2820 N Park View Ct, Lehi, UT 84043","precinct":"25LE21","hd":"53","v_score":"1.193887297","decile":"4","lat":40.422807367452,"lng":-111.857099510428},{"id":"90822","name":"Jaylene Weimann MD","party":"","address":"350 W 2730 N, Lehi, UT 84043","precinct":"25LE21","hd":"53","v_score":"1.193887297","decile":"4","lat":40.422417293688,"lng":-111.854919885751},{"id":"91404","name":"Olive Reichel","party":"Dem","address":"479 W 2225 N, Lehi, UT 84043","precinct":"25LE21","hd":"53","v_score":"5.693042993","decile":"7","lat":40.415595458178,"lng":-111.856125666494},{"id":"92534","name":"Dr. Arnett Jacobs","party":"","address":"348 W 2660 N, Lehi, UT 84043","precinct":"25LE21","hd":"53","v_score":"1.193887297","decile":"4","lat":40.42159829381,"lng":-111.855303496659},{"id":"93035","name":"Florance Hyatt","party":"Rep","address":"2773 N Park View Ct, Lehi, UT 84043","precinct":"25LE21","hd":"53","v_score":"7.549608095","decile":"8","lat":40.422637249339,"lng":-111.857249284174},{"id":"93172","name":"Deborah Crooks DVM","party":"","address":"2423 N 380 W, Lehi, UT 84043","precinct":"25LE21","hd":"53","v_score":"2.817000428","decile":"6","lat":40.41874928727,"lng":-111.855679896844},{"id":"93383","name":"Dr. Ladonna Kreiger DVM","party":"Dem","address":"402 W 2540 N, Lehi, UT 84043","precinct":"25LE21","hd":"53","v_score":"1.193887297","decile":"4","lat":40.41992429403,"lng":-111.855707328303},{"id":"93555","name":"Rice Jerde","party":"Dem","address":"360 W 2450 N, Lehi, UT 84043","precinct":"25LE21","hd":"53","v_score":"0","decile":"1","lat":40.419101666531,"lng":-111.855150666413},{"id":"94142","name":"Ada Kessler","party":"Dem","address":"2788 N Park View Ct, Lehi, UT 84043","precinct":"25LE21","hd":"53","v_score":"0","decile":"1","lat":40.422641407148,"lng":-111.857098776113},{"id":"94582","name":"Judy Rowe DDS","party":"Dem","address":"583 W Trail Side Dr, Lehi, UT 84043","precinct":"25LE21","hd":"53","v_score":"8.284004873","decile":"8","lat":40.424236064411,"lng":-111.859023989566},{"id":"95455","name":"Deanne Skiles","party":"","address":"534 W 2375 N, Lehi, UT 84043","precinct":"25LE21","hd":"53","v_score":"2.817000428","decile":"6","lat":40.418316341083,"lng":-111.857995850213},{"id":"95717","name":"Mr. Alvan Kuhic DVM","party":"","address":"3015 N 300 W, Lehi, UT 84043","precinct":"25LE21","hd":"53","v_score":"4.499155696","decile":"7","lat":40.425545212361,"lng":-111.854534081236},{"id":"96078","name":"Zelda Toy","party":"Rep","address":"441 W 3200 N, Lehi, UT 84043","precinct":"25LE21","hd":"53","v_score":"16.72856503","decile":"9","lat":40.427909701759,"lng":-111.856068120162},{"id":"96874","name":"Beatrice Jast","party":"Dem","address":"2644 N 780 W, Lehi, UT 84043","precinct":"25LE21","hd":"53","v_score":"2.817000428","decile":"6","lat":40.421268615498,"lng":-111.861835555109},{"id":"97028","name":"Crawford Mayert","party":"Rep","address":"419 W 2600 N, Lehi, UT 84043","precinct":"25LE21","hd":"53","v_score":"2.817000428","decile":"6","lat":40.420622727171,"lng":-111.856463049282},{"id":"97294","name":"Zita Will","party":"Rep","address":"476 W 2540 N, Lehi, UT 84043","precinct":"25LE21","hd":"53","v_score":"1.193887297","decile":"4","lat":40.419924294129,"lng":-111.856993164741},{"id":"97626","name":"Tempie Toy","party":"","address":"399 W 2325 N, Lehi, UT 84043","precinct":"25LE21","hd":"53","v_score":"0","decile":"1","lat":40.417426904283,"lng":-111.855990538491},{"id":"97792","name":"Clare Leuschke","party":"Rep","address":"400 W 2875 N, Lehi, UT 84043","precinct":"25LE21","hd":"53","v_score":"0","decile":"1","lat":40.424041336218,"lng":-111.855284050097},{"id":"98186","name":"Kenna Murray","party":"","address":"3013 N 425 W, Lehi, UT 84043","precinct":"25LE21","hd":"53","v_score":"2.817000428","decile":"6","lat":40.425452834655,"lng":-111.85589705054},{"id":"98620","name":"Rahn Barrows","party":"Dem","address":"459 W 2325 N, Lehi, UT 84043","precinct":"25LE21","hd":"53","v_score":"0","decile":"1","lat":40.41741044704,"lng":-111.856922727708},{"id":"99246","name":"Ruthann Keeling-Casper","party":"Rep","address":"329 W 2225 N, Lehi, UT 84043","precinct":"25LE21","hd":"53","v_score":"4.069929862","decile":"6","lat":40.415609590671,"lng":-111.854749164738},{"id":"99480","name":"Timmothy Prosacco","party":"Rep","address":"549 W 2375 N, Lehi, UT 84043","precinct":"25LE21","hd":"53","v_score":"0","decile":"1","lat":40.418202971417,"lng":-111.858239157212},{"id":"99633","name":"Dirk Abernathy","party":"","address":"2242 N 430 W, Lehi, UT 84043","precinct":"25LE21","hd":"53","v_score":"4.214075011","decile":"7","lat":40.415867687224,"lng":-111.85531212596},{"id":"99677","name":"Gussie Hilll-Toy","party":"Dem","address":"570 W 2375 N, Lehi, UT 84043","precinct":"25LE21","hd":"53","v_score":"1.193887297","decile":"4","lat":40.418319476169,"lng":-111.858618938971},{"id":"100298","name":"Jessye Carter MD","party":"Dem","address":"2945 N Park Place Ct, Lehi, UT 84043","precinct":"25LE21","hd":"53","v_score":"1.193887297","decile":"4","lat":40.424804862426,"lng":-111.859948336799},{"id":"100789","name":"Charle Hegmann","party":"Rep","address":"477 W 2600 N, Lehi, UT 84043","precinct":"25LE21","hd":"53","v_score":"1.193887297","decile":"4","lat":40.420607683521,"lng":-111.857319287372},{"id":"100813","name":"Parthenia Wyman","party":"Dem","address":"342 W 2540 N, Lehi, UT 84043","precinct":"25LE21","hd":"53","v_score":"1.193887297","decile":"4","lat":40.419919234598,"lng":-111.85496955633},{"id":"101087","name":"Garnett Medhurst","party":"Dem","address":"477 W 2450 N, Lehi, UT 84043","precinct":"25LE21","hd":"53","v_score":"0","decile":"2","lat":40.418994201685,"lng":-111.85699723142},{"id":"102955","name":"Koby Spinka-Schroeder","party":"","address":"732 W Parkview Dr, Lehi, UT 84043","precinct":"25LE21","hd":"53","v_score":"7.090117576","decile":"8","lat":40.42303712987,"lng":-111.860947414546},{"id":"103347","name":"Dr. Webb Pfannerstill I","party":"Dem","address":"762 W 2920 N, Lehi, UT 84043","precinct":"25LE21","hd":"53","v_score":"0","decile":"2","lat":40.424537866894,"lng":-111.861961981895},{"id":"103502","name":"Cortney Veum","party":"Rep","address":"2621 N 425 W, Lehi, UT 84043","precinct":"25LE21","hd":"53","v_score":"0","decile":"2","lat":40.421051797525,"lng":-111.856199077584},{"id":"103710","name":"Bailey Johnston Sr.","party":"","address":"530 W 2540 N, Lehi, UT 84043","precinct":"25LE21","hd":"53","v_score":"1.193887297","decile":"4","lat":40.419924294202,"lng":-111.857931477818},{"id":"104400","name":"Kellie Langworth PhD","party":"Rep","address":"582 W 2325 N, Lehi, UT 84043","precinct":"25LE21","hd":"53","v_score":"0","decile":"2","lat":40.41749148367,"lng":-111.858825120901},{"id":"105071","name":"Dr. Lawerence Bogisich","party":"","address":"734 W Sandhill Dr, Lehi, UT 84043","precinct":"25LE21","hd":"53","v_score":"0","decile":"2","lat":40.422309294171,"lng":-111.861035562991},{"id":"105212","name":"Aditya Kub III","party":"Dem","address":"511 W 2540 N, Lehi, UT 84043","precinct":"25LE21","hd":"53","v_score":"2.876042565","decile":"6","lat":40.419809702791,"lng":-111.857583954471},{"id":"105348","name":"Lucy Huel-Rosenbaum","party":"Rep","address":"355 W 3200 N, Lehi, UT 84043","precinct":"25LE21","hd":"53","v_score":"1.193887297","decile":"4","lat":40.42790970169,"lng":-111.855170309057},{"id":"105395","name":"Zebulon Wolff","party":"Dem","address":"3037 N Park Place St, Lehi, UT 84043","precinct":"25LE21","hd":"53","v_score":"8.284004873","decile":"8","lat":40.424983139616,"lng":-111.859914942394},{"id":"106398","name":"Kayden Strosin","party":"","address":"355 W 3200 N, Lehi, UT 84043","precinct":"25LE21","hd":"53","v_score":"1.193887297","decile":"4","lat":40.42790970169,"lng":-111.855170309057},{"id":"107098","name":"Anika Brakus DDS","party":"","address":"362 W 2280 N, Lehi, UT 84043","precinct":"25LE21","hd":"53","v_score":"1.193887297","decile":"4","lat":40.416837294362,"lng":-111.855490131047},{"id":"107439","name":"Hetty Koch","party":"","address":"513 W 2450 N, Lehi, UT 84043","precinct":"25LE21","hd":"53","v_score":"4.214075011","decile":"7","lat":40.41899576925,"lng":-111.857620319407},{"id":"107458","name":"Jamie Wilkinson","party":"","address":"511 W 2375 N, Lehi, UT 84043","precinct":"25LE21","hd":"53","v_score":"0","decile":"2","lat":40.418199662159,"lng":-111.857581452412},{"id":"107918","name":"Leana Nitzsche","party":"Rep","address":"322 W 2375 N, Lehi, UT 84043","precinct":"25LE21","hd":"53","v_score":"0","decile":"2","lat":40.418297641814,"lng":-111.854766556955},{"id":"108050","name":"Cornelius Osinski-Thiel","party":"Dem","address":"586 W 2450 N, Lehi, UT 84043","precinct":"25LE21","hd":"53","v_score":"1.193887297","decile":"4","lat":40.419113582218,"lng":-111.858900613999},{"id":"108330","name":"Dr. Elana Sporer MD","party":"","address":"537 W Sandhill Dr, Lehi, UT 84043","precinct":"25LE21","hd":"53","v_score":"1.193887297","decile":"4","lat":40.422194702582,"lng":-111.858368832021},{"id":"109351","name":"Alvia Herzog-Hand","party":"Dem","address":"361 W 2540 N, Lehi, UT 84043","precinct":"25LE21","hd":"53","v_score":"0","decile":"2","lat":40.419806079784,"lng":-111.855148485618},{"id":"109742","name":"Gabriel Hills V","party":"","address":"2946 N Park Place Ct, Lehi, UT 84043","precinct":"25LE21","hd":"53","v_score":"0","decile":"2","lat":40.424991561672,"lng":-111.859764344609},{"id":"110204","name":"Octave Gleason-Haag","party":"","address":"2643 N 640 W, Lehi, UT 84043","precinct":"25LE21","hd":"53","v_score":"1.193887297","decile":"4","lat":40.421145041192,"lng":-111.859766911845},{"id":"110457","name":"Dr. Claud Hodkiewicz","party":"Rep","address":"2830 N 425 W, Lehi, UT 84043","precinct":"25LE21","hd":"53","v_score":"1.193887297","decile":"4","lat":40.423436396624,"lng":-111.856048552934},{"id":"110716","name":"Corie Haley","party":"Dem","address":"2681 N 640 W, Lehi, UT 84043","precinct":"25LE21","hd":"53","v_score":"0","decile":"2","lat":40.421792904601,"lng":-111.859777667754},{"id":"111626","name":"Karlie Skiles-Schroeder","party":"Rep","address":"533 W Parkview Dr, Lehi, UT 84043","precinct":"25LE21","hd":"53","v_score":"0","decile":"2","lat":40.423370550211,"lng":-111.8585824307},{"id":"111715","name":"Dixie Howell MD","party":"","address":"367 W 2660 N, Lehi, UT 84043","precinct":"25LE21","hd":"53","v_score":"1.193887297","decile":"4","lat":40.421483702433,"lng":-111.855392903768},{"id":"112156","name":"Jeremy Emard-Champlin","party":"Dem","address":"561 W 2660 N, Lehi, UT 84043","precinct":"25LE21","hd":"53","v_score":"0","decile":"2","lat":40.421417265541,"lng":-111.859473068982},{"id":"112250","name":"Brian Lindgren-Walker","party":"","address":"372 W 2200 N, Lehi, UT 84043","precinct":"25LE21","hd":"53","v_score":"1.193887297","decile":"4","lat":40.41497372057,"lng":-111.855135648435},{"id":"112625","name":"Chalmers Kilback-Corkery","party":"Dem","address":"337 W 3200 N, Lehi, UT 84043","precinct":"25LE21","hd":"53","v_score":"0","decile":"2","lat":40.427909701676,"lng":-111.854982234102},{"id":"113536","name":"Brennon Casper-Hegmann","party":"Rep","address":"2994 N 425 W, Lehi, UT 84043","precinct":"25LE21","hd":"53","v_score":"0","decile":"2","lat":40.425363530923,"lng":-111.855747256491},{"id":"113584","name":"Theola Labadie","party":"Rep","address":"2391 N 380 W, Lehi, UT 84043","precinct":"25LE21","hd":"53","v_score":"0","decile":"2","lat":40.418452461508,"lng":-111.855678229323},{"id":"114177","name":"Miss Whitney Windler DDS","party":"","address":"3016 N 425 W, Lehi, UT 84043","precinct":"25LE21","hd":"53","v_score":"1.193887297","decile":"4","lat":40.425471798786,"lng":-111.855746361701},{"id":"114193","name":"Shonda O'Kon","party":"","address":"491 W 2200 N, Lehi, UT 84043","precinct":"25LE21","hd":"53","v_score":"0","decile":"2","lat":40.415085587552,"lng":-111.857694214616},{"id":"114665","name":"Holly Leuschke","party":"Dem","address":"340 W 2325 N, Lehi, UT 84043","precinct":"25LE21","hd":"53","v_score":"5.407962308","decile":"7","lat":40.41754829424,"lng":-111.854948997154},{"id":"115194","name":"Deontae Padberg","party":"","address":"2698 N 780 W, Lehi, UT 84043","precinct":"25LE21","hd":"53","v_score":"0","decile":"2","lat":40.421931294276,"lng":-111.861835554186},{"id":"115304","name":"Dr. Governor Kutch","party":"","address":"345 W 2800 N, Lehi, UT 84043","precinct":"25LE21","hd":"53","v_score":"1.193887297","decile":"4","lat":40.423121702249,"lng":-111.855402629209},{"id":"115344","name":"Katia D'Amore","party":"","address":"441 W 2540 N, Lehi, UT 84043","precinct":"25LE21","hd":"53","v_score":"1.193887297","decile":"4","lat":40.419809702697,"lng":-111.856367622705},{"id":"115355","name":"Jere Emmerich","party":"","address":"367 W 2800 N, Lehi, UT 84043","precinct":"25LE21","hd":"53","v_score":"0","decile":"2","lat":40.423121702256,"lng":-111.855494904142},{"id":"115419","name":"Lulla Johnston MD","party":"Rep","address":"583 W Trail Side Dr, Lehi, UT 84043","precinct":"25LE21","hd":"53","v_score":"7.090117576","decile":"8","lat":40.424236064411,"lng":-111.859023989566},{"id":"115906","name":"Douglass Lubowitz-Lueilwitz","party":"Rep","address":"698 W Ridgeline Dr, Lehi, UT 84043","precinct":"25LE21","hd":"53","v_score":"1.193887297","decile":"4","lat":40.423794293997,"lng":-111.860944552037},{"id":"115990","name":"Jacob Dicki","party":"","address":"2391 N 380 W, Lehi, UT 84043","precinct":"25LE21","hd":"53","v_score":"1.193887297","decile":"4","lat":40.418452461508,"lng":-111.855678229323},{"id":"116177","name":"Finley Quigley II","party":"Dem","address":"567 W 2375 N, Lehi, UT 84043","precinct":"25LE21","hd":"53","v_score":"1.193887297","decile":"4","lat":40.41820453896,"lng":-111.858550701592},{"id":"116275","name":"Mr. Karl Jacobi V","party":"","address":"2773 N Park View Ct, Lehi, UT 84043","precinct":"25LE21","hd":"53","v_score":"1.193887297","decile":"4","lat":40.422637249339,"lng":-111.857249284174},{"id":"116708","name":"Ms. Darcie Baumbach DVM","party":"Rep","address":"533 W 2660 N, Lehi, UT 84043","precinct":"25LE21","hd":"53","v_score":"0","decile":"2","lat":40.421418006405,"lng":-111.859443434314},{"id":"116756","name":"Mr. Christop Oberbrunner DVM","party":"","address":"513 W 2450 N, Lehi, UT 84043","precinct":"25LE21","hd":"53","v_score":"0","decile":"2","lat":40.41899576925,"lng":-111.857620319407},{"id":"116886","name":"Lucy Littel","party":"Dem","address":"547 W 2325 N, Lehi, UT 84043","precinct":"25LE21","hd":"53","v_score":"1.193887297","decile":"4","lat":40.417386309751,"lng":-111.85828993856},{"id":"117426","name":"Pratt Abernathy","party":"","address":"513 W 2600 N, Lehi, UT 84043","precinct":"25LE21","hd":"53","v_score":"1.193887297","decile":"4","lat":40.420598346083,"lng":-111.857850745497},{"id":"117508","name":"Miss Isla Douglas","party":"Rep","address":"470 W 2225 N, Lehi, UT 84043","precinct":"25LE21","hd":"53","v_score":"1.193887297","decile":"4","lat":40.415711847474,"lng":-111.856062124999},{"id":"117761","name":"Mrs. Selma Hilpert DVM","party":"Dem","address":"534 W 2280 N, Lehi, UT 84043","precinct":"25LE21","hd":"53","v_score":"2.876042565","decile":"6","lat":40.416837294565,"lng":-111.858117452958},{"id":"117880","name":"Dola Williamson","party":"Rep","address":"570 W 2375 N, Lehi, UT 84043","precinct":"25LE21","hd":"53","v_score":"1.193887297","decile":"4","lat":40.418319476169,"lng":-111.858618938971},{"id":"118260","name":"Mateo Hauck","party":"Dem","address":"376 W 2600 N, Lehi, UT 84043","precinct":"25LE21","hd":"53","v_score":"2.876042565","decile":"6","lat":40.420752293907,"lng":-111.855316245116},{"id":"118757","name":"Ahmad Jones","party":"","address":"350 W 2730 N, Lehi, UT 84043","precinct":"25LE21","hd":"53","v_score":"0","decile":"2","lat":40.422417293688,"lng":-111.854919885751},{"id":"118773","name":"Dr. Donato Schaefer","party":"","address":"2662 N Park View Ct, Lehi, UT 84043","precinct":"25LE21","hd":"53","v_score":"1.193887297","decile":"4","lat":40.421870910415,"lng":-111.857092620529},{"id":"118801","name":"Carmen VonRueden-Ullrich","party":"","address":"2769 N 425 W, Lehi, UT 84043","precinct":"25LE21","hd":"53","v_score":"1.193887297","decile":"4","lat":40.422810933844,"lng":-111.856199079185},{"id":"118802","name":"Dottie Satterfield","party":"Rep","address":"330 W 2225 N, Lehi, UT 84043","precinct":"25LE21","hd":"53","v_score":"1.193887297","decile":"4","lat":40.415724326837,"lng":-111.854763193733},{"id":"118978","name":"Kalene Greenholt-Stiedemann","party":"","address":"520 W Parkview Dr, Lehi, UT 84043","precinct":"25LE21","hd":"53","v_score":"1.193887297","decile":"4","lat":40.424131180685,"lng":-111.857850574291},{"id":"119230","name":"Lovell Botsford","party":"Dem","address":"477 W 2600 N, Lehi, UT 84043","precinct":"25LE21","hd":"53","v_score":"0","decile":"2","lat":40.420607683521,"lng":-111.857319287372},{"id":"119717","name":"Dola Armstrong","party":"Dem","address":"583 W Trail Side Dr, Lehi, UT 84043","precinct":"25LE21","hd":"53","v_score":"4.069929862","decile":"7","lat":40.424236064411,"lng":-111.859023989566},{"id":"119962","name":"Sharleen Abbott DVM","party":"Dem","address":"322 W 2375 N, Lehi, UT 84043","precinct":"25LE21","hd":"53","v_score":"1.193887297","decile":"4","lat":40.418297641814,"lng":-111.854766556955},{"id":"120027","name":"Ms. Queenie Cruickshank","party":"","address":"803 W 2920 N, Lehi, UT 84043","precinct":"25LE21","hd":"53","v_score":"0","decile":"2","lat":40.424422327108,"lng":-111.861803715605},{"id":"120150","name":"Kaitlyn Gislason","party":"Rep","address":"648 W Parkview Dr, Lehi, UT 84043","precinct":"25LE21","hd":"53","v_score":"1.193887297","decile":"4","lat":40.423046328045,"lng":-111.859816028385},{"id":"120208","name":"Beda Ortiz","party":"","address":"430 W 2200 N, Lehi, UT 84043","precinct":"25LE21","hd":"53","v_score":"1.193887297","decile":"4","lat":40.414979774967,"lng":-111.85563210586},{"id":"120339","name":"Grove Nienow","party":"","address":"332 W 2200 N, Lehi, UT 84043","precinct":"25LE21","hd":"53","v_score":"1.193887297","decile":"4","lat":40.414969545123,"lng":-111.854793264004},{"id":"120371","name":"Leonardo Hoppe DDS","party":"Dem","address":"2951 N 425 W, Lehi, UT 84043","precinct":"25LE21","hd":"53","v_score":"1.193887297","decile":"4","lat":40.425147716134,"lng":-111.855899572221},{"id":"120716","name":"Jaxon Ritchie","party":"Dem","address":"2865 N Park Ridge Dr, Lehi, UT 84043","precinct":"25LE21","hd":"53","v_score":"1.193887297","decile":"4","lat":40.42420068206,"lng":-111.861102813359},{"id":"120978","name":"Joann Schneider","party":"","address":"462 W 2280 N, Lehi, UT 84043","precinct":"25LE21","hd":"53","v_score":"8.284004873","decile":"8","lat":40.41683729448,"lng":-111.857017643786},{"id":"121442","name":"Deja Bartoletti","party":"","address":"393 W 3050 N, Lehi, UT 84043","precinct":"25LE21","hd":"53","v_score":"0","decile":"2","lat":40.290947147739,"lng":-112.043734680731},{"id":"121444","name":"Annamae Harber","party":"","address":"393 W 3050 N, Lehi, UT 84043","precinct":"25LE21","hd":"53","v_score":"1.193887297","decile":"4","lat":40.290947147739,"lng":-112.043734680731},{"id":"122490","name":"Kenyatta O'Keefe","party":"Dem","address":"3029 N Park Ridge Dr, Lehi, UT 84043","precinct":"25LE21","hd":"53","v_score":"1.193887297","decile":"4","lat":40.425703752166,"lng":-111.861450580942},{"id":"123276","name":"Stasia Little-Haag","party":"Dem","address":"2244 N 490 W, Lehi, UT 84043","precinct":"25LE21","hd":"53","v_score":"0","decile":"2","lat":40.41584222757,"lng":-111.856302648147},{"id":"124778","name":"Keenen Breitenberg","party":"Rep","address":"2580 N 600 W, Lehi, UT 84043","precinct":"25LE21","hd":"53","v_score":"2.876042565","decile":"6","lat":40.420373365921,"lng":-111.859119010576},{"id":"125948","name":"Jaida Legros","party":"Dem","address":"2855 N 425 W, Lehi, UT 84043","precinct":"25LE21","hd":"53","v_score":"0","decile":"2","lat":40.423596478988,"lng":-111.856199079847},{"id":"127010","name":"Sherwin Lueilwitz","party":"Dem","address":"409 W 3050 N, Lehi, UT 84043","precinct":"25LE21","hd":"53","v_score":"2.876042565","decile":"6","lat":40.290947147739,"lng":-112.043734680731},{"id":"127336","name":"Candido Greenholt III","party":"","address":"420 W 2325 N, Lehi, UT 84043","precinct":"25LE21","hd":"53","v_score":"0","decile":"2","lat":40.417540855397,"lng":-111.85602855325},{"id":"127786","name":"Marlin Hintz","party":"Dem","address":"698 W Ridgeline Dr, Lehi, UT 84043","precinct":"25LE21","hd":"53","v_score":"0","decile":"2","lat":40.423794293997,"lng":-111.860944552037},{"id":"128008","name":"Harlon Sawayn","party":"Dem","address":"498 W 2375 N, Lehi, UT 84043","precinct":"25LE21","hd":"53","v_score":"0","decile":"2","lat":40.418313205997,"lng":-111.857372761454},{"id":"129794","name":"Bobby Wuckert","party":"Dem","address":"2257 N 300 W, Lehi, UT 84043","precinct":"25LE21","hd":"53","v_score":"0","decile":"2","lat":40.416292824916,"lng":-111.854535220008},{"id":"130337","name":"Eda Torphy","party":"","address":"3015 N 300 W, Lehi, UT 84043","precinct":"25LE21","hd":"53","v_score":"7.090117576","decile":"8","lat":40.425545212361,"lng":-111.854534081236},{"id":"130429","name":"Henretta Parisian","party":"Dem","address":"561 W 2660 N, Lehi, UT 84043","precinct":"25LE21","hd":"53","v_score":"0","decile":"2","lat":40.421417265541,"lng":-111.859473068982},{"id":"132861","name":"Esker Roberts","party":"Rep","address":"367 W 2800 N, Lehi, UT 84043","precinct":"25LE21","hd":"53","v_score":"0","decile":"2","lat":40.423121702256,"lng":-111.855494904142},{"id":"134072","name":"Brayan Zieme","party":"","address":"450 W 2225 N, Lehi, UT 84043","precinct":"25LE21","hd":"53","v_score":"0","decile":"2","lat":40.415716524275,"lng":-111.855889862383},{"id":"134363","name":"Lizzie Morar","party":"Dem","address":"2235 N 490 W, Lehi, UT 84043","precinct":"25LE21","hd":"53","v_score":"0","decile":"2","lat":40.41574450597,"lng":-111.856452122055},{"id":"134631","name":"Cliffie Skiles","party":"","address":"3094 N Park Ridge Dr, Lehi, UT 84043","precinct":"25LE21","hd":"53","v_score":"25.88985458","decile":"10","lat":40.425883606568,"lng":-111.861313548675},{"id":"135003","name":"Zeta Senger","party":"Rep","address":"2970 N Park Ridge Dr, Lehi, UT 84043","precinct":"25LE21","hd":"53","v_score":"25.56562396","decile":"10","lat":40.425066240831,"lng":-111.860994498362},{"id":"135036","name":"Omari Miller","party":"","address":"2699 N 640 W, Lehi, UT 84043","precinct":"25LE21","hd":"53","v_score":"5.40460374","decile":"7","lat":40.42219395564,"lng":-111.859784582373},{"id":"135037","name":"Fuller Douglas PhD","party":"","address":"2699 N 640 W, Lehi, UT 84043","precinct":"25LE21","hd":"53","v_score":"5.40460374","decile":"7","lat":40.42219395564,"lng":-111.859784582373},{"id":"135053","name":"Dr. Westin Grant","party":"Dem","address":"422 W 2540 N, Lehi, UT 84043","precinct":"25LE21","hd":"53","v_score":"9.842769839","decile":"8","lat":40.419924294057,"lng":-111.856054851665},{"id":"135189","name":"Hollis Dietrich","party":"Dem","address":"2918 N Park Ridge Dr, Lehi, UT 84043","precinct":"25LE21","hd":"53","v_score":"15.92261858","decile":"9","lat":40.424397261481,"lng":-111.86095355113},{"id":"135466","name":"Arturo Dickinson","party":"Dem","address":"2335 N 380 W, Lehi, UT 84043","precinct":"25LE21","hd":"53","v_score":"13.080119","decile":"9","lat":40.417851173054,"lng":-111.855677073984},{"id":"135733","name":"Aja Hills","party":"Dem","address":"521 W Parkview Dr, Lehi, UT 84043","precinct":"25LE21","hd":"53","v_score":"11.99259879","decile":"9","lat":40.423818591879,"lng":-111.858166018569},{"id":"135936","name":"Emilio O'Reilly","party":"Dem","address":"349 W 2875 N, Lehi, UT 84043","precinct":"25LE21","hd":"53","v_score":"25.28454428","decile":"10","lat":40.423929088814,"lng":-111.85489552047},{"id":"135965","name":"Amelia Ratke","party":"Dem","address":"3174 Meadow View Dr, Lehi, UT 84043","precinct":"25LE21","hd":"53","v_score":"2.315214949","decile":"5","lat":40.427638112234,"lng":-111.862284088617},{"id":"136407","name":"Wally Leannon","party":"","address":"707 W Ridgeline Dr, Lehi, UT 84043","precinct":"25LE21","hd":"53","v_score":"0","decile":"2","lat":40.42367970261,"lng":-111.860912799545},{"id":"136582","name":"Mr. Willard Shanahan","party":"Rep","address":"578 W Trail Side Dr, Lehi, UT 84043","precinct":"25LE21","hd":"53","v_score":"10.7597751","decile":"9","lat":40.424363593641,"lng":-111.859094977211},{"id":"136974","name":"Dollye Kilback-Torphy","party":"Dem","address":"2799 N 425 W, Lehi, UT 84043","precinct":"25LE21","hd":"53","v_score":"5.530510904","decile":"7","lat":40.42312170231,"lng":-111.856199079144},{"id":"136975","name":"Savanah Strosin","party":"Rep","address":"2799 N 425 W, Lehi, UT 84043","precinct":"25LE21","hd":"53","v_score":"8.547102156","decile":"8","lat":40.42312170231,"lng":-111.856199079144},{"id":"138063","name":"Nylah Dicki","party":"","address":"744 W Ridgeline Dr, Lehi, UT 84043","precinct":"25LE21","hd":"53","v_score":"8.347511332","decile":"8","lat":40.423789080123,"lng":-111.861541701182},{"id":"138071","name":"Eldridge Krajcik","party":"Dem","address":"2820 N Park View Ct, Lehi, UT 84043","precinct":"25LE21","hd":"53","v_score":"8.280646305","decile":"8","lat":40.422807367452,"lng":-111.857099510428},{"id":"138072","name":"Coleen Haley DVM","party":"Rep","address":"2820 N Park View Ct, Lehi, UT 84043","precinct":"25LE21","hd":"53","v_score":"8.280646305","decile":"8","lat":40.422807367452,"lng":-111.857099510428},{"id":"138093","name":"Jerimy Frami-Willms","party":"Rep","address":"3046 Meadow View Dr, Lehi, UT 84043","precinct":"25LE21","hd":"53","v_score":"8.421194992","decile":"8","lat":40.42604929031,"lng":-111.862326000318},{"id":"139169","name":"Leeroy Stark III","party":"Dem","address":"459 W 2325 N, Lehi, UT 84043","precinct":"25LE21","hd":"53","v_score":"8.280646305","decile":"8","lat":40.41741044704,"lng":-111.856922727708},{"id":"139536","name":"Stone Denesik","party":"Dem","address":"476 W 2375 N, Lehi, UT 84043","precinct":"25LE21","hd":"53","v_score":"0","decile":"2","lat":40.418311290111,"lng":-111.856991984991},{"id":"140458","name":"Miss Charlotta Kuhic","party":"Dem","address":"400 W 2730 N, Lehi, UT 84043","precinct":"25LE21","hd":"53","v_score":"4.210716443","decile":"7","lat":40.422417293717,"lng":-111.855301192845},{"id":"140562","name":"Delila Ritchie","party":"","address":"3003 N Park Ridge Dr, Lehi, UT 84043","precinct":"25LE21","hd":"53","v_score":"5.40460374","decile":"7","lat":40.425457234424,"lng":-111.861387448389},{"id":"140697","name":"Jennie Bruen","party":"Dem","address":"2932 N Trail Side Ct, Lehi, UT 84043","precinct":"25LE21","hd":"53","v_score":"4.465184987","decile":"7","lat":40.425049691637,"lng":-111.857038551403},{"id":"140848","name":"Quinn Fadel","party":"Dem","address":"322 W 2375 N, Lehi, UT 84043","precinct":"25LE21","hd":"53","v_score":"5.815909755","decile":"7","lat":40.418297641814,"lng":-111.854766556955},{"id":"143132","name":"Jarod Veum","party":"","address":"693 W Parkview Dr, Lehi, UT 84043","precinct":"25LE21","hd":"53","v_score":"3.93832808","decile":"6","lat":40.422925781983,"lng":-111.860547658778},{"id":"143308","name":"Denice Stark","party":"","address":"2970 N Park Ridge Dr, Lehi, UT 84043","precinct":"25LE21","hd":"53","v_score":"20.21891274","decile":"10","lat":40.425066240831,"lng":-111.860994498362},{"id":"143534","name":"Berta Glover","party":"","address":"514 W Parkview Dr, Lehi, UT 84043","precinct":"25LE21","hd":"53","v_score":"6.814370645","decile":"8","lat":40.424136293703,"lng":-111.857637339933},{"id":"143936","name":"Theo Schroeder-Okuneva","party":"Rep","address":"514 W Parkview Dr, Lehi, UT 84043","precinct":"25LE21","hd":"53","v_score":"6.814370645","decile":"8","lat":40.424136293703,"lng":-111.857637339933},{"id":"144492","name":"Denise Schoen","party":"","address":"434 W 3075 N, Lehi, UT 84043","precinct":"25LE21","hd":"53","v_score":"14.39358922","decile":"9","lat":40.290947439702,"lng":-112.043884911084},{"id":"144935","name":"Gilman Hagenes","party":"Rep","address":"2954 N 425 W, Lehi, UT 84043","precinct":"25LE21","hd":"53","v_score":"11.35141108","decile":"9","lat":40.425166680265,"lng":-111.855748883381},{"id":"145363","name":"Cephus Littel","party":"","address":"2927 N Park Ridge Dr, Lehi, UT 84043","precinct":"25LE21","hd":"53","v_score":"0","decile":"3","lat":40.42475757441,"lng":-111.861107902337},{"id":"145708","name":"Kristian Windler","party":"Rep","address":"439 W 2600 N, Lehi, UT 84043","precinct":"25LE21","hd":"53","v_score":"11.99595736","decile":"9","lat":40.420617539706,"lng":-111.856758303796},{"id":"145885","name":"Mrs. Ouida Koch MD","party":"Dem","address":"433 W 2925 N, Lehi, UT 84043","precinct":"25LE21","hd":"53","v_score":"2.587603312","decile":"5","lat":40.424788973831,"lng":-111.855904951142},{"id":"146500","name":"Gerhardt Emard","party":"Dem","address":"461 W 2375 N, Lehi, UT 84043","precinct":"25LE21","hd":"53","v_score":"18.97275282","decile":"10","lat":40.418195307873,"lng":-111.856716051358},{"id":"146503","name":"Hattie Moore","party":"Dem","address":"461 W 2375 N, Lehi, UT 84043","precinct":"25LE21","hd":"53","v_score":"16.27751858","decile":"9","lat":40.418195307873,"lng":-111.856716051358},{"id":"146606","name":"Jamya Cremin","party":"","address":"530 W 2540 N, Lehi, UT 84043","precinct":"25LE21","hd":"53","v_score":"12.768328","decile":"9","lat":40.419924294202,"lng":-111.857931477818},{"id":"146654","name":"Elgie Mosciski","party":"Rep","address":"461 W 2375 N, Lehi, UT 84043","precinct":"25LE21","hd":"53","v_score":"18.97275282","decile":"10","lat":40.418195307873,"lng":-111.856716051358},{"id":"148034","name":"Jamar Johns","party":"","address":"324 W 2875 N, Lehi, UT 84043","precinct":"25LE21","hd":"53","v_score":"31.06727652","decile":"10","lat":40.424044756748,"lng":-111.854717945213},{"id":"148331","name":"Juli Hand","party":"Dem","address":"514 W 2450 N, Lehi, UT 84043","precinct":"25LE21","hd":"53","v_score":"31.82104997","decile":"10","lat":40.419110447088,"lng":-111.857654438026},{"id":"148776","name":"Mr. Quint Blick Sr.","party":"Dem","address":"372 W 2200 N, Lehi, UT 84043","precinct":"25LE21","hd":"53","v_score":"2.315214949","decile":"5","lat":40.41497372057,"lng":-111.855135648435},{"id":"148896","name":"Alwina Cummerata MD","party":"","address":"566 W 2325 N, Lehi, UT 84043","precinct":"25LE21","hd":"53","v_score":"22.18184494","decile":"10","lat":40.417496359889,"lng":-111.858548916688},{"id":"149019","name":"Young Bashirian","party":"","address":"402 W 2280 N, Lehi, UT 84043","precinct":"25LE21","hd":"53","v_score":"6.881235673","decile":"8","lat":40.416837294409,"lng":-111.856101136143},{"id":"149109","name":"Merwin Terry","party":"Rep","address":"2873 N 425 W, Lehi, UT 84043","precinct":"25LE21","hd":"53","v_score":"8.280646305","decile":"8","lat":40.423716540753,"lng":-111.856199079831},{"id":"149978","name":"Malaya Welch","party":"","address":"475 W 2540 N, Lehi, UT 84043","precinct":"25LE21","hd":"53","v_score":"5.40460374","decile":"7","lat":40.419809702742,"lng":-111.85695841242},{"id":"150066","name":"Kyle West","party":"Dem","address":"788 W Ridgeline Dr, Lehi, UT 84043","precinct":"25LE21","hd":"53","v_score":"5.40460374","decile":"7","lat":40.423785294093,"lng":-111.862175609373},{"id":"150490","name":"Audrey Hyatt","party":"Dem","address":"491 W 2200 N, Lehi, UT 84043","precinct":"25LE21","hd":"53","v_score":"8.216702423","decile":"8","lat":40.415085587552,"lng":-111.857694214616},{"id":"151569","name":"Tamie Beahan","party":"","address":"327 W 2925 N, Lehi, UT 84043","precinct":"25LE21","hd":"53","v_score":"3.93832808","decile":"6","lat":40.424786702013,"lng":-111.854781175242},{"id":"151596","name":"Guy Lowe","party":"","address":"567 W 2280 N, Lehi, UT 84043","precinct":"25LE21","hd":"53","v_score":"32.9448582","decile":"10","lat":40.416722703218,"lng":-111.85860625705},{"id":"152719","name":"Acy Monahan","party":"","address":"401 W 2730 N, Lehi, UT 84043","precinct":"25LE21","hd":"53","v_score":"31.82104997","decile":"10","lat":40.422302702333,"lng":-111.85530119286},{"id":"152823","name":"Tarik Koss III","party":"","address":"565 W 2325 N, Lehi, UT 84043","precinct":"25LE21","hd":"53","v_score":"14.09683725","decile":"9","lat":40.417381372578,"lng":-111.858569595325},{"id":"152922","name":"Jordon Shields","party":"","address":"2941 N Trail Side Ct, Lehi, UT 84043","precinct":"25LE21","hd":"53","v_score":"2.587603312","decile":"5","lat":40.425107623601,"lng":-111.857189080565},{"id":"153118","name":"Lue Walker","party":"","address":"514 W 2450 N, Lehi, UT 84043","precinct":"25LE21","hd":"53","v_score":"31.82104997","decile":"10","lat":40.419110447088,"lng":-111.857654438026},{"id":"153126","name":"Pearl Franecki DVM","party":"","address":"2912 N Park Place Ct, Lehi, UT 84043","precinct":"25LE21","hd":"53","v_score":"12.51600754","decile":"9","lat":40.424730926094,"lng":-111.859831028744},{"id":"154689","name":"Smith Baumbach","party":"","address":"479 W 2225 N, Lehi, UT 84043","precinct":"25LE21","hd":"53","v_score":"31.06727652","decile":"10","lat":40.415595458178,"lng":-111.856125666494},{"id":"154709","name":"Sonia Daniel","party":"Dem","address":"2513 N 380 W, Lehi, UT 84043","precinct":"25LE21","hd":"53","v_score":"37.20239692","decile":"10","lat":40.419602062093,"lng":-111.855675489114},{"id":"155183","name":"Adrain Padberg","party":"Dem","address":"2769 N 425 W, Lehi, UT 84043","precinct":"25LE21","hd":"53","v_score":"3.93832808","decile":"6","lat":40.422810933844,"lng":-111.856199079185},{"id":"155863","name":"Lu Dickinson-Reinger","party":"Rep","address":"479 W 2225 N, Lehi, UT 84043","precinct":"25LE21","hd":"53","v_score":"28.79203428","decile":"10","lat":40.415595458178,"lng":-111.856125666494},{"id":"156041","name":"Miss Danyelle Kassulke PhD","party":"","address":"672 W Parkview Dr, Lehi, UT 84043","precinct":"25LE21","hd":"53","v_score":"15.4533012","decile":"9","lat":40.423043699995,"lng":-111.860139281573},{"id":"156273","name":"Mr. Tobin Rosenbaum","party":"Rep","address":"369 W 2875 N, Lehi, UT 84043","precinct":"25LE21","hd":"53","v_score":"19.80866274","decile":"10","lat":40.423928188674,"lng":-111.85504449544},{"id":"156367","name":"Earle Bernier-Erdman","party":"Dem","address":"774 W Parkview Dr, Lehi, UT 84043","precinct":"25LE21","hd":"53","v_score":"9.116556227","decile":"8","lat":40.423032530782,"lng":-111.861513107627},{"id":"157740","name":"Venie Greenholt DVM","party":"Dem","address":"2256 N 430 W, Lehi, UT 84043","precinct":"25LE21","hd":"53","v_score":"16.48596306","decile":"9","lat":40.415913035937,"lng":-111.855313543101},{"id":"157985","name":"Chip Hamill","party":"Dem","address":"400 W 2875 N, Lehi, UT 84043","precinct":"25LE21","hd":"53","v_score":"25.06350144","decile":"10","lat":40.424041336218,"lng":-111.855284050097},{"id":"159023","name":"Marilee Lubowitz","party":"","address":"440 W 2325 N, Lehi, UT 84043","precinct":"25LE21","hd":"53","v_score":"15.53259879","decile":"9","lat":40.417534760122,"lng":-111.856373808515},{"id":"159024","name":"Andy Ernser-Lowe","party":"Rep","address":"440 W 2325 N, Lehi, UT 84043","precinct":"25LE21","hd":"53","v_score":"15.53259879","decile":"9","lat":40.417534760122,"lng":-111.856373808515},{"id":"159922","name":"Amaris Hahn","party":"","address":"495 W 2600 N, Lehi, UT 84043","precinct":"25LE21","hd":"53","v_score":"10.29877667","decile":"9","lat":40.420603014802,"lng":-111.857585016435},{"id":"160063","name":"Cesar Bartell","party":"Dem","address":"324 W 2875 N, Lehi, UT 84043","precinct":"25LE21","hd":"53","v_score":"31.06727652","decile":"10","lat":40.424044756748,"lng":-111.854717945213},{"id":"161045","name":"Kiyoko Ullrich","party":"","address":"475 W 2540 N, Lehi, UT 84043","precinct":"25LE21","hd":"53","v_score":"2.315214949","decile":"5","lat":40.419809702742,"lng":-111.85695841242},{"id":"161051","name":"Wilford Johnson","party":"Dem","address":"461 W 2540 N, Lehi, UT 84043","precinct":"25LE21","hd":"53","v_score":"5.40460374","decile":"7","lat":40.419809702724,"lng":-111.856715146067},{"id":"161148","name":"Sherree Rodriguez","party":"Dem","address":"744 W Sandhill Dr, Lehi, UT 84043","precinct":"25LE21","hd":"53","v_score":"3.93832808","decile":"6","lat":40.422309294181,"lng":-111.861160561542},{"id":"161237","name":"Dr. Blaise Auer V","party":"","address":"495 W 2450 N, Lehi, UT 84043","precinct":"25LE21","hd":"53","v_score":"5.40460374","decile":"7","lat":40.418994985467,"lng":-111.857308775413},{"id":"161238","name":"Dr. Parker Metz","party":"Rep","address":"363 W 2600 N, Lehi, UT 84043","precinct":"25LE21","hd":"53","v_score":"0","decile":"3","lat":40.420637702511,"lng":-111.855173819428},{"id":"161450","name":"Erving Green","party":"","address":"732 W Parkview Dr, Lehi, UT 84043","precinct":"25LE21","hd":"53","v_score":"26.89878031","decile":"10","lat":40.42303712987,"lng":-111.860947414546},{"id":"161986","name":"Josiah Rowe-Morar","party":"","address":"320 W 2450 N, Lehi, UT 84043","precinct":"25LE21","hd":"53","v_score":"1.121327652","decile":"3","lat":40.419098482528,"lng":-111.854751077898},{"id":"164075","name":"Dr. Damion Beahan DVM","party":"Dem","address":"440 W 2325 N, Lehi, UT 84043","precinct":"25LE21","hd":"53","v_score":"15.53259879","decile":"9","lat":40.417534760122,"lng":-111.856373808515},{"id":"164175","name":"Dr. Phoebe Pfeffer","party":"Rep","address":"683 W Ridgeline Dr, Lehi, UT 84043","precinct":"25LE21","hd":"53","v_score":"2.744440783","decile":"6","lat":40.423679702603,"lng":-111.860817542023},{"id":"165130","name":"Erline Brekke","party":"Dem","address":"402 W 2540 N, Lehi, UT 84043","precinct":"25LE21","hd":"53","v_score":"18.46989245","decile":"10","lat":40.41992429403,"lng":-111.855707328303},{"id":"165449","name":"Mrs. Evelin Ebert","party":"Rep","address":"442 W 2375 N, Lehi, UT 84043","precinct":"25LE21","hd":"53","v_score":"5.407962308","decile":"7","lat":40.418308329197,"lng":-111.856403512274},{"id":"165680","name":"Channing Wolff","party":"Rep","address":"698 W Parkview Dr, Lehi, UT 84043","precinct":"25LE21","hd":"53","v_score":"31.8680221","decile":"10","lat":40.423040852941,"lng":-111.860489472528},{"id":"165869","name":"Ms. Elise West PhD","party":"Rep","address":"359 W 2925 N, Lehi, UT 84043","precinct":"25LE21","hd":"53","v_score":"19.74179771","decile":"10","lat":40.424786702036,"lng":-111.85507975262},{"id":"165983","name":"Maxine Schulist","party":"Rep","address":"359 W 2925 N, Lehi, UT 84043","precinct":"25LE21","hd":"53","v_score":"22.6847053","decile":"10","lat":40.424786702036,"lng":-111.85507975262},{"id":"165992","name":"Dr. Kamren Schulist","party":"Rep","address":"550 W 2280 N, Lehi, UT 84043","precinct":"25LE21","hd":"53","v_score":"15.09172736","decile":"9","lat":40.416837294584,"lng":-111.858361854996},{"id":"166376","name":"Jorden Kreiger","party":"","address":"477 W 2450 N, Lehi, UT 84043","precinct":"25LE21","hd":"53","v_score":"15.09529814","decile":"9","lat":40.418994201685,"lng":-111.85699723142},{"id":"166517","name":"Marquise Reichert","party":"Rep","address":"732 W Parkview Dr, Lehi, UT 84043","precinct":"25LE21","hd":"53","v_score":"18.60278813","decile":"10","lat":40.42303712987,"lng":-111.860947414546},{"id":"167468","name":"Edrie Wilkinson","party":"Rep","address":"349 W 2730 N, Lehi, UT 84043","precinct":"25LE21","hd":"53","v_score":"16.56594146","decile":"9","lat":40.422302702303,"lng":-111.854904633482},{"id":"167637","name":"Donnie Feest MD","party":"","address":"514 W 2325 N, Lehi, UT 84043","precinct":"25LE21","hd":"53","v_score":"0","decile":"3","lat":40.417512207604,"lng":-111.857651252998},{"id":"169440","name":"Mr. Maverick Ferry","party":"Rep","address":"350 W 2600 N, Lehi, UT 84043","precinct":"25LE21","hd":"53","v_score":"20.37697823","decile":"10","lat":40.420752293886,"lng":-111.855051740238},{"id":"170095","name":"Cathie Bogan","party":"Dem","address":"2672 N 780 W, Lehi, UT 84043","precinct":"25LE21","hd":"53","v_score":"2.315214949","decile":"5","lat":40.421563739479,"lng":-111.861835555071},{"id":"170217","name":"Mr. Christina Wilderman DVM","party":"","address":"470 W 2225 N, Lehi, UT 84043","precinct":"25LE21","hd":"53","v_score":"5.40460374","decile":"7","lat":40.415711847474,"lng":-111.856062124999},{"id":"170381","name":"Dr. Keanu Kris III","party":"","address":"2559 N 300 W, Lehi, UT 84043","precinct":"25LE21","hd":"53","v_score":"32.96005954","decile":"10","lat":40.420343546131,"lng":-111.854548750384},{"id":"170742","name":"Shanell Kuhic","party":"Rep","address":"584 W 2280 N, Lehi, UT 84043","precinct":"25LE21","hd":"53","v_score":"15.39205011","decile":"9","lat":40.416837294623,"lng":-111.858881209328},{"id":"170957","name":"Launa Emmerich","party":"","address":"3116 N Park Ridge Dr, Lehi, UT 84043","precinct":"25LE21","hd":"53","v_score":"5.620483348","decile":"7","lat":40.425986646057,"lng":-111.861313548662},{"id":"171282","name":"Harman Cartwright","party":"Dem","address":"693 W Parkview Dr, Lehi, UT 84043","precinct":"25LE21","hd":"53","v_score":"5.40460374","decile":"7","lat":40.422925781983,"lng":-111.860547658778},{"id":"171381","name":"Debbi Blanda","party":"Dem","address":"2802 N Trail Side Dr, Lehi, UT 84043","precinct":"25LE21","hd":"53","v_score":"1.121327652","decile":"3","lat":40.423193933257,"lng":-111.858373224784},{"id":"171405","name":"Miss Fleda Blanda","party":"Dem","address":"462 W 2375 N, Lehi, UT 84043","precinct":"25LE21","hd":"53","v_score":"10.52632313","decile":"9","lat":40.418310070911,"lng":-111.856749672696},{"id":"171997","name":"Celine Mraz DVM","party":"Rep","address":"2559 N 300 W, Lehi, UT 84043","precinct":"25LE21","hd":"53","v_score":"32.96005954","decile":"10","lat":40.420343546131,"lng":-111.854548750384},{"id":"172260","name":"Garret Johns","party":"","address":"2669 N 425 W, Lehi, UT 84043","precinct":"25LE21","hd":"53","v_score":"6.896907962","decile":"8","lat":40.421760849692,"lng":-111.856199078407},{"id":"172292","name":"Ott Mohr II","party":"Dem","address":"2352 N 380 W, Lehi, UT 84043","precinct":"25LE21","hd":"53","v_score":"6.814370645","decile":"8","lat":40.417888625853,"lng":-111.855526560497},{"id":"172614","name":"Arrie Doyle","party":"","address":"433 W 2925 N, Lehi, UT 84043","precinct":"25LE21","hd":"53","v_score":"4.210716443","decile":"7","lat":40.424788973831,"lng":-111.855904951142},{"id":"172651","name":"Pam Senger","party":"Dem","address":"343 W 2600 N, Lehi, UT 84043","precinct":"25LE21","hd":"53","v_score":"17.59830555","decile":"9","lat":40.420637702496,"lng":-111.854970354137},{"id":"174418","name":"Saul Murray","party":"","address":"470 W 2225 N, Lehi, UT 84043","precinct":"25LE21","hd":"53","v_score":"5.40460374","decile":"7","lat":40.415711847474,"lng":-111.856062124999},{"id":"175256","name":"Ms. Jayden Reinger","party":"","address":"2991 N 425 W, Lehi, UT 84043","precinct":"25LE21","hd":"53","v_score":"6.814370645","decile":"8","lat":40.425344566793,"lng":-111.85589794533},{"id":"175509","name":"Zandra Schultz-Hermiston","party":"Dem","address":"362 W 2280 N, Lehi, UT 84043","precinct":"25LE21","hd":"53","v_score":"3.93832808","decile":"6","lat":40.416837294362,"lng":-111.855490131047},{"id":"175713","name":"Katherine Jakubowski","party":"Rep","address":"3053 N Park Ridge Dr, Lehi, UT 84043","precinct":"25LE21","hd":"53","v_score":"2.817000428","decile":"6","lat":40.425945664454,"lng":-111.861464081341},{"id":"176025","name":"Frank Upton","party":"Rep","address":"459 W 2325 N, Lehi, UT 84043","precinct":"25LE21","hd":"53","v_score":"8.280646305","decile":"8","lat":40.41741044704,"lng":-111.856922727708},{"id":"176140","name":"Juliana Heller DDS","party":"Rep","address":"547 W 2325 N, Lehi, UT 84043","precinct":"25LE21","hd":"53","v_score":"2.315214949","decile":"5","lat":40.417386309751,"lng":-111.85828993856},{"id":"176237","name":"Mr. Lovell Daugherty","party":"","address":"514 W 2660 N, Lehi, UT 84043","precinct":"25LE21","hd":"53","v_score":"12.74279652","decile":"9","lat":40.421533012331,"lng":-111.859429323722},{"id":"176941","name":"Miss Jessika Weimann DDS","party":"Dem","address":"676 W Ridgeline Dr, Lehi, UT 84043","precinct":"25LE21","hd":"53","v_score":"0","decile":"3","lat":40.423794293989,"lng":-111.860842976415},{"id":"176954","name":"Ferman Spinka","party":"","address":"2672 N 780 W, Lehi, UT 84043","precinct":"25LE21","hd":"53","v_score":"1.121327652","decile":"3","lat":40.421563739479,"lng":-111.861835555071},{"id":"177257","name":"Dessie Cole","party":"Dem","address":"321 W 2280 N, Lehi, UT 84043","precinct":"25LE21","hd":"53","v_score":"0","decile":"3","lat":40.416722702929,"lng":-111.854848575712},{"id":"177564","name":"Malik Feil","party":"","address":"2242 N 430 W, Lehi, UT 84043","precinct":"25LE21","hd":"53","v_score":"16.76496432","decile":"9","lat":40.415867687224,"lng":-111.85531212596},{"id":"177619","name":"Mrs. Noretta Hegmann","party":"","address":"2242 N 430 W, Lehi, UT 84043","precinct":"25LE21","hd":"53","v_score":"14.88738265","decile":"9","lat":40.415867687224,"lng":-111.85531212596},{"id":"177645","name":"Ross Lynch-Senger","party":"","address":"699 W Ridgeline Dr, Lehi, UT 84043","precinct":"25LE21","hd":"53","v_score":"1.121327652","decile":"3","lat":40.423679702608,"lng":-111.860881047038},{"id":"178079","name":"Dr. Mabel Gleichner DDS","party":"","address":"596 W 2600 N, Lehi, UT 84043","precinct":"25LE21","hd":"53","v_score":"3.93832808","decile":"6","lat":40.420691119655,"lng":-111.859094287241},{"id":"178243","name":"Dustyn Gulgowski PhD","party":"Dem","address":"599 W Parkview Dr, Lehi, UT 84043","precinct":"25LE21","hd":"53","v_score":"11.02844566","decile":"9","lat":40.422986420104,"lng":-111.859386661492},{"id":"179287","name":"Miss Lota Keebler PhD","party":"Dem","address":"2254 N 490 W, Lehi, UT 84043","precinct":"25LE21","hd":"53","v_score":"9.35760564","decile":"8","lat":40.415873698216,"lng":-111.856302982937},{"id":"179484","name":"Osie Kassulke","party":"Rep","address":"513 W 2600 N, Lehi, UT 84043","precinct":"25LE21","hd":"53","v_score":"2.315214949","decile":"5","lat":40.420598346083,"lng":-111.857850745497},{"id":"180044","name":"Miss Migdalia Jast DDS","party":"Dem","address":"2982 Meadow View Dr, Lehi, UT 84043","precinct":"25LE21","hd":"53","v_score":"1.121327652","decile":"3","lat":40.425396059551,"lng":-111.86247629674},{"id":"180419","name":"Jorja Watsica","party":"Dem","address":"327 W 2925 N, Lehi, UT 84043","precinct":"25LE21","hd":"53","v_score":"5.40460374","decile":"7","lat":40.424786702013,"lng":-111.854781175242},{"id":"181007","name":"Modena Goodwin-Block","party":"Rep","address":"439 W 2600 N, Lehi, UT 84043","precinct":"25LE21","hd":"53","v_score":"0","decile":"3","lat":40.420617539706,"lng":-111.856758303796},{"id":"181144","name":"Ozell Emard DDS","party":"Rep","address":"324 W 2730 N, Lehi, UT 84043","precinct":"25LE21","hd":"53","v_score":"1.193887297","decile":"4","lat":40.422417293673,"lng":-111.854721606062},{"id":"181343","name":"Mr. Billy Witting","party":"Rep","address":"329 W 2200 N, Lehi, UT 84043","precinct":"25LE21","hd":"53","v_score":"8.507303088","decile":"8","lat":40.414854550876,"lng":-111.854761435988},{"id":"181379","name":"Richie Nolan","party":"Dem","address":"608 W 2660 N, Lehi, UT 84043","precinct":"25LE21","hd":"53","v_score":"7.031075439","decile":"8","lat":40.421530525143,"lng":-111.859528811534}]