[{"vid":"f6f717311502f89a333a6aa6dda8a3310bd35991f2e8cf321f298ad2b3e8b579","name":"Yair Crooks I","party":"","address":"2043 N 1100 E, Lehi, UT 84043","precinct":"25LE10","hd":"53","v_score":"15.95616156","decile":"9","lat":40.41299711095614,"lng":-111.83168574215314,"phone":"(713) 090-6980","sd":"21","ssbd":"11","lsbd":"School Board Aspen Peaks 2"},{"vid":"1224293","name":"Agnes Ratke","party":"Rep","address":"1174 N 1000 E, Lehi, UT 84043","precinct":"25LE10","hd":"53","v_score":"9.116556227","decile":"8","lat":40.40208537912358,"lng":-111.83296600142403,"phone":"(789) 084-9020","sd":"21","ssbd":"11","lsbd":"School Board Aspen Peaks 2"},{"vid":"1227503","name":"Ms. Macey Jakubowski","party":"Rep","address":"1787 N 750 E, Lehi, UT 84043","precinct":"25LE10","hd":"53","v_score":"20.30142438","decile":"10","lat":40.40956265840217,"lng":-111.83750641061582,"phone":"(761) 165-8417","sd":"21","ssbd":"11","lsbd":"School Board Aspen Peaks 2"},{"vid":"1249129","name":"Mal Schmeler","party":"Rep","address":"1000 E Cedar Hollow Rd, Lehi, UT 84043","precinct":"25LE10","hd":"53","v_score":"9.757278238","decile":"8","lat":40.40557194540293,"lng":-111.83302480596384,"phone":"(347) 694-0386","sd":"21","ssbd":"11","lsbd":"School Board Aspen Peaks 2"},{"vid":"1259325","name":"Jair Veum","party":"Dem","address":"370 E 1650 N, Lehi, UT 84043","precinct":"25LE10","hd":"53","v_score":"18.35167816","decile":"10","lat":40.40788263293664,"lng":-111.84319863105503,"phone":"(669) 921-1213","sd":"21","ssbd":"11","lsbd":"School Board Aspen Peaks 2"},{"vid":"1269252","name":"Dr. Gennaro Sauer Jr.","party":"","address":"694 E 1775 N, Apt D, Lehi, UT 84043","precinct":"25LE10","hd":"53","v_score":"1.121327652","decile":"3","lat":40.40927519178789,"lng":-111.83832538369737,"phone":"(173) 605-3630","sd":"21","ssbd":"11","lsbd":"School Board Aspen Peaks 2"},{"vid":"1269265","name":"Margarite Bogan","party":"","address":"1546 N Summer Crest Dr, Lehi, UT 84043","precinct":"25LE10","hd":"53","v_score":"6.657533174","decile":"7","lat":40.406453577815746,"lng":-111.83590651496779,"phone":"(534) 391-2755","sd":"21","ssbd":"11","lsbd":"School Board Aspen Peaks 2"},{"vid":"1325620","name":"Idabelle Gottlieb","party":"","address":"828 E 1475 N, Lehi, UT 84043","precinct":"25LE10","hd":"53","v_score":"10.52632313","decile":"9","lat":40.405428743920616,"lng":-111.83594541111428,"phone":"(561) 073-7730","sd":"21","ssbd":"11","lsbd":"School Board Aspen Peaks 2"},{"vid":"da5d6538f3ba74a178addfa48ae8559942ed203c3ad4ccdc1cd3fdd918f4016b","name":"Archibald Prosacco","party":"Rep","address":"320 E 1650 N, Lehi, UT 84043","precinct":"25LE10","hd":"53","v_score":"7.934314529","decile":"8","lat":40.40796054285374,"lng":-111.84454417316603,"phone":"(312) 665-6617","sd":"21","ssbd":"11","lsbd":"School Board Aspen Peaks 2"},{"vid":"1335087","name":"Elia Kiehn","party":"Dem","address":"340 E 1650 N, Lehi, UT 84043","precinct":"25LE10","hd":"53","v_score":"2.744440783","decile":"5","lat":40.40789236669718,"lng":-111.8438862910457,"phone":"(174) 663-2459","sd":"21","ssbd":"11","lsbd":"School Board Aspen Peaks 2"},{"vid":"1380615","name":"Dr. Lucretia Heller DDS","party":"","address":"691 E 1775 N, Apt D, Lehi, UT 84043","precinct":"25LE10","hd":"53","v_score":"2.817000428","decile":"6","lat":40.40955925797809,"lng":-111.83832675280118,"phone":"(758) 467-6037","sd":"21","ssbd":"11","lsbd":"School Board Aspen Peaks 2"},{"vid":"91420a888af105fea32e7ef86376570ecbbf865a062303025e3313cc7f6a2273","name":"Toby Tillman","party":"Rep","address":"1802 N 800 E, Lehi, UT 84043","precinct":"25LE10","hd":"53","v_score":"2.587603312","decile":"5","lat":40.409516439541,"lng":-111.83615188856527,"phone":"(747) 439-7761","sd":"21","ssbd":"11","lsbd":"School Board Aspen Peaks 2"},{"vid":"1392829","name":"Meg Bode","party":"Rep","address":"1580 N Summer Crest Dr, Lehi, UT 84043","precinct":"25LE10","hd":"53","v_score":"3.781490609","decile":"6","lat":40.4067097814018,"lng":-111.83542641900341,"phone":"(524) 111-2362","sd":"21","ssbd":"11","lsbd":"School Board Aspen Peaks 2"},{"vid":"1394708","name":"Hildegard Kling","party":"Dem","address":"1533 N Fitzgerald Ln, Lehi, UT 84043","precinct":"25LE10","hd":"53","v_score":"1.121327652","decile":"3","lat":40.40686892339524,"lng":-111.83479203223064,"phone":"(286) 087-6315","sd":"21","ssbd":"11","lsbd":"School Board Aspen Peaks 2"},{"vid":"1395556","name":"Alexandre Koepp","party":"Dem","address":"1730 N 750 E, Lehi, UT 84043","precinct":"25LE10","hd":"53","v_score":"9.104889369","decile":"8","lat":40.408616190719854,"lng":-111.8370801370236,"phone":"(811) 430-6755","sd":"21","ssbd":"11","lsbd":"School Board Aspen Peaks 2"},{"vid":"8fac9e8cc58f94f11144a51ce60abfa4ac20aa196cc06fb8a525d883ee0c872c","name":"Lexus Rath-Veum","party":"Dem","address":"1656 N Oak Dr, Lehi, UT 84043","precinct":"25LE10","hd":"53","v_score":"5.40460374","decile":"7","lat":40.408191415099616,"lng":-111.83434951957905,"phone":"(369) 961-1034","sd":"21","ssbd":"11","lsbd":"School Board Aspen Peaks 2"},{"vid":"1442957","name":"Mrs. Wanita Anderson","party":"Dem","address":"1161 E Cedar Hollow Rd, Lehi, UT 84043","precinct":"25LE10","hd":"53","v_score":"1.193887297","decile":"3","lat":40.40747279651123,"lng":-111.83080564861528,"phone":"(509) 366-6448","sd":"21","ssbd":"11","lsbd":"School Board Aspen Peaks 2"},{"vid":"1482633","name":"Benjamin Dooley","party":"Rep","address":"1889 N Airport Dr, Lehi, UT 84043","precinct":"25LE10","hd":"53","v_score":"9.674124426","decile":"8","lat":40.41145824852642,"lng":-111.83605683435093,"phone":"(611) 814-4897","sd":"21","ssbd":"11","lsbd":"School Board Aspen Peaks 2"},{"vid":"4623052000a17e0954e7d45beaab608b8f06f4a2590d82b5c5bbc58971a2f6b9","name":"Ms. Raelyn Herzog DVM","party":"Rep","address":"1510 N 300 E, Lehi, UT 84043","precinct":"25LE10","hd":"53","v_score":"23.35295938","decile":"10","lat":40.40661420030217,"lng":-111.84357325278303,"phone":"(864) 295-3647","sd":"21","ssbd":"11","lsbd":"School Board Aspen Peaks 2"},{"vid":"1487531","name":"Jeremey Leffler","party":"Dem","address":"1041 E 2040 N, Lehi, UT 84043","precinct":"25LE10","hd":"53","v_score":"23.95587272","decile":"10","lat":40.41319432589415,"lng":-111.83271375907285,"phone":"(359) 813-7524","sd":"21","ssbd":"11","lsbd":"School Board Aspen Peaks 2"},{"vid":"5b893467b00d38f64fe3c13d36a657cc9784b24c47a78475901a2bcda28206fd","name":"Brion Cummerata III","party":"","address":"1920 N Airport Dr, Lehi, UT 84043","precinct":"25LE10","hd":"53","v_score":"6.724398202","decile":"8","lat":40.411628151306296,"lng":-111.83529250043755,"phone":"(388) 966-9405","sd":"21","ssbd":"11","lsbd":"School Board Aspen Peaks 2"},{"vid":"1519601","name":"Victory Robel","party":"Dem","address":"1835 N 900 E, Lehi, UT 84043","precinct":"25LE10","hd":"53","v_score":"2.315214949","decile":"5","lat":40.41040892510498,"lng":-111.83482459652294,"phone":"(535) 768-4113","sd":"21","ssbd":"11","lsbd":"School Board Aspen Peaks 2"},{"vid":"1522114","name":"Ms. Ossie Labadie DDS","party":"Rep","address":"755 E Cedar Hollow Rd, Lehi, UT 84043","precinct":"25LE10","hd":"53","v_score":"18.11188939","decile":"10","lat":40.40502473190173,"lng":-111.83587583177084,"phone":"(287) 861-0093","sd":"21","ssbd":"11","lsbd":"School Board Aspen Peaks 2"},{"vid":"1530223","name":"Turner Robel","party":"Rep","address":"1710 N 800 E, Lehi, UT 84043","precinct":"25LE10","hd":"53","v_score":"1.46627566","decile":"4","lat":40.40830086272447,"lng":-111.83609852162196,"phone":"(906) 667-5763","sd":"21","ssbd":"11","lsbd":"School Board Aspen Peaks 2"},{"vid":"1530568","name":"Miss Oline Quigley DDS","party":"Dem","address":"1415 N 600 E, Lehi, UT 84043","precinct":"25LE10","hd":"53","v_score":"25.91972481","decile":"10","lat":40.40458793919312,"lng":-111.84012756027907,"phone":"(244) 746-9104","sd":"21","ssbd":"11","lsbd":"School Board Aspen Peaks 2"},{"vid":"ee8715c41c41a33dc9690094b9a69b4aa4b95f567107809aaadcb99194fdb9e6","name":"Deja Harris-Schmeler","party":"","address":"706 E Airport Dr, Lehi, UT 84043","precinct":"25LE10","hd":"53","v_score":"1.193887297","decile":"3","lat":40.409996106841234,"lng":-111.83826410255436,"phone":"(621) 972-0918","sd":"21","ssbd":"11","lsbd":"School Board Aspen Peaks 2"},{"vid":"1544120","name":"Ms. Phyliss Bergnaum","party":"Dem","address":"1345 N Cedar Hollow Blvd, Lehi, UT 84043","precinct":"25LE10","hd":"53","v_score":"11.32212024","decile":"9","lat":40.40362588723236,"lng":-111.83324292777161,"phone":"(527) 386-0650","sd":"21","ssbd":"11","lsbd":"School Board Aspen Peaks 2"},{"vid":"1547198","name":"Mrs. Melodee Cassin DVM","party":"Dem","address":"1871 N Airport Dr, Lehi, UT 84043","precinct":"25LE10","hd":"53","v_score":"13.11447181","decile":"9","lat":40.4112880083422,"lng":-111.8365122026974,"phone":"(200) 957-0375","sd":"21","ssbd":"11","lsbd":"School Board Aspen Peaks 2"},{"vid":"1551488","name":"Miss Carisa Pfannerstill DVM","party":"Rep","address":"1817 N Airport Dr, Lehi, UT 84043","precinct":"25LE10","hd":"53","v_score":"21.07999247","decile":"10","lat":40.4106634799267,"lng":-111.8371165364122,"phone":"(271) 488-6438","sd":"21","ssbd":"11","lsbd":"School Board Aspen Peaks 2"},{"vid":"135452137f9464d5e1335d643d5c4b4bd2f5215d28a77b32181ff67ebbe9ae4c","name":"Aiyanna Bogisich","party":"Rep","address":"1801 N 800 E, Lehi, UT 84043","precinct":"25LE10","hd":"53","v_score":"4.064235245","decile":"6","lat":40.40965069867669,"lng":-111.83663135130293,"phone":"(695) 265-1990","sd":"21","ssbd":"11","lsbd":"School Board Aspen Peaks 2"},{"vid":"9dd3b6b375d03a9cd10e907509a6492deff895458aa9d2e0ed4e65f54cc33932","name":"Emanuel Morissette-Haag","party":"Dem","address":"1440 N Summer Crest Dr, Lehi, UT 84043","precinct":"25LE10","hd":"53","v_score":"23.74778107","decile":"10","lat":40.405127573187734,"lng":-111.83669835146222,"phone":"(561) 504-8522","sd":"21","ssbd":"11","lsbd":"School Board Aspen Peaks 2"},{"vid":"1552693","name":"Dr. Burton Luettgen I","party":"Rep","address":"1701 N Oak Dr, Lehi, UT 84043","precinct":"25LE10","hd":"53","v_score":"15.43762891","decile":"9","lat":40.40877478774036,"lng":-111.83457431068348,"phone":"(686) 125-9386","sd":"21","ssbd":"11","lsbd":"School Board Aspen Peaks 2"},{"vid":"72b97b4462a2c1b5d8c349b6188e987378e1ad2f9de9fb987527b0aeaeb23cec","name":"Orris Quitzon","party":"Rep","address":"1783 N 900 E, Lehi, UT 84043","precinct":"25LE10","hd":"53","v_score":"6.783421459","decile":"8","lat":40.40973363531582,"lng":-111.83483043449431,"phone":"(190) 752-8618","sd":"21","ssbd":"11","lsbd":"School Board Aspen Peaks 2"},{"vid":"1572080","name":"Alexandre Wuckert","party":"Rep","address":"1881 N 800 E, Lehi, UT 84043","precinct":"25LE10","hd":"53","v_score":"10.5815213","decile":"9","lat":40.410685090056,"lng":-111.83561372336335,"phone":"(500) 802-1087","sd":"21","ssbd":"11","lsbd":"School Board Aspen Peaks 2"},{"vid":"936090868252671d22b9f599f9c29ff9e538e62d8edb80035320f9bf271498d8","name":"Abbey Paucek-Nikolaus","party":"Dem","address":"1802 N 800 E, Lehi, UT 84043","precinct":"25LE10","hd":"53","v_score":"6.798081861","decile":"8","lat":40.409516439541,"lng":-111.83615188856527,"phone":"(534) 229-4302","sd":"21","ssbd":"11","lsbd":"School Board Aspen Peaks 2"},{"vid":"1588363","name":"Carly Russel","party":"Dem","address":"933 E Mesa Ave, Lehi, UT 84043","precinct":"25LE10","hd":"53","v_score":"2.744440783","decile":"5","lat":40.40907112849484,"lng":-111.83418707923377,"phone":"(822) 980-0312","sd":"21","ssbd":"11","lsbd":"School Board Aspen Peaks 2"},{"vid":"1605738","name":"Deric Langosh Sr.","party":"Rep","address":"691 E 1775 N, Apt A, Lehi, UT 84043","precinct":"25LE10","hd":"53","v_score":"1.46627566","decile":"4","lat":40.40955925797809,"lng":-111.83832675280118,"phone":"(752) 386-7546","sd":"21","ssbd":"11","lsbd":"School Board Aspen Peaks 2"},{"vid":"1624789","name":"Dereon Grimes","party":"Dem","address":"697 E 1725 N, Lehi, UT 84043","precinct":"25LE10","hd":"53","v_score":"2.315214949","decile":"5","lat":40.408819842777135,"lng":-111.83841485440327,"phone":"(512) 575-6878","sd":"21","ssbd":"11","lsbd":"School Board Aspen Peaks 2"},{"vid":"1628347","name":"Lakesha Reichel","party":"Dem","address":"1701 N Oak Dr, Lehi, UT 84043","precinct":"25LE10","hd":"53","v_score":"12.49472132","decile":"9","lat":40.40877478774036,"lng":-111.83457431068348,"phone":"(377) 362-6296","sd":"21","ssbd":"11","lsbd":"School Board Aspen Peaks 2"},{"vid":"1630849","name":"Leana Nader DVM","party":"Rep","address":"1560 N Summer Crest Dr, Lehi, UT 84043","precinct":"25LE10","hd":"53","v_score":"1.193887297","decile":"3","lat":40.4066133826894,"lng":-111.83572780748536,"phone":"(249) 990-0586","sd":"21","ssbd":"11","lsbd":"School Board Aspen Peaks 2"},{"vid":"1635487","name":"Manervia Borer","party":"Dem","address":"1562 N Fitzgerald Ln, Lehi, UT 84043","precinct":"25LE10","hd":"53","v_score":"14.53302059","decile":"9","lat":40.407266691051696,"lng":-111.83408444014928,"phone":"(274) 456-1461","sd":"21","ssbd":"11","lsbd":"School Board Aspen Peaks 2"},{"vid":"1635995","name":"Coleen Osinski MD","party":"Rep","address":"2075 N Airport Dr, Lehi, UT 84043","precinct":"25LE10","hd":"53","v_score":"4.905839784","decile":"7","lat":40.41345974320265,"lng":-111.83383455139054,"phone":"(249) 149-2256","sd":"21","ssbd":"11","lsbd":"School Board Aspen Peaks 2"},{"vid":"1646819","name":"Shamika Swaniawski-Runte","party":"Dem","address":"943 E 1900 N, Lehi, UT 84043","precinct":"25LE10","hd":"53","v_score":"11.54697831","decile":"9","lat":40.411585483821206,"lng":-111.83378580926522,"phone":"(429) 793-7209","sd":"21","ssbd":"11","lsbd":"School Board Aspen Peaks 2"},{"vid":"2f85adefbbdb74413012a5b645c380cff6afe725ec1fa60f5dc7944214ab21f4","name":"Rory Medhurst","party":"","address":"1689 N Oak Dr, Lehi, UT 84043","precinct":"25LE10","hd":"53","v_score":"10.87160818","decile":"9","lat":40.408571879369866,"lng":-111.83484630300126,"phone":"(475) 497-0861","sd":"21","ssbd":"11","lsbd":"School Board Aspen Peaks 2"},{"vid":"45a3ccc2abc54466266f8147471b1e57d31506c2340f38c741ef9a308b315038","name":"Jevon Kutch","party":"Rep","address":"1471 N Summer Crest Dr, Lehi, UT 84043","precinct":"25LE10","hd":"53","v_score":"1.46627566","decile":"4","lat":40.40553142599242,"lng":-111.83781683496765,"phone":"(272) 487-2661","sd":"21","ssbd":"11","lsbd":"School Board Aspen Peaks 2"},{"vid":"1663650","name":"Derl Kirlin-Trantow","party":"","address":"1712 N 750 E, Lehi, UT 84043","precinct":"25LE10","hd":"53","v_score":"5.659072284","decile":"7","lat":40.40829734370444,"lng":-111.83712402270734,"phone":"(520) 031-5957","sd":"21","ssbd":"11","lsbd":"School Board Aspen Peaks 2"},{"vid":"1681194","name":"Bartley Fisher II","party":"","address":"853 E 1475 N, Lehi, UT 84043","precinct":"25LE10","hd":"53","v_score":"1.121327652","decile":"3","lat":40.40613861235382,"lng":-111.83551652067051,"phone":"(232) 542-2631","sd":"21","ssbd":"11","lsbd":"School Board Aspen Peaks 2"},{"vid":"1683619","name":"Jill Langworth","party":"Dem","address":"653 E Airport Dr, Lehi, UT 84043","precinct":"25LE10","hd":"53","v_score":"12.24706734","decile":"9","lat":40.41058025911125,"lng":-111.83910017267414,"phone":"(266) 460-5928","sd":"21","ssbd":"11","lsbd":"School Board Aspen Peaks 2"},{"vid":"1705489","name":"Miss Maura Klein","party":"Rep","address":"1041 E 2040 N, Lehi, UT 84043","precinct":"25LE10","hd":"53","v_score":"16.48582198","decile":"9","lat":40.41319432589415,"lng":-111.83271375907285,"phone":"(124) 483-0054","sd":"21","ssbd":"11","lsbd":"School Board Aspen Peaks 2"},{"vid":"1724919","name":"Corbin Durgan","party":"Dem","address":"1730 N 600 E, Lehi, UT 84043","precinct":"25LE10","hd":"53","v_score":"5.530510904","decile":"7","lat":40.407722469273345,"lng":-111.83945239293423,"phone":"(123) 849-9561","sd":"21","ssbd":"11","lsbd":"School Board Aspen Peaks 2"},{"vid":"1750312","name":"Chana Hammes DDS","party":"","address":"913 E 1900 N, Lehi, UT 84043","precinct":"25LE10","hd":"53","v_score":"1.121327652","decile":"3","lat":40.411494407273246,"lng":-111.83428337278603,"phone":"(769) 010-5794","sd":"21","ssbd":"11","lsbd":"School Board Aspen Peaks 2"},{"vid":"1755667","name":"Cierra Russel","party":"Dem","address":"1590 N 300 E, Lehi, UT 84043","precinct":"25LE10","hd":"53","v_score":"10.52632313","decile":"9","lat":40.40699706141141,"lng":-111.8439531089942,"phone":"(727) 201-6093","sd":"21","ssbd":"11","lsbd":"School Board Aspen Peaks 2"},{"vid":"1759848","name":"Alverta Luettgen","party":"Rep","address":"1717 N 800 E, Lehi, UT 84043","precinct":"25LE10","hd":"53","v_score":"1.121327652","decile":"3","lat":40.408329226312155,"lng":-111.83661740082763,"phone":"(260) 013-1862","sd":"21","ssbd":"11","lsbd":"School Board Aspen Peaks 2"},{"vid":"1764842","name":"Hollie Schuppe V","party":"","address":"743 E Airport Dr, Lehi, UT 84043","precinct":"25LE10","hd":"53","v_score":"0","decile":"1","lat":40.41046510697301,"lng":-111.83768334390308,"phone":"(126) 814-5778","sd":"21","ssbd":"11","lsbd":"School Board Aspen Peaks 2"},{"vid":"1801275","name":"Morton Bednar V","party":"Dem","address":"2007 N Airport Dr, Lehi, UT 84043","precinct":"25LE10","hd":"53","v_score":"8.903210001","decile":"8","lat":40.41280322646457,"lng":-111.83464228457387,"phone":"(870) 428-2981","sd":"21","ssbd":"11","lsbd":"School Board Aspen Peaks 2"},{"vid":"1813184","name":"Tiney Frami","party":"","address":"1616 N Summer Crest Dr, Lehi, UT 84043","precinct":"25LE10","hd":"53","v_score":"3.93832808","decile":"6","lat":40.407193673242084,"lng":-111.83536272588455,"phone":"(808) 532-4238","sd":"21","ssbd":"11","lsbd":"School Board Aspen Peaks 2"},{"vid":"1834379","name":"Camilo Gusikowski","party":"Rep","address":"1730 N 600 E, Lehi, UT 84043","precinct":"25LE10","hd":"53","v_score":"3.781490609","decile":"6","lat":40.407722469273345,"lng":-111.83945239293423,"phone":"(358) 391-3717","sd":"21","ssbd":"11","lsbd":"School Board Aspen Peaks 2"},{"vid":"1837254","name":"Yadira Brown PhD","party":"","address":"1574 N Fitzgerald Ln, Lehi, UT 84043","precinct":"25LE10","hd":"53","v_score":"6.881235673","decile":"8","lat":40.40746020429854,"lng":-111.83420453199786,"phone":"(232) 839-7996","sd":"21","ssbd":"11","lsbd":"School Board Aspen Peaks 2"},{"vid":"1839670","name":"Lyda Schmeler","party":"","address":"1889 N Airport Dr, Lehi, UT 84043","precinct":"25LE10","hd":"53","v_score":"0","decile":"1","lat":40.41145824852642,"lng":-111.83605683435093,"phone":"(196) 394-2995","sd":"21","ssbd":"11","lsbd":"School Board Aspen Peaks 2"},{"vid":"1855426","name":"Ms. Shania Hartmann","party":"Rep","address":"1151 E Cedar Ridge Rd, Lehi, UT 84043","precinct":"25LE10","hd":"53","v_score":"4.064235245","decile":"6","lat":40.405778642820486,"lng":-111.83118874171507,"phone":"(682) 689-6848","sd":"21","ssbd":"11","lsbd":"School Board Aspen Peaks 2"},{"vid":"1868302","name":"Justen Hegmann","party":"Dem","address":"1401 N 600 E, Lehi, UT 84043","precinct":"25LE10","hd":"53","v_score":"5.530510904","decile":"7","lat":40.40517589582026,"lng":-111.84036188448817,"phone":"(640) 527-5027","sd":"21","ssbd":"11","lsbd":"School Board Aspen Peaks 2"},{"vid":"1873755","name":"Leah McKenzie","party":"","address":"618 E Airport Dr, Lehi, UT 84043","precinct":"25LE10","hd":"53","v_score":"2.744440783","decile":"5","lat":40.41003409891132,"lng":-111.83978486359636,"phone":"(865) 115-8256","sd":"21","ssbd":"11","lsbd":"School Board Aspen Peaks 2"},{"vid":"1879109","name":"Quiana Kunze MD","party":"","address":"1730 N 750 E, Lehi, UT 84043","precinct":"25LE10","hd":"53","v_score":"2.315214949","decile":"5","lat":40.408616190719854,"lng":-111.8370801370236,"phone":"(568) 905-6220","sd":"21","ssbd":"11","lsbd":"School Board Aspen Peaks 2"},{"vid":"1898762","name":"Ham Hilpert","party":"Rep","address":"1423 N 1150 E, Lehi, UT 84043","precinct":"25LE10","hd":"53","v_score":"13.76893698","decile":"9","lat":40.40603587129288,"lng":-111.832567489424,"phone":"(666) 817-2455","sd":"21","ssbd":"11","lsbd":"School Board Aspen Peaks 2"},{"vid":"24011ae336768680f6f78385dc39296e5fe78f82a25dcb1428bb57b3d18d5835","name":"Mrs. Jordan DuBuque","party":"Rep","address":"1661 N 800 E, Lehi, UT 84043","precinct":"25LE10","hd":"53","v_score":"23.00387674","decile":"10","lat":40.40766230213758,"lng":-111.83659547288703,"phone":"(905) 101-4784","sd":"21","ssbd":"11","lsbd":"School Board Aspen Peaks 2"},{"vid":"7589a92368628f9a16607ba221248ccc000ebb3590c24a7f3608ca1f55713a20","name":"Miguelangel Streich","party":"","address":"1661 N 800 E, Lehi, UT 84043","precinct":"25LE10","hd":"53","v_score":"20.2867476","decile":"10","lat":40.40766230213758,"lng":-111.83659547288703,"phone":"(409) 059-6166","sd":"21","ssbd":"11","lsbd":"School Board Aspen Peaks 2"},{"vid":"1912118","name":"Tommie Ullrich","party":"Dem","address":"759 E Airport Dr, Lehi, UT 84043","precinct":"25LE10","hd":"53","v_score":"2.315214949","decile":"5","lat":40.41047627099296,"lng":-111.83738921884853,"phone":"(270) 373-2725","sd":"21","ssbd":"11","lsbd":"School Board Aspen Peaks 2"},{"vid":"1924895","name":"Dr. Reed Balistreri","party":"Rep","address":"848 E 2000 N, Lehi, UT 84043","precinct":"25LE10","hd":"53","v_score":"10.52632313","decile":"9","lat":40.41236906534555,"lng":-111.83561171126848,"phone":"(415) 045-0354","sd":"21","ssbd":"11","lsbd":"School Board Aspen Peaks 2"},{"vid":"1924897","name":"Mrs. Marty Howell","party":"Dem","address":"848 E 2000 N, Lehi, UT 84043","precinct":"25LE10","hd":"53","v_score":"10.52632313","decile":"9","lat":40.41236906534555,"lng":-111.83561171126848,"phone":"(544) 660-6573","sd":"21","ssbd":"11","lsbd":"School Board Aspen Peaks 2"},{"vid":"1933472","name":"Yaretzi Kuhn","party":"Rep","address":"1783 N Summer Crest Dr, Lehi, UT 84043","precinct":"25LE10","hd":"53","v_score":"2.315214949","decile":"5","lat":40.409457248602074,"lng":-111.8355859313372,"phone":"(923) 631-2407","sd":"21","ssbd":"11","lsbd":"School Board Aspen Peaks 2"},{"vid":"1933865","name":"Paisley Mohr MD","party":"","address":"1375 N 1125 E, Lehi, UT 84043","precinct":"25LE10","hd":"53","v_score":"5.687348376","decile":"7","lat":40.405671521851275,"lng":-111.83168028243003,"phone":"(638) 782-2276","sd":"21","ssbd":"11","lsbd":"School Board Aspen Peaks 2"},{"vid":"1943013","name":"Velia Windler","party":"Rep","address":"862 E 2070 N, Lehi, UT 84043","precinct":"25LE10","hd":"53","v_score":"4.210716443","decile":"7","lat":40.41310303181655,"lng":-111.8352593550693,"phone":"(311) 927-5568","sd":"21","ssbd":"11","lsbd":"School Board Aspen Peaks 2"},{"vid":"1970485","name":"Chalmers Sanford","party":"","address":"2051 N 825 E, Lehi, UT 84043","precinct":"25LE10","hd":"53","v_score":"14.04503691","decile":"9","lat":40.41320408806226,"lng":-111.83643190067717,"phone":"(189) 526-5296","sd":"21","ssbd":"11","lsbd":"School Board Aspen Peaks 2"},{"vid":"1973722","name":"Jim Adams-Heaney","party":"Dem","address":"1650 N Summer Crest Dr, Lehi, UT 84043","precinct":"25LE10","hd":"53","v_score":"5.40460374","decile":"7","lat":40.40765264802034,"lng":-111.83525369113156,"phone":"(648) 461-1439","sd":"21","ssbd":"11","lsbd":"School Board Aspen Peaks 2"},{"vid":"1988553","name":"Briley Turner","party":"Dem","address":"2051 N 825 E, Lehi, UT 84043","precinct":"25LE10","hd":"53","v_score":"6.954919332","decile":"8","lat":40.41320408806226,"lng":-111.83643190067717,"phone":"(970) 044-9020","sd":"21","ssbd":"11","lsbd":"School Board Aspen Peaks 2"},{"vid":"1988596","name":"Dr. Jarrell Kling","party":"Rep","address":"898 E 2070 N, Lehi, UT 84043","precinct":"25LE10","hd":"53","v_score":"4.283276088","decile":"7","lat":40.41309129146513,"lng":-111.83499491843925,"phone":"(666) 730-0424","sd":"21","ssbd":"11","lsbd":"School Board Aspen Peaks 2"},{"vid":"1992387","name":"Brinda Beatty-Turner","party":"Dem","address":"1458 N Summer Crest Dr, Lehi, UT 84043","precinct":"25LE10","hd":"53","v_score":"2.315214949","decile":"5","lat":40.40542002948872,"lng":-111.83697400253675,"phone":"(157) 306-4911","sd":"21","ssbd":"11","lsbd":"School Board Aspen Peaks 2"},{"vid":"1993580","name":"Orval Halvorson","party":"","address":"1920 N 1150 E, Lehi, UT 84043","precinct":"25LE10","hd":"53","v_score":"3.93832808","decile":"6","lat":40.41182647276854,"lng":-111.83155211850296,"phone":"(673) 141-1586","sd":"21","ssbd":"11","lsbd":"School Board Aspen Peaks 2"},{"vid":"2001704","name":"Kaliyah Hodkiewicz","party":"Rep","address":"1908 N Airport Dr, Lehi, UT 84043","precinct":"25LE10","hd":"53","v_score":"10.14056997","decile":"9","lat":40.41127955204205,"lng":-111.83543571106823,"phone":"(455) 433-0421","sd":"21","ssbd":"11","lsbd":"School Board Aspen Peaks 2"},{"vid":"2010608","name":"Bess Swift","party":"Dem","address":"1560 N Summer Crest Dr, Lehi, UT 84043","precinct":"25LE10","hd":"53","v_score":"5.258122542","decile":"7","lat":40.4066133826894,"lng":-111.83572780748536,"phone":"(234) 041-9153","sd":"21","ssbd":"11","lsbd":"School Board Aspen Peaks 2"},{"vid":"2017177","name":"Nikki Kris DDS","party":"Dem","address":"2078 N 1100 E, Lehi, UT 84043","precinct":"25LE10","hd":"53","v_score":"2.315214949","decile":"5","lat":40.413429213465776,"lng":-111.83133730850075,"phone":"(234) 652-9781","sd":"21","ssbd":"11","lsbd":"School Board Aspen Peaks 2"},{"vid":"2017564","name":"Lauren Schneider","party":"Rep","address":"691 E 1775 N, Apt C, Lehi, UT 84043","precinct":"25LE10","hd":"53","v_score":"15.43762891","decile":"9","lat":40.40955925797809,"lng":-111.83832675280118,"phone":"(280) 814-8828","sd":"21","ssbd":"11","lsbd":"School Board Aspen Peaks 2"},{"vid":"2022474","name":"Alek Jacobson I","party":"Rep","address":"1177 N Cedar Hollow Blvd, Lehi, UT 84043","precinct":"25LE10","hd":"53","v_score":"8.514098276","decile":"8","lat":40.40208650525656,"lng":-111.83251190879713,"phone":"(489) 192-2902","sd":"21","ssbd":"11","lsbd":"School Board Aspen Peaks 2"},{"vid":"2022636","name":"Matteo Ward","party":"Rep","address":"1827 N 970 E, Lehi, UT 84043","precinct":"25LE10","hd":"53","v_score":"5.191257514","decile":"7","lat":40.410372050507924,"lng":-111.83380224857318,"phone":"(484) 891-0023","sd":"21","ssbd":"11","lsbd":"School Board Aspen Peaks 2"},{"vid":"2023906","name":"Mrs. Louanna Oberbrunner PhD","party":"Rep","address":"655 E Cedar Hollow Rd, Lehi, UT 84043","precinct":"25LE10","hd":"53","v_score":"0","decile":"1","lat":40.40493852143946,"lng":-111.83836946911936,"phone":"(469) 870-5858","sd":"21","ssbd":"11","lsbd":"School Board Aspen Peaks 2"},{"vid":"a1dd4105c6c4118d5543acfb3081e6db28f0e5382d172d737410a9f51bf29d37","name":"Kenyon Block","party":"","address":"853 E 1475 N, Lehi, UT 84043","precinct":"25LE10","hd":"53","v_score":"3.781490609","decile":"6","lat":40.40613861235382,"lng":-111.83551652067051,"phone":"(152) 384-7256","sd":"21","ssbd":"11","lsbd":"School Board Aspen Peaks 2"},{"vid":"2045864","name":"Alvin Senger","party":"","address":"1825 N 800 E, Lehi, UT 84043","precinct":"25LE10","hd":"53","v_score":"2.660162957","decile":"5","lat":40.409859134131196,"lng":-111.83662237164519,"phone":"(299) 399-7144","sd":"21","ssbd":"11","lsbd":"School Board Aspen Peaks 2"},{"vid":"2073310","name":"Dr. Sarina Stroman PhD","party":"","address":"904 E 2125 N, Lehi, UT 84043","precinct":"25LE10","hd":"53","v_score":"5.191257514","decile":"7","lat":40.41380509063628,"lng":-111.8346443264379,"phone":"(881) 498-1205","sd":"21","ssbd":"11","lsbd":"School Board Aspen Peaks 2"},{"vid":"2076538","name":"Miss Nella Gaylord DVM","party":"Dem","address":"1114 N Cedar Hollow Blvd, Lehi, UT 84043","precinct":"25LE10","hd":"53","v_score":"8.497351098","decile":"8","lat":40.401389644570905,"lng":-111.83191688743995,"phone":"(417) 083-7020","sd":"21","ssbd":"11","lsbd":"School Board Aspen Peaks 2"},{"vid":"79d59148bf7234184ce4d84fb88b58ff66bcd05aee67c78c08ed5eec5531c565","name":"Mrs. Wende Reichert DDS","party":"","address":"1783 N 900 E, Lehi, UT 84043","precinct":"25LE10","hd":"53","v_score":"0","decile":"1","lat":40.40973363531582,"lng":-111.83483043449431,"phone":"(966) 568-4409","sd":"21","ssbd":"11","lsbd":"School Board Aspen Peaks 2"},{"vid":"2093021","name":"Gladis Rice","party":"","address":"655 E Cedar Hollow Rd, Lehi, UT 84043","precinct":"25LE10","hd":"53","v_score":"3.93832808","decile":"6","lat":40.40493852143946,"lng":-111.83836946911936,"phone":"(387) 757-3028","sd":"21","ssbd":"11","lsbd":"School Board Aspen Peaks 2"},{"vid":"60bb4fe27502dcb92f768e8fc2a8f99f5ca6e574d85acb2b1dbc7b77f43628a7","name":"Ephriam Nader Sr.","party":"Rep","address":"1817 N Airport Dr, Lehi, UT 84043","precinct":"25LE10","hd":"53","v_score":"3.93832808","decile":"6","lat":40.4106634799267,"lng":-111.8371165364122,"phone":"(141) 411-4732","sd":"21","ssbd":"11","lsbd":"School Board Aspen Peaks 2"},{"vid":"2120591","name":"Talmadge Hagenes","party":"","address":"1177 N Cedar Hollow Blvd, Lehi, UT 84043","precinct":"25LE10","hd":"53","v_score":"0","decile":"1","lat":40.40208650525656,"lng":-111.83251190879713,"phone":"(193) 953-0504","sd":"21","ssbd":"11","lsbd":"School Board Aspen Peaks 2"},{"vid":"fc4d0d7384f4362b5fe923ee875235b7a3bbe419e1c9a328c8695e782b6abd5c","name":"Grafton Price","party":"Rep","address":"1819 N 900 E, Lehi, UT 84043","precinct":"25LE10","hd":"53","v_score":"3.781490609","decile":"6","lat":40.41018435210956,"lng":-111.83491349973234,"phone":"(222) 209-1370","sd":"21","ssbd":"11","lsbd":"School Board Aspen Peaks 2"},{"vid":"2129831","name":"Siddie Kautzer","party":"","address":"1502 N 600 E, Lehi, UT 84043","precinct":"25LE10","hd":"53","v_score":"1.193887297","decile":"3","lat":40.40629971855702,"lng":-111.83938920548846,"phone":"(680) 823-0297","sd":"21","ssbd":"11","lsbd":"School Board Aspen Peaks 2"},{"vid":"2133944","name":"Dr. Ladarius Abernathy","party":"Dem","address":"1147 N Cedar Hollow Blvd, Lehi, UT 84043","precinct":"25LE10","hd":"53","v_score":"0","decile":"1","lat":40.401797203929924,"lng":-111.83251068421373,"phone":"(684) 156-1500","sd":"21","ssbd":"11","lsbd":"School Board Aspen Peaks 2"},{"vid":"2038f2ab5025309f1d3ab5c553c60551a1c2ed07f6375e0cff6fe1b71c67b7fe","name":"Glendon Pacocha","party":"","address":"762 E Airport Dr, Lehi, UT 84043","precinct":"25LE10","hd":"53","v_score":"5.40460374","decile":"7","lat":40.410083574895054,"lng":-111.8371938765137,"phone":"(962) 490-3521","sd":"21","ssbd":"11","lsbd":"School Board Aspen Peaks 2"},{"vid":"a49d2c199664bba66f12132237276d40cfa22717eb543dcbf8fa70400048671b","name":"Ms. Lalla Cummings PhD","party":"Rep","address":"988 E 2040 N, Lehi, UT 84043","precinct":"25LE10","hd":"53","v_score":"2.587603312","decile":"5","lat":40.41275754557957,"lng":-111.8335444965892,"phone":"(105) 416-5725","sd":"21","ssbd":"11","lsbd":"School Board Aspen Peaks 2"},{"vid":"257ace300586c51019ffd59394217ed3774d92db7a187d10b452b757d4a9ffd4","name":"Cleone Roberts-Thiel","party":"Dem","address":"1868 N 800 E, Lehi, UT 84043","precinct":"25LE10","hd":"53","v_score":"11.04973188","decile":"9","lat":40.41028745637053,"lng":-111.83543630490716,"phone":"(703) 166-5541","sd":"21","ssbd":"11","lsbd":"School Board Aspen Peaks 2"},{"vid":"2154088","name":"Bliss Weissnat","party":"Rep","address":"1868 N 800 E, Lehi, UT 84043","precinct":"25LE10","hd":"53","v_score":"11.04973188","decile":"9","lat":40.41028745637053,"lng":-111.83543630490716,"phone":"(639) 627-5969","sd":"21","ssbd":"11","lsbd":"School Board Aspen Peaks 2"},{"vid":"2167285","name":"Mrs. Grayce Hauck","party":"Dem","address":"1702 N Summer Crest Dr, Lehi, UT 84043","precinct":"25LE10","hd":"53","v_score":"5.40460374","decile":"7","lat":40.40822478400269,"lng":-111.83537444576825,"phone":"(872) 655-3280","sd":"21","ssbd":"11","lsbd":"School Board Aspen Peaks 2"},{"vid":"7d13e6819a6ffecf9e15d82ce61d3d29a175b25a09a8c24031419459869b7748","name":"Isom Ledner","party":"","address":"1294 N Cedar Hollow Blvd, Lehi, UT 84043","precinct":"25LE10","hd":"53","v_score":"3.93832808","decile":"6","lat":40.40360194857621,"lng":-111.8322580540602,"phone":"(397) 749-9861","sd":"21","ssbd":"11","lsbd":"School Board Aspen Peaks 2"},{"vid":"6b8ffdb1c8b3e2934ecb293e3a6747dd8908e0224a780a2e31f8676ff80f468d","name":"Mrs. Zeta Bartell DDS","party":"Dem","address":"1742 N 750 E, Lehi, UT 84043","precinct":"25LE10","hd":"53","v_score":"1.121327652","decile":"3","lat":40.40884396177771,"lng":-111.83708208582878,"phone":"(342) 734-6406","sd":"21","ssbd":"11","lsbd":"School Board Aspen Peaks 2"},{"vid":"2179978","name":"Tommie Reichel-Streich","party":"Rep","address":"885 E 1900 N, Lehi, UT 84043","precinct":"25LE10","hd":"53","v_score":"2.315214949","decile":"5","lat":40.41170531392253,"lng":-111.83473789163155,"phone":"(261) 841-1569","sd":"21","ssbd":"11","lsbd":"School Board Aspen Peaks 2"},{"vid":"fbae99458e5c3216efde8c0df65509e48e102432b67c30cc1b9b7d467cdb34ab","name":"Kandy Pollich","party":"Rep","address":"1590 N 300 E, Lehi, UT 84043","precinct":"25LE10","hd":"53","v_score":"1.121327652","decile":"3","lat":40.40699706141141,"lng":-111.8439531089942,"phone":"(611) 275-4742","sd":"21","ssbd":"11","lsbd":"School Board Aspen Peaks 2"},{"vid":"170dde13b287c64d49dbac2cc9c82fbe29bd2e796e362167f66c2c4f2ab31784","name":"Elianna Wintheiser","party":"","address":"1177 N 1000 E, Lehi, UT 84043","precinct":"25LE10","hd":"53","v_score":"8.709634245","decile":"8","lat":40.40208375963182,"lng":-111.83362111688925,"phone":"(901) 344-1793","sd":"21","ssbd":"11","lsbd":"School Board Aspen Peaks 2"},{"vid":"f6acd765156edc6288870e377f6e8bc753ff924661db397cc69064ab18441fb4","name":"Araminta Kshlerin","party":"Rep","address":"1546 N Summer Crest Dr, Lehi, UT 84043","precinct":"25LE10","hd":"53","v_score":"5.191257514","decile":"7","lat":40.406453577815746,"lng":-111.83590651496779,"phone":"(457) 327-7268","sd":"21","ssbd":"11","lsbd":"School Board Aspen Peaks 2"},{"vid":"fcb7cdef58c44c283729e4ece1bc89826648d5ed2d9556477ab3e75a329b4aee","name":"Evelynn Shields","party":"Rep","address":"1177 N Cedar Hollow Blvd, Lehi, UT 84043","precinct":"25LE10","hd":"53","v_score":"4.214075011","decile":"7","lat":40.40208650525656,"lng":-111.83251190879713,"phone":"(848) 572-2054","sd":"21","ssbd":"11","lsbd":"School Board Aspen Peaks 2"},{"vid":"646b79e6ebe029037adcc867271d85bef6b15f5459dfda1d3e4df05d6d43b873","name":"Rusty Littel","party":"","address":"618 E Airport Dr, Lehi, UT 84043","precinct":"25LE10","hd":"53","v_score":"17.00923073","decile":"9","lat":40.41003409891132,"lng":-111.83978486359636,"phone":"(108) 478-8087","sd":"21","ssbd":"11","lsbd":"School Board Aspen Peaks 2"},{"vid":"4d25c6252da5ba03b72eafb66576ee887440048027a45f06f3ef063a9bfe0b1e","name":"Christel Haley","party":"","address":"1471 N Summer Crest Dr, Lehi, UT 84043","precinct":"25LE10","hd":"53","v_score":"2.315214949","decile":"5","lat":40.40553142599242,"lng":-111.83781683496765,"phone":"(425) 900-7823","sd":"21","ssbd":"11","lsbd":"School Board Aspen Peaks 2"},{"vid":"2202722","name":"Hervey Green Jr.","party":"","address":"1562 N Fitzgerald Ln, Lehi, UT 84043","precinct":"25LE10","hd":"53","v_score":"10.0942841","decile":"9","lat":40.407266691051696,"lng":-111.83408444014928,"phone":"(467) 777-3909","sd":"21","ssbd":"11","lsbd":"School Board Aspen Peaks 2"},{"vid":"a70f7a76d603f1f14ad791593ce15623b6db50f40fd52cb3f02375bbe712fa42","name":"Harrell Dach","party":"","address":"1753 N 800 E, Lehi, UT 84043","precinct":"25LE10","hd":"53","v_score":"0","decile":"1","lat":40.40891529826979,"lng":-111.83673286899604,"phone":"(603) 096-8996","sd":"21","ssbd":"11","lsbd":"School Board Aspen Peaks 2"},{"vid":"2209909","name":"Peggy Muller-Becker","party":"","address":"862 E 2070 N, Lehi, UT 84043","precinct":"25LE10","hd":"53","v_score":"8.985747318","decile":"8","lat":40.41310303181655,"lng":-111.8352593550693,"phone":"(471) 524-2905","sd":"21","ssbd":"11","lsbd":"School Board Aspen Peaks 2"},{"vid":"66abdaf69096911691e7dd587ae2c4b00724a7c7a8e883ea9908853521137cba","name":"Ms. Mellissa Wilkinson","party":"Dem","address":"1857 N 800 E, Lehi, UT 84043","precinct":"25LE10","hd":"53","v_score":"1.623113131","decile":"5","lat":40.41034340875251,"lng":-111.83613336341712,"phone":"(799) 407-6124","sd":"21","ssbd":"11","lsbd":"School Board Aspen Peaks 2"},{"vid":"2221772","name":"Mr. Loy Sawayn Sr.","party":"","address":"1857 N 800 E, Lehi, UT 84043","precinct":"25LE10","hd":"53","v_score":"2.744440783","decile":"5","lat":40.41034340875251,"lng":-111.83613336341712,"phone":"(526) 763-5292","sd":"21","ssbd":"11","lsbd":"School Board Aspen Peaks 2"},{"vid":"8c79456c4032959f47d582bc19ddc71d2aa7a5ce0828dc55eed769840228d958","name":"Dr. Arlan Blanda DVM","party":"","address":"988 E 2040 N, Lehi, UT 84043","precinct":"25LE10","hd":"53","v_score":"2.817000428","decile":"6","lat":40.41275754557957,"lng":-111.8335444965892,"phone":"(866) 558-4093","sd":"21","ssbd":"11","lsbd":"School Board Aspen Peaks 2"},{"vid":"93685ae73cdbaf1f3464281c22b41737098a02ffc133f5842d465cb2b2529a85","name":"Bev Reichert-Carter","party":"Dem","address":"1801 N 800 E, Lehi, UT 84043","precinct":"25LE10","hd":"53","v_score":"0","decile":"1","lat":40.40965069867669,"lng":-111.83663135130293,"phone":"(790) 009-8344","sd":"21","ssbd":"11","lsbd":"School Board Aspen Peaks 2"},{"vid":"2229150","name":"Mavis Turcotte-Pfeffer","party":"","address":"2051 N 825 E, Lehi, UT 84043","precinct":"25LE10","hd":"53","v_score":"8.284004873","decile":"8","lat":40.41320408806226,"lng":-111.83643190067717,"phone":"(154) 965-1157","sd":"21","ssbd":"11","lsbd":"School Board Aspen Peaks 2"},{"vid":"664e78c2d06143d1bc0bb33130d709e3e16eb2a39c14c0ea246925305081a5da","name":"Maye Schimmel","party":"Rep","address":"2087 N 825 E, Lehi, UT 84043","precinct":"25LE10","hd":"53","v_score":"2.817000428","decile":"6","lat":40.413643169566114,"lng":-111.83643406112543,"phone":"(878) 081-2719","sd":"21","ssbd":"11","lsbd":"School Board Aspen Peaks 2"},{"vid":"2233233","name":"Byrdie Smitham","party":"","address":"1502 N 600 E, Lehi, UT 84043","precinct":"25LE10","hd":"53","v_score":"7.172654892","decile":"8","lat":40.40629971855702,"lng":-111.83938920548846,"phone":"(821) 592-2207","sd":"21","ssbd":"11","lsbd":"School Board Aspen Peaks 2"},{"vid":"3e92fce0a0346ebdea652297755d836579244ab4715ba06bf5c3332cf0f8f53e","name":"Mr. Dorsey Marks MD","party":"","address":"1562 N Fitzgerald Ln, Lehi, UT 84043","precinct":"25LE10","hd":"53","v_score":"3.93832808","decile":"6","lat":40.407266691051696,"lng":-111.83408444014928,"phone":"(213) 030-5853","sd":"21","ssbd":"11","lsbd":"School Board Aspen Peaks 2"},{"vid":"893dfdedb51e61caf2533c3eba4dd7f30d1ca123c7b7986100e70066f4412b14","name":"Dr. Lu Rempel DVM","party":"Rep","address":"1943 N 825 E, Lehi, UT 84043","precinct":"25LE10","hd":"53","v_score":"6.881235673","decile":"8","lat":40.41187671069135,"lng":-111.83634535058007,"phone":"(750) 215-2839","sd":"21","ssbd":"11","lsbd":"School Board Aspen Peaks 2"},{"vid":"2242298","name":"Jolette Satterfield","party":"Rep","address":"1721 N 1200 E, Lehi, UT 84043","precinct":"25LE10","hd":"53","v_score":"1.121327652","decile":"3","lat":40.409280986717306,"lng":-111.83069721966625,"phone":"(257) 563-0696","sd":"21","ssbd":"11","lsbd":"School Board Aspen Peaks 2"},{"vid":"2248171","name":"Winifred Waelchi-Tillman","party":"","address":"850 E 2070 N, Lehi, UT 84043","precinct":"25LE10","hd":"53","v_score":"2.315214949","decile":"5","lat":40.41307464400118,"lng":-111.83558956672472,"phone":"(607) 243-4409","sd":"21","ssbd":"11","lsbd":"School Board Aspen Peaks 2"},{"vid":"2248963","name":"Mr. Judd Gaylord V","party":"","address":"1145 E Cedar Hollow Rd, Lehi, UT 84043","precinct":"25LE10","hd":"53","v_score":"5.258122542","decile":"7","lat":40.40761093065406,"lng":-111.83132728108825,"phone":"(817) 547-0215","sd":"21","ssbd":"11","lsbd":"School Board Aspen Peaks 2"},{"vid":"1efb2b065904a4ba6a912a36e8c5f663b3984a76bbe3935e50cdc2f04eefcb8a","name":"Dr. Montie Borer","party":"","address":"2078 N 1100 E, Lehi, UT 84043","precinct":"25LE10","hd":"53","v_score":"2.876042565","decile":"6","lat":40.413429213465776,"lng":-111.83133730850075,"phone":"(745) 788-0941","sd":"21","ssbd":"11","lsbd":"School Board Aspen Peaks 2"},{"vid":"2259318","name":"Darrel Kulas","party":"Dem","address":"1294 N Cedar Hollow Blvd, Lehi, UT 84043","precinct":"25LE10","hd":"53","v_score":"2.315214949","decile":"5","lat":40.40360194857621,"lng":-111.8322580540602,"phone":"(940) 345-7898","sd":"21","ssbd":"11","lsbd":"School Board Aspen Peaks 2"},{"vid":"2270055","name":"Mr. Palmer Oberbrunner II","party":"Rep","address":"1764 N 800 E, Lehi, UT 84043","precinct":"25LE10","hd":"53","v_score":"1.193887297","decile":"3","lat":40.40904942913941,"lng":-111.83610552563651,"phone":"(172) 515-9263","sd":"21","ssbd":"11","lsbd":"School Board Aspen Peaks 2"},{"vid":"ac0022b118078e2c422bd4558458109dc59781d52e4e83abbe54220ed790295c","name":"Arvel O'Connell","party":"","address":"340 E 1650 N, Lehi, UT 84043","precinct":"25LE10","hd":"53","v_score":"4.064235245","decile":"6","lat":40.40789236669718,"lng":-111.8438862910457,"phone":"(145) 988-2297","sd":"21","ssbd":"11","lsbd":"School Board Aspen Peaks 2"},{"vid":"435c145ff7ceb440969cfb06ff5d91c01d9be639765ec11aa198c5bb70ed24b2","name":"Mr. Seymour Wyman II","party":"Dem","address":"691 E 1775 N, Apt E, Lehi, UT 84043","precinct":"25LE10","hd":"53","v_score":"14.63972567","decile":"9","lat":40.40955925797809,"lng":-111.83832675280118,"phone":"(442) 858-5642","sd":"21","ssbd":"11","lsbd":"School Board Aspen Peaks 2"},{"vid":"2280613","name":"Dr. Bose Morar","party":"","address":"759 E Airport Dr, Lehi, UT 84043","precinct":"25LE10","hd":"53","v_score":"4.064235245","decile":"6","lat":40.41047627099296,"lng":-111.83738921884853,"phone":"(251) 698-2831","sd":"21","ssbd":"11","lsbd":"School Board Aspen Peaks 2"},{"vid":"32fbf2ab09cdd22fb3e94200c7aa530777290c7f14860c7f09bd6bc3fac20c55","name":"Reagan Nicolas MD","party":"Rep","address":"719 E 1725 N, Lehi, UT 84043","precinct":"25LE10","hd":"53","v_score":"0","decile":"1","lat":40.40877781827159,"lng":-111.83799332780414,"phone":"(266) 622-9124","sd":"21","ssbd":"11","lsbd":"School Board Aspen Peaks 2"},{"vid":"6052cbf77a1423265bf6eff17200b805ec626ada8074cb6b6308cb83c2fde1b2","name":"Deion Moore-Dickinson","party":"","address":"1755 N Summer Crest Dr, Lehi, UT 84043","precinct":"25LE10","hd":"53","v_score":"1.121327652","decile":"3","lat":40.408985775173804,"lng":-111.83582146081615,"phone":"(527) 506-3350","sd":"21","ssbd":"11","lsbd":"School Board Aspen Peaks 2"},{"vid":"20936a1716f324a7cf4a5fe6c1e8bf5f0beaa2944168496666c2886f1f89e6a5","name":"Erla Beer-Swaniawski","party":"Dem","address":"1345 N Cedar Hollow Blvd, Lehi, UT 84043","precinct":"25LE10","hd":"53","v_score":"2.744440783","decile":"5","lat":40.40362588723236,"lng":-111.83324292777161,"phone":"(474) 212-1754","sd":"21","ssbd":"11","lsbd":"School Board Aspen Peaks 2"},{"vid":"66575a0ab029d0b30e62f8f41a2418dd338fc574fc489c25f87dc25b87c5ead5","name":"Ashly Herman","party":"","address":"846 E 2125 N, Lehi, UT 84043","precinct":"25LE10","hd":"53","v_score":"1.193887297","decile":"3","lat":40.413804635353976,"lng":-111.83557691006125,"phone":"(253) 214-7831","sd":"21","ssbd":"11","lsbd":"School Board Aspen Peaks 2"},{"vid":"5543a028433211df34bd24ef445f839dad0f2986b958f387296e016f185011da","name":"Dr. Arther Dibbert","party":"Dem","address":"1814 N 900 E, Lehi, UT 84043","precinct":"25LE10","hd":"53","v_score":"14.97385011","decile":"9","lat":40.410059020303116,"lng":-111.83420203672226,"phone":"(207) 730-3737","sd":"21","ssbd":"11","lsbd":"School Board Aspen Peaks 2"},{"vid":"2320511","name":"Tolbert Greenholt-Kozey","party":"","address":"1817 N Airport Dr, Lehi, UT 84043","precinct":"25LE10","hd":"53","v_score":"3.93832808","decile":"6","lat":40.4106634799267,"lng":-111.8371165364122,"phone":"(767) 021-0764","sd":"21","ssbd":"11","lsbd":"School Board Aspen Peaks 2"},{"vid":"2320647","name":"Kaydence Mosciski DDS","party":"","address":"1802 N 900 E, Lehi, UT 84043","precinct":"25LE10","hd":"53","v_score":"2.315214949","decile":"5","lat":40.40989735382514,"lng":-111.83430537487013,"phone":"(427) 526-7736","sd":"21","ssbd":"11","lsbd":"School Board Aspen Peaks 2"},{"vid":"2321634","name":"Denny Gaylord","party":"","address":"1827 N 970 E, Lehi, UT 84043","precinct":"25LE10","hd":"53","v_score":"2.744440783","decile":"5","lat":40.410372050507924,"lng":-111.83380224857318,"phone":"(681) 184-9305","sd":"21","ssbd":"11","lsbd":"School Board Aspen Peaks 2"},{"vid":"2338458","name":"Brittani Gutmann","party":"Rep","address":"1145 E Cedar Hollow Rd, Lehi, UT 84043","precinct":"25LE10","hd":"53","v_score":"2.315214949","decile":"5","lat":40.40761093065406,"lng":-111.83132728108825,"phone":"(741) 869-1172","sd":"21","ssbd":"11","lsbd":"School Board Aspen Peaks 2"},{"vid":"2345318","name":"Mrs. Mickie Hane","party":"Dem","address":"1175 E Cedar Ridge Rd, Lehi, UT 84043","precinct":"25LE10","hd":"53","v_score":"2.315214949","decile":"5","lat":40.40555910959902,"lng":-111.83057128997687,"phone":"(571) 101-0227","sd":"21","ssbd":"11","lsbd":"School Board Aspen Peaks 2"},{"vid":"2345319","name":"Ms. Scarlett Hills DDS","party":"Dem","address":"1175 E Cedar Ridge Rd, Lehi, UT 84043","precinct":"25LE10","hd":"53","v_score":"3.93832808","decile":"6","lat":40.40555910959902,"lng":-111.83057128997687,"phone":"(703) 072-7165","sd":"21","ssbd":"11","lsbd":"School Board Aspen Peaks 2"},{"vid":"2348417","name":"Jayce Skiles","party":"","address":"1668 N Summer Crest Dr, Lehi, UT 84043","precinct":"25LE10","hd":"53","v_score":"2.315214949","decile":"5","lat":40.40795031759817,"lng":-111.83535364862982,"phone":"(252) 985-2288","sd":"21","ssbd":"11","lsbd":"School Board Aspen Peaks 2"},{"vid":"2350628","name":"Mrs. Texas Feeney MD","party":"Rep","address":"1286 N Cedar Hollow Blvd, Apt B, Lehi, UT 84043","precinct":"25LE10","hd":"53","v_score":"2.315214949","decile":"5","lat":40.40374848142584,"lng":-111.83177864372003,"phone":"(450) 561-0228","sd":"21","ssbd":"11","lsbd":"School Board Aspen Peaks 2"},{"vid":"2362312","name":"Casey Dare-Pfannerstill","party":"","address":"1997 N 825 E, Lehi, UT 84043","precinct":"25LE10","hd":"53","v_score":"0","decile":"1","lat":40.41254543964168,"lng":-111.83642865991494,"phone":"(106) 869-9450","sd":"21","ssbd":"11","lsbd":"School Board Aspen Peaks 2"},{"vid":"2370503","name":"Abbigail Veum","party":"Rep","address":"1260 N Cedar Hollow Blvd, Lehi, UT 84043","precinct":"25LE10","hd":"53","v_score":"6.814370645","decile":"8","lat":40.40294071348475,"lng":-111.83195011468791,"phone":"(157) 014-8170","sd":"21","ssbd":"11","lsbd":"School Board Aspen Peaks 2"},{"vid":"2387562","name":"Orren Gerhold","party":"","address":"1682 N 800 E, Lehi, UT 84043","precinct":"25LE10","hd":"53","v_score":"2.744440783","decile":"5","lat":40.40805276605699,"lng":-111.83609618540336,"phone":"(893) 942-0525","sd":"21","ssbd":"11","lsbd":"School Board Aspen Peaks 2"},{"vid":"2392488","name":"Mrs. Nohely Grimes DDS","party":"Rep","address":"1814 N 900 E, Lehi, UT 84043","precinct":"25LE10","hd":"53","v_score":"1.193887297","decile":"3","lat":40.410059020303116,"lng":-111.83420203672226,"phone":"(200) 500-9893","sd":"21","ssbd":"11","lsbd":"School Board Aspen Peaks 2"},{"vid":"2398566","name":"Lyndia Simonis","party":"Dem","address":"1322 N Cedar Hollow Blvd, Lehi, UT 84043","precinct":"25LE10","hd":"53","v_score":"2.315214949","decile":"5","lat":40.40384622915919,"lng":-111.83256241926891,"phone":"(400) 215-7011","sd":"21","ssbd":"11","lsbd":"School Board Aspen Peaks 2"},{"vid":"2412930","name":"Maceo Nienow","party":"Dem","address":"655 E Cedar Hollow Rd, Lehi, UT 84043","precinct":"25LE10","hd":"53","v_score":"5.331806201","decile":"7","lat":40.40493852143946,"lng":-111.83836946911936,"phone":"(551) 072-8955","sd":"21","ssbd":"11","lsbd":"School Board Aspen Peaks 2"},{"vid":"2413881","name":"Dr. Ronnie Marks","party":"Dem","address":"1260 N Cedar Hollow Blvd, Lehi, UT 84043","precinct":"25LE10","hd":"53","v_score":"6.954919332","decile":"8","lat":40.40294071348475,"lng":-111.83195011468791,"phone":"(907) 569-5040","sd":"21","ssbd":"11","lsbd":"School Board Aspen Peaks 2"},{"vid":"2415359","name":"Philo D'Amore","party":"Dem","address":"618 E Airport Dr, Lehi, UT 84043","precinct":"25LE10","hd":"53","v_score":"1.121327652","decile":"3","lat":40.41003409891132,"lng":-111.83978486359636,"phone":"(860) 250-1327","sd":"21","ssbd":"11","lsbd":"School Board Aspen Peaks 2"},{"vid":"2421282","name":"Vidal Gerhold","party":"Dem","address":"1145 E Cedar Hollow Rd, Lehi, UT 84043","precinct":"25LE10","hd":"53","v_score":"2.315214949","decile":"5","lat":40.40761093065406,"lng":-111.83132728108825,"phone":"(786) 988-7614","sd":"21","ssbd":"11","lsbd":"School Board Aspen Peaks 2"},{"vid":"2425616","name":"Dr. Noble Senger","party":"","address":"830 E 1650 N, Lehi, UT 84043","precinct":"25LE10","hd":"53","v_score":"2.744440783","decile":"5","lat":40.407349595304886,"lng":-111.83569697396909,"phone":"(571) 142-9218","sd":"21","ssbd":"11","lsbd":"School Board Aspen Peaks 2"},{"vid":"2426460","name":"Daryle Ward","party":"Rep","address":"2051 N 825 E, Lehi, UT 84043","precinct":"25LE10","hd":"53","v_score":"14.04503691","decile":"9","lat":40.41320408806226,"lng":-111.83643190067717,"phone":"(365) 049-4974","sd":"21","ssbd":"11","lsbd":"School Board Aspen Peaks 2"},{"vid":"2430044","name":"Camden Mosciski I","party":"Dem","address":"1753 N 800 E, Lehi, UT 84043","precinct":"25LE10","hd":"53","v_score":"7.583918848","decile":"8","lat":40.40891529826979,"lng":-111.83673286899604,"phone":"(937) 028-8854","sd":"21","ssbd":"11","lsbd":"School Board Aspen Peaks 2"},{"vid":"2434696","name":"Kacie Strosin","party":"","address":"1886 N 900 E, Lehi, UT 84043","precinct":"25LE10","hd":"53","v_score":"17.84989268","decile":"10","lat":40.411214770576386,"lng":-111.83434130539092,"phone":"(569) 375-9175","sd":"21","ssbd":"11","lsbd":"School Board Aspen Peaks 2"},{"vid":"2435104","name":"Dimitri Halvorson","party":"","address":"1423 N 1150 E, Lehi, UT 84043","precinct":"25LE10","hd":"53","v_score":"0","decile":"1","lat":40.40603587129288,"lng":-111.832567489424,"phone":"(706) 074-4440","sd":"21","ssbd":"11","lsbd":"School Board Aspen Peaks 2"},{"vid":"2435150","name":"Mrs. Indiana Rath DVM","party":"","address":"1776 N 900 E, Lehi, UT 84043","precinct":"25LE10","hd":"53","v_score":"2.315214949","decile":"5","lat":40.4094181193327,"lng":-111.83434564080468,"phone":"(816) 433-1747","sd":"21","ssbd":"11","lsbd":"School Board Aspen Peaks 2"},{"vid":"2436256","name":"Rozanne Herzog","party":"Dem","address":"1863 N 900 E, Lehi, UT 84043","precinct":"25LE10","hd":"53","v_score":"3.93832808","decile":"6","lat":40.41083252177319,"lng":-111.83482939981477,"phone":"(954) 490-2218","sd":"21","ssbd":"11","lsbd":"School Board Aspen Peaks 2"},{"vid":"2441740","name":"Doris Schinner","party":"Rep","address":"1532 N Summer Crest Dr, Lehi, UT 84043","precinct":"25LE10","hd":"53","v_score":"2.744440783","decile":"5","lat":40.40631481219416,"lng":-111.8361516245119,"phone":"(145) 082-8345","sd":"21","ssbd":"11","lsbd":"School Board Aspen Peaks 2"},{"vid":"2460086","name":"Mrs. Odile Kovacek","party":"Dem","address":"1228 N Cedar Hollow Blvd, Lehi, UT 84043","precinct":"25LE10","hd":"53","v_score":"8.946682677","decile":"8","lat":40.40265835017605,"lng":-111.83185944857222,"phone":"(514) 896-2501","sd":"21","ssbd":"11","lsbd":"School Board Aspen Peaks 2"},{"vid":"2460344","name":"Nadine Davis","party":"Dem","address":"655 E Cedar Hollow Rd, Lehi, UT 84043","precinct":"25LE10","hd":"53","v_score":"1.623113131","decile":"5","lat":40.40493852143946,"lng":-111.83836946911936,"phone":"(615) 517-9642","sd":"21","ssbd":"11","lsbd":"School Board Aspen Peaks 2"},{"vid":"2464889","name":"Mrs. Dana Vandervort","party":"","address":"1801 N 900 E, Lehi, UT 84043","precinct":"25LE10","hd":"53","v_score":"9.231763363","decile":"8","lat":40.409965573273524,"lng":-111.83494465946625,"phone":"(272) 383-6185","sd":"21","ssbd":"11","lsbd":"School Board Aspen Peaks 2"},{"vid":"2468808","name":"Dr. Dillie Abbott","party":"","address":"1131 E Fitzgerald Ln, Lehi, UT 84043","precinct":"25LE10","hd":"53","v_score":"7.090117576","decile":"8","lat":40.40734316393732,"lng":-111.83301526229818,"phone":"(661) 653-1681","sd":"21","ssbd":"11","lsbd":"School Board Aspen Peaks 2"},{"vid":"2481269","name":"Kit Sporer-Stroman","party":"Dem","address":"1362 N Cedar Hollow Blvd, Lehi, UT 84043","precinct":"25LE10","hd":"53","v_score":"1.193887297","decile":"3","lat":40.404115584879676,"lng":-111.83317475910509,"phone":"(891) 130-1144","sd":"21","ssbd":"11","lsbd":"School Board Aspen Peaks 2"},{"vid":"2483750","name":"Colin Ortiz","party":"Rep","address":"897 E 1900 N, Lehi, UT 84043","precinct":"25LE10","hd":"53","v_score":"0","decile":"1","lat":40.41154760905675,"lng":-111.83455451603665,"phone":"(506) 764-8822","sd":"21","ssbd":"11","lsbd":"School Board Aspen Peaks 2"},{"vid":"2484120","name":"Zeno Hyatt-Dare","party":"","address":"1177 N Cedar Hollow Blvd, Lehi, UT 84043","precinct":"25LE10","hd":"53","v_score":"9.638447451","decile":"8","lat":40.40208650525656,"lng":-111.83251190879713,"phone":"(138) 707-1637","sd":"21","ssbd":"11","lsbd":"School Board Aspen Peaks 2"},{"vid":"2485534","name":"Talan Lang Jr.","party":"Dem","address":"1260 N Cedar Hollow Blvd, Lehi, UT 84043","precinct":"25LE10","hd":"53","v_score":"4.210478549","decile":"7","lat":40.40294071348475,"lng":-111.83195011468791,"phone":"(363) 502-1729","sd":"21","ssbd":"11","lsbd":"School Board Aspen Peaks 2"},{"vid":"2490229","name":"Tegan Ledner","party":"Rep","address":"743 E 1725 N, Lehi, UT 84043","precinct":"25LE10","hd":"53","v_score":"0","decile":"1","lat":40.40878202720822,"lng":-111.83751846805268,"phone":"(474) 399-2452","sd":"21","ssbd":"11","lsbd":"School Board Aspen Peaks 2"},{"vid":"2491172","name":"Dr. Alexandrea Keebler","party":"Rep","address":"717 E 1775 N, Lehi, UT 84043","precinct":"25LE10","hd":"53","v_score":"0","decile":"1","lat":40.40956250884033,"lng":-111.8379854403166,"phone":"(269) 051-6644","sd":"21","ssbd":"11","lsbd":"School Board Aspen Peaks 2"},{"vid":"2497819","name":"Magdalene Beier","party":"","address":"2021 N 1200 E, Lehi, UT 84043","precinct":"25LE10","hd":"53","v_score":"12.81831199","decile":"9","lat":40.41267191985868,"lng":-111.83061547665847,"phone":"(220) 745-4400","sd":"21","ssbd":"11","lsbd":"School Board Aspen Peaks 2"},{"vid":"2500097","name":"Mayo Blanda V","party":"Rep","address":"1598 N Summer Crest Dr, Lehi, UT 84043","precinct":"25LE10","hd":"53","v_score":"0","decile":"1","lat":40.406963937294535,"lng":-111.83536303116199,"phone":"(632) 837-7506","sd":"21","ssbd":"11","lsbd":"School Board Aspen Peaks 2"},{"vid":"2501985","name":"Rollin Pfannerstill","party":"Dem","address":"1863 N 900 E, Lehi, UT 84043","precinct":"25LE10","hd":"53","v_score":"5.693042993","decile":"7","lat":40.41083252177319,"lng":-111.83482939981477,"phone":"(438) 136-3383","sd":"21","ssbd":"11","lsbd":"School Board Aspen Peaks 2"},{"vid":"2503333","name":"Marland O'Hara","party":"Dem","address":"688 E Airport Dr, Lehi, UT 84043","precinct":"25LE10","hd":"53","v_score":"1.193887297","decile":"3","lat":40.40999217534637,"lng":-111.83855125855708,"phone":"(853) 912-2441","sd":"21","ssbd":"11","lsbd":"School Board Aspen Peaks 2"},{"vid":"2506527","name":"Cyntha Sauer-West","party":"","address":"1325 N Cedar Hollow Blvd, Lehi, UT 84043","precinct":"25LE10","hd":"53","v_score":"8.284004873","decile":"8","lat":40.403399127284025,"lng":-111.83305370083104,"phone":"(796) 329-3478","sd":"21","ssbd":"11","lsbd":"School Board Aspen Peaks 2"},{"vid":"2506629","name":"Nadine Swaniawski","party":"","address":"1668 N Summer Crest Dr, Lehi, UT 84043","precinct":"25LE10","hd":"53","v_score":"1.193887297","decile":"3","lat":40.40795031759817,"lng":-111.83535364862982,"phone":"(942) 945-4848","sd":"21","ssbd":"11","lsbd":"School Board Aspen Peaks 2"},{"vid":"2511963","name":"Mickey Kozey","party":"Rep","address":"1656 N Oak Dr, Lehi, UT 84043","precinct":"25LE10","hd":"53","v_score":"1.193887297","decile":"4","lat":40.408191415099616,"lng":-111.83434951957905,"phone":"(429) 883-4767","sd":"21","ssbd":"11","lsbd":"School Board Aspen Peaks 2"},{"vid":"2512976","name":"Archer Effertz","party":"Dem","address":"847 E 1475 N, Lehi, UT 84043","precinct":"25LE10","hd":"53","v_score":"1.193887297","decile":"4","lat":40.40598195210125,"lng":-111.83578221916862,"phone":"(956) 715-4886","sd":"21","ssbd":"11","lsbd":"School Board Aspen Peaks 2"},{"vid":"2514833","name":"Hakeem Conroy","party":"","address":"1868 N 800 E, Lehi, UT 84043","precinct":"25LE10","hd":"53","v_score":"0","decile":"1","lat":40.41028745637053,"lng":-111.83543630490716,"phone":"(258) 277-0406","sd":"21","ssbd":"11","lsbd":"School Board Aspen Peaks 2"},{"vid":"2516096","name":"Giovani Toy","party":"","address":"2021 N 1200 E, Lehi, UT 84043","precinct":"25LE10","hd":"53","v_score":"5.926494964","decile":"7","lat":40.41267191985868,"lng":-111.83061547665847,"phone":"(384) 760-9600","sd":"21","ssbd":"11","lsbd":"School Board Aspen Peaks 2"},{"vid":"2522911","name":"Rubin Kohler","party":"Rep","address":"1783 N Summer Crest Dr, Lehi, UT 84043","precinct":"25LE10","hd":"53","v_score":"6.728543739","decile":"8","lat":40.409457248602074,"lng":-111.8355859313372,"phone":"(880) 293-2637","sd":"21","ssbd":"11","lsbd":"School Board Aspen Peaks 2"},{"vid":"2527416","name":"Freeda Lind-Thompson","party":"Rep","address":"1814 N 900 E, Lehi, UT 84043","precinct":"25LE10","hd":"53","v_score":"1.193887297","decile":"4","lat":40.410059020303116,"lng":-111.83420203672226,"phone":"(224) 703-1723","sd":"21","ssbd":"11","lsbd":"School Board Aspen Peaks 2"},{"vid":"2529830","name":"Finn Doyle-O'Conner","party":"Rep","address":"2057 N Airport Dr, Lehi, UT 84043","precinct":"25LE10","hd":"53","v_score":"3.711952487","decile":"6","lat":40.41328273303972,"lng":-111.83404363427293,"phone":"(111) 670-8131","sd":"21","ssbd":"11","lsbd":"School Board Aspen Peaks 2"},{"vid":"2533018","name":"Clarice Cormier-Baumbach","party":"Rep","address":"1778 N 750 E, Lehi, UT 84043","precinct":"25LE10","hd":"53","v_score":"0","decile":"1","lat":40.40952727538766,"lng":-111.83708793134602,"phone":"(902) 421-6679","sd":"21","ssbd":"11","lsbd":"School Board Aspen Peaks 2"},{"vid":"2536048","name":"Dr. Tyrik Green Jr.","party":"","address":"2078 N 1100 E, Lehi, UT 84043","precinct":"25LE10","hd":"53","v_score":"4.069929862","decile":"6","lat":40.413429213465776,"lng":-111.83133730850075,"phone":"(134) 990-8991","sd":"21","ssbd":"11","lsbd":"School Board Aspen Peaks 2"},{"vid":"2538172","name":"Evonne Bahringer","party":"Rep","address":"1778 N 750 E, Lehi, UT 84043","precinct":"25LE10","hd":"53","v_score":"2.817000428","decile":"6","lat":40.40952727538766,"lng":-111.83708793134602,"phone":"(257) 581-8106","sd":"21","ssbd":"11","lsbd":"School Board Aspen Peaks 2"},{"vid":"2547885","name":"Lannie Bogisich","party":"Dem","address":"2025 N 1100 E, Lehi, UT 84043","precinct":"25LE10","hd":"53","v_score":"4.905839784","decile":"7","lat":40.412793810429484,"lng":-111.83160255747822,"phone":"(599) 154-8578","sd":"21","ssbd":"11","lsbd":"School Board Aspen Peaks 2"},{"vid":"2560620","name":"Jeanne Hauck","party":"Rep","address":"2015 N 825 E, Lehi, UT 84043","precinct":"25LE10","hd":"53","v_score":"0","decile":"1","lat":40.41276500697641,"lng":-111.8364297407679,"phone":"(251) 742-3499","sd":"21","ssbd":"11","lsbd":"School Board Aspen Peaks 2"},{"vid":"2561879","name":"Dr. Wayde Huels Jr.","party":"Dem","address":"1114 N Cedar Hollow Blvd, Lehi, UT 84043","precinct":"25LE10","hd":"53","v_score":"2.817000428","decile":"6","lat":40.401389644570905,"lng":-111.83191688743995,"phone":"(802) 541-8490","sd":"21","ssbd":"11","lsbd":"School Board Aspen Peaks 2"},{"vid":"2567248","name":"Elmo Schmidt","party":"","address":"1843 N 800 E, Lehi, UT 84043","precinct":"25LE10","hd":"53","v_score":"5.407962308","decile":"7","lat":40.4101127083068,"lng":-111.8363882472841,"phone":"(668) 373-1285","sd":"21","ssbd":"11","lsbd":"School Board Aspen Peaks 2"},{"vid":"2569300","name":"Renea Marks DDS","party":"Dem","address":"1920 N Airport Dr, Lehi, UT 84043","precinct":"25LE10","hd":"53","v_score":"11.26156058","decile":"9","lat":40.411628151306296,"lng":-111.83529250043755,"phone":"(817) 612-2222","sd":"21","ssbd":"11","lsbd":"School Board Aspen Peaks 2"},{"vid":"2571555","name":"Ethyl Renner","party":"","address":"1146 N 1000 E, Lehi, UT 84043","precinct":"25LE10","hd":"53","v_score":"0","decile":"1","lat":40.401796077655284,"lng":-111.83296477558301,"phone":"(999) 659-1836","sd":"21","ssbd":"11","lsbd":"School Board Aspen Peaks 2"},{"vid":"2573581","name":"Ellis Donnelly","party":"","address":"1857 N 800 E, Lehi, UT 84043","precinct":"25LE10","hd":"53","v_score":"1.193887297","decile":"4","lat":40.41034340875251,"lng":-111.83613336341712,"phone":"(402) 659-1554","sd":"21","ssbd":"11","lsbd":"School Board Aspen Peaks 2"},{"vid":"2591570","name":"Elfreda Ruecker","party":"Rep","address":"1598 N Summer Crest Dr, Lehi, UT 84043","precinct":"25LE10","hd":"53","v_score":"8.236277988","decile":"8","lat":40.406963937294535,"lng":-111.83536303116199,"phone":"(588) 740-9730","sd":"21","ssbd":"11","lsbd":"School Board Aspen Peaks 2"},{"vid":"2608293","name":"Maddison Graham","party":"","address":"2085 N 1100 E, Lehi, UT 84043","precinct":"25LE10","hd":"53","v_score":"0","decile":"1","lat":40.4136660169307,"lng":-111.83188604050125,"phone":"(570) 561-0575","sd":"21","ssbd":"11","lsbd":"School Board Aspen Peaks 2"},{"vid":"2609344","name":"Mr. Lyman Carroll","party":"Rep","address":"1776 N 900 E, Lehi, UT 84043","precinct":"25LE10","hd":"53","v_score":"0","decile":"1","lat":40.4094181193327,"lng":-111.83434564080468,"phone":"(793) 611-4027","sd":"21","ssbd":"11","lsbd":"School Board Aspen Peaks 2"},{"vid":"2627348","name":"Jessie Crist DDS","party":"Rep","address":"2069 N 825 E, Lehi, UT 84043","precinct":"25LE10","hd":"53","v_score":"5.693042993","decile":"7","lat":40.41342362930911,"lng":-111.8364329806318,"phone":"(229) 291-7791","sd":"21","ssbd":"11","lsbd":"School Board Aspen Peaks 2"},{"vid":"2630502","name":"Arlis Mueller-Aufderhar","party":"Rep","address":"1286 N Cedar Hollow Blvd, Lehi, UT 84043","precinct":"25LE10","hd":"53","v_score":"1.193887297","decile":"4","lat":40.40374848142584,"lng":-111.83177864372003,"phone":"(209) 553-1280","sd":"21","ssbd":"11","lsbd":"School Board Aspen Peaks 2"},{"vid":"2630834","name":"Helene Auer","party":"Rep","address":"1911 N 1200 E, Lehi, UT 84043","precinct":"25LE10","hd":"53","v_score":"5.693042993","decile":"7","lat":40.41157769670514,"lng":-111.83061607662904,"phone":"(587) 871-2291","sd":"21","ssbd":"11","lsbd":"School Board Aspen Peaks 2"},{"vid":"2637057","name":"Royce Russel","party":"Dem","address":"1869 N 800 E, Lehi, UT 84043","precinct":"25LE10","hd":"53","v_score":"6.355720798","decile":"7","lat":40.41061153936501,"lng":-111.83588658328041,"phone":"(226) 937-5815","sd":"21","ssbd":"11","lsbd":"School Board Aspen Peaks 2"},{"vid":"2640675","name":"Elinor Crooks","party":"Rep","address":"1146 N 1000 E, Lehi, UT 84043","precinct":"25LE10","hd":"53","v_score":"1.623113131","decile":"5","lat":40.401796077655284,"lng":-111.83296477558301,"phone":"(196) 644-1948","sd":"21","ssbd":"11","lsbd":"School Board Aspen Peaks 2"},{"vid":"2643429","name":"Lorelai Hintz","party":"","address":"1147 N Cedar Hollow Blvd, Lehi, UT 84043","precinct":"25LE10","hd":"53","v_score":"2.817000428","decile":"6","lat":40.401797203929924,"lng":-111.83251068421373,"phone":"(612) 134-7327","sd":"21","ssbd":"11","lsbd":"School Board Aspen Peaks 2"},{"vid":"2643621","name":"Rowena Kirlin DDS","party":"","address":"1114 N Cedar Hollow Blvd, Lehi, UT 84043","precinct":"25LE10","hd":"53","v_score":"2.817000428","decile":"6","lat":40.401389644570905,"lng":-111.83191688743995,"phone":"(674) 905-1770","sd":"21","ssbd":"11","lsbd":"School Board Aspen Peaks 2"},{"vid":"2647179","name":"Charlotta Dooley","party":"Rep","address":"1997 N 825 E, Lehi, UT 84043","precinct":"25LE10","hd":"53","v_score":"0","decile":"1","lat":40.41254543964168,"lng":-111.83642865991494,"phone":"(865) 050-5954","sd":"21","ssbd":"11","lsbd":"School Board Aspen Peaks 2"},{"vid":"2658244","name":"Nery Price","party":"Dem","address":"1916 N 1150 E, Lehi, UT 84043","precinct":"25LE10","hd":"53","v_score":"1.193887297","decile":"4","lat":40.411786082226826,"lng":-111.8312982564581,"phone":"(259) 715-4946","sd":"21","ssbd":"11","lsbd":"School Board Aspen Peaks 2"},{"vid":"2658788","name":"Ms. Ina Satterfield","party":"Dem","address":"725 E Cedar Hollow Rd, Lehi, UT 84043","precinct":"25LE10","hd":"53","v_score":"9.638447451","decile":"8","lat":40.40483547699678,"lng":-111.83660267187993,"phone":"(111) 334-3384","sd":"21","ssbd":"11","lsbd":"School Board Aspen Peaks 2"},{"vid":"2659495","name":"Alanzo Haley","party":"","address":"2026 N 1100 E, Lehi, UT 84043","precinct":"25LE10","hd":"53","v_score":"0","decile":"1","lat":40.4128032644438,"lng":-111.83124938136928,"phone":"(638) 581-2838","sd":"21","ssbd":"11","lsbd":"School Board Aspen Peaks 2"},{"vid":"2663525","name":"Hadley Tromp","party":"Rep","address":"691 E 1775 N, Apt E, Lehi, UT 84043","precinct":"25LE10","hd":"53","v_score":"1.193887297","decile":"4","lat":40.40955925797809,"lng":-111.83832675280118,"phone":"(695) 389-4268","sd":"21","ssbd":"11","lsbd":"School Board Aspen Peaks 2"},{"vid":"2664449","name":"Ciarra Schowalter","party":"Dem","address":"1817 N Airport Dr, Lehi, UT 84043","precinct":"25LE10","hd":"53","v_score":"1.193887297","decile":"4","lat":40.4106634799267,"lng":-111.8371165364122,"phone":"(408) 310-3469","sd":"21","ssbd":"11","lsbd":"School Board Aspen Peaks 2"},{"vid":"2665076","name":"Alvin Pacocha-Romaguera","party":"","address":"743 E 1725 N, Lehi, UT 84043","precinct":"25LE10","hd":"53","v_score":"1.193887297","decile":"4","lat":40.40878202720822,"lng":-111.83751846805268,"phone":"(232) 532-2253","sd":"21","ssbd":"11","lsbd":"School Board Aspen Peaks 2"},{"vid":"2678409","name":"Marcy Cummerata","party":"","address":"1616 N Summer Crest Dr, Lehi, UT 84043","precinct":"25LE10","hd":"53","v_score":"0","decile":"2","lat":40.407193673242084,"lng":-111.83536272588455,"phone":"(422) 567-7392","sd":"21","ssbd":"11","lsbd":"School Board Aspen Peaks 2"},{"vid":"2683362","name":"Hermina Miller","party":"Dem","address":"691 E 1775 N, Apt D, Lehi, UT 84043","precinct":"25LE10","hd":"53","v_score":"0","decile":"2","lat":40.40955925797809,"lng":-111.83832675280118,"phone":"(104) 047-5795","sd":"21","ssbd":"11","lsbd":"School Board Aspen Peaks 2"},{"vid":"2686615","name":"Mrs. Rosalie Kulas","party":"Rep","address":"743 E Airport Dr, Lehi, UT 84043","precinct":"25LE10","hd":"53","v_score":"0","decile":"2","lat":40.41046510697301,"lng":-111.83768334390308,"phone":"(794) 181-8088","sd":"21","ssbd":"11","lsbd":"School Board Aspen Peaks 2"},{"vid":"2688279","name":"Nicole Wisozk","party":"Rep","address":"1122 N 940 E, Lehi, UT 84043","precinct":"25LE10","hd":"53","v_score":"0","decile":"2","lat":40.40138755780776,"lng":-111.8341699310499,"phone":"(564) 089-9562","sd":"21","ssbd":"11","lsbd":"School Board Aspen Peaks 2"},{"vid":"2689969","name":"Destany Steuber","party":"","address":"1718 N Summer Crest Dr, Lehi, UT 84043","precinct":"25LE10","hd":"53","v_score":"11.99595736","decile":"9","lat":40.408536124788625,"lng":-111.83530190071846,"phone":"(239) 625-3502","sd":"21","ssbd":"11","lsbd":"School Board Aspen Peaks 2"},{"vid":"2693643","name":"Eddie Kuhn","party":"","address":"933 E Mesa Ave, Lehi, UT 84043","precinct":"25LE10","hd":"53","v_score":"0","decile":"2","lat":40.40907112849484,"lng":-111.83418707923377,"phone":"(289) 333-0377","sd":"21","ssbd":"11","lsbd":"School Board Aspen Peaks 2"},{"vid":"2729254","name":"Luann Anderson","party":"","address":"1502 N 600 E, Lehi, UT 84043","precinct":"25LE10","hd":"53","v_score":"5.407962308","decile":"7","lat":40.40629971855702,"lng":-111.83938920548846,"phone":"(371) 042-9185","sd":"21","ssbd":"11","lsbd":"School Board Aspen Peaks 2"},{"vid":"2735568","name":"Dr. Andres Adams","party":"","address":"1863 N 900 E, Lehi, UT 84043","precinct":"25LE10","hd":"53","v_score":"0","decile":"2","lat":40.41083252177319,"lng":-111.83482939981477,"phone":"(683) 664-5750","sd":"21","ssbd":"11","lsbd":"School Board Aspen Peaks 2"},{"vid":"2735623","name":"Kristian Altenwerth-Bechtelar","party":"","address":"2025 N 1100 E, Lehi, UT 84043","precinct":"25LE10","hd":"53","v_score":"4.069929862","decile":"7","lat":40.412793810429484,"lng":-111.83160255747822,"phone":"(115) 089-8921","sd":"21","ssbd":"11","lsbd":"School Board Aspen Peaks 2"},{"vid":"2735713","name":"Marleigh Jerde","party":"","address":"847 E 1475 N, Lehi, UT 84043","precinct":"25LE10","hd":"53","v_score":"0","decile":"2","lat":40.40598195210125,"lng":-111.83578221916862,"phone":"(702) 132-0015","sd":"21","ssbd":"11","lsbd":"School Board Aspen Peaks 2"},{"vid":"2741309","name":"Anice Crooks","party":"","address":"1058 E 2040 N, Lehi, UT 84043","precinct":"25LE10","hd":"53","v_score":"2.876042565","decile":"6","lat":40.41278170237353,"lng":-111.83237984149623,"phone":"(789) 935-8713","sd":"21","ssbd":"11","lsbd":"School Board Aspen Peaks 2"},{"vid":"2743549","name":"Maddison Wisozk","party":"","address":"1515 N 1200 E, Lehi, UT 84043","precinct":"25LE10","hd":"53","v_score":"4.069929862","decile":"7","lat":40.40705726715107,"lng":-111.83060022711895,"phone":"(465) 992-6778","sd":"21","ssbd":"11","lsbd":"School Board Aspen Peaks 2"},{"vid":"2743550","name":"Karli Grimes","party":"Dem","address":"1515 N 1200 E, Lehi, UT 84043","precinct":"25LE10","hd":"53","v_score":"4.069929862","decile":"7","lat":40.40705726715107,"lng":-111.83060022711895,"phone":"(747) 733-2109","sd":"21","ssbd":"11","lsbd":"School Board Aspen Peaks 2"},{"vid":"2743583","name":"Lazaro Harber","party":"Dem","address":"1515 N 1200 E, Lehi, UT 84043","precinct":"25LE10","hd":"53","v_score":"4.069929862","decile":"7","lat":40.40705726715107,"lng":-111.83060022711895,"phone":"(667) 546-0053","sd":"21","ssbd":"11","lsbd":"School Board Aspen Peaks 2"},{"vid":"2743937","name":"Hillard Considine","party":"","address":"1131 E Fitzgerald Ln, Lehi, UT 84043","precinct":"25LE10","hd":"53","v_score":"7.090117576","decile":"8","lat":40.40734316393732,"lng":-111.83301526229818,"phone":"(706) 093-1275","sd":"21","ssbd":"11","lsbd":"School Board Aspen Peaks 2"},{"vid":"2746564","name":"Tavares Wuckert","party":"","address":"1916 N 1150 E, Lehi, UT 84043","precinct":"25LE10","hd":"53","v_score":"1.193887297","decile":"4","lat":40.411786082226826,"lng":-111.8312982564581,"phone":"(826) 553-0337","sd":"21","ssbd":"11","lsbd":"School Board Aspen Peaks 2"},{"vid":"2752186","name":"Thaddeus Hirthe","party":"Dem","address":"1802 N 900 E, Lehi, UT 84043","precinct":"25LE10","hd":"53","v_score":"8.284004873","decile":"8","lat":40.40989735382514,"lng":-111.83430537487013,"phone":"(902) 214-1912","sd":"21","ssbd":"11","lsbd":"School Board Aspen Peaks 2"},{"vid":"2757017","name":"Haskell Yost","party":"Dem","address":"880 E 1900 N, Lehi, UT 84043","precinct":"25LE10","hd":"53","v_score":"1.193887297","decile":"4","lat":40.41132342006621,"lng":-111.8348105901477,"phone":"(233) 598-2320","sd":"21","ssbd":"11","lsbd":"School Board Aspen Peaks 2"},{"vid":"2760055","name":"Mrs. Jettie Boehm DVM","party":"Rep","address":"798 E 1475 N, Lehi, UT 84043","precinct":"25LE10","hd":"53","v_score":"1.193887297","decile":"4","lat":40.40537289030644,"lng":-111.8366275253593,"phone":"(141) 665-7936","sd":"21","ssbd":"11","lsbd":"School Board Aspen Peaks 2"},{"vid":"2760539","name":"Dr. Gaetano Botsford IV","party":"","address":"1787 N 750 E, A, Lehi, UT 84043","precinct":"25LE10","hd":"53","v_score":"1.193887297","decile":"4","lat":40.40956265840217,"lng":-111.83750641061582,"phone":"(241) 772-8344","sd":"21","ssbd":"11","lsbd":"School Board Aspen Peaks 2"},{"vid":"2772879","name":"Arizona Mueller","party":"Dem","address":"743 E 1725 N, Lehi, UT 84043","precinct":"25LE10","hd":"53","v_score":"0","decile":"2","lat":40.40878202720822,"lng":-111.83751846805268,"phone":"(140) 985-3835","sd":"21","ssbd":"11","lsbd":"School Board Aspen Peaks 2"},{"vid":"2781831","name":"Hence Wolff","party":"Dem","address":"2085 N 1100 E, Lehi, UT 84043","precinct":"25LE10","hd":"53","v_score":"0","decile":"2","lat":40.4136660169307,"lng":-111.83188604050125,"phone":"(838) 739-4995","sd":"21","ssbd":"11","lsbd":"School Board Aspen Peaks 2"},{"vid":"2783295","name":"Finn O'Kon","party":"","address":"1580 N Summer Crest Dr, Lehi, UT 84043","precinct":"25LE10","hd":"53","v_score":"1.193887297","decile":"4","lat":40.4067097814018,"lng":-111.83542641900341,"phone":"(508) 552-2540","sd":"21","ssbd":"11","lsbd":"School Board Aspen Peaks 2"},{"vid":"2789564","name":"Fayette Mueller","party":"Rep","address":"1274 N 940 E, Lehi, UT 84043","precinct":"25LE10","hd":"53","v_score":"0","decile":"2","lat":40.403264770889294,"lng":-111.83393400575672,"phone":"(682) 934-6635","sd":"21","ssbd":"11","lsbd":"School Board Aspen Peaks 2"},{"vid":"2798728","name":"Elwin Jast","party":"Rep","address":"1228 N Cedar Hollow Blvd, Lehi, UT 84043","precinct":"25LE10","hd":"53","v_score":"1.193887297","decile":"4","lat":40.40265835017605,"lng":-111.83185944857222,"phone":"(331) 127-0201","sd":"21","ssbd":"11","lsbd":"School Board Aspen Peaks 2"},{"vid":"2801626","name":"Dow Mayert I","party":"","address":"1228 N Cedar Hollow Blvd, Lehi, UT 84043","precinct":"25LE10","hd":"53","v_score":"2.876042565","decile":"6","lat":40.40265835017605,"lng":-111.83185944857222,"phone":"(963) 401-3646","sd":"21","ssbd":"11","lsbd":"School Board Aspen Peaks 2"},{"vid":"2815203","name":"Pleas Grady","party":"Rep","address":"1718 N Summer Crest Dr, Lehi, UT 84043","precinct":"25LE10","hd":"53","v_score":"7.090117576","decile":"8","lat":40.408536124788625,"lng":-111.83530190071846,"phone":"(217) 091-2629","sd":"21","ssbd":"11","lsbd":"School Board Aspen Peaks 2"},{"vid":"2817423","name":"Arlene Price","party":"","address":"2057 N Airport Dr, Lehi, UT 84043","precinct":"25LE10","hd":"53","v_score":"0","decile":"2","lat":40.41328273303972,"lng":-111.83404363427293,"phone":"(301) 802-5101","sd":"21","ssbd":"11","lsbd":"School Board Aspen Peaks 2"},{"vid":"2819844","name":"Orra Leannon","party":"Rep","address":"1228 N Cedar Hollow Blvd, Lehi, UT 84043","precinct":"25LE10","hd":"53","v_score":"5.407962308","decile":"7","lat":40.40265835017605,"lng":-111.83185944857222,"phone":"(592) 238-4451","sd":"21","ssbd":"11","lsbd":"School Board Aspen Peaks 2"},{"vid":"2823868","name":"Dr. Tayshaun Littel DVM","party":"","address":"1911 N 1200 E, Lehi, UT 84043","precinct":"25LE10","hd":"53","v_score":"4.069929862","decile":"7","lat":40.41157769670514,"lng":-111.83061607662904,"phone":"(837) 366-3939","sd":"21","ssbd":"11","lsbd":"School Board Aspen Peaks 2"},{"vid":"2825836","name":"Miss Zaria Jenkins DVM","party":"Rep","address":"1294 N Cedar Hollow Blvd, Lehi, UT 84043","precinct":"25LE10","hd":"53","v_score":"1.193887297","decile":"4","lat":40.40360194857621,"lng":-111.8322580540602,"phone":"(277) 186-5912","sd":"21","ssbd":"11","lsbd":"School Board Aspen Peaks 2"},{"vid":"2829549","name":"Ms. Afton Abernathy","party":"","address":"649 E Cedar Hollow Rd, Lehi, UT 84043","precinct":"25LE10","hd":"53","v_score":"1.193887297","decile":"4","lat":40.404968717830336,"lng":-111.8384554084947,"phone":"(823) 835-5237","sd":"21","ssbd":"11","lsbd":"School Board Aspen Peaks 2"},{"vid":"2836550","name":"Dr. Aleta Bednar","party":"Rep","address":"1202 N Cedar Hollow Blvd, Lehi, UT 84043","precinct":"25LE10","hd":"53","v_score":"1.193887297","decile":"4","lat":40.40237020124111,"lng":-111.83185828687091,"phone":"(313) 019-7617","sd":"21","ssbd":"11","lsbd":"School Board Aspen Peaks 2"},{"vid":"2839358","name":"Mrs. Jacquelin Wisoky","party":"Rep","address":"2060 N Airport Dr, Lehi, UT 84043","precinct":"25LE10","hd":"53","v_score":"1.193887297","decile":"4","lat":40.41304576137841,"lng":-111.83352968688398,"phone":"(795) 809-4980","sd":"21","ssbd":"11","lsbd":"School Board Aspen Peaks 2"},{"vid":"2839558","name":"Vena Blick","party":"","address":"1598 N Summer Crest Dr, Lehi, UT 84043","precinct":"25LE10","hd":"53","v_score":"1.193887297","decile":"4","lat":40.406963937294535,"lng":-111.83536303116199,"phone":"(919) 360-3859","sd":"21","ssbd":"11","lsbd":"School Board Aspen Peaks 2"},{"vid":"2841892","name":"Elfie Cummerata","party":"","address":"1868 N 800 E, Lehi, UT 84043","precinct":"25LE10","hd":"53","v_score":"0","decile":"2","lat":40.41028745637053,"lng":-111.83543630490716,"phone":"(495) 044-0496","sd":"21","ssbd":"11","lsbd":"School Board Aspen Peaks 2"},{"vid":"2852260","name":"Colby Strosin-Bode","party":"Dem","address":"659 E Cedar Hollow Rd, Lehi, UT 84043","precinct":"25LE10","hd":"53","v_score":"4.069929862","decile":"7","lat":40.40526735274404,"lng":-111.83798244747514,"phone":"(834) 586-4174","sd":"21","ssbd":"11","lsbd":"School Board Aspen Peaks 2"},{"vid":"2853433","name":"Brittaney Stroman","party":"Rep","address":"691 E 1775 N, Lehi, UT 84043","precinct":"25LE10","hd":"53","v_score":"1.193887297","decile":"4","lat":40.40955925797809,"lng":-111.83832675280118,"phone":"(978) 148-8037","sd":"21","ssbd":"11","lsbd":"School Board Aspen Peaks 2"},{"vid":"2862758","name":"Addie Sauer-Rodriguez","party":"Dem","address":"2060 N Airport Dr, Lehi, UT 84043","precinct":"25LE10","hd":"53","v_score":"1.193887297","decile":"4","lat":40.41304576137841,"lng":-111.83352968688398,"phone":"(385) 396-8007","sd":"21","ssbd":"11","lsbd":"School Board Aspen Peaks 2"},{"vid":"2872545","name":"Reynolds Cassin","party":"Rep","address":"955 E 1960 N, Lehi, UT 84043","precinct":"25LE10","hd":"53","v_score":"1.193887297","decile":"4","lat":40.41228691079408,"lng":-111.83354053912738,"phone":"(683) 103-1535","sd":"21","ssbd":"11","lsbd":"School Board Aspen Peaks 2"},{"vid":"2881560","name":"Mr. Blaze Durgan PhD","party":"Rep","address":"2085 N 1100 E, Lehi, UT 84043","precinct":"25LE10","hd":"53","v_score":"1.193887297","decile":"4","lat":40.4136660169307,"lng":-111.83188604050125,"phone":"(239) 252-9968","sd":"21","ssbd":"11","lsbd":"School Board Aspen Peaks 2"},{"vid":"2887247","name":"Dr. Daron Gorczany III","party":"","address":"1997 N 825 E, Lehi, UT 84043","precinct":"25LE10","hd":"53","v_score":"1.193887297","decile":"4","lat":40.41254543964168,"lng":-111.83642865991494,"phone":"(974) 591-4592","sd":"21","ssbd":"11","lsbd":"School Board Aspen Peaks 2"},{"vid":"2887773","name":"Abigale D'Amore DVM","party":"Dem","address":"952 E 1960 N, Lehi, UT 84043","precinct":"25LE10","hd":"53","v_score":"5.407962308","decile":"7","lat":40.41183589699009,"lng":-111.83362175447067,"phone":"(700) 769-9610","sd":"21","ssbd":"11","lsbd":"School Board Aspen Peaks 2"},{"vid":"2893421","name":"Della Stiedemann-Turner","party":"","address":"988 E 2040 N, Lehi, UT 84043","precinct":"25LE10","hd":"53","v_score":"0","decile":"2","lat":40.41275754557957,"lng":-111.8335444965892,"phone":"(663) 675-2301","sd":"21","ssbd":"11","lsbd":"School Board Aspen Peaks 2"},{"vid":"2896977","name":"Elinor Schaefer","party":"Dem","address":"1580 N Fitzgerald Ln, Lehi, UT 84043","precinct":"25LE10","hd":"53","v_score":"0","decile":"2","lat":40.40758272596062,"lng":-111.83443062812935,"phone":"(111) 724-4514","sd":"21","ssbd":"11","lsbd":"School Board Aspen Peaks 2"},{"vid":"2898891","name":"Drew Nader","party":"Dem","address":"1857 N 800 E, Lehi, UT 84043","precinct":"25LE10","hd":"53","v_score":"0","decile":"2","lat":40.41034340875251,"lng":-111.83613336341712,"phone":"(293) 041-4550","sd":"21","ssbd":"11","lsbd":"School Board Aspen Peaks 2"},{"vid":"2913306","name":"Dr. Ari Ratke DVM","party":"Rep","address":"719 E 1725 N, Lehi, UT 84043","precinct":"25LE10","hd":"53","v_score":"0","decile":"2","lat":40.40877781827159,"lng":-111.83799332780414,"phone":"(998) 610-5794","sd":"21","ssbd":"11","lsbd":"School Board Aspen Peaks 2"},{"vid":"2918838","name":"Josefina Pfannerstill","party":"Dem","address":"1916 N 1150 E, Lehi, UT 84043","precinct":"25LE10","hd":"53","v_score":"0","decile":"2","lat":40.411786082226826,"lng":-111.8312982564581,"phone":"(437) 812-3363","sd":"21","ssbd":"11","lsbd":"School Board Aspen Peaks 2"},{"vid":"2922559","name":"Lemma Barton","party":"Rep","address":"1546 N Summer Crest Dr, Lehi, UT 84043","precinct":"25LE10","hd":"53","v_score":"2.876042565","decile":"6","lat":40.406453577815746,"lng":-111.83590651496779,"phone":"(682) 839-6413","sd":"21","ssbd":"11","lsbd":"School Board Aspen Peaks 2"},{"vid":"2941372","name":"Dr. Dane Medhurst","party":"","address":"1756 N Summer Crest Dr, Lehi, UT 84043","precinct":"25LE10","hd":"53","v_score":"2.876042565","decile":"6","lat":40.408978927273886,"lng":-111.83534728213021,"phone":"(899) 103-3704","sd":"21","ssbd":"11","lsbd":"School Board Aspen Peaks 2"},{"vid":"2942640","name":"Sydney Leuschke","party":"Rep","address":"1979 N 825 E, Lehi, UT 84043","precinct":"25LE10","hd":"53","v_score":"0","decile":"2","lat":40.41232589922315,"lng":-111.83642757978066,"phone":"(637) 282-2909","sd":"21","ssbd":"11","lsbd":"School Board Aspen Peaks 2"},{"vid":"2945507","name":"Eve Wunsch","party":"","address":"846 E 2125 N, Lehi, UT 84043","precinct":"25LE10","hd":"53","v_score":"0","decile":"2","lat":40.413804635353976,"lng":-111.83557691006125,"phone":"(448) 066-0064","sd":"21","ssbd":"11","lsbd":"School Board Aspen Peaks 2"},{"vid":"2961316","name":"Drew Kris Sr.","party":"","address":"1730 N 750 E, Lehi, UT 84043","precinct":"25LE10","hd":"53","v_score":"0","decile":"2","lat":40.408616190719854,"lng":-111.8370801370236,"phone":"(451) 731-7006","sd":"21","ssbd":"11","lsbd":"School Board Aspen Peaks 2"},{"vid":"2968458","name":"Florance Zulauf","party":"","address":"897 E 1900 N, Lehi, UT 84043","precinct":"25LE10","hd":"53","v_score":"2.876042565","decile":"6","lat":40.41154760905675,"lng":-111.83455451603665,"phone":"(638) 872-9119","sd":"21","ssbd":"11","lsbd":"School Board Aspen Peaks 2"},{"vid":"2968766","name":"Dr. Akeelah Schaden","party":"","address":"1802 N Mesa Ave, Lehi, UT 84043","precinct":"25LE10","hd":"53","v_score":"0","decile":"2","lat":40.409860779237285,"lng":-111.83528643047163,"phone":"(968) 348-9904","sd":"21","ssbd":"11","lsbd":"School Board Aspen Peaks 2"},{"vid":"2974226","name":"Catina Rogahn","party":"Dem","address":"810 E 1650 N, Lehi, UT 84043","precinct":"25LE10","hd":"53","v_score":"0","decile":"2","lat":40.40744211696683,"lng":-111.8364903898679,"phone":"(724) 262-4497","sd":"21","ssbd":"11","lsbd":"School Board Aspen Peaks 2"},{"vid":"2974285","name":"Ephram Morar","party":"","address":"655 E Cedar Hollow Rd, Lehi, UT 84043","precinct":"25LE10","hd":"53","v_score":"0","decile":"2","lat":40.40493852143946,"lng":-111.83836946911936,"phone":"(630) 793-4014","sd":"21","ssbd":"11","lsbd":"School Board Aspen Peaks 2"},{"vid":"2979608","name":"Deonta Will","party":"Rep","address":"1440 N Summer Crest Dr, Lehi, UT 84043","precinct":"25LE10","hd":"53","v_score":"0","decile":"2","lat":40.405127573187734,"lng":-111.83669835146222,"phone":"(990) 455-2430","sd":"21","ssbd":"11","lsbd":"School Board Aspen Peaks 2"},{"vid":"2981521","name":"Vicki Cummerata MD","party":"","address":"810 E 1650 N, Lehi, UT 84043","precinct":"25LE10","hd":"53","v_score":"0","decile":"2","lat":40.40744211696683,"lng":-111.8364903898679,"phone":"(722) 210-5469","sd":"21","ssbd":"11","lsbd":"School Board Aspen Peaks 2"},{"vid":"2982804","name":"Thomas Ortiz","party":"","address":"1147 N Cedar Hollow Blvd, Lehi, UT 84043","precinct":"25LE10","hd":"53","v_score":"0","decile":"2","lat":40.401797203929924,"lng":-111.83251068421373,"phone":"(740) 598-6537","sd":"21","ssbd":"11","lsbd":"School Board Aspen Peaks 2"},{"vid":"3151660","name":"Nila Romaguera","party":"Rep","address":"1853 N Airport Dr, Lehi, UT 84043","precinct":"25LE10","hd":"53","v_score":"19.22326505","decile":"10","lat":40.41107195431985,"lng":-111.83666795601495,"phone":"(290) 063-9078","sd":"21","ssbd":"11","lsbd":"School Board Aspen Peaks 2"},{"vid":"3181234","name":"Dr. Jerad Kris DDS","party":"Dem","address":"1717 N 800 E, Lehi, UT 84043","precinct":"25LE10","hd":"53","v_score":"0","decile":"2","lat":40.408329226312155,"lng":-111.83661740082763,"phone":"(833) 720-8861","sd":"21","ssbd":"11","lsbd":"School Board Aspen Peaks 2"},{"vid":"3182119","name":"Cole Schoen PhD","party":"","address":"970 E 2040 N, Lehi, UT 84043","precinct":"25LE10","hd":"53","v_score":"5.40460374","decile":"7","lat":40.412886397583115,"lng":-111.83379033812042,"phone":"(630) 525-3303","sd":"21","ssbd":"11","lsbd":"School Board Aspen Peaks 2"},{"vid":"3228891","name":"Renee Nitzsche-Kuphal","party":"Dem","address":"931 E 1960 N, Lehi, UT 84043","precinct":"25LE10","hd":"53","v_score":"1.121327652","decile":"3","lat":40.412157803513054,"lng":-111.83399949732201,"phone":"(283) 340-8565","sd":"21","ssbd":"11","lsbd":"School Board Aspen Peaks 2"},{"vid":"3260631","name":"Brittany Schmidt","party":"Dem","address":"1006 E 2040 N, Lehi, UT 84043","precinct":"25LE10","hd":"53","v_score":"3.781490609","decile":"6","lat":40.412724396431166,"lng":-111.83327296593184,"phone":"(531) 291-9541","sd":"21","ssbd":"11","lsbd":"School Board Aspen Peaks 2"},{"vid":"3266070","name":"Lindy Koelpin","party":"","address":"1147 N 1000 E, Lehi, UT 84043","precinct":"25LE10","hd":"53","v_score":"11.29723756","decile":"9","lat":40.40179468965036,"lng":-111.83352906975603,"phone":"(435) 359-9744","sd":"21","ssbd":"11","lsbd":"School Board Aspen Peaks 2"},{"vid":"3296276","name":"Galilea Lang","party":"","address":"1231 N Cedar Hollow Blvd, Lehi, UT 84043","precinct":"25LE10","hd":"53","v_score":"5.40460374","decile":"7","lat":40.40271926930743,"lng":-111.83241441428004,"phone":"(571) 982-7209","sd":"21","ssbd":"11","lsbd":"School Board Aspen Peaks 2"},{"vid":"3305088","name":"Brenda Zieme-Schaden","party":"Dem","address":"2087 N 1200 E, Lehi, UT 84043","precinct":"25LE10","hd":"53","v_score":"0","decile":"2","lat":40.41367618977946,"lng":-111.83068017602018,"phone":"(345) 138-4298","sd":"21","ssbd":"11","lsbd":"School Board Aspen Peaks 2"},{"vid":"3387581","name":"Tressa Rodriguez","party":"Dem","address":"1117 N Cedar Hollow Blvd, Lehi, UT 84043","precinct":"25LE10","hd":"53","v_score":"22.70037759","decile":"10","lat":40.40138915925429,"lng":-111.83235552343903,"phone":"(272) 134-9623","sd":"21","ssbd":"11","lsbd":"School Board Aspen Peaks 2"},{"vid":"3406257","name":"Karlee Raynor","party":"Dem","address":"1375 N 1125 E, Lehi, UT 84043","precinct":"25LE10","hd":"53","v_score":"22.48959706","decile":"10","lat":40.405671521851275,"lng":-111.83168028243003,"phone":"(405) 461-6868","sd":"21","ssbd":"11","lsbd":"School Board Aspen Peaks 2"},{"vid":"3420504","name":"Roberta Nienow","party":"","address":"2057 N Airport Dr, Lehi, UT 84043","precinct":"25LE10","hd":"53","v_score":"12.07513611","decile":"9","lat":40.41328273303972,"lng":-111.83404363427293,"phone":"(914) 597-1493","sd":"21","ssbd":"11","lsbd":"School Board Aspen Peaks 2"},{"vid":"3420510","name":"Jermain Kiehn","party":"Rep","address":"2057 N Airport Dr, Lehi, UT 84043","precinct":"25LE10","hd":"53","v_score":"12.07513611","decile":"9","lat":40.41328273303972,"lng":-111.83404363427293,"phone":"(825) 863-1369","sd":"21","ssbd":"11","lsbd":"School Board Aspen Peaks 2"},{"vid":"151744b21bac73471189a286e868de4dd7b993913c553ae05137400a5cfa0d5c","name":"Wood Jones III","party":"Rep","address":"955 E Fitzgerald Ln, Lehi, UT 84043","precinct":"25LE10","hd":"53","v_score":"18.45422016","decile":"10","lat":40.40699398272735,"lng":-111.83400913303714,"phone":"(483) 928-5616","sd":"21","ssbd":"11","lsbd":"School Board Aspen Peaks 2"},{"vid":"3442941","name":"Bluford Reynolds","party":"Rep","address":"2105 N 1200 E, Lehi, UT 84043","precinct":"25LE10","hd":"53","v_score":"8.347511332","decile":"8","lat":40.413982203085695,"lng":-111.83057215643488,"phone":"(449) 368-3554","sd":"21","ssbd":"11","lsbd":"School Board Aspen Peaks 2"},{"vid":"3462863","name":"Marcelle Kassulke","party":"","address":"2060 N Airport Dr, Lehi, UT 84043","precinct":"25LE10","hd":"53","v_score":"11.74656914","decile":"9","lat":40.41304576137841,"lng":-111.83352968688398,"phone":"(935) 327-6947","sd":"21","ssbd":"11","lsbd":"School Board Aspen Peaks 2"},{"vid":"3504422","name":"Cheyenne Steuber","party":"","address":"939 E Cedar Hollow Rd, Lehi, UT 84043","precinct":"25LE10","hd":"53","v_score":"2.817000428","decile":"6","lat":40.405022205908644,"lng":-111.83462584570361,"phone":"(879) 072-9704","sd":"21","ssbd":"11","lsbd":"School Board Aspen Peaks 2"},{"vid":"3508332","name":"West Kulas-Smitham","party":"Rep","address":"1943 N 825 E, Lehi, UT 84043","precinct":"25LE10","hd":"53","v_score":"8.347511332","decile":"8","lat":40.41187671069135,"lng":-111.83634535058007,"phone":"(144) 381-2209","sd":"21","ssbd":"11","lsbd":"School Board Aspen Peaks 2"},{"vid":"3510845","name":"Orrie VonRueden","party":"Rep","address":"861 E 2070 N, Lehi, UT 84043","precinct":"25LE10","hd":"53","v_score":"26.83752922","decile":"10","lat":40.41353094963657,"lng":-111.8353294930114,"phone":"(296) 459-5752","sd":"21","ssbd":"11","lsbd":"School Board Aspen Peaks 2"},{"vid":"125b95bf474e0dd20f02c23bde36fce62373e6ddc3fef60c0b556f99148614ee","name":"Annabella Will-Cassin","party":"Dem","address":"1345 N Cedar Hollow Blvd, Lehi, UT 84043","precinct":"25LE10","hd":"53","v_score":"16.11772682","decile":"9","lat":40.40362588723236,"lng":-111.83324292777161,"phone":"(355) 322-1425","sd":"21","ssbd":"11","lsbd":"School Board Aspen Peaks 2"},{"vid":"3566698","name":"Cena Toy","party":"Dem","address":"1006 E 2040 N, Lehi, UT 84043","precinct":"25LE10","hd":"53","v_score":"3.781490609","decile":"6","lat":40.412724396431166,"lng":-111.83327296593184,"phone":"(507) 690-6093","sd":"21","ssbd":"11","lsbd":"School Board Aspen Peaks 2"},{"vid":"3586563","name":"Alpha Rau","party":"Rep","address":"1753 N 800 E, Lehi, UT 84043","precinct":"25LE10","hd":"53","v_score":"2.315214949","decile":"5","lat":40.40891529826979,"lng":-111.83673286899604,"phone":"(189) 151-0250","sd":"21","ssbd":"11","lsbd":"School Board Aspen Peaks 2"},{"vid":"4112839","name":"Delano Luettgen Jr.","party":"Dem","address":"837 E 2070 N, Lehi, UT 84043","precinct":"25LE10","hd":"53","v_score":"2.744440783","decile":"5","lat":40.413438474122984,"lng":-111.83602345084749,"phone":"(180) 767-3295","sd":"21","ssbd":"11","lsbd":"School Board Aspen Peaks 2"},{"vid":"5005027","name":"Randolf Little II","party":"","address":"2026 N 1100 E, Lehi, UT 84043","precinct":"25LE10","hd":"53","v_score":"0","decile":"3","lat":40.4128032644438,"lng":-111.83124938136928,"phone":"(839) 438-1748","sd":"21","ssbd":"11","lsbd":"School Board Aspen Peaks 2"},{"vid":"5527826","name":"Gonzalo Kulas","party":"","address":"1427 N 1200 E, Lehi, UT 84043","precinct":"25LE10","hd":"53","v_score":"6.814370645","decile":"8","lat":40.40512294323182,"lng":-111.83129536155069,"phone":"(540) 558-8659","sd":"21","ssbd":"11","lsbd":"School Board Aspen Peaks 2"},{"vid":"5527827","name":"Elenore Larson-Feeney","party":"","address":"1931 N 1200 E, Lehi, UT 84043","precinct":"25LE10","hd":"53","v_score":"5.40460374","decile":"7","lat":40.41194449001227,"lng":-111.83062291881134,"phone":"(780) 014-9794","sd":"21","ssbd":"11","lsbd":"School Board Aspen Peaks 2"},{"vid":"5528721","name":"Reginald Schowalter","party":"","address":"849 E 2070 N, Lehi, UT 84043","precinct":"25LE10","hd":"53","v_score":"2.315214949","decile":"5","lat":40.413530061851326,"lng":-111.83563659736265,"phone":"(581) 543-6387","sd":"21","ssbd":"11","lsbd":"School Board Aspen Peaks 2"},{"vid":"81a27d56366abffbb2a15793587b49911e40a7f316db082766b80591caafbcf1","name":"Mr. Huey Larson Sr.","party":"Rep","address":"1979 N 825 E, Lehi, UT 84043","precinct":"25LE10","hd":"53","v_score":"31.33526927","decile":"10","lat":40.41232589922315,"lng":-111.83642757978066,"phone":"(646) 416-6251","sd":"21","ssbd":"11","lsbd":"School Board Aspen Peaks 2"},{"vid":"5927047","name":"Josephine Schimmel","party":"","address":"1756 N Summer Crest Dr, Lehi, UT 84043","precinct":"25LE10","hd":"53","v_score":"11.02844566","decile":"9","lat":40.408978927273886,"lng":-111.83534728213021,"phone":"(319) 495-7399","sd":"21","ssbd":"11","lsbd":"School Board Aspen Peaks 2"},{"vid":"5935016","name":"Hardin Altenwerth II","party":"Dem","address":"1025 E Cedar Hollow Rd, Lehi, UT 84043","precinct":"25LE10","hd":"53","v_score":"3.781490609","decile":"6","lat":40.40604493409648,"lng":-111.83335330024468,"phone":"(570) 693-7490","sd":"21","ssbd":"11","lsbd":"School Board Aspen Peaks 2"},{"vid":"6002909","name":"Doc Muller","party":"Dem","address":"1427 N 1200 E, Lehi, UT 84043","precinct":"25LE10","hd":"53","v_score":"6.814370645","decile":"8","lat":40.40512294323182,"lng":-111.83129536155069,"phone":"(570) 552-2434","sd":"21","ssbd":"11","lsbd":"School Board Aspen Peaks 2"},{"vid":"6087353","name":"Jacquelin Volkman","party":"Rep","address":"2086 N 1100 E, Lehi, UT 84043","precinct":"25LE10","hd":"53","v_score":"2.315214949","decile":"5","lat":40.413671473173835,"lng":-111.83132599338325,"phone":"(616) 743-3859","sd":"21","ssbd":"11","lsbd":"School Board Aspen Peaks 2"},{"vid":"bf28310262c92df08aa2d8493575fc84fee507db442a6f7e894d0940e4c52d40","name":"Miss Giuliana Streich DDS","party":"Rep","address":"1857 N 800 E, Lehi, UT 84043","precinct":"25LE10","hd":"53","v_score":"8.347511332","decile":"8","lat":40.41034340875251,"lng":-111.83613336341712,"phone":"(514) 370-0779","sd":"21","ssbd":"11","lsbd":"School Board Aspen Peaks 2"},{"vid":"6144495","name":"Sybilla Kertzmann","party":"","address":"1857 N 800 E, Lehi, UT 84043","precinct":"25LE10","hd":"53","v_score":"8.347511332","decile":"8","lat":40.41034340875251,"lng":-111.83613336341712,"phone":"(708) 662-6124","sd":"21","ssbd":"11","lsbd":"School Board Aspen Peaks 2"},{"vid":"6147003","name":"Mr. Freddy Walsh","party":"","address":"1179 N 1000 E, Lehi, UT 84043","precinct":"25LE10","hd":"53","v_score":"9.116556227","decile":"8","lat":40.319048649165296,"lng":-111.67298015143311,"phone":"(293) 134-0972","sd":"21","ssbd":"11","lsbd":"School Board Aspen Peaks 2"},{"vid":"6156996","name":"Ms. Victorine Kessler DDS","party":"","address":"2085 N 1100 E, Lehi, UT 84043","precinct":"25LE10","hd":"53","v_score":"2.587603312","decile":"5","lat":40.4136660169307,"lng":-111.83188604050125,"phone":"(802) 745-6312","sd":"21","ssbd":"11","lsbd":"School Board Aspen Peaks 2"},{"vid":"6161666","name":"Camren Kuphal","party":"Dem","address":"810 E 1650 N, Lehi, UT 84043","precinct":"25LE10","hd":"53","v_score":"2.315214949","decile":"5","lat":40.40744211696683,"lng":-111.8364903898679,"phone":"(376) 443-1418","sd":"21","ssbd":"11","lsbd":"School Board Aspen Peaks 2"},{"vid":"6163203","name":"Ms. Romona Parker MD","party":"Dem","address":"1145 E Cedar Hollow Rd, Lehi, UT 84043","precinct":"25LE10","hd":"53","v_score":"1.121327652","decile":"3","lat":40.40761093065406,"lng":-111.83132728108825,"phone":"(715) 004-1921","sd":"21","ssbd":"11","lsbd":"School Board Aspen Peaks 2"},{"vid":"6178730","name":"Dr. Eleonora Torphy","party":"Dem","address":"327 E 1650 N, Lehi, UT 84043","precinct":"25LE10","hd":"53","v_score":"8.347511332","decile":"8","lat":40.4083667409078,"lng":-111.84417779525371,"phone":"(812) 411-2630","sd":"21","ssbd":"11","lsbd":"School Board Aspen Peaks 2"},{"vid":"6182945","name":"Libby Wilderman","party":"","address":"1591 N Summer Crest Dr, Lehi, UT 84043","precinct":"25LE10","hd":"53","v_score":"3.93832808","decile":"6","lat":40.40700293450349,"lng":-111.83587427924428,"phone":"(256) 571-6619","sd":"21","ssbd":"11","lsbd":"School Board Aspen Peaks 2"},{"vid":"6200998","name":"Kent Ondricka","party":"Dem","address":"1413 N 1200 E, Lehi, UT 84043","precinct":"25LE10","hd":"53","v_score":"2.817000428","decile":"6","lat":40.40438003706407,"lng":-111.8306916390622,"phone":"(531) 514-9624","sd":"21","ssbd":"11","lsbd":"School Board Aspen Peaks 2"},{"vid":"6213270","name":"Adrianne Blick DDS","party":"Dem","address":"1776 N 900 E, Lehi, UT 84043","precinct":"25LE10","hd":"53","v_score":"0","decile":"3","lat":40.4094181193327,"lng":-111.83434564080468,"phone":"(325) 543-8235","sd":"21","ssbd":"11","lsbd":"School Board Aspen Peaks 2"},{"vid":"6213826","name":"Aaron Bartoletti","party":"Dem","address":"1710 N 800 E, Lehi, UT 84043","precinct":"25LE10","hd":"53","v_score":"26.42077695","decile":"10","lat":40.40830086272447,"lng":-111.83609852162196,"phone":"(835) 881-7512","sd":"21","ssbd":"11","lsbd":"School Board Aspen Peaks 2"},{"vid":"6218071","name":"Merle Bernhard","party":"","address":"1790 N 600 E, Lehi, UT 84043","precinct":"25LE10","hd":"53","v_score":"6.740427232","decile":"8","lat":40.40809037618434,"lng":-111.83972694837509,"phone":"(541) 000-9223","sd":"21","ssbd":"11","lsbd":"School Board Aspen Peaks 2"},{"vid":"6227425","name":"Wayland Haley","party":"Rep","address":"1606 N 600 E, Lehi, UT 84043","precinct":"25LE10","hd":"53","v_score":"2.315214949","decile":"5","lat":40.40738424694709,"lng":-111.83713978264322,"phone":"(491) 009-1431","sd":"21","ssbd":"11","lsbd":"School Board Aspen Peaks 2"},{"vid":"6236162","name":"Mrs. Jenilee Dickens MD","party":"Dem","address":"1507 N Summer Crest Dr, Lehi, UT 84043","precinct":"25LE10","hd":"53","v_score":"5.40460374","decile":"7","lat":40.406075332038895,"lng":-111.83723857439666,"phone":"(350) 535-7133","sd":"21","ssbd":"11","lsbd":"School Board Aspen Peaks 2"},{"vid":"6245982","name":"Ardell Morar","party":"Rep","address":"830 E 1650 N, Lehi, UT 84043","precinct":"25LE10","hd":"53","v_score":"10.29877667","decile":"9","lat":40.407349595304886,"lng":-111.83569697396909,"phone":"(717) 202-2186","sd":"21","ssbd":"11","lsbd":"School Board Aspen Peaks 2"},{"vid":"6256242","name":"Exa McDermott","party":"","address":"1753 N 800 E, Lehi, UT 84043","precinct":"25LE10","hd":"53","v_score":"18.98842511","decile":"10","lat":40.40891529826979,"lng":-111.83673286899604,"phone":"(135) 201-1548","sd":"21","ssbd":"11","lsbd":"School Board Aspen Peaks 2"},{"vid":"6256571","name":"Berkley Koelpin","party":"","address":"913 E 1960 N, Lehi, UT 84043","precinct":"25LE10","hd":"53","v_score":"7.92266893","decile":"8","lat":40.4123325204241,"lng":-111.83439982910431,"phone":"(630) 507-9053","sd":"21","ssbd":"11","lsbd":"School Board Aspen Peaks 2"},{"vid":"6270967","name":"Mykel Klocko-Hamill","party":"Dem","address":"2051 N 825 E, Lehi, UT 84043","precinct":"25LE10","hd":"53","v_score":"15.51131257","decile":"9","lat":40.41320408806226,"lng":-111.83643190067717,"phone":"(547) 633-6871","sd":"21","ssbd":"11","lsbd":"School Board Aspen Peaks 2"},{"vid":"6275706","name":"Shani Prosacco","party":"Dem","address":"1228 N Cedar Hollow Blvd, Lehi, UT 84043","precinct":"25LE10","hd":"53","v_score":"31.06727652","decile":"10","lat":40.40265835017605,"lng":-111.83185944857222,"phone":"(129) 712-0417","sd":"21","ssbd":"11","lsbd":"School Board Aspen Peaks 2"},{"vid":"dc2fa44e698824f3ea7a1d6c6ba9d06f2c6f2808ac0cce33110854b9ccf3cfaf","name":"Lucinda Will-Kuphal","party":"","address":"1920 N Airport Dr, Lehi, UT 84043","precinct":"25LE10","hd":"53","v_score":"6.724398202","decile":"8","lat":40.411628151306296,"lng":-111.83529250043755,"phone":"(750) 962-7525","sd":"21","ssbd":"11","lsbd":"School Board Aspen Peaks 2"},{"vid":"6279826","name":"Joella Hermann","party":"Dem","address":"759 E Airport Dr, Lehi, UT 84043","precinct":"25LE10","hd":"53","v_score":"2.587603312","decile":"5","lat":40.41047627099296,"lng":-111.83738921884853,"phone":"(293) 369-8217","sd":"21","ssbd":"11","lsbd":"School Board Aspen Peaks 2"},