[{"id":"9851","name":"Dr. Darron Blanda III","party":"","address":"3484 W 850 N, Lehi, UT 84043","precinct":"25LE24","hd":"51","v_score":"4.069929862","decile":"6","lat":40.431430102791,"lng":-111.862899941418},{"id":"14306","name":"Malakai Lehner","party":"Dem","address":"3484 W 850 N, Lehi, UT 84043","precinct":"25LE24","hd":"51","v_score":"4.069929862","decile":"6","lat":40.431430102791,"lng":-111.862899941418},{"id":"32281","name":"Dezzie Herzog-Corkery","party":"","address":"9776 N 10400 W, Lehi, UT 84045","precinct":"25LE24","hd":"51","v_score":"3.781490609","decile":"6","lat":40.408446613629,"lng":-111.906775807138},{"id":"36971","name":"Florence Paucek-Durgan","party":"","address":"9776 N 10400 W, Lehi, UT 84043","precinct":"25LE24","hd":"51","v_score":"5.40460374","decile":"7","lat":40.408446613629,"lng":-111.906775807138},{"id":"37124","name":"Paloma Bins","party":"","address":"3402 W 750 N, Lehi, UT 84043","precinct":"25LE24","hd":"51","v_score":"5.258122542","decile":"7","lat":40.429228552863,"lng":-111.837184550128},{"id":"38141","name":"Garfield Spencer-Rohan","party":"","address":"3466 W 850 N, Lehi, UT 84043","precinct":"25LE24","hd":"51","v_score":"1.623113131","decile":"4","lat":40.431264999562,"lng":-111.862885923242},{"id":"39419","name":"Matie Rogahn","party":"Rep","address":"3420 W 850 N, Lehi, UT 84043","precinct":"25LE24","hd":"51","v_score":"2.315214949","decile":"5","lat":40.430847912139,"lng":-111.862839719052},{"id":"40871","name":"Micheal Pagac","party":"Rep","address":"3420 W 850 N, Lehi, UT 84043","precinct":"25LE24","hd":"51","v_score":"3.93832808","decile":"6","lat":40.430847912139,"lng":-111.862839719052},{"id":"53478","name":"Dr. Kyle Rice DDS","party":"Rep","address":"3333 W 1500 N, Lehi, UT 84048","precinct":"25LE24","hd":"51","v_score":"13.84932621","decile":"9","lat":40.405909045797,"lng":-111.90450814243},{"id":"54729","name":"Delmar Farrell Jr.","party":"","address":"3384 W 750 N, Lehi, UT 84043","precinct":"25LE24","hd":"51","v_score":"10.43562833","decile":"9","lat":40.429217650248,"lng":-111.837184550129},{"id":"75588","name":"Hassan Erdman III","party":"Dem","address":"3472 W 850 N, Lehi, UT 84043","precinct":"25LE24","hd":"51","v_score":"0","decile":"1","lat":40.431320033972,"lng":-111.862890595968},{"id":"99302","name":"Casey O'Keefe","party":"Dem","address":"3333 W 1500 N, Lehi, UT 84043","precinct":"25LE24","hd":"51","v_score":"0","decile":"1","lat":40.405909045797,"lng":-111.90450814243},{"id":"109780","name":"Gilman Gottlieb","party":"","address":"3472 W 850 N, Lehi, UT 84043","precinct":"25LE24","hd":"51","v_score":"1.193887297","decile":"4","lat":40.431320033972,"lng":-111.862890595968},{"id":"141087","name":"Bethzy Rohan DVM","party":"Rep","address":"3492 W 750 N, Lehi, UT 84043","precinct":"25LE24","hd":"51","v_score":"39.27888801","decile":"10","lat":40.429283065944,"lng":-111.837184550121},{"id":"141088","name":"Vickie Becker-Hirthe","party":"","address":"3492 W 750 N, Lehi, UT 84043","precinct":"25LE24","hd":"51","v_score":"36.40284545","decile":"10","lat":40.429283065944,"lng":-111.837184550121},{"id":"141691","name":"Teagan Wiza","party":"","address":"3472 W 850 N, Lehi, UT 84043","precinct":"25LE24","hd":"51","v_score":"5.40460374","decile":"7","lat":40.431320033972,"lng":-111.862890595968},{"id":"160857","name":"Shavon Dietrich","party":"Rep","address":"9776 N 10400 W, Lehi, UT 84043","precinct":"25LE24","hd":"51","v_score":"5.40460374","decile":"7","lat":40.408446613629,"lng":-111.906775807138},{"id":"175173","name":"Elden Shanahan","party":"","address":"9776 N 10400 W, Lehi, UT 84043","precinct":"25LE24","hd":"51","v_score":"5.40460374","decile":"7","lat":40.408446613629,"lng":-111.906775807138},{"id":"177755","name":"Hoyt Blick","party":"Rep","address":"9330 N 10400 W, Lehi, UT 84043","precinct":"25LE24","hd":"51","v_score":"2.315214949","decile":"5","lat":40.400565479568,"lng":-111.90673230816},{"id":"178093","name":"Sena Satterfield","party":"Dem","address":"9776 N 10400 W, Lehi, UT 84043","precinct":"25LE24","hd":"51","v_score":"5.40460374","decile":"7","lat":40.408446613629,"lng":-111.906775807138}]