[{"id":"57","name":"Hazle Kunze MD","party":"Dem","address":"2306 N 940 E, Lehi, UT 84043","precinct":"25LE05","hd":"53","v_score":"3.93832808","decile":"6","lat":40.416556869622,"lng":-111.834343261124},{"id":"386","name":"Rich Schinner-Carter","party":"","address":"1022 E 2180 N, Lehi, UT 84043","precinct":"25LE05","hd":"53","v_score":"4.210716443","decile":"7","lat":40.414826380689,"lng":-111.833268662418},{"id":"672","name":"Lamarcus Mills","party":"Rep","address":"739 E 3150 N, Lehi, UT 84043","precinct":"25LE05","hd":"53","v_score":"2.315214949","decile":"5","lat":40.427518436152,"lng":-111.837354948607},{"id":"1140","name":"Coleen Upton","party":"Rep","address":"2982 N 700 E, Lehi, UT 84043","precinct":"25LE05","hd":"53","v_score":"5.40460374","decile":"7","lat":40.425955060088,"lng":-111.838036055965},{"id":"1221","name":"Jarret Mayert","party":"","address":"2305 N 940 E, Lehi, UT 84043","precinct":"25LE05","hd":"53","v_score":"4.214075011","decile":"7","lat":40.41654154338,"lng":-111.83449364025},{"id":"1249","name":"Yareli Quitzon","party":"","address":"3099 N 880 E, Lehi, UT 84043","precinct":"25LE05","hd":"53","v_score":"3.781490609","decile":"6","lat":40.42728983504,"lng":-111.835044545652},{"id":"1348","name":"Dr. Lamont Haley DVM","party":"Rep","address":"928 E 2850 N, Lehi, UT 84043","precinct":"25LE05","hd":"53","v_score":"26.85320151","decile":"10","lat":40.42421649317,"lng":-111.834429776948},{"id":"1694","name":"Miss Ally Shields","party":"","address":"1171 E Utah Highlands Dr, Lehi, UT 84043","precinct":"25LE05","hd":"53","v_score":"3.93832808","decile":"6","lat":40.425963291435,"lng":-111.830875573151},{"id":"1695","name":"Reason Russel PhD","party":"Dem","address":"1171 E Utah Highlands Dr, Lehi, UT 84043","precinct":"25LE05","hd":"53","v_score":"1.193887297","decile":"3","lat":40.425963291435,"lng":-111.830875573151},{"id":"1793","name":"Mr. Jordon Yost","party":"Rep","address":"1100 E 2250 N, Lehi, UT 84043","precinct":"25LE05","hd":"53","v_score":"5.40460374","decile":"7","lat":40.415675677522,"lng":-111.831755813958},{"id":"2068","name":"Mrs. Aliza Buckridge","party":"","address":"3125 N 950 E, Lehi, UT 84043","precinct":"25LE05","hd":"53","v_score":"0","decile":"1","lat":40.426044121703,"lng":-111.833881710757},{"id":"3025","name":"Jocelynn Wehner MD","party":"","address":"861 E 2180 N, Lehi, UT 84043","precinct":"25LE05","hd":"53","v_score":"15.02443211","decile":"9","lat":40.414740293046,"lng":-111.83531724867},{"id":"3248","name":"Karolyn Bins","party":"Dem","address":"1093 E 2250 N, Lehi, UT 84043","precinct":"25LE05","hd":"53","v_score":"14.63972567","decile":"9","lat":40.41579144625,"lng":-111.831612987785},{"id":"3305","name":"Deetta Krajcik","party":"Dem","address":"962 E 2250 N, Lehi, UT 84043","precinct":"25LE05","hd":"53","v_score":"15.43762891","decile":"9","lat":40.415669701446,"lng":-111.834048363941},{"id":"3706","name":"Mr. Sigmund Bartoletti","party":"Dem","address":"2373 N 1200 E, Lehi, UT 84043","precinct":"25LE05","hd":"53","v_score":"4.210716443","decile":"7","lat":40.417991700908,"lng":-111.83047257929},{"id":"3840","name":"Amasa Price-Heidenreich","party":"Dem","address":"3113 N 800 E, Lehi, UT 84043","precinct":"25LE05","hd":"53","v_score":"13.77150267","decile":"9","lat":40.426966981144,"lng":-111.836174086841},{"id":"3884","name":"Dr. Jasper Mann","party":"","address":"807 E 2900 N, Lehi, UT 84043","precinct":"25LE05","hd":"53","v_score":"1.193887297","decile":"3","lat":40.42516980594,"lng":-111.837108752442},{"id":"4513","name":"Allene Kertzmann MD","party":"Rep","address":"2390 N 600 E, Lehi, UT 84043","precinct":"25LE05","hd":"53","v_score":"1.623113131","decile":"4","lat":40.410288603992,"lng":-111.839913822823},{"id":"5133","name":"Dr. Sharen Purdy","party":"Dem","address":"974 E 2850 N, Lehi, UT 84043","precinct":"25LE05","hd":"53","v_score":"3.93832808","decile":"6","lat":40.424219700427,"lng":-111.833370961972},{"id":"5338","name":"Timothy Krajcik Sr.","party":"Dem","address":"2953 N 700 E, Lehi, UT 84043","precinct":"25LE05","hd":"53","v_score":"3.93832808","decile":"6","lat":40.425363227611,"lng":-111.838014113433},{"id":"5485","name":"Dr. Kaeden O'Reilly","party":"","address":"788 E 3050 N, Lehi, UT 84043","precinct":"25LE05","hd":"53","v_score":"16.63280648","decile":"9","lat":40.426152464854,"lng":-111.836645519633},{"id":"5783","name":"Gustaf Prohaska","party":"Dem","address":"2314 N 1000 E, Lehi, UT 84043","precinct":"25LE05","hd":"53","v_score":"3.781490609","decile":"6","lat":40.416975568856,"lng":-111.833437829395},{"id":"5914","name":"Nathanial Kautzer","party":"Rep","address":"730 E 2200 N, Lehi, UT 84043","precinct":"25LE05","hd":"53","v_score":"13.97430753","decile":"9","lat":40.415518591888,"lng":-111.83734861205},{"id":"6029","name":"Kenny Stokes","party":"","address":"2321 N 940 E, Lehi, UT 84043","precinct":"25LE05","hd":"53","v_score":"18.39620879","decile":"10","lat":40.41665810184,"lng":-111.834494650857},{"id":"6399","name":"Alphons Franecki V","party":"","address":"1069 E 2180 N, Lehi, UT 84043","precinct":"25LE05","hd":"53","v_score":"4.424855541","decile":"7","lat":40.41494473896,"lng":-111.832942078464},{"id":"7801","name":"Amerigo Berge","party":"Dem","address":"3113 N 800 E, Lehi, UT 84043","precinct":"25LE05","hd":"53","v_score":"5.40460374","decile":"7","lat":40.426966981144,"lng":-111.836174086841},{"id":"9084","name":"Ms. Nina Luettgen","party":"Rep","address":"2790 N 675 E, Lehi, UT 84043","precinct":"25LE05","hd":"53","v_score":"0","decile":"1","lat":40.423060460181,"lng":-111.838614766279},{"id":"9651","name":"Mr. Sheldon Pagac DVM","party":"Dem","address":"781 E 3050 N, Lehi, UT 84043","precinct":"25LE05","hd":"53","v_score":"9.116556227","decile":"8","lat":40.426267423777,"lng":-111.836564186977},{"id":"10261","name":"Valarie Pacocha","party":"Rep","address":"1091 E 2180 N, Lehi, UT 84043","precinct":"25LE05","hd":"53","v_score":"2.587603312","decile":"5","lat":40.414946546751,"lng":-111.832784799578},{"id":"10858","name":"Icey Konopelski","party":"Dem","address":"2818 N Utah Highlands Dr, Lehi, UT 84043","precinct":"25LE05","hd":"53","v_score":"15.00919004","decile":"9","lat":40.423300500947,"lng":-111.834294823776},{"id":"11413","name":"Marcello Dibbert Sr.","party":"Rep","address":"2277 N 1000 E, Lehi, UT 84043","precinct":"25LE05","hd":"53","v_score":"2.315214949","decile":"5","lat":40.416267719147,"lng":-111.833582239309},{"id":"12251","name":"Ms. Affie Baumbach DVM","party":"","address":"2740 N 675 E, Lehi, UT 84043","precinct":"25LE05","hd":"53","v_score":"6.027167436","decile":"7","lat":40.422550900862,"lng":-111.838584495498},{"id":"12616","name":"Conner Johnson","party":"Dem","address":"2279 N 940 E, Lehi, UT 84043","precinct":"25LE05","hd":"53","v_score":"12.49472132","decile":"9","lat":40.416352135883,"lng":-111.834491998014},{"id":"13459","name":"Flora Wilkinson","party":"Rep","address":"817 E 2200 N, Lehi, UT 84043","precinct":"25LE05","hd":"53","v_score":"5.693042993","decile":"7","lat":40.415579966563,"lng":-111.836649496007},{"id":"13539","name":"Shandra Hintz","party":"","address":"1091 E 2180 N, Lehi, UT 84043","precinct":"25LE05","hd":"53","v_score":"4.210716443","decile":"7","lat":40.414946546751,"lng":-111.832784799578},{"id":"13605","name":"Miss Arlyne Witting DVM","party":"Dem","address":"2302 N 1000 E, Lehi, UT 84043","precinct":"25LE05","hd":"53","v_score":"1.193887297","decile":"3","lat":40.41675227487,"lng":-111.833435904477},{"id":"14083","name":"Miss Amari Zboncak","party":"Dem","address":"3123 N 700 E, Lehi, UT 84043","precinct":"25LE05","hd":"53","v_score":"2.817000428","decile":"6","lat":40.42701159204,"lng":-111.83815323184},{"id":"14345","name":"Dr. Kameron Kilback","party":"Rep","address":"2290 N 1060 E, Lehi, UT 84043","precinct":"25LE05","hd":"53","v_score":"1.193887297","decile":"3","lat":40.416195442615,"lng":-111.832420420941},{"id":"15004","name":"Shelvia Gleichner","party":"Rep","address":"929 E 2850 N, Lehi, UT 84043","precinct":"25LE05","hd":"53","v_score":"11.51394235","decile":"9","lat":40.424331081141,"lng":-111.834430940041},{"id":"15999","name":"Ell Ondricka","party":"","address":"2677 N 750 E, Lehi, UT 84043","precinct":"25LE05","hd":"53","v_score":"1.121327652","decile":"3","lat":40.421891392169,"lng":-111.837111122291},{"id":"16150","name":"Miss Yolanda Tromp","party":"","address":"817 E 2200 N, Lehi, UT 84043","precinct":"25LE05","hd":"53","v_score":"5.693042993","decile":"7","lat":40.415579966563,"lng":-111.836649496007},{"id":"16454","name":"Ms. Ginger Reichert","party":"Rep","address":"963 E 2180 N, Lehi, UT 84043","precinct":"25LE05","hd":"53","v_score":"5.659072284","decile":"7","lat":40.414932358496,"lng":-111.834042898529},{"id":"16628","name":"Johanna Nienow","party":"Dem","address":"3114 N 950 E, Lehi, UT 84043","precinct":"25LE05","hd":"53","v_score":"6.027167436","decile":"7","lat":40.426027758441,"lng":-111.833727245103},{"id":"18137","name":"Zebulon Nolan","party":"Dem","address":"2162 N 825 E, Lehi, UT 84043","precinct":"25LE05","hd":"53","v_score":"5.191257514","decile":"7","lat":40.41427465097,"lng":-111.836077958807},{"id":"18706","name":"Achsah Berge","party":"","address":"2905 N 1150 E, Lehi, UT 84043","precinct":"25LE05","hd":"53","v_score":"9.674124426","decile":"8","lat":40.424426136548,"lng":-111.831359085381},{"id":"19906","name":"Mr. Russell Anderson","party":"Rep","address":"1043 E 2180 N, Lehi, UT 84043","precinct":"25LE05","hd":"53","v_score":"2.587603312","decile":"5","lat":40.414942602479,"lng":-111.833127953512},{"id":"20090","name":"Gearldine Towne","party":"Rep","address":"1043 E 2180 N, Lehi, UT 84043","precinct":"25LE05","hd":"53","v_score":"8.15240309","decile":"8","lat":40.414942602479,"lng":-111.833127953512},{"id":"20627","name":"Dr. Alvera Gulgowski DDS","party":"Dem","address":"1039 E Utah Highlands Dr, Lehi, UT 84043","precinct":"25LE05","hd":"53","v_score":"5.40460374","decile":"7","lat":40.425951906028,"lng":-111.832921754837},{"id":"20827","name":"Akira Walsh","party":"Rep","address":"954 E Oak Creek Dr, Lehi, UT 84043","precinct":"25LE05","hd":"53","v_score":"5.191257514","decile":"7","lat":40.41789396486,"lng":-111.833868918927},{"id":"20854","name":"Aria Streich","party":"","address":"3123 N 700 E, Lehi, UT 84043","precinct":"25LE05","hd":"53","v_score":"2.817000428","decile":"6","lat":40.42701159204,"lng":-111.83815323184},{"id":"21007","name":"Dr. Levern Bosco III","party":"Dem","address":"2901 N 675 E, Lehi, UT 84043","precinct":"25LE05","hd":"53","v_score":"26.85320151","decile":"10","lat":40.424092817869,"lng":-111.838996722765},{"id":"21417","name":"Charly Jacobi","party":"Dem","address":"2953 N 700 E, Lehi, UT 84043","precinct":"25LE05","hd":"53","v_score":"3.93832808","decile":"6","lat":40.425363227611,"lng":-111.838014113433},{"id":"21552","name":"Finley Metz Jr.","party":"Dem","address":"2904 N 1150 E, Lehi, UT 84043","precinct":"25LE05","hd":"53","v_score":"4.214075011","decile":"7","lat":40.424426136536,"lng":-111.831208557219},{"id":"22249","name":"Infant Wisoky","party":"Dem","address":"969 E Oak Creek Dr, Lehi, UT 84043","precinct":"25LE05","hd":"53","v_score":"7.567884335","decile":"8","lat":40.418000518015,"lng":-111.833743954505},{"id":"22289","name":"Timothy Metz V","party":"Rep","address":"2978 N Utah Highlands Dr, Lehi, UT 84043","precinct":"25LE05","hd":"53","v_score":"17.98301199","decile":"10","lat":40.425286201908,"lng":-111.833728051108},{"id":"22895","name":"Ms. Cinnamon Mayert PhD","party":"Rep","address":"825 E Utah Highlands Dr, Lehi, UT 84043","precinct":"25LE05","hd":"53","v_score":"4.741221742","decile":"7","lat":40.422960400373,"lng":-111.836068316452},{"id":"22904","name":"Donal Cummerata-Medhurst","party":"","address":"2934 N 1150 E, Lehi, UT 84043","precinct":"25LE05","hd":"53","v_score":"7.650280567","decile":"8","lat":40.424880146177,"lng":-111.831208557159},{"id":"23209","name":"Ms. Kami Labadie DDS","party":"Dem","address":"2290 N 1060 E, Lehi, UT 84043","precinct":"25LE05","hd":"53","v_score":"12.92811976","decile":"9","lat":40.416195442615,"lng":-111.832420420941},{"id":"24250","name":"Cleo O'Conner-Olson","party":"Rep","address":"2781 N 900 E, Lehi, UT 84043","precinct":"25LE05","hd":"53","v_score":"11.02844566","decile":"9","lat":40.422991993448,"lng":-111.834630049989},{"id":"25396","name":"Dr. Zina Larkin","party":"Rep","address":"2671 N 750 E, Lehi, UT 84043","precinct":"25LE05","hd":"53","v_score":"5.40460374","decile":"7","lat":40.421864332491,"lng":-111.837066147567},{"id":"25791","name":"Shasta VonRueden","party":"","address":"2148 N 1000 E, Lehi, UT 84043","precinct":"25LE05","hd":"53","v_score":"0","decile":"1","lat":40.414463505145,"lng":-111.833412568237},{"id":"26063","name":"Leif Schinner","party":"","address":"1104 E 2850 N, Lehi, UT 84043","precinct":"25LE05","hd":"53","v_score":"5.40460374","decile":"7","lat":40.424219700314,"lng":-111.831902068616},{"id":"26092","name":"Shreya Stark MD","party":"Rep","address":"754 E 2900 N, Lehi, UT 84043","precinct":"25LE05","hd":"53","v_score":"3.93832808","decile":"6","lat":40.424993769177,"lng":-111.83730972879},{"id":"26116","name":"Evertt Hansen","party":"Dem","address":"2884 N 675 E, Lehi, UT 84043","precinct":"25LE05","hd":"53","v_score":"1.121327652","decile":"3","lat":40.424008669942,"lng":-111.838813750088},{"id":"26320","name":"Johny Muller-Schiller","party":"Dem","address":"799 E 3150 N, Lehi, UT 84043","precinct":"25LE05","hd":"53","v_score":"9.674124426","decile":"8","lat":40.427528530288,"lng":-111.836350574463},{"id":"27026","name":"Taniyah Swift","party":"","address":"2781 N 900 E, Lehi, UT 84043","precinct":"25LE05","hd":"53","v_score":"2.315214949","decile":"5","lat":40.422991993448,"lng":-111.834630049989},{"id":"28043","name":"Mr. Jame Parisian","party":"Rep","address":"959 E 2330 N, Lehi, UT 84043","precinct":"25LE05","hd":"53","v_score":"5.530510904","decile":"7","lat":40.417346477487,"lng":-111.833901642093},{"id":"28209","name":"Karol Abernathy","party":"","address":"857 E 3050 N, Lehi, UT 84043","precinct":"25LE05","hd":"53","v_score":"2.315214949","decile":"5","lat":40.426269291736,"lng":-111.835227686121},{"id":"28550","name":"Devante Funk-Wehner","party":"","address":"798 E Utah Highlands Dr, Lehi, UT 84043","precinct":"25LE05","hd":"53","v_score":"11.66547379","decile":"9","lat":40.422362410893,"lng":-111.836753738951},{"id":"29164","name":"Kamari Smitham","party":"","address":"2838 N Utah Highlands Dr, Lehi, UT 84043","precinct":"25LE05","hd":"53","v_score":"2.315214949","decile":"5","lat":40.423492309156,"lng":-111.834071289926},{"id":"29649","name":"Erykah Krajcik","party":"Dem","address":"673 E 2900 N, Lehi, UT 84043","precinct":"25LE05","hd":"53","v_score":"3.781490609","decile":"6","lat":40.424835398139,"lng":-111.838075638456},{"id":"30453","name":"Cato Brakus","party":"","address":"2303 N 1000 E, Lehi, UT 84043","precinct":"25LE05","hd":"53","v_score":"8.284004873","decile":"8","lat":40.416751522782,"lng":-111.833586409966},{"id":"31194","name":"Chaim Bergstrom","party":"","address":"848 E 2180 N, Lehi, UT 84043","precinct":"25LE05","hd":"53","v_score":"15.0180437","decile":"9","lat":40.414625701674,"lng":-111.83547201263},{"id":"31397","name":"Miss Parthenia Botsford","party":"","address":"2276 N 1000 E, Lehi, UT 84043","precinct":"25LE05","hd":"53","v_score":"10.22509301","decile":"9","lat":40.416268471234,"lng":-111.83343173382},{"id":"32178","name":"Lina Hane-Botsford","party":"","address":"2781 N 900 E, Lehi, UT 84043","precinct":"25LE05","hd":"53","v_score":"0","decile":"1","lat":40.422991993448,"lng":-111.834630049989},{"id":"32240","name":"Miss Esmeralda Kuhic MD","party":"Rep","address":"2440 N 1100 E, Lehi, UT 84043","precinct":"25LE05","hd":"53","v_score":"7.226183681","decile":"8","lat":40.418492583779,"lng":-111.831821961179},{"id":"33882","name":"Debbi Larkin","party":"","address":"3043 N 950 E, Lehi, UT 84043","precinct":"25LE05","hd":"53","v_score":"6.657533174","decile":"7","lat":40.425787100911,"lng":-111.833756318174},{"id":"33997","name":"Dr. Donie O'Hara","party":"Dem","address":"2306 N 940 E, Lehi, UT 84043","precinct":"25LE05","hd":"53","v_score":"0","decile":"1","lat":40.416556869622,"lng":-111.834343261124},{"id":"34219","name":"Burley Hyatt","party":"","address":"974 E 2850 N, Lehi, UT 84043","precinct":"25LE05","hd":"53","v_score":"3.93832808","decile":"6","lat":40.424219700427,"lng":-111.833370961972},{"id":"34613","name":"Christy Rosenbaum-Ward","party":"","address":"897 E 2850 N, Lehi, UT 84043","precinct":"25LE05","hd":"53","v_score":"13.28858692","decile":"9","lat":40.424328130428,"lng":-111.834932567799},{"id":"35232","name":"Dr. Abe Abbott PhD","party":"Dem","address":"2311 N 850 E, Lehi, UT 84043","precinct":"25LE05","hd":"53","v_score":"3.93832808","decile":"6","lat":40.416235210094,"lng":-111.835479915531},{"id":"36099","name":"Dr. Sawyer Frami","party":"","address":"2336 N 1000 E, Lehi, UT 84043","precinct":"25LE05","hd":"53","v_score":"2.587603312","decile":"5","lat":40.417504086139,"lng":-111.833295765023},{"id":"36210","name":"Hilliard Gottlieb Jr.","party":"Dem","address":"903 E 2180 N, Lehi, UT 84043","precinct":"25LE05","hd":"53","v_score":"3.781490609","decile":"6","lat":40.414809697122,"lng":-111.834815281969},{"id":"36616","name":"Kraig Raynor","party":"Rep","address":"2901 N 675 E, Lehi, UT 84043","precinct":"25LE05","hd":"53","v_score":"1.193887297","decile":"3","lat":40.424092817869,"lng":-111.838996722765},{"id":"38005","name":"Ancel Nienow","party":"Dem","address":"847 E 2125 N, Lehi, UT 84043","precinct":"25LE05","hd":"53","v_score":"5.191257514","decile":"7","lat":40.414044298256,"lng":-111.835483708434},{"id":"38281","name":"Miss Khalilah Hoeger DVM","party":"","address":"2451 N 1100 E, Lehi, UT 84043","precinct":"25LE05","hd":"53","v_score":"1.46627566","decile":"4","lat":40.418363733806,"lng":-111.831973491225},{"id":"38417","name":"Mikhail Conroy","party":"Dem","address":"2289 N 1060 E, Lehi, UT 84043","precinct":"25LE05","hd":"53","v_score":"6.954919332","decile":"8","lat":40.416184397292,"lng":-111.832570706658},{"id":"39013","name":"Dr. Gabriella Turner","party":"Rep","address":"893 E 2900 N, Lehi, UT 84043","precinct":"25LE05","hd":"53","v_score":"2.315214949","decile":"5","lat":40.425281884113,"lng":-111.836560328087},{"id":"39146","name":"Vernie Altenwerth","party":"","address":"2257 N 1120 E, Lehi, UT 84043","precinct":"25LE05","hd":"53","v_score":"0","decile":"1","lat":40.416050489529,"lng":-111.831466718595},{"id":"39508","name":"Arlo Russel","party":"Dem","address":"2974 N 1150 E, Lehi, UT 84043","precinct":"25LE05","hd":"53","v_score":"3.781490609","decile":"6","lat":40.425485492364,"lng":-111.831208557079},{"id":"39592","name":"Joetta Skiles","party":"","address":"2327 N 940 E, Lehi, UT 84043","precinct":"25LE05","hd":"53","v_score":"7.709322704","decile":"8","lat":40.416701811262,"lng":-111.834495029835},{"id":"40070","name":"Lonzo Gibson","party":"","address":"1175 E 2250 N, Lehi, UT 84043","precinct":"25LE05","hd":"53","v_score":"2.587603312","decile":"5","lat":40.415799744863,"lng":-111.830658650944},{"id":"40446","name":"Tierra Ritchie","party":"Dem","address":"1104 E 2180 N, Lehi, UT 84043","precinct":"25LE05","hd":"53","v_score":"1.46627566","decile":"4","lat":40.41483311882,"lng":-111.832682441116},{"id":"40457","name":"Cade Nienow DDS","party":"Rep","address":"847 E 2125 N, Lehi, UT 84043","precinct":"25LE05","hd":"53","v_score":"7.830610533","decile":"8","lat":40.414044298256,"lng":-111.835483708434},{"id":"40709","name":"Kyara Roberts","party":"","address":"902 E 2250 N, Lehi, UT 84043","precinct":"25LE05","hd":"53","v_score":"4.069929862","decile":"6","lat":40.41566404102,"lng":-111.834666365924},{"id":"40721","name":"Sylvanus Ullrich","party":"","address":"1043 E 2180 N, Lehi, UT 84043","precinct":"25LE05","hd":"53","v_score":"1.46627566","decile":"4","lat":40.414942602479,"lng":-111.833127953512},{"id":"41148","name":"Dr. Turner Pouros","party":"","address":"2321 N 940 E, Lehi, UT 84043","precinct":"25LE05","hd":"53","v_score":"27.0023342","decile":"10","lat":40.41665810184,"lng":-111.834494650857},{"id":"41534","name":"Miss Aline Stanton","party":"Dem","address":"2662 N 750 E, Lehi, UT 84043","precinct":"25LE05","hd":"53","v_score":"8.091152","decile":"8","lat":40.421929181036,"lng":-111.836927922299},{"id":"41825","name":"Savanna Spencer","party":"Dem","address":"1100 E 2250 N, Lehi, UT 84043","precinct":"25LE05","hd":"53","v_score":"3.781490609","decile":"6","lat":40.415675677522,"lng":-111.831755813958},{"id":"42011","name":"Archer Conroy","party":"Rep","address":"2978 N Utah Highlands Dr, Lehi, UT 84043","precinct":"25LE05","hd":"53","v_score":"11.32188235","decile":"9","lat":40.425286201908,"lng":-111.833728051108},{"id":"42050","name":"Zana Berge","party":"Dem","address":"2279 N 940 E, Lehi, UT 84043","precinct":"25LE05","hd":"53","v_score":"11.02844566","decile":"9","lat":40.416352135883,"lng":-111.834491998014},{"id":"44023","name":"Bradley McGlynn I","party":"","address":"975 E 2850 N, Lehi, UT 84043","precinct":"25LE05","hd":"53","v_score":"1.121327652","decile":"3","lat":40.424334291812,"lng":-111.833370961956},{"id":"44440","name":"Friend Balistreri","party":"","address":"798 E Utah Highlands Dr, Lehi, UT 84043","precinct":"25LE05","hd":"53","v_score":"7.52755489","decile":"8","lat":40.422362410893,"lng":-111.836753738951},{"id":"45243","name":"Tamara Christiansen","party":"","address":"1101 E Airport Dr, Lehi, UT 84043","precinct":"25LE05","hd":"53","v_score":"3.781490609","decile":"6","lat":40.414170358068,"lng":-111.831641741653},{"id":"45818","name":"Zayden Cruickshank-Pfannerstill","party":"Dem","address":"817 E 2200 N, Lehi, UT 84043","precinct":"25LE05","hd":"53","v_score":"4.568975008","decile":"7","lat":40.415579966563,"lng":-111.836649496007},{"id":"46604","name":"Tera Olson","party":"Rep","address":"861 E 2180 N, Lehi, UT 84043","precinct":"25LE05","hd":"53","v_score":"1.121327652","decile":"3","lat":40.414740293046,"lng":-111.83531724867},{"id":"46634","name":"Billy Ebert-Crona","party":"Rep","address":"2819 N 1050 E, Lehi, UT 84043","precinct":"25LE05","hd":"53","v_score":"2.587603312","decile":"5","lat":40.423747246464,"lng":-111.832615645277},{"id":"47212","name":"Amiyah Boehm-Monahan","party":"Rep","address":"2277 N 850 E, Lehi, UT 84043","precinct":"25LE05","hd":"53","v_score":"2.315214949","decile":"5","lat":40.416077419953,"lng":-111.835442170931},{"id":"47432","name":"Fiona Pfeffer-Ledner","party":"","address":"1185 E 2450 N, Lehi, UT 84043","precinct":"25LE05","hd":"53","v_score":"5.40460374","decile":"7","lat":40.418619297132,"lng":-111.830793948547},{"id":"48152","name":"Santana Bartell-Fritsch","party":"","address":"811 E 2850 N, Lehi, UT 84043","precinct":"25LE05","hd":"53","v_score":"1.121327652","decile":"3","lat":40.424305836532,"lng":-111.836262271454},{"id":"48315","name":"Evander Lynch","party":"","address":"2274 N 1120 E, Lehi, UT 84043","precinct":"25LE05","hd":"53","v_score":"13.63581767","decile":"9","lat":40.416134493266,"lng":-111.831317307593},{"id":"48395","name":"Alcee Paucek-Frami","party":"","address":"2958 N Utah Highlands Dr, Lehi, UT 84043","precinct":"25LE05","hd":"53","v_score":"1.193887297","decile":"3","lat":40.425120630292,"lng":-111.833749974477},{"id":"48913","name":"Electa Ferry","party":"","address":"2280 N 850 E, Lehi, UT 84043","precinct":"25LE05","hd":"53","v_score":"0","decile":"1","lat":40.416119336245,"lng":-111.835300118438},{"id":"49247","name":"Aryan Rodriguez","party":"Rep","address":"744 E 3050 N, Lehi, UT 84043","precinct":"25LE05","hd":"53","v_score":"2.315214949","decile":"5","lat":40.426149252345,"lng":-111.837360315086},{"id":"49538","name":"Colonel Erdman","party":"Rep","address":"2440 N 1100 E, Lehi, UT 84043","precinct":"25LE05","hd":"53","v_score":"2.958579882","decile":"6","lat":40.418492583779,"lng":-111.831821961179},{"id":"49673","name":"Euphemia Daniel-Block","party":"","address":"2316 N 940 E, Lehi, UT 84043","precinct":"25LE05","hd":"53","v_score":"5.40460374","decile":"7","lat":40.416629718659,"lng":-111.834343892754},{"id":"50879","name":"Annmarie Nienow","party":"","address":"848 E 2180 N, Lehi, UT 84043","precinct":"25LE05","hd":"53","v_score":"9.116556227","decile":"8","lat":40.414625701674,"lng":-111.83547201263},{"id":"50912","name":"Citlali Murazik-Marquardt","party":"","address":"2934 N 1150 E, Lehi, UT 84043","precinct":"25LE05","hd":"53","v_score":"9.116556227","decile":"8","lat":40.424880146177,"lng":-111.831208557159},{"id":"51505","name":"Ms. Cher Hodkiewicz","party":"Rep","address":"624 E 2850 N, Lehi, UT 84043","precinct":"25LE05","hd":"53","v_score":"2.315214949","decile":"5","lat":40.423637163249,"lng":-111.839770150195},{"id":"51686","name":"Jacklyn McCullough","party":"Rep","address":"2631 N 675 E, Lehi, UT 84043","precinct":"25LE05","hd":"53","v_score":"5.546183193","decile":"7","lat":40.421418820013,"lng":-111.838696050408},{"id":"52050","name":"Gaither Sporer","party":"Dem","address":"748 E 2200 N, Lehi, UT 84043","precinct":"25LE05","hd":"53","v_score":"3.781490609","decile":"6","lat":40.415515336415,"lng":-111.837205371744},{"id":"52118","name":"Mr. Kwame Johnson I","party":"Rep","address":"1150 E 2250 N, Lehi, UT 84043","precinct":"25LE05","hd":"53","v_score":"7.947838735","decile":"8","lat":40.415682320287,"lng":-111.830977928793},{"id":"52322","name":"Octavie Altenwerth","party":"Rep","address":"2934 N 1150 E, Lehi, UT 84043","precinct":"25LE05","hd":"53","v_score":"2.817000428","decile":"6","lat":40.424880146177,"lng":-111.831208557159},{"id":"52880","name":"Dr. Morris Kozey II","party":"Rep","address":"2302 N 1000 E, Lehi, UT 84043","precinct":"25LE05","hd":"53","v_score":"2.942907593","decile":"6","lat":40.41675227487,"lng":-111.833435904477},{"id":"54713","name":"Emilio Towne","party":"Rep","address":"3130 N 700 E, Lehi, UT 84043","precinct":"25LE05","hd":"53","v_score":"1.121327652","decile":"3","lat":40.427241971523,"lng":-111.837989764451},{"id":"55180","name":"Ceylon Mosciski-Hermann","party":"Dem","address":"2982 N 700 E, Lehi, UT 84043","precinct":"25LE05","hd":"53","v_score":"0","decile":"1","lat":40.425955060088,"lng":-111.838036055965},{"id":"55226","name":"Kimberly Kohler","party":"Rep","address":"2713 N 750 E, Lehi, UT 84043","precinct":"25LE05","hd":"53","v_score":"1.193887297","decile":"3","lat":40.422132104244,"lng":-111.837437627222},{"id":"56228","name":"Mrs. Irma Nikolaus DDS","party":"","address":"857 E 3050 N, Lehi, UT 84043","precinct":"25LE05","hd":"53","v_score":"0","decile":"1","lat":40.426269291736,"lng":-111.835227686121},{"id":"56654","name":"Lea Glover","party":"Dem","address":"811 E 2850 N, Lehi, UT 84043","precinct":"25LE05","hd":"53","v_score":"3.93832808","decile":"6","lat":40.424305836532,"lng":-111.836262271454},{"id":"58121","name":"Dakota Zieme","party":"Dem","address":"2908 N 1050 E, Lehi, UT 84043","precinct":"25LE05","hd":"53","v_score":"0","decile":"1","lat":40.424384983883,"lng":-111.832469886979},{"id":"58652","name":"Easton Bernhard","party":"Dem","address":"1019 E 2180 N, Lehi, UT 84043","precinct":"25LE05","hd":"53","v_score":"2.315214949","decile":"5","lat":40.414940630343,"lng":-111.833299530478},{"id":"59654","name":"Everette Nitzsche","party":"Dem","address":"778 E 2850 N, Lehi, UT 84043","precinct":"25LE05","hd":"53","v_score":"6.528952915","decile":"7","lat":40.424181032474,"lng":-111.836596684292},{"id":"59926","name":"Mr. Porter Grimes DDS","party":"","address":"831 E Utah Highlands Dr, Lehi, UT 84043","precinct":"25LE05","hd":"53","v_score":"8.444560154","decile":"8","lat":40.423029828541,"lng":-111.835847688451},{"id":"60932","name":"Candido Marvin","party":"Dem","address":"951 E 2125 N, Lehi, UT 84043","precinct":"25LE05","hd":"53","v_score":"0","decile":"1","lat":40.414090966152,"lng":-111.834174180678},{"id":"60938","name":"Alisa Swaniawski","party":"","address":"2953 N 700 E, Lehi, UT 84043","precinct":"25LE05","hd":"53","v_score":"3.93832808","decile":"6","lat":40.425363227611,"lng":-111.838014113433},{"id":"61305","name":"Posey Raynor","party":"Dem","address":"2659 N 675 E, Lehi, UT 84043","precinct":"25LE05","hd":"53","v_score":"15.86460721","decile":"9","lat":40.421711556302,"lng":-111.838714378795},{"id":"61330","name":"Bonny Lakin-Gerhold","party":"","address":"2310 N 1060 E, Lehi, UT 84043","precinct":"25LE05","hd":"53","v_score":"2.817000428","decile":"6","lat":40.41628659663,"lng":-111.83242243761},{"id":"61662","name":"William Hegmann","party":"Rep","address":"2677 N 750 E, Lehi, UT 84043","precinct":"25LE05","hd":"53","v_score":"2.315214949","decile":"5","lat":40.421891392169,"lng":-111.837111122291},{"id":"62264","name":"Mrs. Felipa Heathcote","party":"","address":"2310 N 850 E, Lehi, UT 84043","precinct":"25LE05","hd":"53","v_score":"5.191257514","decile":"7","lat":40.416243909377,"lng":-111.835329840068},{"id":"62496","name":"Arleth Bernhard","party":"","address":"2884 N 675 E, Lehi, UT 84043","precinct":"25LE05","hd":"53","v_score":"0","decile":"1","lat":40.424008669942,"lng":-111.838813750088},{"id":"62746","name":"Lesley Wyman PhD","party":"Dem","address":"2185 N 825 E, Lehi, UT 84043","precinct":"25LE05","hd":"53","v_score":"34.16997587","decile":"10","lat":40.414775336049,"lng":-111.836235888772},{"id":"63567","name":"Dr. Odell Hodkiewicz","party":"Rep","address":"858 E 2900 N, Lehi, UT 84043","precinct":"25LE05","hd":"53","v_score":"7.650280567","decile":"8","lat":40.425194950474,"lng":-111.836276128104},{"id":"63875","name":"Mal Jerde","party":"","address":"2306 N 940 E, Lehi, UT 84043","precinct":"25LE05","hd":"53","v_score":"0","decile":"1","lat":40.416556869622,"lng":-111.834343261124},{"id":"63891","name":"Sullivan Weber","party":"","address":"3113 N 800 E, Lehi, UT 84043","precinct":"25LE05","hd":"53","v_score":"3.93832808","decile":"6","lat":40.426966981144,"lng":-111.836174086841},{"id":"64301","name":"Dena Nolan","party":"Dem","address":"2415 N 1100 E, Lehi, UT 84043","precinct":"25LE05","hd":"53","v_score":"3.997370217","decile":"6","lat":40.41817675007,"lng":-111.831974963562},{"id":"64321","name":"Iza Roberts DDS","party":"","address":"975 E 2850 N, Lehi, UT 84043","precinct":"25LE05","hd":"53","v_score":"11.80042349","decile":"9","lat":40.424334291812,"lng":-111.833370961956},{"id":"64327","name":"Rosaline Blanda-Renner","party":"Rep","address":"2321 N 1200 E, Lehi, UT 84043","precinct":"25LE05","hd":"53","v_score":"2.315214949","decile":"5","lat":40.416872956411,"lng":-111.830463486692},{"id":"64741","name":"Reason Kerluke","party":"Rep","address":"878 E 2850 N, Lehi, UT 84043","precinct":"25LE05","hd":"53","v_score":"0","decile":"1","lat":40.424211882681,"lng":-111.83521357032},{"id":"66146","name":"Leon McDermott","party":"Rep","address":"639 E Utah Highlands Dr, Lehi, UT 84043","precinct":"25LE05","hd":"53","v_score":"2.315214949","decile":"5","lat":40.420813394924,"lng":-111.839380137513},{"id":"66279","name":"Dr. Jerad Jacobi II","party":"","address":"2982 N 700 E, Lehi, UT 84043","precinct":"25LE05","hd":"53","v_score":"0","decile":"1","lat":40.425955060088,"lng":-111.838036055965},{"id":"67235","name":"Dr. Braydon Leffler","party":"Rep","address":"838 E 2850 N, Lehi, UT 84043","precinct":"25LE05","hd":"53","v_score":"2.817000428","decile":"6","lat":40.424200387081,"lng":-111.83586232278},{"id":"67258","name":"Evertt Ebert","party":"","address":"2767 N 675 E, Lehi, UT 84043","precinct":"25LE05","hd":"53","v_score":"0","decile":"1","lat":40.422810694627,"lng":-111.838750606081},{"id":"67418","name":"Mr. Osborne Marquardt","party":"Dem","address":"2659 N 675 E, Lehi, UT 84043","precinct":"25LE05","hd":"53","v_score":"16.59696324","decile":"9","lat":40.421711556302,"lng":-111.838714378795},{"id":"67918","name":"Parley Fay","party":"","address":"798 E 2200 N, Lehi, UT 84043","precinct":"25LE05","hd":"53","v_score":"0","decile":"1","lat":40.415497274475,"lng":-111.836826675356},{"id":"67964","name":"Sherie Windler","party":"Rep","address":"2934 N 1150 E, Lehi, UT 84043","precinct":"25LE05","hd":"53","v_score":"6.528952915","decile":"7","lat":40.424880146177,"lng":-111.831208557159},{"id":"68023","name":"Hilah Swaniawski","party":"Rep","address":"3112 N 800 E, Lehi, UT 84043","precinct":"25LE05","hd":"53","v_score":"8.15240309","decile":"8","lat":40.426966981132,"lng":-111.836023553139},{"id":"68146","name":"Arman Beer","party":"","address":"731 E 2200 N, Lehi, UT 84043","precinct":"25LE05","hd":"53","v_score":"4.192796624","decile":"7","lat":40.415633132267,"lng":-111.837344121238},{"id":"68386","name":"Claudine Russel","party":"","address":"3090 N 700 E, Lehi, UT 84043","precinct":"25LE05","hd":"53","v_score":"2.315214949","decile":"5","lat":40.426930698553,"lng":-111.838017238255},{"id":"68425","name":"Hayleigh Gottlieb","party":"","address":"2884 N 600 E, Lehi, UT 84043","precinct":"25LE05","hd":"53","v_score":"0","decile":"1","lat":40.424157739203,"lng":-111.840076279022},{"id":"68441","name":"Fronnie Schoen","party":"Rep","address":"3090 N 700 E, Lehi, UT 84043","precinct":"25LE05","hd":"53","v_score":"6.954919332","decile":"8","lat":40.426930698553,"lng":-111.838017238255},{"id":"69193","name":"Mr. Kazuo Huels","party":"","address":"2752 N 750 E, Lehi, UT 84043","precinct":"25LE05","hd":"53","v_score":"3.93832808","decile":"6","lat":40.42251958025,"lng":-111.837398313322},{"id":"69278","name":"Isidro Leffler","party":"Dem","address":"2867 N 675 E, Lehi, UT 84043","precinct":"25LE05","hd":"53","v_score":"10.06441387","decile":"9","lat":40.423854673546,"lng":-111.838918135178},{"id":"69495","name":"Sherryl Veum-Gleason","party":"","address":"937 E 2330 N, Lehi, UT 84043","precinct":"25LE05","hd":"53","v_score":"7.650280567","decile":"8","lat":40.417344791603,"lng":-111.834071917675},{"id":"69606","name":"Kennedi O'Reilly","party":"Dem","address":"811 E 2850 N, Lehi, UT 84043","precinct":"25LE05","hd":"53","v_score":"0","decile":"1","lat":40.424305836532,"lng":-111.836262271454},{"id":"69728","name":"Mrs. Graciela Braun","party":"Dem","address":"1150 E 2250 N, Lehi, UT 84043","precinct":"25LE05","hd":"53","v_score":"1.121327652","decile":"3","lat":40.415682320287,"lng":-111.830977928793},{"id":"70102","name":"Dr. Tyrik Beatty PhD","party":"Dem","address":"809 E Utah Highlands Dr, Lehi, UT 84043","precinct":"25LE05","hd":"53","v_score":"1.193887297","decile":"3","lat":40.422873864072,"lng":-111.836236581502},{"id":"70107","name":"Montana Lang","party":"Rep","address":"2819 N 675 E, Lehi, UT 84043","precinct":"25LE05","hd":"53","v_score":"2.315214949","decile":"5","lat":40.423336014083,"lng":-111.838792512261},{"id":"70445","name":"Toshiko Kilback","party":"Rep","address":"740 E 3150 N, Lehi, UT 84043","precinct":"25LE05","hd":"53","v_score":"9.907118004","decile":"8","lat":40.42740419124,"lng":-111.83731948219},{"id":"70622","name":"Miss Heidy Powlowski","party":"Rep","address":"3125 N 950 E, Lehi, UT 84043","precinct":"25LE05","hd":"53","v_score":"20.36872127","decile":"10","lat":40.426044121703,"lng":-111.833881710757},{"id":"70853","name":"Ms. Alysa Will DDS","party":"Rep","address":"2306 N 940 E, Lehi, UT 84043","precinct":"25LE05","hd":"53","v_score":"2.315214949","decile":"5","lat":40.416556869622,"lng":-111.834343261124},{"id":"70887","name":"Cruz Hammes","party":"","address":"687 E 2850 N, Lehi, UT 84043","precinct":"25LE05","hd":"53","v_score":"1.121327652","decile":"3","lat":40.423819924796,"lng":-111.838064416852},{"id":"70922","name":"Nyla Effertz-Kreiger","party":"","address":"2784 N 750 E, Lehi, UT 84043","precinct":"25LE05","hd":"53","v_score":"4.499155696","decile":"7","lat":40.422803900651,"lng":-111.837409179031},{"id":"71851","name":"Ms. Dallas Hilll PhD","party":"Rep","address":"2287 N 1000 E, Lehi, UT 84043","precinct":"25LE05","hd":"53","v_score":"1.121327652","decile":"3","lat":40.416453797468,"lng":-111.833583843408},{"id":"72223","name":"Darion Wolff","party":"Dem","address":"1052 E 2250 N, Lehi, UT 84043","precinct":"25LE05","hd":"53","v_score":"8.15240309","decile":"8","lat":40.415669701339,"lng":-111.832650213583},{"id":"72366","name":"Delfina Von","party":"Rep","address":"2440 N 1100 E, Lehi, UT 84043","precinct":"25LE05","hd":"53","v_score":"9.207031979","decile":"8","lat":40.418492583779,"lng":-111.831821961179},{"id":"72428","name":"Nicolle Fahey","party":"","address":"809 E Utah Highlands Dr, Lehi, UT 84043","precinct":"25LE05","hd":"53","v_score":"1.121327652","decile":"3","lat":40.422873864072,"lng":-111.836236581502},{"id":"72434","name":"Danyelle Lynch","party":"Dem","address":"910 E 2180 N, Lehi, UT 84043","precinct":"25LE05","hd":"53","v_score":"3.93832808","decile":"6","lat":40.414726266423,"lng":-111.834669371435},{"id":"72521","name":"Glen Nolan","party":"","address":"2683 N 750 E, Lehi, UT 84043","precinct":"25LE05","hd":"53","v_score":"6.481563075","decile":"7","lat":40.421916095065,"lng":-111.837143236046},{"id":"72945","name":"Thos King","party":"Dem","address":"2781 N 900 E, Lehi, UT 84043","precinct":"25LE05","hd":"53","v_score":"1.121327652","decile":"3","lat":40.422991993448,"lng":-111.834630049989},{"id":"73450","name":"Jannie Moen PhD","party":"Rep","address":"740 E 3150 N, Lehi, UT 84043","precinct":"25LE05","hd":"53","v_score":"11.02844566","decile":"9","lat":40.42740419124,"lng":-111.83731948219},{"id":"73659","name":"Gearld Goodwin-Gaylord","party":"Dem","address":"1121 E 2350 N, Lehi, UT 84043","precinct":"25LE05","hd":"53","v_score":"1.121327652","decile":"3","lat":40.417440671865,"lng":-111.831581476652},{"id":"73716","name":"Jerrel Rutherford-Breitenberg","party":"Dem","address":"2312 N 850 E, Lehi, UT 84043","precinct":"25LE05","hd":"53","v_score":"9.405332525","decile":"8","lat":40.416252868112,"lng":-111.83533073594},{"id":"73822","name":"Jagger Abbott","party":"Dem","address":"2884 N 600 E, Lehi, UT 84043","precinct":"25LE05","hd":"53","v_score":"3.93832808","decile":"6","lat":40.424157739203,"lng":-111.840076279022},{"id":"74287","name":"Corda Renner-Mills","party":"","address":"740 E Utah Highlands Dr, Lehi, UT 84043","precinct":"25LE05","hd":"53","v_score":"1.121327652","decile":"3","lat":40.421631603339,"lng":-111.837669111431},{"id":"74396","name":"Niles Hayes","party":"Dem","address":"2316 N 940 E, Lehi, UT 84043","precinct":"25LE05","hd":"53","v_score":"6.954919332","decile":"8","lat":40.416629718659,"lng":-111.834343892754},{"id":"75086","name":"Crista Becker","party":"","address":"2195 N 1200 E, Lehi, UT 84043","precinct":"25LE05","hd":"53","v_score":"1.121327652","decile":"3","lat":40.415056938745,"lng":-111.830449379197},{"id":"75913","name":"Bell Bayer PhD","party":"Rep","address":"896 E 2850 N, Lehi, UT 84043","precinct":"25LE05","hd":"53","v_score":"1.121327652","decile":"3","lat":40.424213542457,"lng":-111.834931404706},{"id":"76372","name":"Gorge Koch","party":"Dem","address":"870 E Utah Highlands Dr, Lehi, UT 84043","precinct":"25LE05","hd":"53","v_score":"2.744440783","decile":"5","lat":40.423028287943,"lng":-111.835238155202},{"id":"76436","name":"Emiliano Kutch","party":"","address":"2287 N 1000 E, Lehi, UT 84043","precinct":"25LE05","hd":"53","v_score":"2.315214949","decile":"5","lat":40.416453797468,"lng":-111.833583843408},{"id":"76631","name":"Arjun Sipes III","party":"Dem","address":"893 E 2900 N, Lehi, UT 84043","precinct":"25LE05","hd":"53","v_score":"2.315214949","decile":"5","lat":40.425281884113,"lng":-111.836560328087},{"id":"76858","name":"Lissa Simonis","party":"Dem","address":"2162 N 825 E, Lehi, UT 84043","precinct":"25LE05","hd":"53","v_score":"5.191257514","decile":"7","lat":40.41427465097,"lng":-111.836077958807},{"id":"76994","name":"Trinidad Schuster","party":"Rep","address":"2440 N 1100 E, Lehi, UT 84043","precinct":"25LE05","hd":"53","v_score":"1.121327652","decile":"3","lat":40.418492583779,"lng":-111.831821961179},{"id":"77305","name":"Britta Jones DDS","party":"Rep","address":"2338 N 1000 E, Lehi, UT 84043","precinct":"25LE05","hd":"53","v_score":"0","decile":"1","lat":40.417543691397,"lng":-111.833254097978},{"id":"77471","name":"Juanita Heller","party":"","address":"3130 N 700 E, Lehi, UT 84043","precinct":"25LE05","hd":"53","v_score":"1.121327652","decile":"3","lat":40.427241971523,"lng":-111.837989764451},{"id":"77865","name":"Miss Tilla Jaskolski MD","party":"Dem","address":"858 E 2900 N, Lehi, UT 84043","precinct":"25LE05","hd":"53","v_score":"1.121327652","decile":"3","lat":40.425194950474,"lng":-111.836276128104},{"id":"78323","name":"Mr. Hansford O'Connell DVM","party":"","address":"3072 N 800 E, Lehi, UT 84043","precinct":"25LE05","hd":"53","v_score":"3.93832808","decile":"6","lat":40.426713138487,"lng":-111.836042373259},{"id":"79040","name":"Mrs. Lonna Reichel","party":"","address":"2959 N 1050 E, Lehi, UT 84043","precinct":"25LE05","hd":"53","v_score":"1.121327652","decile":"3","lat":40.4246973833,"lng":-111.832624278229},{"id":"79086","name":"Nilda Bailey","party":"Dem","address":"2812 N 600 E, Lehi, UT 84043","precinct":"25LE05","hd":"53","v_score":"3.93832808","decile":"6","lat":40.423304088146,"lng":-111.840053863479},{"id":"79338","name":"Randle Conroy","party":"Dem","address":"930 E 2900 N, Lehi, UT 84043","precinct":"25LE05","hd":"53","v_score":"2.315214949","decile":"5","lat":40.29094532304,"lng":-112.043734680731},{"id":"80423","name":"Mr. Tremaine Langworth DDS","party":"","address":"954 E Oak Creek Dr, Lehi, UT 84043","precinct":"25LE05","hd":"53","v_score":"20.00910204","decile":"10","lat":40.41789396486,"lng":-111.833868918927},{"id":"81381","name":"Masako Will-Schmidt","party":"Rep","address":"854 E 3050 N, Lehi, UT 84043","precinct":"25LE05","hd":"53","v_score":"21.02975722","decile":"10","lat":40.426154700364,"lng":-111.835387481279},{"id":"81520","name":"Eddie Rempel","party":"Dem","address":"2958 N Utah Highlands Dr, Lehi, UT 84043","precinct":"25LE05","hd":"53","v_score":"4.499155696","decile":"7","lat":40.425120630292,"lng":-111.833749974477},{"id":"81624","name":"Abdul Bogan II","party":"Dem","address":"2752 N 750 E, Lehi, UT 84043","precinct":"25LE05","hd":"53","v_score":"1.193887297","decile":"3","lat":40.42251958025,"lng":-111.837398313322},{"id":"81883","name":"Carson Jacobs","party":"Dem","address":"2287 N 1200 E, Lehi, UT 84043","precinct":"25LE05","hd":"53","v_score":"0","decile":"1","lat":40.416522068076,"lng":-111.83045782725},{"id":"82255","name":"Abbey Jaskolski DVM","party":"","address":"947 E 2900 N, Lehi, UT 84043","precinct":"25LE05","hd":"53","v_score":"1.193887297","decile":"3","lat":40.425316819224,"lng":-111.836213888002},{"id":"82832","name":"Magdalene Jast","party":"","address":"2837 N 750 E, Lehi, UT 84043","precinct":"25LE05","hd":"53","v_score":"0","decile":"1","lat":40.423262588837,"lng":-111.837577295676},{"id":"83284","name":"Dion Little","party":"Rep","address":"2223 N 1000 E, Lehi, UT 84043","precinct":"25LE05","hd":"53","v_score":"1.193887297","decile":"3","lat":40.415273521795,"lng":-111.833577576423},{"id":"84042","name":"Torrance Morissette","party":"","address":"2902 N 675 E, Lehi, UT 84043","precinct":"25LE05","hd":"53","v_score":"0","decile":"1","lat":40.424134746349,"lng":-111.838855355281},{"id":"84258","name":"Lani Lueilwitz-Leannon","party":"","address":"2236 Dry Creek Way, Lehi, UT 84043","precinct":"25LE05","hd":"53","v_score":"0","decile":"1","lat":40.416267457902,"lng":-111.839959906712},{"id":"84863","name":"Fidelia Howell","party":"Rep","address":"846 E Utah Highlands Dr, Lehi, UT 84043","precinct":"25LE05","hd":"53","v_score":"0","decile":"1","lat":40.42278923473,"lng":-111.836132242694},{"id":"84868","name":"Mr. Braiden Wolf","party":"Rep","address":"802 E 3050 N, Lehi, UT 84043","precinct":"25LE05","hd":"53","v_score":"0","decile":"1","lat":40.426153487016,"lng":-111.836418084716},{"id":"85557","name":"Linn Ryan","party":"Dem","address":"2316 N 940 E, Lehi, UT 84043","precinct":"25LE05","hd":"53","v_score":"1.193887297","decile":"3","lat":40.416629718659,"lng":-111.834343892754},{"id":"85642","name":"Onnie Larson","party":"","address":"3071 N 950 E, Lehi, UT 84043","precinct":"25LE05","hd":"53","v_score":"11.99595736","decile":"9","lat":40.425867188123,"lng":-111.833813415999},{"id":"85813","name":"Jaimee Mohr PhD","party":"Dem","address":"2257 N 1120 E, Lehi, UT 84043","precinct":"25LE05","hd":"53","v_score":"0","decile":"1","lat":40.416050489529,"lng":-111.831466718595},{"id":"85910","name":"Hortencia Bahringer MD","party":"","address":"3001 N 950 E, Lehi, UT 84043","precinct":"25LE05","hd":"53","v_score":"0","decile":"1","lat":40.425675376208,"lng":-111.833640169538},{"id":"86177","name":"Oley Lubowitz","party":"","address":"930 E 2900 N, Lehi, UT 84043","precinct":"25LE05","hd":"53","v_score":"1.193887297","decile":"4","lat":40.29094532304,"lng":-112.043734680731},{"id":"86689","name":"Elgin Cormier","party":"Rep","address":"2867 N 675 E, Lehi, UT 84043","precinct":"25LE05","hd":"53","v_score":"0","decile":"1","lat":40.423854673546,"lng":-111.838918135178},{"id":"86711","name":"Brooke Kling","party":"","address":"2819 N 1050 E, Lehi, UT 84043","precinct":"25LE05","hd":"53","v_score":"0","decile":"1","lat":40.423747246464,"lng":-111.832615645277},{"id":"86962","name":"Windell Sipes","party":"Rep","address":"809 E Utah Highlands Dr, Lehi, UT 84043","precinct":"25LE05","hd":"53","v_score":"0","decile":"1","lat":40.422873864072,"lng":-111.836236581502},{"id":"88106","name":"Hervey Mante","party":"Dem","address":"878 E 2900 N, Lehi, UT 84043","precinct":"25LE05","hd":"53","v_score":"0","decile":"1","lat":40.425209700524,"lng":-111.836077708977},{"id":"88791","name":"Lilie Spencer-Cormier","party":"","address":"896 E 2850 N, Lehi, UT 84043","precinct":"25LE05","hd":"53","v_score":"0","decile":"1","lat":40.424213542457,"lng":-111.834931404706},{"id":"89333","name":"Beyonce Bogan","party":"","address":"2821 N Utah Highlands Dr, Lehi, UT 84043","precinct":"25LE05","hd":"53","v_score":"1.193887297","decile":"4","lat":40.423402781579,"lng":-111.834369882977},{"id":"89939","name":"Leitha Hilpert-VonRueden","party":"Dem","address":"2320 N 1060 E, Lehi, UT 84043","precinct":"25LE05","hd":"53","v_score":"2.817000428","decile":"6","lat":40.416332173638,"lng":-111.832423445945},{"id":"90473","name":"Auston Mosciski","party":"Dem","address":"2883 N 675 E, Lehi, UT 84043","precinct":"25LE05","hd":"53","v_score":"0","decile":"1","lat":40.423966741463,"lng":-111.838955117572},{"id":"90604","name":"Mariela Nicolas","party":"","address":"838 E 2850 N, Lehi, UT 84043","precinct":"25LE05","hd":"53","v_score":"2.817000428","decile":"6","lat":40.424200387081,"lng":-111.83586232278},{"id":"91229","name":"Dr. Littie Goldner MD","party":"Dem","address":"2227 N 825 E, Lehi, UT 84043","precinct":"25LE05","hd":"53","v_score":"1.193887297","decile":"4","lat":40.414945353702,"lng":-111.836225262647},{"id":"92303","name":"Daxton Gusikowski","party":"Rep","address":"2339 N 1000 E, Lehi, UT 84043","precinct":"25LE05","hd":"53","v_score":"1.193887297","decile":"4","lat":40.417653944409,"lng":-111.83329932466},{"id":"93137","name":"Harrell Halvorson-Bechtelar","party":"Rep","address":"857 E 3050 N, Lehi, UT 84043","precinct":"25LE05","hd":"53","v_score":"1.193887297","decile":"4","lat":40.426269291736,"lng":-111.835227686121},{"id":"94731","name":"Neely Corkery","party":"Dem","address":"2819 N 675 E, Lehi, UT 84043","precinct":"25LE05","hd":"53","v_score":"1.193887297","decile":"4","lat":40.423336014083,"lng":-111.838792512261},{"id":"94838","name":"Finnegan Sawayn DVM","party":"","address":"2287 N 1200 E, Lehi, UT 84043","precinct":"25LE05","hd":"53","v_score":"1.623113131","decile":"5","lat":40.416522068076,"lng":-111.83045782725},{"id":"95061","name":"Francis Koelpin","party":"","address":"3043 N 950 E, Lehi, UT 84043","precinct":"25LE05","hd":"53","v_score":"0","decile":"1","lat":40.425787100911,"lng":-111.833756318174},{"id":"95107","name":"Dr. Jammie Kuhlman","party":"","address":"809 E Utah Highlands Dr, Lehi, UT 84043","precinct":"25LE05","hd":"53","v_score":"1.193887297","decile":"4","lat":40.422873864072,"lng":-111.836236581502},{"id":"95137","name":"Maxx Zulauf","party":"Dem","address":"959 E 2330 N, Lehi, UT 84043","precinct":"25LE05","hd":"53","v_score":"1.193887297","decile":"4","lat":40.417346477487,"lng":-111.833901642093},{"id":"95202","name":"Ms. Kelis Parker MD","party":"Rep","address":"3090 N 700 E, Lehi, UT 84043","precinct":"25LE05","hd":"53","v_score":"0","decile":"1","lat":40.426930698553,"lng":-111.838017238255},{"id":"95849","name":"Merton Reilly","party":"Rep","address":"2683 N 750 E, Lehi, UT 84043","precinct":"25LE05","hd":"53","v_score":"2.817000428","decile":"6","lat":40.421916095065,"lng":-111.837143236046},{"id":"96034","name":"Dr. Hillard Willms","party":"Dem","address":"2272 N 1060 E, Lehi, UT 84043","precinct":"25LE05","hd":"53","v_score":"1.193887297","decile":"4","lat":40.416113404001,"lng":-111.832418605938},{"id":"96686","name":"Miranda Becker","party":"Dem","address":"2343 N 1000 E, Lehi, UT 84043","precinct":"25LE05","hd":"53","v_score":"6.528952915","decile":"7","lat":40.417659968269,"lng":-111.833282006059},{"id":"98574","name":"Dr. Missouri Mayert","party":"Rep","address":"858 E 2900 N, Lehi, UT 84043","precinct":"25LE05","hd":"53","v_score":"0","decile":"1","lat":40.425194950474,"lng":-111.836276128104},{"id":"99323","name":"Dr. Palmer Bergnaum II","party":"","address":"639 E Utah Highlands Dr, Lehi, UT 84043","precinct":"25LE05","hd":"53","v_score":"0","decile":"1","lat":40.420813394924,"lng":-111.839380137513},{"id":"99363","name":"Rosina Casper","party":"Dem","address":"699 E 2850 N, Lehi, UT 84043","precinct":"25LE05","hd":"53","v_score":"8.802537529","decile":"8","lat":40.423855567483,"lng":-111.837827998139},{"id":"99817","name":"Mr. Fenton Bergstrom DVM","party":"","address":"1121 E Utah Highlands Dr, Lehi, UT 84043","precinct":"25LE05","hd":"53","v_score":"0","decile":"1","lat":40.425961762645,"lng":-111.83155776089},{"id":"100533","name":"Dr. Mortimer Powlowski I","party":"","address":"910 E 2180 N, Lehi, UT 84043","precinct":"25LE05","hd":"53","v_score":"12.51449002","decile":"9","lat":40.414726266423,"lng":-111.834669371435},{"id":"100951","name":"Gussie Toy","party":"Rep","address":"811 E 2850 N, Lehi, UT 84043","precinct":"25LE05","hd":"53","v_score":"0","decile":"2","lat":40.424305836532,"lng":-111.836262271454},{"id":"101013","name":"Patrica Kuphal","party":"Dem","address":"893 E Utah Highlands Dr, Lehi, UT 84043","precinct":"25LE05","hd":"53","v_score":"0","decile":"2","lat":40.42321308966,"lng":-111.834837747079},{"id":"101137","name":"Mr. Ancil D'Amore","party":"","address":"1043 E 2180 N, Lehi, UT 84043","precinct":"25LE05","hd":"53","v_score":"5.407962308","decile":"7","lat":40.414942602479,"lng":-111.833127953512},{"id":"101424","name":"Miss Ciji Dibbert","party":"","address":"2255 N 1000 E, Lehi, UT 84043","precinct":"25LE05","hd":"53","v_score":"12.51449002","decile":"9","lat":40.415858346839,"lng":-111.833578710292},{"id":"101651","name":"Mrs. Norene Will PhD","party":"Rep","address":"809 E Utah Highlands Dr, Lehi, UT 84043","precinct":"25LE05","hd":"53","v_score":"1.193887297","decile":"4","lat":40.422873864072,"lng":-111.836236581502},{"id":"101836","name":"Amie Marvin","party":"Rep","address":"2907 N 1050 E, Lehi, UT 84043","precinct":"25LE05","hd":"53","v_score":"4.069929862","decile":"6","lat":40.424371367923,"lng":-111.832620253391},{"id":"102964","name":"Brandy Towne-Leannon","party":"Dem","address":"2954 N 1150 E, Lehi, UT 84043","precinct":"25LE05","hd":"53","v_score":"7.090117576","decile":"8","lat":40.425182819271,"lng":-111.831208557119},{"id":"103203","name":"Tillman Abshire","party":"Rep","address":"1143 E 2350 N, Lehi, UT 84043","precinct":"25LE05","hd":"53","v_score":"0","decile":"2","lat":40.41743871202,"lng":-111.831268885333},{"id":"103431","name":"Denver Pagac","party":"","address":"1121 E 2350 N, Lehi, UT 84043","precinct":"25LE05","hd":"53","v_score":"0","decile":"2","lat":40.417440671865,"lng":-111.831581476652},{"id":"103462","name":"Clora Bruen DDS","party":"","address":"2958 N Utah Highlands Dr, Lehi, UT 84043","precinct":"25LE05","hd":"53","v_score":"4.214075011","decile":"7","lat":40.425120630292,"lng":-111.833749974477},{"id":"103479","name":"Loree Hammes","party":"","address":"2222 N 825 E, Lehi, UT 84043","precinct":"25LE05","hd":"53","v_score":"0","decile":"2","lat":40.414870467492,"lng":-111.83607926634},{"id":"103702","name":"Shelby Fadel-Kessler","party":"","address":"2818 N Utah Highlands Dr, Lehi, UT 84043","precinct":"25LE05","hd":"53","v_score":"1.193887297","decile":"4","lat":40.423300500947,"lng":-111.834294823776},{"id":"104740","name":"Arianna Muller","party":"Rep","address":"2796 N 900 E, Lehi, UT 84043","precinct":"25LE05","hd":"53","v_score":"0","decile":"2","lat":40.423148651938,"lng":-111.834545934013},{"id":"105714","name":"Dr. Pallie Mosciski","party":"Rep","address":"2323 N 1000 E, Lehi, UT 84043","precinct":"25LE05","hd":"53","v_score":"0","decile":"2","lat":40.417123679426,"lng":-111.833589618164},{"id":"107027","name":"Jelani Greenholt","party":"","address":"2291 N 1120 E, Lehi, UT 84043","precinct":"25LE05","hd":"53","v_score":"1.193887297","decile":"4","lat":40.416206995007,"lng":-111.831468777857},{"id":"107338","name":"Kellan Raynor","party":"","address":"2302 N 1000 E, Lehi, UT 84043","precinct":"25LE05","hd":"53","v_score":"1.193887297","decile":"4","lat":40.41675227487,"lng":-111.833435904477},{"id":"108085","name":"Etter Sipes","party":"Dem","address":"2306 N 940 E, Lehi, UT 84043","precinct":"25LE05","hd":"53","v_score":"0","decile":"2","lat":40.416556869622,"lng":-111.834343261124},{"id":"108110","name":"Mylee Gaylord","party":"Dem","address":"1150 E 2250 N, Lehi, UT 84043","precinct":"25LE05","hd":"53","v_score":"0","decile":"2","lat":40.415682320287,"lng":-111.830977928793},{"id":"108721","name":"Jan Gibson","party":"","address":"1039 E Utah Highlands Dr, Lehi, UT 84043","precinct":"25LE05","hd":"53","v_score":"0","decile":"2","lat":40.425951906028,"lng":-111.832921754837},{"id":"109940","name":"Meggan Murazik","party":"","address":"1092 E 2180 N, Lehi, UT 84043","precinct":"25LE05","hd":"53","v_score":"1.193887297","decile":"4","lat":40.414832132752,"lng":-111.832768229599},{"id":"110001","name":"Dr. Eddie Walker II","party":"","address":"1163 E 2450 N, Lehi, UT 84043","precinct":"25LE05","hd":"53","v_score":"8.284004873","decile":"8","lat":40.418616225236,"lng":-111.831306961627},{"id":"110487","name":"Dr. Keon Hegmann V","party":"Rep","address":"2767 N 675 E, Lehi, UT 84043","precinct":"25LE05","hd":"53","v_score":"0","decile":"2","lat":40.422810694627,"lng":-111.838750606081},{"id":"110504","name":"Josefa Morissette-Erdman","party":"Rep","address":"2740 N 675 E, Lehi, UT 84043","precinct":"25LE05","hd":"53","v_score":"0","decile":"2","lat":40.422550900862,"lng":-111.838584495498},{"id":"110602","name":"Dicie Shields","party":"Dem","address":"2361 N 1100 E, Lehi, UT 84043","precinct":"25LE05","hd":"53","v_score":"8.284004873","decile":"8","lat":40.417896274467,"lng":-111.831977172068},{"id":"111947","name":"Marc Dibbert","party":"","address":"3177 N 950 E, Lehi, UT 84043","precinct":"25LE05","hd":"53","v_score":"8.284004873","decile":"8","lat":40.426212427433,"lng":-111.833888086507},{"id":"112632","name":"Deonta Erdman I","party":"","address":"3078 N 880 E, Lehi, UT 84043","precinct":"25LE05","hd":"53","v_score":"0","decile":"2","lat":40.427162888999,"lng":-111.834893177934},{"id":"113085","name":"Miss Laisha Schuppe MD","party":"","address":"2287 N 1200 E, Lehi, UT 84043","precinct":"25LE05","hd":"53","v_score":"1.193887297","decile":"4","lat":40.416522068076,"lng":-111.83045782725},{"id":"113321","name":"Miss Rozanne Rolfson","party":"Dem","address":"2671 N 750 E, Lehi, UT 84043","precinct":"25LE05","hd":"53","v_score":"1.193887297","decile":"4","lat":40.421864332491,"lng":-111.837066147567},{"id":"113636","name":"Oneida Murphy-Terry","party":"Rep","address":"898 E 2900 N, Lehi, UT 84043","precinct":"25LE05","hd":"53","v_score":"0","decile":"2","lat":40.425209700508,"lng":-111.835868085321},{"id":"114220","name":"Haruko D'Amore","party":"","address":"2953 N 700 E, Lehi, UT 84043","precinct":"25LE05","hd":"53","v_score":"0","decile":"2","lat":40.425363227611,"lng":-111.838014113433},{"id":"114261","name":"Verna Gibson","party":"Rep","address":"777 E 2900 N, Lehi, UT 84043","precinct":"25LE05","hd":"53","v_score":"0","decile":"2","lat":40.425120679495,"lng":-111.837298056136},{"id":"114556","name":"Damarion Marks I","party":"Rep","address":"2221 N 1200 E, Lehi, UT 84043","precinct":"25LE05","hd":"53","v_score":"1.193887297","decile":"4","lat":40.415385060792,"lng":-111.830447566325},{"id":"115088","name":"Berneice Stroman DDS","party":"Dem","address":"2818 N Utah Highlands Dr, Lehi, UT 84043","precinct":"25LE05","hd":"53","v_score":"0","decile":"2","lat":40.423300500947,"lng":-111.834294823776},{"id":"115628","name":"Dallin Nader","party":"Rep","address":"2662 N 750 E, Lehi, UT 84043","precinct":"25LE05","hd":"53","v_score":"1.193887297","decile":"4","lat":40.421929181036,"lng":-111.836927922299},{"id":"116064","name":"Letta Wisozk","party":"Dem","address":"2343 N 1000 E, Lehi, UT 84043","precinct":"25LE05","hd":"53","v_score":"5.407962308","decile":"7","lat":40.417659968269,"lng":-111.833282006059},{"id":"116076","name":"Dr. Noel Cassin III","party":"Rep","address":"2752 N 600 E, Lehi, UT 84043","precinct":"25LE05","hd":"53","v_score":"0","decile":"2","lat":40.422654979048,"lng":-111.840035915544},{"id":"116113","name":"Miss Leonia Toy","party":"Dem","address":"2631 N 675 E, Lehi, UT 84043","precinct":"25LE05","hd":"53","v_score":"0","decile":"2","lat":40.421418820013,"lng":-111.838696050408},{"id":"118882","name":"Elfreda Zieme DVM","party":"Dem","address":"2302 N 1000 E, Lehi, UT 84043","precinct":"25LE05","hd":"53","v_score":"1.193887297","decile":"4","lat":40.41675227487,"lng":-111.833435904477},{"id":"119941","name":"Pennie Robel-Altenwerth","party":"Rep","address":"2339 N 1000 E, Lehi, UT 84043","precinct":"25LE05","hd":"53","v_score":"1.193887297","decile":"4","lat":40.417653944409,"lng":-111.83329932466},{"id":"120001","name":"Sadye Mayer","party":"Rep","address":"863 E 2850 N, Lehi, UT 84043","precinct":"25LE05","hd":"53","v_score":"0","decile":"2","lat":40.424321705437,"lng":-111.835571971816},{"id":"120108","name":"Banks Smith","party":"Dem","address":"694 E 2900 N, Lehi, UT 84043","precinct":"25LE05","hd":"53","v_score":"1.193887297","decile":"4","lat":40.424765566124,"lng":-111.837937913782},{"id":"120173","name":"Adrien Cartwright","party":"","address":"2289 N 1060 E, Lehi, UT 84043","precinct":"25LE05","hd":"53","v_score":"8.284004873","decile":"8","lat":40.416184397292,"lng":-111.832570706658},{"id":"121068","name":"Jonell Witting","party":"Dem","address":"2299 N 1200 E, Lehi, UT 84043","precinct":"25LE05","hd":"53","v_score":"0","decile":"2","lat":40.416645911018,"lng":-111.8304598247},{"id":"121638","name":"Ms. Ruthie Mayer DVM","party":"","address":"744 E 3050 N, Lehi, UT 84043","precinct":"25LE05","hd":"53","v_score":"1.193887297","decile":"4","lat":40.426149252345,"lng":-111.837360315086},{"id":"121640","name":"Sadye Koss","party":"Rep","address":"2778 N 600 E, Lehi, UT 84043","precinct":"25LE05","hd":"53","v_score":"1.193887297","decile":"4","lat":40.422990697251,"lng":-111.840045238084},{"id":"122360","name":"Gay Kutch","party":"","address":"2974 N 1150 E, Lehi, UT 84043","precinct":"25LE05","hd":"53","v_score":"1.193887297","decile":"4","lat":40.425485492364,"lng":-111.831208557079},{"id":"122996","name":"Elma Friesen","party":"Rep","address":"2635 N 600 E, Lehi, UT 84043","precinct":"25LE05","hd":"53","v_score":"1.193887297","decile":"4","lat":40.421115037501,"lng":-111.840146880481},{"id":"123030","name":"Dillon Lindgren IV","party":"Rep","address":"2907 N 1050 E, Lehi, UT 84043","precinct":"25LE05","hd":"53","v_score":"4.069929862","decile":"7","lat":40.424371367923,"lng":-111.832620253391},{"id":"123426","name":"Daja Hagenes","party":"Dem","address":"2339 N 1000 E, Lehi, UT 84043","precinct":"25LE05","hd":"53","v_score":"1.193887297","decile":"4","lat":40.417653944409,"lng":-111.83329932466},{"id":"127296","name":"Miss Leafy Collins MD","party":"Rep","address":"2949 N 675 E, Lehi, UT 84043","precinct":"25LE05","hd":"53","v_score":"4.214075011","decile":"7","lat":40.424447335449,"lng":-111.839040930963},{"id":"129937","name":"Agustus Schoen III","party":"","address":"759 E 3150 N, Lehi, UT 84043","precinct":"25LE05","hd":"53","v_score":"0","decile":"2","lat":40.427521800864,"lng":-111.837020157225},{"id":"130208","name":"Ciarra Lueilwitz","party":"Dem","address":"2790 N 675 E, Lehi, UT 84043","precinct":"25LE05","hd":"53","v_score":"0","decile":"2","lat":40.423060460181,"lng":-111.838614766279},{"id":"131472","name":"Daulton Runolfsdottir","party":"Dem","address":"2299 N 1200 E, Lehi, UT 84043","precinct":"25LE05","hd":"53","v_score":"0","decile":"2","lat":40.416645911018,"lng":-111.8304598247},{"id":"132086","name":"Mozella Ernser","party":"Rep","address":"2944 N 600 E, Lehi, UT 84043","precinct":"25LE05","hd":"53","v_score":"0","decile":"2","lat":40.424876606312,"lng":-111.840094401625},{"id":"132526","name":"Dr. Les Fritsch","party":"Dem","address":"2361 N 1100 E, Lehi, UT 84043","precinct":"25LE05","hd":"53","v_score":"2.876042565","decile":"6","lat":40.417896274467,"lng":-111.831977172068},{"id":"133774","name":"Oddie Osinski-Torphy","party":"Rep","address":"2940 N 1050 E, Lehi, UT 84043","precinct":"25LE05","hd":"53","v_score":"0","decile":"2","lat":40.42458560873,"lng":-111.832472363802},{"id":"133828","name":"Ruby Wunsch-Okuneva","party":"","address":"2287 N 1000 E, Lehi, UT 84043","precinct":"25LE05","hd":"53","v_score":"0","decile":"2","lat":40.416453797468,"lng":-111.833583843408},{"id":"133829","name":"Gaither Carroll","party":"Dem","address":"2287 N 1000 E, Lehi, UT 84043","precinct":"25LE05","hd":"53","v_score":"0","decile":"2","lat":40.416453797468,"lng":-111.833583843408},{"id":"135350","name":"Shanelle Trantow MD","party":"","address":"2194 N 825 E, Lehi, UT 84043","precinct":"25LE05","hd":"53","v_score":"30.83432786","decile":"10","lat":40.414737504968,"lng":-111.836087576515},{"id":"135422","name":"Bryn Cruickshank MD","party":"","address":"782 E 2900 N, Lehi, UT 84043","precinct":"25LE05","hd":"53","v_score":"2.315214949","decile":"5","lat":40.425066333857,"lng":-111.837038762124},{"id":"135469","name":"Madison Dicki","party":"Rep","address":"2940 N 1050 E, Lehi, UT 84043","precinct":"25LE05","hd":"53","v_score":"3.781490609","decile":"6","lat":40.42458560873,"lng":-111.832472363802},{"id":"136302","name":"Emmaline Tremblay","party":"Dem","address":"3149 N 950 E, Lehi, UT 84043","precinct":"25LE05","hd":"53","v_score":"15.4533012","decile":"9","lat":40.426125534777,"lng":-111.833888086518},{"id":"136446","name":"Rudolph Towne-Homenick","party":"Rep","address":"2706 N 600 E, Lehi, UT 84043","precinct":"25LE05","hd":"53","v_score":"0","decile":"2","lat":40.422093196481,"lng":-111.840019632067},{"id":"137080","name":"Ms. Sandie Grady","party":"Rep","address":"2227 N 825 E, Lehi, UT 84043","precinct":"25LE05","hd":"53","v_score":"5.40460374","decile":"7","lat":40.414945353702,"lng":-111.836225262647},{"id":"137333","name":"Lilyanna Wuckert","party":"","address":"1022 E 2180 N, Lehi, UT 84043","precinct":"25LE05","hd":"53","v_score":"5.40460374","decile":"7","lat":40.414826380689,"lng":-111.833268662418},{"id":"137450","name":"Ms. Melonie Shields DVM","party":"Dem","address":"878 E 2900 N, Lehi, UT 84043","precinct":"25LE05","hd":"53","v_score":"2.315214949","decile":"5","lat":40.425209700524,"lng":-111.836077708977},{"id":"137790","name":"Erna Reilly","party":"Rep","address":"2227 N 825 E, Lehi, UT 84043","precinct":"25LE05","hd":"53","v_score":"7.169296324","decile":"8","lat":40.414945353702,"lng":-111.836225262647},{"id":"138179","name":"Carleton Skiles","party":"","address":"903 E 2125 N, Lehi, UT 84043","precinct":"25LE05","hd":"53","v_score":"13.61907049","decile":"9","lat":40.414047293082,"lng":-111.834769677786},{"id":"138189","name":"Bertie Leannon","party":"Rep","address":"2404 N 600 E, Lehi, UT 84043","precinct":"25LE05","hd":"53","v_score":"15.51131257","decile":"9","lat":40.41835019115,"lng":-111.859104541706},{"id":"138746","name":"Erick Klocko","party":"Dem","address":"2662 N 750 E, Lehi, UT 84043","precinct":"25LE05","hd":"53","v_score":"20.42636275","decile":"10","lat":40.421929181036,"lng":-111.836927922299},{"id":"139791","name":"Marin Barton MD","party":"Rep","address":"2884 N 600 E, Lehi, UT 84043","precinct":"25LE05","hd":"53","v_score":"2.587603312","decile":"5","lat":40.424157739203,"lng":-111.840076279022},{"id":"139792","name":"Tyrek Mayert IV","party":"","address":"2884 N 600 E, Lehi, UT 84043","precinct":"25LE05","hd":"53","v_score":"2.587603312","decile":"5","lat":40.424157739203,"lng":-111.840076279022},{"id":"139806","name":"Lizabeth Hackett","party":"Rep","address":"2361 N 1100 E, Lehi, UT 84043","precinct":"25LE05","hd":"53","v_score":"26.9144526","decile":"10","lat":40.417896274467,"lng":-111.831977172068},{"id":"139866","name":"Vaughn Maggio IV","party":"Dem","address":"2177 N 825 E, Lehi, UT 84043","precinct":"25LE05","hd":"53","v_score":"0","decile":"2","lat":40.414742951734,"lng":-111.836237912795},{"id":"139873","name":"Darvin Armstrong","party":"Rep","address":"2194 N 825 E, Lehi, UT 84043","precinct":"25LE05","hd":"53","v_score":"30.83432786","decile":"10","lat":40.414737504968,"lng":-111.836087576515},{"id":"139875","name":"Evon Walter MD","party":"Rep","address":"2907 N 1050 E, Lehi, UT 84043","precinct":"25LE05","hd":"53","v_score":"14.9041462","decile":"9","lat":40.424371367923,"lng":-111.832620253391},{"id":"139908","name":"Alek Oberbrunner","party":"Rep","address":"3130 N 700 E, Lehi, UT 84043","precinct":"25LE05","hd":"53","v_score":"4.192796624","decile":"7","lat":40.427241971523,"lng":-111.837989764451},{"id":"140023","name":"Kaylan Turner","party":"","address":"945 E Oak Creek Dr, Lehi, UT 84043","precinct":"25LE05","hd":"53","v_score":"6.814370645","decile":"8","lat":40.418009551741,"lng":-111.833935920263},{"id":"140173","name":"Sade Veum-Wolff","party":"Dem","address":"2796 N 900 E, Lehi, UT 84043","precinct":"25LE05","hd":"53","v_score":"5.40460374","decile":"7","lat":40.423148651938,"lng":-111.834545934013},{"id":"140596","name":"Immanuel Armstrong","party":"Rep","address":"2784 N 750 E, Lehi, UT 84043","precinct":"25LE05","hd":"53","v_score":"25.89095854","decile":"10","lat":40.422803900651,"lng":-111.837409179031},{"id":"140597","name":"William Jacobi-Klocko","party":"","address":"2784 N 750 E, Lehi, UT 84043","precinct":"25LE05","hd":"53","v_score":"25.89095854","decile":"10","lat":40.422803900651,"lng":-111.837409179031},{"id":"140995","name":"Oland Botsford","party":"Rep","address":"2982 N 700 E, Lehi, UT 84043","precinct":"25LE05","hd":"53","v_score":"3.93832808","decile":"6","lat":40.425955060088,"lng":-111.838036055965},{"id":"141073","name":"Gonzalo Lakin","party":"Rep","address":"1069 E 2180 N, Lehi, UT 84043","precinct":"25LE05","hd":"53","v_score":"26.33466886","decile":"10","lat":40.41494473896,"lng":-111.832942078464},{"id":"141559","name":"Ms. Sylvia Waters","party":"Rep","address":"731 E 2200 N, Lehi, UT 84043","precinct":"25LE05","hd":"53","v_score":"17.45575927","decile":"9","lat":40.415633132267,"lng":-111.837344121238},{"id":"142335","name":"Mr. Tyrus Aufderhar","party":"","address":"751 E 2200 N, Lehi, UT 84043","precinct":"25LE05","hd":"53","v_score":"22.35813603","decile":"10","lat":40.415629515075,"lng":-111.837184965343},{"id":"143128","name":"Elinore Stokes","party":"Dem","address":"798 E 2200 N, Lehi, UT 84043","precinct":"25LE05","hd":"53","v_score":"12.49472132","decile":"9","lat":40.415497274475,"lng":-111.836826675356},{"id":"143616","name":"Kathi Lynch DDS","party":"Dem","address":"3125 N 880 E, Lehi, UT 84043","precinct":"25LE05","hd":"53","v_score":"21.41280004","decile":"10","lat":40.427455606034,"lng":-111.8350456291},{"id":"143711","name":"Mr. Delphin Kreiger IV","party":"Dem","address":"2819 N 1050 E, Lehi, UT 84043","precinct":"25LE05","hd":"53","v_score":"0","decile":"3","lat":40.423747246464,"lng":-111.832615645277},{"id":"144286","name":"Audry Herzog","party":"Rep","address":"3103 N 950 E, Lehi, UT 84043","precinct":"25LE05","hd":"53","v_score":"8.280646305","decile":"8","lat":40.425969155677,"lng":-111.833864518332},{"id":"145827","name":"Cheyenne Flatley","party":"Rep","address":"777 E 2900 N, Apt 2, Lehi, UT 84043","precinct":"25LE05","hd":"53","v_score":"16.57479511","decile":"9","lat":40.425120679495,"lng":-111.837298056136},{"id":"148488","name":"Mrs. Marion Schimmel DVM","party":"Rep","address":"2790 N 1050 E, Lehi, UT 84043","precinct":"25LE05","hd":"53","v_score":"16.93288741","decile":"9","lat":40.423904487956,"lng":-111.832466138156},{"id":"149387","name":"Prosper Blanda-Glover","party":"Rep","address":"2781 N 900 E, Lehi, UT 84043","precinct":"25LE05","hd":"53","v_score":"6.814370645","decile":"8","lat":40.422991993448,"lng":-111.834630049989},{"id":"150386","name":"Dr. Jayden Goldner","party":"Rep","address":"1129 E 2450 N, Lehi, UT 84043","precinct":"25LE05","hd":"53","v_score":"2.315214949","decile":"5","lat":40.418733708603,"lng":-111.830824587632},{"id":"150796","name":"Mr. Harlon Anderson Sr.","party":"Rep","address":"2292 N 1120 E, Lehi, UT 84043","precinct":"25LE05","hd":"53","v_score":"38.16751235","decile":"10","lat":40.416217349107,"lng":-111.83131839779},{"id":"150894","name":"Terell Corwin-Hickle","party":"","address":"857 E 3050 N, Lehi, UT 84043","precinct":"25LE05","hd":"53","v_score":"8.421194992","decile":"8","lat":40.426269291736,"lng":-111.835227686121},{"id":"150951","name":"Brenda O'Keefe DVM","party":"Rep","address":"2961 N 1050 E, Lehi, UT 84043","precinct":"25LE05","hd":"53","v_score":"26.89878031","decile":"10","lat":40.424709922353,"lng":-111.83262443303},{"id":"151017","name":"Dr. Renita Ortiz","party":"Dem","address":"2961 N 1050 E, Lehi, UT 84043","precinct":"25LE05","hd":"53","v_score":"18.77764457","decile":"10","lat":40.424709922353,"lng":-111.83262443303},{"id":"151561","name":"Dr. Metro Beahan DVM","party":"Rep","address":"947 E 2900 N, Lehi, UT 84043","precinct":"25LE05","hd":"53","v_score":"5.40460374","decile":"7","lat":40.425316819224,"lng":-111.836213888002},{"id":"151724","name":"Drury Cummerata","party":"Rep","address":"2662 N 750 E, Lehi, UT 84043","precinct":"25LE05","hd":"53","v_score":"19.22887899","decile":"10","lat":40.421929181036,"lng":-111.836927922299},{"id":"153407","name":"Dessie Harber","party":"Rep","address":"2287 N 1000 E, Lehi, UT 84043","precinct":"25LE05","hd":"53","v_score":"8.347511332","decile":"8","lat":40.416453797468,"lng":-111.833583843408},{"id":"153440","name":"Dustyn Wisoky-Runolfsson","party":"","address":"2672 N 750 E, Lehi, UT 84043","precinct":"25LE05","hd":"53","v_score":"5.40460374","decile":"7","lat":40.421963504588,"lng":-111.836989214338},{"id":"154127","name":"Mallory Lehner","party":"Dem","address":"2828 N Utah Highlands Dr, Lehi, UT 84043","precinct":"25LE05","hd":"53","v_score":"5.40460374","decile":"7","lat":40.423389428322,"lng":-111.834174159626},{"id":"154166","name":"Pat Schoen MD","party":"Dem","address":"2280 N 850 E, Lehi, UT 84043","precinct":"25LE05","hd":"53","v_score":"36.88376198","decile":"10","lat":40.416119336245,"lng":-111.835300118438},{"id":"154458","name":"Loring Zulauf-Hermiston","party":"Dem","address":"1151 E Utah Highlands Dr, Lehi, UT 84043","precinct":"25LE05","hd":"53","v_score":"7.549608095","decile":"8","lat":40.42596329145,"lng":-111.831060563258},{"id":"155001","name":"Dixie Harber","party":"","address":"2867 N 675 E, Lehi, UT 84043","precinct":"25LE05","hd":"53","v_score":"32.9448582","decile":"10","lat":40.423854673546,"lng":-111.838918135178},{"id":"156036","name":"Laverne Koch","party":"Dem","address":"811 E 2850 N, Lehi, UT 84043","precinct":"25LE05","hd":"53","v_score":"3.93832808","decile":"6","lat":40.424305836532,"lng":-111.836262271454},{"id":"156255","name":"Reinaldo Kihn","party":"Dem","address":"2940 N 1050 E, Lehi, UT 84043","precinct":"25LE05","hd":"53","v_score":"2.660162957","decile":"5","lat":40.42458560873,"lng":-111.832472363802},{"id":"156551","name":"Zoey Greenholt","party":"Rep","address":"2360 N 600 E, Lehi, UT 84043","precinct":"25LE05","hd":"53","v_score":"4.283276088","decile":"7","lat":40.410432061247,"lng":-111.839889088797},{"id":"156720","name":"Mr. Littleton Jacobson Jr.","party":"Dem","address":"963 E 2180 N, Lehi, UT 84043","precinct":"25LE05","hd":"53","v_score":"22.18184494","decile":"10","lat":40.414932358496,"lng":-111.834042898529},{"id":"156845","name":"Misti Ullrich","party":"Rep","address":"1163 E 2450 N, Lehi, UT 84043","precinct":"25LE05","hd":"53","v_score":"17.76342521","decile":"10","lat":40.418616225236,"lng":-111.831306961627},{"id":"156863","name":"Tella Eichmann","party":"Dem","address":"921 E 2250 N, Lehi, UT 84043","precinct":"25LE05","hd":"53","v_score":"25.22329319","decile":"10","lat":40.415780595274,"lng":-111.834579730344},{"id":"156970","name":"Berlin Skiles","party":"Rep","address":"809 E Utah Highlands Dr, Lehi, UT 84043","precinct":"25LE05","hd":"53","v_score":"5.40460374","decile":"7","lat":40.422873864072,"lng":-111.836236581502},{"id":"156982","name":"Mr. Luciano Bergstrom DDS","party":"Rep","address":"847 E 2125 N, Lehi, UT 84043","precinct":"25LE05","hd":"53","v_score":"8.280646305","decile":"8","lat":40.414044298256,"lng":-111.835483708434},{"id":"157197","name":"Ms. Fanny Kozey","party":"","address":"694 E 2900 N, Lehi, UT 84043","precinct":"25LE05","hd":"53","v_score":"9.207031979","decile":"8","lat":40.424765566124,"lng":-111.837937913782},{"id":"157203","name":"Khloe Gusikowski","party":"Dem","address":"702 E 2900 N, Lehi, UT 84043","precinct":"25LE05","hd":"53","v_score":"15.51131257","decile":"9","lat":40.424789559712,"lng":-111.837884389617},{"id":"157248","name":"Wellington Bayer II","party":"","address":"683 E 2900 N, Lehi, UT 84043","precinct":"25LE05","hd":"53","v_score":"14.95117867","decile":"9","lat":40.424863452458,"lng":-111.838016207013},{"id":"157432","name":"Ossie Olson DDS","party":"Dem","address":"3090 N 700 E, Lehi, UT 84043","precinct":"25LE05","hd":"53","v_score":"41.01679933","decile":"10","lat":40.426930698553,"lng":-111.838017238255},{"id":"157469","name":"Ethel Gerlach","party":"Dem","address":"2271 N 1200 E, Lehi, UT 84043","precinct":"25LE05","hd":"53","v_score":"22.48959706","decile":"10","lat":40.416263023606,"lng":-111.830453677083},{"id":"157496","name":"Marlena Harvey","party":"Dem","address":"740 E 3150 N, Lehi, UT 84043","precinct":"25LE05","hd":"53","v_score":"25.56562396","decile":"10","lat":40.42740419124,"lng":-111.83731948219},{"id":"157498","name":"Nina Beer","party":"","address":"740 E 3150 N, Lehi, UT 84043","precinct":"25LE05","hd":"53","v_score":"21.41280004","decile":"10","lat":40.42740419124,"lng":-111.83731948219},{"id":"157508","name":"Dr. Davante Barrows II","party":"Dem","address":"683 E 2900 N, Lehi, UT 84043","precinct":"25LE05","hd":"53","v_score":"9.116556227","decile":"8","lat":40.424863452458,"lng":-111.838016207013},{"id":"157573","name":"Rasheed Tremblay","party":"","address":"2847 N 1050 E, Lehi, UT 84043","precinct":"25LE05","hd":"53","v_score":"18.45422016","decile":"10","lat":40.423912506446,"lng":-111.832616718371},{"id":"157697","name":"Dr. Cordaro Lockman","party":"Dem","address":"939 E 2180 N, Lehi, UT 84043","precinct":"25LE05","hd":"53","v_score":"21.62425548","decile":"10","lat":40.414920600545,"lng":-111.83437119554},{"id":"157763","name":"Dee Sauer","party":"","address":"2341 N 1000 E, Lehi, UT 84043","precinct":"25LE05","hd":"53","v_score":"5.40460374","decile":"7","lat":40.417656956339,"lng":-111.833290665359},{"id":"158510","name":"Cary Stark","party":"Rep","address":"921 E 2250 N, Lehi, UT 84043","precinct":"25LE05","hd":"53","v_score":"32.89880845","decile":"10","lat":40.415780595274,"lng":-111.834579730344},{"id":"160378","name":"Remington Dare Jr.","party":"","address":"3090 N 700 E, Lehi, UT 84043","precinct":"25LE05","hd":"53","v_score":"41.01679933","decile":"10","lat":40.426930698553,"lng":-111.838017238255},{"id":"160381","name":"Nannette Lind","party":"Rep","address":"2944 N 600 E, Lehi, UT 84043","precinct":"25LE05","hd":"53","v_score":"6.896907962","decile":"8","lat":40.424876606312,"lng":-111.840094401625},{"id":"160805","name":"Amberly Legros","party":"","address":"694 E 2900 N, Lehi, UT 84043","precinct":"25LE05","hd":"53","v_score":"4.283276088","decile":"7","lat":40.424765566124,"lng":-111.837937913782},{"id":"161174","name":"Johanna Berge","party":"Dem","address":"903 E 2180 N, Lehi, UT 84043","precinct":"25LE05","hd":"53","v_score":"0","decile":"3","lat":40.414809697122,"lng":-111.834815281969},{"id":"161480","name":"Mrs. Elouise Heathcote MD","party":"Rep","address":"2706 N 600 E, Lehi, UT 84043","precinct":"25LE05","hd":"53","v_score":"1.121327652","decile":"3","lat":40.422093196481,"lng":-111.840019632067},{"id":"161535","name":"Franco Rohan","party":"Rep","address":"728 E 2900 N, Lehi, UT 84043","precinct":"25LE05","hd":"53","v_score":"12.9425149","decile":"9","lat":40.424916927525,"lng":-111.837562854286},{"id":"161863","name":"Micaela Ullrich-Cruickshank","party":"Rep","address":"903 E 2180 N, Lehi, UT 84043","precinct":"25LE05","hd":"53","v_score":"15.52016622","decile":"9","lat":40.414809697122,"lng":-111.834815281969},{"id":"162164","name":"Jule Skiles DDS","party":"Rep","address":"947 E 2900 N, Lehi, UT 84043","precinct":"25LE05","hd":"53","v_score":"12.16191375","decile":"9","lat":40.425316819224,"lng":-111.836213888002},{"id":"162456","name":"Aurilla Beahan","party":"Dem","address":"903 E 2180 N, Lehi, UT 84043","precinct":"25LE05","hd":"53","v_score":"15.52016622","decile":"9","lat":40.414809697122,"lng":-111.834815281969},{"id":"163152","name":"Dr. Enola Balistreri PhD","party":"Rep","address":"1104 E 2180 N, Lehi, UT 84043","precinct":"25LE05","hd":"53","v_score":"4.079907534","decile":"7","lat":40.41483311882,"lng":-111.832682441116},{"id":"163353","name":"Mrs. Dorathea Rath","party":"Dem","address":"1103 E 2180 N, Lehi, UT 84043","precinct":"25LE05","hd":"53","v_score":"2.744440783","decile":"6","lat":40.414947532819,"lng":-111.832699011095},{"id":"163601","name":"Nan Marks","party":"","address":"3174 N 880 E, Lehi, UT 84043","precinct":"25LE05","hd":"53","v_score":"6.724398202","decile":"8","lat":40.427774966516,"lng":-111.83489717836},{"id":"164009","name":"Sheree Carroll","party":"","address":"759 E 3150 N, Lehi, UT 84043","precinct":"25LE05","hd":"53","v_score":"1.46627566","decile":"4","lat":40.427521800864,"lng":-111.837020157225},{"id":"164216","name":"Alma Lindgren","party":"","address":"2289 N 1060 E, Lehi, UT 84043","precinct":"25LE05","hd":"53","v_score":"15.51131257","decile":"9","lat":40.416184397292,"lng":-111.832570706658},{"id":"164333","name":"Miss Palma Crona PhD","party":"","address":"2847 N 1050 E, Lehi, UT 84043","precinct":"25LE05","hd":"53","v_score":"18.45422016","decile":"10","lat":40.423912506446,"lng":-111.832616718371},{"id":"164363","name":"Jean Padberg-Kunde","party":"Dem","address":"863 E 2850 N, Lehi, UT 84043","precinct":"25LE05","hd":"53","v_score":"16.93629278","decile":"9","lat":40.424321705437,"lng":-111.835571971816},{"id":"165659","name":"Roel Labadie","party":"Rep","address":"2289 N 1060 E, Lehi, UT 84043","precinct":"25LE05","hd":"53","v_score":"15.51131257","decile":"9","lat":40.416184397292,"lng":-111.832570706658},{"id":"165783","name":"Ms. Ginger Corkery","party":"","address":"2934 N 1150 E, Lehi, UT 84043","precinct":"25LE05","hd":"53","v_score":"9.116556227","decile":"8","lat":40.424880146177,"lng":-111.831208557159},{"id":"165785","name":"Shade Koepp I","party":"Rep","address":"2934 N 1150 E, Lehi, UT 84043","precinct":"25LE05","hd":"53","v_score":"5.40460374","decile":"7","lat":40.424880146177,"lng":-111.831208557159},{"id":"165902","name":"Miss Finley Kertzmann DVM","party":"Dem","address":"903 E 2125 N, Lehi, UT 84043","precinct":"25LE05","hd":"53","v_score":"22.18184494","decile":"10","lat":40.414047293082,"lng":-111.834769677786},{"id":"166548","name":"Victoria Gislason","party":"Rep","address":"820 E Utah Highlands Dr, Lehi, UT 84043","precinct":"25LE05","hd":"53","v_score":"25.72541572","decile":"10","lat":40.422580256788,"lng":-111.836483732742},{"id":"166861","name":"Kayleigh Ritchie-Mayert","party":"","address":"2631 N 675 E, Lehi, UT 84043","precinct":"25LE05","hd":"53","v_score":"8.494785404","decile":"8","lat":40.421418820013,"lng":-111.838696050408},{"id":"167696","name":"Lum Farrell","party":"Rep","address":"2324 N 1000 E, Lehi, UT 84043","precinct":"25LE05","hd":"53","v_score":"18.03463495","decile":"10","lat":40.417161647177,"lng":-111.833439433494},{"id":"168110","name":"Wynona Lubowitz","party":"","address":"2678 N 600 E, Lehi, UT 84043","precinct":"25LE05","hd":"53","v_score":"12.8894015","decile":"9","lat":40.421750989342,"lng":-111.840011474416},{"id":"168589","name":"Gearld Lind","party":"","address":"3151 N 880 E, Lehi, UT 84043","precinct":"25LE05","hd":"53","v_score":"37.91409999","decile":"10","lat":40.427621377028,"lng":-111.835046712549},{"id":"168701","name":"Claudio Bogan","party":"","address":"782 E 2900 N, Lehi, UT 84043","precinct":"25LE05","hd":"53","v_score":"7.169296324","decile":"8","lat":40.425066333857,"lng":-111.837038762124},{"id":"169008","name":"Elza Welch Sr.","party":"Dem","address":"781 E 2850 N, Lehi, UT 84043","precinct":"25LE05","hd":"53","v_score":"27.89539783","decile":"10","lat":40.424285456306,"lng":-111.836673042029},{"id":"169033","name":"Danial Barton","party":"Rep","address":"781 E 2850 N, Lehi, UT 84043","precinct":"25LE05","hd":"53","v_score":"39.53889026","decile":"10","lat":40.424285456306,"lng":-111.836673042029},{"id":"169446","name":"Dr. Bobbie Bailey PhD","party":"Rep","address":"3151 N 880 E, Lehi, UT 84043","precinct":"25LE05","hd":"53","v_score":"37.91409999","decile":"10","lat":40.427621377028,"lng":-111.835046712549},{"id":"169469","name":"Jedidiah Lang","party":"Dem","address":"3148 N 880 E, Lehi, UT 84043","precinct":"25LE05","hd":"53","v_score":"7.282185415","decile":"8","lat":40.427609195522,"lng":-111.834896094911},{"id":"169538","name":"Yetta Dicki","party":"Rep","address":"2936 N Utah Highlands Dr, Lehi, UT 84043","precinct":"25LE05","hd":"53","v_score":"0","decile":"3","lat":40.424957777614,"lng":-111.833760912364},{"id":"170054","name":"Cathie Kuhic-Corkery","party":"Dem","address":"3093 N 800 E, Lehi, UT 84043","precinct":"25LE05","hd":"53","v_score":"2.817000428","decile":"6","lat":40.426847076656,"lng":-111.836178730089},{"id":"170622","name":"Claudine Goodwin","party":"","address":"2714 N 675 E, Lehi, UT 84043","precinct":"25LE05","hd":"53","v_score":"13.06955813","decile":"9","lat":40.422283794887,"lng":-111.838570209883},{"id":"171103","name":"Lucius Gutkowski","party":"Dem","address":"2317 N 1120 E, Lehi, UT 84043","precinct":"25LE05","hd":"53","v_score":"20.93928147","decile":"10","lat":40.416326675666,"lng":-111.831470352586},{"id":"171545","name":"Kiefer Braun-Kilback","party":"","address":"2236 N Dry Creek Way, Lehi, UT 84043","precinct":"25LE05","hd":"53","v_score":"14.25581744","decile":"9","lat":40.416267457902,"lng":-111.839959906712},{"id":"171615","name":"Dr. Marcelino Abshire MD","party":"","address":"1039 E Utah Highlands Dr, Lehi, UT 84043","precinct":"25LE05","hd":"53","v_score":"5.40460374","decile":"7","lat":40.425951906028,"lng":-111.832921754837},{"id":"171790","name":"Antonia Auer","party":"","address":"2338 N 1000 E, Lehi, UT 84043","precinct":"25LE05","hd":"53","v_score":"8.421194992","decile":"8","lat":40.417543691397,"lng":-111.833254097978},{"id":"172236","name":"Dr. Lige Collins","party":"Dem","address":"2763 N 750 E, Lehi, UT 84043","precinct":"25LE05","hd":"53","v_score":"0","decile":"3","lat":40.422605097908,"lng":-111.837552168723},{"id":"174025","name":"Corry Stanton-Deckow","party":"Rep","address":"754 E 2900 N, Lehi, UT 84043","precinct":"25LE05","hd":"53","v_score":"6.088298118","decile":"7","lat":40.424993769177,"lng":-111.83730972879},{"id":"174207","name":"Jered Auer-Hills","party":"Dem","address":"954 E Oak Creek Dr, Lehi, UT 84043","precinct":"25LE05","hd":"53","v_score":"19.3998489","decile":"10","lat":40.41789396486,"lng":-111.833868918927},{"id":"174329","name":"Chrystal Bogisich","party":"Dem","address":"1165 E 2350 N, Lehi, UT 84043","precinct":"25LE05","hd":"53","v_score":"6.814370645","decile":"8","lat":40.417436752176,"lng":-111.830956294014},{"id":"174587","name":"Mrs. Addison Flatley DDS","party":"","address":"2933 N 1150 E, Lehi, UT 84043","precinct":"25LE05","hd":"53","v_score":"21.68624441","decile":"10","lat":40.424849878879,"lng":-111.831359085325},{"id":"175523","name":"Bud Bosco","party":"Dem","address":"3125 N 880 E, Lehi, UT 84043","precinct":"25LE05","hd":"53","v_score":"21.41280004","decile":"10","lat":40.427455606034,"lng":-111.8350456291},{"id":"175898","name":"Karyl Lynch","party":"Dem","address":"788 E 3050 N, Lehi, UT 84043","precinct":"25LE05","hd":"53","v_score":"24.49758289","decile":"10","lat":40.426152464854,"lng":-111.836645519633},{"id":"176267","name":"Dario Hartmann","party":"Rep","address":"2208 N 825 E, Lehi, UT 84043","precinct":"25LE05","hd":"53","v_score":"1.121327652","decile":"3","lat":40.41480398623,"lng":-111.836083421427},{"id":"176595","name":"Bula Larkin","party":"Rep","address":"2317 N 1120 E, Lehi, UT 84043","precinct":"25LE05","hd":"53","v_score":"19.31616834","decile":"10","lat":40.416326675666,"lng":-111.831470352586},{"id":"176651","name":"Vincenzo Zieme","party":"","address":"3132 N 800 E, Lehi, UT 84043","precinct":"25LE05","hd":"53","v_score":"13.76893698","decile":"9","lat":40.427091811795,"lng":-111.836023553123},{"id":"177105","name":"Catrina Upton","party":"","address":"1048 E Utah Highlands Dr, Lehi, UT 84043","precinct":"25LE05","hd":"53","v_score":"18.35167816","decile":"10","lat":40.425842069407,"lng":-111.832470451381},{"id":"177421","name":"Hedy Buckridge","party":"","address":"1093 E 2250 N, Lehi, UT 84043","precinct":"25LE05","hd":"53","v_score":"23.62038206","decile":"10","lat":40.41579144625,"lng":-111.831612987785},{"id":"177670","name":"Mickey Weimann","party":"Rep","address":"779 E 3150 N, Lehi, UT 84043","precinct":"25LE05","hd":"53","v_score":"12.07513611","decile":"9","lat":40.427525165576,"lng":-111.836685365844},{"id":"177828","name":"Otis Klocko","party":"","address":"1043 E 2180 N, Lehi, UT 84043","precinct":"25LE05","hd":"53","v_score":"7.995565619","decile":"8","lat":40.414942602479,"lng":-111.833127953512},{"id":"178242","name":"Miss Sophie Senger","party":"","address":"2595 N 1200 E, Lehi, UT 84043","precinct":"25LE05","hd":"53","v_score":"14.25581744","decile":"9","lat":40.419867889622,"lng":-111.830510030306},{"id":"179161","name":"Latarsha Kirlin","party":"Dem","address":"1103 E 2180 N, Lehi, UT 84043","precinct":"25LE05","hd":"53","v_score":"5.40460374","decile":"7","lat":40.414947532819,"lng":-111.832699011095},{"id":"179629","name":"Wiliam Lehner","party":"Rep","address":"2905 N 1150 E, Lehi, UT 84043","precinct":"25LE05","hd":"53","v_score":"23.34027189","decile":"10","lat":40.424426136548,"lng":-111.831359085381},{"id":"179679","name":"Mr. Jameson Cummerata DVM","party":"Rep","address":"810 E 2900 N, Lehi, UT 84043","precinct":"25LE05","hd":"53","v_score":"9.207031979","decile":"8","lat":40.425132306726,"lng":-111.836758377354},{"id":"180029","name":"Ms. Bettie Crooks","party":"Dem","address":"683 E 2900 N, Lehi, UT 84043","precinct":"25LE05","hd":"53","v_score":"6.814370645","decile":"8","lat":40.424863452458,"lng":-111.838016207013},{"id":"180082","name":"Delmar Mitchell-Champlin","party":"Dem","address":"2902 N 675 E, Lehi, UT 84043","precinct":"25LE05","hd":"53","v_score":"22.87245712","decile":"10","lat":40.424134746349,"lng":-111.838855355281},{"id":"180387","name":"Geneva Jaskolski","party":"Rep","address":"687 E 2850 N, Lehi, UT 84043","precinct":"25LE05","hd":"53","v_score":"3.93832808","decile":"6","lat":40.423819924796,"lng":-111.838064416852},{"id":"180417","name":"Lucia Tremblay","party":"Dem","address":"2659 N 675 E, Lehi, UT 84043","precinct":"25LE05","hd":"53","v_score":"42.38158736","decile":"10","lat":40.421711556302,"lng":-111.838714378795},{"id":"180488","name":"Cathryn Hoeger","party":"","address":"878 E 2900 N, Lehi, UT 84043","precinct":"25LE05","hd":"53","v_score":"1.193887297","decile":"4","lat":40.425209700524,"lng":-111.836077708977}]