[{"id":"3","name":"Nathanael Goyette","party":"","address":"1377 S 100 E, Apt N1, Lehi, UT 84043","precinct":"25LE35","hd":"52","v_score":"17.75698939","decile":"10","lat":40.371390599514,"lng":-111.847400148217},{"id":"4","name":"Bridgette Lindgren","party":"","address":"1377 S 100 E, # N1, Lehi, UT 84043","precinct":"25LE35","hd":"52","v_score":"20.85968874","decile":"10","lat":40.371390599514,"lng":-111.847400148217},{"id":"8","name":"Demario Weissnat","party":"Dem","address":"1861 S Weeping Willow Way, Lehi, UT 84043","precinct":"25LE35","hd":"52","v_score":"8.507303088","decile":"8","lat":40.365595906357,"lng":-111.839691129016},{"id":"558","name":"Gail Swift","party":"","address":"2508 N 300 E, Lehi, UT 84043","precinct":"25LE35","hd":"52","v_score":"31.82081144","decile":"10","lat":40.418291683886,"lng":-111.840101579927},{"id":"715","name":"Mr. Daryl Moen","party":"Dem","address":"1321 S 740 E, Lehi, UT 84043","precinct":"25LE35","hd":"52","v_score":"8.280646305","decile":"8","lat":40.372340793984,"lng":-111.836682958963},{"id":"800","name":"Tatsuo Jacobs","party":"Dem","address":"825 E Meadow Marsh Dr, Lehi, UT 84043","precinct":"25LE35","hd":"52","v_score":"3.781490609","decile":"6","lat":40.366842443742,"lng":-111.836159651539},{"id":"1065","name":"Rolla Anderson","party":"","address":"1375 S Dragonfly Dr, Lehi, UT 84043","precinct":"25LE35","hd":"52","v_score":"8.347511332","decile":"8","lat":40.371899631471,"lng":-111.835837658974},{"id":"1715","name":"Dr. Nallely Ernser DVM","party":"","address":"750 E Sandhill Ct, Lehi, UT 84043","precinct":"25LE35","hd":"52","v_score":"8.670935747","decile":"8","lat":40.366413336534,"lng":-111.837540917396},{"id":"2031","name":"Matthias Powlowski","party":"Rep","address":"1303 S 50 E, Unit 1, Lehi, UT 84043","precinct":"25LE35","hd":"52","v_score":"1.193887297","decile":"3","lat":40.371518361867,"lng":-111.848188079364},{"id":"2143","name":"Arah Daniel DDS","party":"Dem","address":"234 E 1450 S, Lehi, UT 84043","precinct":"25LE35","hd":"52","v_score":"3.93832808","decile":"6","lat":40.37039970747,"lng":-111.845796538593},{"id":"2289","name":"Ivey Konopelski","party":"Dem","address":"1376 S 50 E, Unit 1, Lehi, UT 84043","precinct":"25LE35","hd":"52","v_score":"35.12606409","decile":"10","lat":40.371309223595,"lng":-111.848341667603},{"id":"2495","name":"Micheal Wolf Jr.","party":"Rep","address":"584 E 1540 S, Lehi, UT 84043","precinct":"25LE35","hd":"52","v_score":"5.258122542","decile":"7","lat":40.369368367435,"lng":-111.839892444135},{"id":"2679","name":"Nichole Beatty","party":"","address":"1992 S Meadow Marsh Dr, Lehi, UT 84043","precinct":"25LE35","hd":"52","v_score":"1.193887297","decile":"3","lat":40.363979165376,"lng":-111.835796615605},{"id":"2744","name":"Aleck Kovacek","party":"","address":"572 E 1540 S, Lehi, UT 84043","precinct":"25LE35","hd":"52","v_score":"8.347511332","decile":"8","lat":40.369387849857,"lng":-111.839987072998},{"id":"2822","name":"Mrs. Montana Armstrong","party":"Dem","address":"713 E 1470 S, Lehi, UT 84043","precinct":"25LE35","hd":"52","v_score":"4.210716443","decile":"7","lat":40.370479109728,"lng":-111.838211437986},{"id":"3181","name":"Anabelle Tromp-Boyle","party":"Rep","address":"1960 S Meadow Marsh Dr, Lehi, UT 84043","precinct":"25LE35","hd":"52","v_score":"3.781490609","decile":"6","lat":40.364271921798,"lng":-111.835789091454},{"id":"3265","name":"Ellery Weissnat-Grady","party":"","address":"1771 S 710 E, Lehi, UT 84043","precinct":"25LE35","hd":"52","v_score":"11.52389434","decile":"9","lat":40.366860979745,"lng":-111.838031325339},{"id":"3599","name":"Kolten Nolan","party":"Dem","address":"2017 S Meadow Marsh Dr, Lehi, UT 84043","precinct":"25LE35","hd":"52","v_score":"5.40460374","decile":"7","lat":40.363757354498,"lng":-111.835651892418},{"id":"3657","name":"Elyssa Kemmer","party":"","address":"1992 S Meadow Marsh Dr, Lehi, UT 84043","precinct":"25LE35","hd":"52","v_score":"2.817000428","decile":"6","lat":40.363979165376,"lng":-111.835796615605},{"id":"3837","name":"Deven Gibson","party":"Dem","address":"758 E Meadow Marsh Dr, Lehi, UT 84043","precinct":"25LE35","hd":"52","v_score":"23.44745832","decile":"10","lat":40.367038536044,"lng":-111.837144260356},{"id":"3934","name":"Ms. Carleen Douglas","party":"","address":"1829 S 900 E, Lehi, UT 84043","precinct":"25LE35","hd":"52","v_score":"15.64437057","decile":"9","lat":40.365711636821,"lng":-111.834354229097},{"id":"3979","name":"Dr. Sonny Ryan","party":"Dem","address":"1619 S 530 E, Lehi, UT 84043","precinct":"25LE35","hd":"52","v_score":"4.137918904","decile":"7","lat":40.368637331653,"lng":-111.840897362278},{"id":"4181","name":"Colette Collins","party":"Dem","address":"209 E 1400 S, Lehi, UT 84043","precinct":"25LE35","hd":"52","v_score":"2.315214949","decile":"5","lat":40.385277167913,"lng":-111.872359303001},{"id":"4275","name":"Harvy Kulas-Greenfelder","party":"","address":"209 E 1400 S, Lehi, UT 84043","precinct":"25LE35","hd":"52","v_score":"2.315214949","decile":"5","lat":40.385277167913,"lng":-111.872359303001},{"id":"4831","name":"Michelina Heathcote","party":"Rep","address":"586 E 1590 S, Lehi, UT 84043","precinct":"25LE35","hd":"52","v_score":"12.6552766","decile":"9","lat":40.368892299016,"lng":-111.839947056018},{"id":"4835","name":"Isaak Blick","party":"Dem","address":"1396 S Grey Goose Rd, Lehi, UT 84043","precinct":"25LE35","hd":"52","v_score":"0","decile":"1","lat":40.371391201007,"lng":-111.838421469028},{"id":"5400","name":"Deidre Klocko","party":"Rep","address":"1989 S 750 E, Lehi, UT 84043","precinct":"25LE35","hd":"52","v_score":"1.121327652","decile":"3","lat":40.363985819951,"lng":-111.836557489505},{"id":"5609","name":"Mrs. Kasey Schinner","party":"Rep","address":"256 E 1450 S, Lehi, UT 84043","precinct":"25LE35","hd":"52","v_score":"22.1678045","decile":"10","lat":40.37039970745,"lng":-111.845545426067},{"id":"5692","name":"Kendal Kris","party":"Rep","address":"1973 S 750 E, Lehi, UT 84043","precinct":"25LE35","hd":"52","v_score":"6.814370645","decile":"8","lat":40.364132105015,"lng":-111.836553545526},{"id":"5962","name":"Shaneka Conroy DVM","party":"Dem","address":"594 E 1590 S, Lehi, UT 84043","precinct":"25LE35","hd":"52","v_score":"9.99960731","decile":"9","lat":40.368890367655,"lng":-111.839860145042},{"id":"6075","name":"Jayvion Fritsch","party":"","address":"2057 S 750 E, Lehi, UT 84043","precinct":"25LE35","hd":"52","v_score":"8.347511332","decile":"8","lat":40.36336410843,"lng":-111.836574251415},{"id":"7903","name":"Shedrick Green","party":"Dem","address":"2007 S 900 E, Lehi, UT 84043","precinct":"25LE35","hd":"52","v_score":"18.45422016","decile":"10","lat":40.36398704857,"lng":-111.834384770557},{"id":"8391","name":"Zula Waelchi","party":"Dem","address":"2019 S 900 E, Lehi, UT 84043","precinct":"25LE35","hd":"52","v_score":"7.090117576","decile":"8","lat":40.363870787995,"lng":-111.834388258389},{"id":"8564","name":"Rylee Kertzmann MD","party":"","address":"267 E 1400 S, Lehi, UT 84043","precinct":"25LE35","hd":"52","v_score":"29.68367038","decile":"10","lat":40.38487086412,"lng":-111.872336477},{"id":"8566","name":"Zilpha Gerhold","party":"","address":"267 E 1400 S, Lehi, UT 84043","precinct":"25LE35","hd":"52","v_score":"29.68367038","decile":"10","lat":40.38487086412,"lng":-111.872336477},{"id":"8734","name":"Ebenezer Becker","party":"Dem","address":"830 E 2100 S, Lehi, UT 84043","precinct":"25LE35","hd":"52","v_score":"3.781490609","decile":"6","lat":40.362888926895,"lng":-111.835908116795},{"id":"8924","name":"Lular Weissnat","party":"Dem","address":"251 E 1290 S, Lehi, UT 84043","precinct":"25LE35","hd":"52","v_score":"14.25581744","decile":"9","lat":40.372008298641,"lng":-111.845233247936},{"id":"9502","name":"Denzell Rath-Reilly","party":"","address":"1501 S Dragonfly Dr, Lehi, UT 84043","precinct":"25LE35","hd":"52","v_score":"0","decile":"1","lat":40.370669992396,"lng":-111.836294899124},{"id":"9772","name":"Richelle Morar DVM","party":"Dem","address":"1969 S Meadow Marsh Dr, Lehi, UT 84043","precinct":"25LE35","hd":"52","v_score":"3.781490609","decile":"6","lat":40.364196489131,"lng":-111.835640606191},{"id":"9904","name":"Mrs. Pollie Predovic DDS","party":"","address":"790 E 2100 S, Lehi, UT 84043","precinct":"25LE35","hd":"52","v_score":"1.623113131","decile":"4","lat":40.36287157441,"lng":-111.836495210667},{"id":"10454","name":"Rey Wilkinson","party":"","address":"668 E Bullrush Pkwy, Lehi, UT 84043","precinct":"25LE35","hd":"52","v_score":"5.40460374","decile":"7","lat":40.365417878853,"lng":-111.838396245089},{"id":"10644","name":"Mrs. Arleth Erdman","party":"Rep","address":"235 E 1400 S, Lehi, UT 84043","precinct":"25LE35","hd":"52","v_score":"1.46627566","decile":"4","lat":40.38509503173,"lng":-111.872349070656},{"id":"10835","name":"Adriana Hegmann","party":"Dem","address":"1417 S 740 E, Lehi, UT 84043","precinct":"25LE35","hd":"52","v_score":"2.315214949","decile":"5","lat":40.37114511972,"lng":-111.837084956051},{"id":"11759","name":"Tyshawn Carroll I","party":"","address":"1364 S Grey Goose Rd, Lehi, UT 84043","precinct":"25LE35","hd":"52","v_score":"0","decile":"1","lat":40.371667202901,"lng":-111.838262392992},{"id":"11826","name":"Maude Lubowitz","party":"Dem","address":"808 E Meadow Marsh Dr, Lehi, UT 84043","precinct":"25LE35","hd":"52","v_score":"2.315214949","decile":"5","lat":40.366797357892,"lng":-111.836363519594},{"id":"12130","name":"Jule Jaskolski","party":"Dem","address":"256 E 1450 S, Lehi, UT 84043","precinct":"25LE35","hd":"52","v_score":"16.72520646","decile":"9","lat":40.37039970745,"lng":-111.845545426067},{"id":"12536","name":"Dr. Sullivan Crist","party":"Dem","address":"2068 S Meadow Marsh Dr, Lehi, UT 84043","precinct":"25LE35","hd":"52","v_score":"16.11772682","decile":"9","lat":40.363283868875,"lng":-111.835814485465},{"id":"12702","name":"Dionte Beer","party":"Dem","address":"686 E Bullrush Pkwy, Lehi, UT 84043","precinct":"25LE35","hd":"52","v_score":"1.46627566","decile":"4","lat":40.365236044171,"lng":-111.838076873102},{"id":"12798","name":"Woodie Friesen","party":"","address":"1238 S 50 E, Unit 4, Lehi, UT 84043","precinct":"25LE35","hd":"52","v_score":"1.121327652","decile":"3","lat":40.372160716621,"lng":-111.84833460755},{"id":"13168","name":"Miss Maricela Torp PhD","party":"","address":"657 E 1590 S, Lehi, UT 84043","precinct":"25LE35","hd":"52","v_score":"1.121327652","decile":"3","lat":40.368988869613,"lng":-111.839093711013},{"id":"13236","name":"Nicole McKenzie DDS","party":"","address":"1804 S 900 E, Lehi, UT 84043","precinct":"25LE35","hd":"52","v_score":"8.280646305","decile":"8","lat":40.366662561969,"lng":-111.834474642512},{"id":"13303","name":"Brenden Labadie","party":"Dem","address":"1250 S 300 E, Lehi, UT 84043","precinct":"25LE35","hd":"52","v_score":"3.781490609","decile":"6","lat":40.372454319823,"lng":-111.844453947688},{"id":"13644","name":"Dr. Telly Konopelski","party":"Dem","address":"2022 S Meadow Marsh Dr, Lehi, UT 84043","precinct":"25LE35","hd":"52","v_score":"0","decile":"1","lat":40.363704706231,"lng":-111.835803669497},{"id":"13837","name":"Alyce Schoen","party":"Rep","address":"758 E Meadow Marsh Dr, Lehi, UT 84043","precinct":"25LE35","hd":"52","v_score":"23.44745832","decile":"10","lat":40.367038536044,"lng":-111.837144260356},{"id":"14090","name":"Beckett Bruen","party":"Dem","address":"646 E 1590 S, Lehi, UT 84043","precinct":"25LE35","hd":"52","v_score":"3.93832808","decile":"6","lat":40.368876435548,"lng":-111.839199319741},{"id":"14315","name":"Ingeborg Labadie","party":"Rep","address":"598 E 1540 S, Lehi, UT 84043","precinct":"25LE35","hd":"52","v_score":"0","decile":"1","lat":40.369345637942,"lng":-111.839782043794},{"id":"14373","name":"Kathaleen Kozey-Ankunding","party":"Rep","address":"1250 S 300 E, Lehi, UT 84043","precinct":"25LE35","hd":"52","v_score":"15.0180437","decile":"9","lat":40.372454319823,"lng":-111.844453947688},{"id":"14569","name":"Mr. Haywood Johnson V","party":"Dem","address":"594 E 1590 S, Lehi, UT 84043","precinct":"25LE35","hd":"52","v_score":"11.30609121","decile":"9","lat":40.368890367655,"lng":-111.839860145042},{"id":"14710","name":"Lone Kuphal","party":"Dem","address":"763 E Sandhill Ct, Lehi, UT 84043","precinct":"25LE35","hd":"52","v_score":"1.193887297","decile":"3","lat":40.366461855544,"lng":-111.83733576776},{"id":"15170","name":"Berneice Kemmer","party":"Dem","address":"1955 S 750 E, Lehi, UT 84043","precinct":"25LE35","hd":"52","v_score":"2.315214949","decile":"5","lat":40.364296675712,"lng":-111.836549108549},{"id":"16785","name":"Creed Thompson III","party":"Dem","address":"815 E Meadow Marsh Dr, Lehi, UT 84043","precinct":"25LE35","hd":"52","v_score":"8.347511332","decile":"8","lat":40.366902300243,"lng":-111.83630168888},{"id":"17083","name":"Dr. Hassie Jerde MD","party":"Dem","address":"1609 S 530 E, Lehi, UT 84043","precinct":"25LE35","hd":"52","v_score":"2.315214949","decile":"5","lat":40.368660640132,"lng":-111.840896087592},{"id":"18412","name":"Mr. Kendal O'Reilly","party":"Dem","address":"645 E 1530 S, Lehi, UT 84043","precinct":"25LE35","hd":"52","v_score":"3.93832808","decile":"6","lat":40.369743767023,"lng":-111.838982107271},{"id":"18599","name":"Miss Altie Wunsch DVM","party":"","address":"848 E 2100 S, Lehi, UT 84043","precinct":"25LE35","hd":"52","v_score":"13.61621523","decile":"9","lat":40.362889476637,"lng":-111.835579825745},{"id":"19456","name":"Sondra Mueller","party":"","address":"652 E Bullrush Pkwy, Lehi, UT 84043","precinct":"25LE35","hd":"52","v_score":"14.18213378","decile":"9","lat":40.365576870546,"lng":-111.838680877462},{"id":"19461","name":"Mr. Jase O'Connell I","party":"Rep","address":"743 E Bullrush Pkwy, Lehi, UT 84043","precinct":"25LE35","hd":"52","v_score":"1.193887297","decile":"3","lat":40.365062108741,"lng":-111.837647395066},{"id":"19606","name":"Dr. Elonzo Reilly","party":"Rep","address":"2007 S 900 E, Lehi, UT 84043","precinct":"25LE35","hd":"52","v_score":"11.36410258","decile":"9","lat":40.36398704857,"lng":-111.834384770557},{"id":"20060","name":"Braedon Cole","party":"","address":"1804 S 900 E, Lehi, UT 84043","precinct":"25LE35","hd":"52","v_score":"5.40460374","decile":"7","lat":40.366662561969,"lng":-111.834474642512},{"id":"20297","name":"Kiana Homenick","party":"","address":"61 E 1230 S, Unit 1, Lehi, UT 84043","precinct":"25LE35","hd":"52","v_score":"11.30609121","decile":"9","lat":40.372704192036,"lng":-111.847796745119},{"id":"20402","name":"Demetra Bauch PhD","party":"","address":"235 E 1400 S, Lehi, UT 84043","precinct":"25LE35","hd":"52","v_score":"1.46627566","decile":"4","lat":40.38509503173,"lng":-111.872349070656},{"id":"20599","name":"Kenny O'Hara","party":"Rep","address":"661 E 1470 S, Lehi, UT 84043","precinct":"25LE35","hd":"52","v_score":"11.02844566","decile":"9","lat":40.370483659332,"lng":-111.838816375485},{"id":"20867","name":"Dr. Joel Okuneva MD","party":"","address":"2026 S Bullrush Pkwy, Lehi, UT 84043","precinct":"25LE35","hd":"52","v_score":"3.781490609","decile":"6","lat":40.364390102918,"lng":-111.837621341942},{"id":"21286","name":"Ms. Lella Wisoky DVM","party":"","address":"1393 S Grey Goose Rd, Lehi, UT 84043","precinct":"25LE35","hd":"52","v_score":"16.15945023","decile":"9","lat":40.371777501976,"lng":-111.837961630705},{"id":"21470","name":"Keena Bernier-Kunde","party":"Dem","address":"577 E 1590 S, Lehi, UT 84043","precinct":"25LE35","hd":"52","v_score":"10.15822798","decile":"9","lat":40.369009255914,"lng":-111.840051309708},{"id":"22168","name":"Pasquale Gleichner","party":"Dem","address":"1738 S 710 E, Lehi, UT 84043","precinct":"25LE35","hd":"52","v_score":"5.407962308","decile":"7","lat":40.36712303858,"lng":-111.838123557532},{"id":"22222","name":"Dr. Dennis Reichel DVM","party":"","address":"1804 S 900 E, Lehi, UT 84043","precinct":"25LE35","hd":"52","v_score":"0","decile":"1","lat":40.366662561969,"lng":-111.834474642512},{"id":"22590","name":"Josiah Hayes-Emard","party":"","address":"617 E 1540 S, Lehi, UT 84043","precinct":"25LE35","hd":"52","v_score":"2.315214949","decile":"5","lat":40.369522153854,"lng":-111.840062856766},{"id":"22657","name":"Jasmyne Braun","party":"","address":"710 E 1590 S, Lehi, UT 84043","precinct":"25LE35","hd":"52","v_score":"29.36024596","decile":"10","lat":40.36886290249,"lng":-111.838549735386},{"id":"22953","name":"Mr. Jasper Heaney","party":"Rep","address":"774 E Meadow Marsh Dr, Lehi, UT 84043","precinct":"25LE35","hd":"52","v_score":"15.09129713","decile":"9","lat":40.36698335497,"lng":-111.836920908484},{"id":"23544","name":"Dr. Monroe Rice MD","party":"","address":"639 E 1900 S, Lehi, UT 84043","precinct":"25LE35","hd":"52","v_score":"4.210716443","decile":"7","lat":40.365204075824,"lng":-111.839430609043},{"id":"23695","name":"Horatio Gorczany","party":"Dem","address":"2022 S Meadow Marsh Dr, Lehi, UT 84043","precinct":"25LE35","hd":"52","v_score":"1.121327652","decile":"3","lat":40.363704706231,"lng":-111.835803669497},{"id":"24610","name":"Hall Schneider","party":"Rep","address":"1446 S 200 E, Lehi, UT 84043","precinct":"25LE35","hd":"52","v_score":"3.93832808","decile":"6","lat":40.370580011964,"lng":-111.84633578001},{"id":"24998","name":"Saul Farrell","party":"Rep","address":"1693 S Spring Creek Ranch Rd, Lehi, UT 84043","precinct":"25LE35","hd":"52","v_score":"0","decile":"1","lat":40.367686425874,"lng":-111.836288635149},{"id":"25120","name":"Amma Feest","party":"","address":"1547 S 740 E, Lehi, UT 84043","precinct":"25LE35","hd":"52","v_score":"5.40460374","decile":"7","lat":40.369451141291,"lng":-111.837458588594},{"id":"25200","name":"Izola Casper","party":"Rep","address":"2084 S Meadow Marsh Dr, Lehi, UT 84043","precinct":"25LE35","hd":"52","v_score":"5.40460374","decile":"7","lat":40.363137490664,"lng":-111.835818247541},{"id":"25521","name":"Mr. Ebb Marvin Jr.","party":"Dem","address":"1753 S 900 E, Lehi, UT 84043","precinct":"25LE35","hd":"52","v_score":"1.193887297","decile":"3","lat":40.366447933038,"lng":-111.834330977542},{"id":"25823","name":"Mr. Skyler Bauch","party":"Dem","address":"235 E 1450 S, Lehi, UT 84043","precinct":"25LE35","hd":"52","v_score":"2.744440783","decile":"5","lat":40.370514298854,"lng":-111.845796538578},{"id":"26466","name":"Stella Oberbrunner-Welch","party":"Dem","address":"2025 S Bullrush Pkwy, Lehi, UT 84043","precinct":"25LE35","hd":"52","v_score":"6.724398202","decile":"8","lat":40.363687856649,"lng":-111.837608516056},{"id":"27237","name":"Dr. Kailyn Oberbrunner DVM","party":"Rep","address":"892 E 1630 S, Lehi, UT 84043","precinct":"25LE35","hd":"52","v_score":"5.191257514","decile":"7","lat":40.367952234927,"lng":-111.834583931957},{"id":"27385","name":"Gerald Prohaska","party":"Dem","address":"2065 S Meadow Marsh Dr, Lehi, UT 84043","precinct":"25LE35","hd":"52","v_score":"23.03559211","decile":"10","lat":40.363318219866,"lng":-111.835663178645},{"id":"28055","name":"David Gottlieb","party":"","address":"652 E Bullrush Pkwy, Lehi, UT 84043","precinct":"25LE35","hd":"52","v_score":"16.72536877","decile":"9","lat":40.365576870546,"lng":-111.838680877462},{"id":"28263","name":"Dr. Chace Prosacco Sr.","party":"Rep","address":"2057 S 750 E, Lehi, UT 84043","precinct":"25LE35","hd":"52","v_score":"1.193887297","decile":"3","lat":40.36336410843,"lng":-111.836574251415},{"id":"28305","name":"Hallie O'Conner","party":"Rep","address":"574 E 1590 S, Lehi, UT 84043","precinct":"25LE35","hd":"52","v_score":"5.40460374","decile":"7","lat":40.368895196059,"lng":-111.840077422481},{"id":"28903","name":"Ms. Leah Schuster","party":"Rep","address":"1861 S Weeping Willow Way, Lehi, UT 84043","precinct":"25LE35","hd":"52","v_score":"5.40460374","decile":"7","lat":40.365595906357,"lng":-111.839691129016},{"id":"29583","name":"Jayden Wisoky","party":"Rep","address":"1690 S Weeping Willow Way, Lehi, UT 84043","precinct":"25LE35","hd":"52","v_score":"3.102699348","decile":"6","lat":40.367556467229,"lng":-111.839850178699},{"id":"30425","name":"Dr. Martin McLaughlin Sr.","party":"","address":"1702 S 900 E, Lehi, UT 84043","precinct":"25LE35","hd":"52","v_score":"26.85320151","decile":"10","lat":40.367875267398,"lng":-111.834456433391},{"id":"31144","name":"Dr. Daija Sawayn","party":"Rep","address":"1717 S Spring Creek Ranch Rd, Lehi, UT 84043","precinct":"25LE35","hd":"52","v_score":"0","decile":"1","lat":40.367530183556,"lng":-111.836296557133},{"id":"31396","name":"Jace Kertzmann","party":"","address":"1693 S 900 E, Lehi, UT 84043","precinct":"25LE35","hd":"52","v_score":"3.781490609","decile":"6","lat":40.367029588993,"lng":-111.834315016712},{"id":"31569","name":"Ms. Karolyn Will","party":"","address":"831 E Sandhill Ct, Lehi, UT 84043","precinct":"25LE35","hd":"52","v_score":"1.193887297","decile":"3","lat":40.366183359004,"lng":-111.836552678016},{"id":"31609","name":"Foch Witting","party":"","address":"657 E 1530 S, Lehi, UT 84043","precinct":"25LE35","hd":"52","v_score":"8.280646305","decile":"8","lat":40.369732284018,"lng":-111.838873592956},{"id":"31686","name":"Miguelangel Smith","party":"Rep","address":"892 E 1630 S, Lehi, UT 84043","precinct":"25LE35","hd":"52","v_score":"9.600440767","decile":"8","lat":40.367952234927,"lng":-111.834583931957},{"id":"31936","name":"Colby Ruecker","party":"","address":"1624 S 530 E, Lehi, UT 84043","precinct":"25LE35","hd":"52","v_score":"0","decile":"1","lat":40.368628117022,"lng":-111.841048399687},{"id":"32963","name":"Dr. Miriam Ward","party":"Rep","address":"1624 S 530 E, Lehi, UT 84043","precinct":"25LE35","hd":"52","v_score":"3.102699348","decile":"6","lat":40.368628117022,"lng":-111.841048399687},{"id":"33771","name":"Omar Brekke","party":"","address":"764 E Sandhill Ct, Lehi, UT 84043","precinct":"25LE35","hd":"52","v_score":"8.280646305","decile":"8","lat":40.366351031136,"lng":-111.837381767793},{"id":"33876","name":"Ms. Nila Schowalter","party":"Rep","address":"1402 S 200 E, Lehi, UT 84043","precinct":"25LE35","hd":"52","v_score":"6.881235673","decile":"8","lat":40.37126797751,"lng":-111.845167515753},{"id":"34382","name":"Lorin Jacobs-Ryan","party":"Rep","address":"1429 S 740 E, Lehi, UT 84043","precinct":"25LE35","hd":"52","v_score":"39.27888801","decile":"10","lat":40.370996586823,"lng":-111.837132146207},{"id":"34448","name":"Dandre Dooley II","party":"Dem","address":"1298 S Grey Goose Rd, Lehi, UT 84043","precinct":"25LE35","hd":"52","v_score":"1.121327652","decile":"3","lat":40.372133590856,"lng":-111.837790101483},{"id":"34829","name":"Mauro Schmitt","party":"","address":"1393 S 740 E, Lehi, UT 84043","precinct":"25LE35","hd":"52","v_score":"5.659072284","decile":"7","lat":40.371440180221,"lng":-111.836985868781},{"id":"35032","name":"Leonel VonRueden","party":"","address":"669 E Bullrush Pkwy, Lehi, UT 84043","precinct":"25LE35","hd":"52","v_score":"1.121327652","decile":"3","lat":40.365508866138,"lng":-111.838304819335},{"id":"35654","name":"Metha Grimes-Barrows","party":"Rep","address":"1324 S Dragonfly Dr, Lehi, UT 84043","precinct":"25LE35","hd":"52","v_score":"10.4936397","decile":"9","lat":40.37241191337,"lng":-111.835677271199},{"id":"35730","name":"Eden Johns","party":"Dem","address":"1451 S Dragonfly Dr, Lehi, UT 84043","precinct":"25LE35","hd":"52","v_score":"9.61867875","decile":"8","lat":40.371174368348,"lng":-111.83614687569},{"id":"35863","name":"Mr. Taft Wunsch","party":"","address":"1717 S Spring Creek Ranch Rd, Lehi, UT 84043","precinct":"25LE35","hd":"52","v_score":"2.587603312","decile":"5","lat":40.367530183556,"lng":-111.836296557133},{"id":"36034","name":"Mr. Offie Gleichner DVM","party":"Rep","address":"1340 S 740 E, Lehi, UT 84043","precinct":"25LE35","hd":"52","v_score":"22.10816128","decile":"10","lat":40.371727774077,"lng":-111.837039436487},{"id":"36113","name":"Dr. Jim Crooks","party":"","address":"212 E 1500 S, Lehi, UT 84043","precinct":"25LE35","hd":"52","v_score":"6.657533174","decile":"7","lat":40.369652707573,"lng":-111.846038100828},{"id":"36317","name":"Jay Renner DVM","party":"Rep","address":"1340 S 740 E, Lehi, UT 84043","precinct":"25LE35","hd":"52","v_score":"22.10816128","decile":"10","lat":40.371727774077,"lng":-111.837039436487},{"id":"37421","name":"Gladis Lakin","party":"","address":"697 E 1530 S, Lehi, UT 84043","precinct":"25LE35","hd":"52","v_score":"8.347511332","decile":"8","lat":40.369709343959,"lng":-111.838527111191},{"id":"37648","name":"Montana Schultz MD","party":"Dem","address":"61 E 1230 S, Unit 4, Lehi, UT 84043","precinct":"25LE35","hd":"52","v_score":"5.191257514","decile":"7","lat":40.372704192036,"lng":-111.847796745119},{"id":"38163","name":"Colten Feest","party":"Dem","address":"1717 S Spring Creek Ranch Rd, Lehi, UT 84043","precinct":"25LE35","hd":"52","v_score":"5.258122542","decile":"7","lat":40.367530183556,"lng":-111.836296557133},{"id":"38576","name":"Damian Gibson","party":"Rep","address":"1442 S Dragonfly Dr, Lehi, UT 84043","precinct":"25LE35","hd":"52","v_score":"12.49472132","decile":"9","lat":40.371280072619,"lng":-111.836269976964},{"id":"39330","name":"Randel O'Keefe I","party":"Dem","address":"2084 S Bullrush Pkwy, Lehi, UT 84043","precinct":"25LE35","hd":"52","v_score":"15.43762891","decile":"9","lat":40.363253863497,"lng":-111.837790723511},{"id":"39485","name":"Geraldine Predovic","party":"","address":"577 E 1540 S, Lehi, UT 84043","precinct":"25LE35","hd":"52","v_score":"1.121327652","decile":"3","lat":40.369554296572,"lng":-111.84021897846},{"id":"40128","name":"Andra Wilkinson I","party":"Rep","address":"288 E 1290 S, Lehi, UT 84043","precinct":"25LE35","hd":"52","v_score":"1.46627566","decile":"4","lat":40.371893707209,"lng":-111.844612805382},{"id":"41678","name":"Julisa Nicolas","party":"","address":"216 E 1450 S, Lehi, UT 84043","precinct":"25LE35","hd":"52","v_score":"0","decile":"1","lat":40.370399707485,"lng":-111.846001994296},{"id":"41998","name":"Waymon Kuphal","party":"Rep","address":"638 E 1530 S, Lehi, UT 84043","precinct":"25LE35","hd":"52","v_score":"1.121327652","decile":"3","lat":40.369622370569,"lng":-111.838928195406},{"id":"42384","name":"Vernell Gerlach","party":"","address":"638 E 1530 S, Lehi, UT 84043","precinct":"25LE35","hd":"52","v_score":"5.40460374","decile":"7","lat":40.369622370569,"lng":-111.838928195406},{"id":"43119","name":"Elvira Sawayn","party":"","address":"770 E 1530 S, Lehi, UT 84043","precinct":"25LE35","hd":"52","v_score":"2.315214949","decile":"5","lat":40.369586922639,"lng":-111.836852169049},{"id":"43561","name":"Denton Torphy","party":"Dem","address":"1308 S Grey Goose Rd, Lehi, UT 84043","precinct":"25LE35","hd":"52","v_score":"1.121327652","decile":"3","lat":40.372061830213,"lng":-111.837863426727},{"id":"45621","name":"Huey Koch","party":"Rep","address":"1451 S 270 E, Lehi, UT 84043","precinct":"25LE35","hd":"52","v_score":"3.93832808","decile":"6","lat":40.370310156021,"lng":-111.844912960865},{"id":"45644","name":"Mr. Hershell Shields","party":"","address":"2063 S 900 E, Lehi, UT 84043","precinct":"25LE35","hd":"52","v_score":"23.83031838","decile":"10","lat":40.363444499221,"lng":-111.834401047108},{"id":"46025","name":"Dr. Alisson Howe","party":"","address":"234 E 1450 S, Lehi, UT 84043","precinct":"25LE35","hd":"52","v_score":"3.93832808","decile":"6","lat":40.37039970747,"lng":-111.845796538593},{"id":"46165","name":"Miss Jaycee Hilll MD","party":"","address":"2063 S 900 E, Lehi, UT 84043","precinct":"25LE35","hd":"52","v_score":"22.20720525","decile":"10","lat":40.363444499221,"lng":-111.834401047108},{"id":"46191","name":"Dr. Etter Kiehn DVM","party":"","address":"1535 S 270 E, Lehi, UT 84043","precinct":"25LE35","hd":"52","v_score":"9.405332525","decile":"8","lat":40.36937133872,"lng":-111.844908627522},{"id":"46220","name":"Jerod Swaniawski","party":"Dem","address":"1438 S 200 E, Lehi, UT 84043","precinct":"25LE35","hd":"52","v_score":"1.121327652","decile":"3","lat":40.370843931387,"lng":-111.84633738924},{"id":"46361","name":"Rudy Waelchi","party":"Dem","address":"1238 S 50 E, Lehi, UT 84043","precinct":"25LE35","hd":"52","v_score":"0","decile":"1","lat":40.372160716621,"lng":-111.84833460755},{"id":"46526","name":"Miss Lela Walter","party":"Dem","address":"725 E Meadow Marsh Dr, Lehi, UT 84043","precinct":"25LE35","hd":"52","v_score":"11.885774","decile":"9","lat":40.367222078967,"lng":-111.837631744302},{"id":"47428","name":"Dr. Maximo D'Amore DDS","party":"Rep","address":"815 E Meadow Marsh Dr, Lehi, UT 84043","precinct":"25LE35","hd":"52","v_score":"8.347511332","decile":"8","lat":40.366902300243,"lng":-111.83630168888},{"id":"48575","name":"Dr. Orla Nolan","party":"Rep","address":"1741 S 900 E, Lehi, UT 84043","precinct":"25LE35","hd":"52","v_score":"1.121327652","decile":"3","lat":40.366564190336,"lng":-111.834327306244},{"id":"48646","name":"Lou Collier","party":"","address":"725 E Meadow Marsh Dr, Lehi, UT 84043","precinct":"25LE35","hd":"52","v_score":"21.99248283","decile":"10","lat":40.367222078967,"lng":-111.837631744302},{"id":"48904","name":"Arvin Denesik III","party":"Dem","address":"1741 S 900 E, Lehi, UT 84043","precinct":"25LE35","hd":"52","v_score":"11.16899434","decile":"9","lat":40.366564190336,"lng":-111.834327306244},{"id":"48955","name":"Dr. Darrel Macejkovic IV","party":"Dem","address":"586 E 1590 S, Lehi, UT 84043","precinct":"25LE35","hd":"52","v_score":"3.781490609","decile":"6","lat":40.368892299016,"lng":-111.839947056018},{"id":"48957","name":"Lorraine Raynor","party":"Dem","address":"586 E 1590 S, Lehi, UT 84043","precinct":"25LE35","hd":"52","v_score":"3.781490609","decile":"6","lat":40.368892299016,"lng":-111.839947056018},{"id":"49580","name":"Meghann O'Kon-Bechtelar","party":"","address":"1451 S 270 E, Lehi, UT 84043","precinct":"25LE35","hd":"52","v_score":"2.315214949","decile":"5","lat":40.370310156021,"lng":-111.844912960865},{"id":"49893","name":"Alfie Ritchie","party":"Dem","address":"1559 S 530 E, Lehi, UT 84043","precinct":"25LE35","hd":"52","v_score":"20.50004641","decile":"10","lat":40.368777182528,"lng":-111.840889714165},{"id":"50119","name":"Sie Roob","party":"","address":"1477 S 740 E, Lehi, UT 84043","precinct":"25LE35","hd":"52","v_score":"8.274713794","decile":"8","lat":40.370319597667,"lng":-111.837341046924},{"id":"50665","name":"Hurley Smitham","party":"Dem","address":"737 E Sandhill Ct, Lehi, UT 84043","precinct":"25LE35","hd":"52","v_score":"0","decile":"1","lat":40.366577565569,"lng":-111.83763133131},{"id":"51070","name":"Tyrel Schamberger","party":"","address":"1755 S 710 E, Lehi, UT 84043","precinct":"25LE35","hd":"52","v_score":"3.93832808","decile":"6","lat":40.366918961753,"lng":-111.838017944869},{"id":"52490","name":"Anna D'Amore PhD","party":"Rep","address":"751 E Sandhill Ct, Lehi, UT 84043","precinct":"25LE35","hd":"52","v_score":"0","decile":"1","lat":40.366515260171,"lng":-111.837472181706},{"id":"53462","name":"Afton Stracke","party":"Rep","address":"778 E 2100 S, Lehi, UT 84043","precinct":"25LE35","hd":"52","v_score":"2.817000428","decile":"6","lat":40.362863285504,"lng":-111.836775652713},{"id":"53697","name":"Jemima Price","party":"","address":"1375 S 740 E, Lehi, UT 84043","precinct":"25LE35","hd":"52","v_score":"2.587603312","decile":"5","lat":40.37166079117,"lng":-111.836907626376},{"id":"53777","name":"Nathalie Braun PhD","party":"Dem","address":"1913 S 900 E, Lehi, UT 84043","precinct":"25LE35","hd":"52","v_score":"3.781490609","decile":"6","lat":40.36489951631,"lng":-111.834375845543},{"id":"54301","name":"Wiliam Ferry","party":"","address":"1233 S 100 E, Unit 1, Lehi, UT 84043","precinct":"25LE35","hd":"52","v_score":"2.587603312","decile":"5","lat":40.372047741905,"lng":-111.847421533887},{"id":"54396","name":"Dr. Bettyjane Brekke","party":"Dem","address":"1599 S 530 E, Lehi, UT 84043","precinct":"25LE35","hd":"52","v_score":"1.193887297","decile":"3","lat":40.368683948611,"lng":-111.840894812907},{"id":"54556","name":"Tyshawn Bartell","party":"Dem","address":"288 E 1290 S, Lehi, UT 84043","precinct":"25LE35","hd":"52","v_score":"0","decile":"1","lat":40.371893707209,"lng":-111.844612805382},{"id":"55276","name":"Angelia Herman","party":"Rep","address":"1417 S 740 E, Lehi, UT 84043","precinct":"25LE35","hd":"52","v_score":"0","decile":"1","lat":40.37114511972,"lng":-111.837084956051},{"id":"56154","name":"Floyd Muller","party":"","address":"771 E Meadow Marsh Dr, Lehi, UT 84043","precinct":"25LE35","hd":"52","v_score":"0","decile":"1","lat":40.367125861536,"lng":-111.837010123838},{"id":"56591","name":"Miss Vesta Shields","party":"Rep","address":"597 E 1590 S, Lehi, UT 84043","precinct":"25LE35","hd":"52","v_score":"0","decile":"1","lat":40.369004427509,"lng":-111.839834032269},{"id":"57702","name":"Roseanna Stehr","party":"Rep","address":"638 E 1530 S, Lehi, UT 84043","precinct":"25LE35","hd":"52","v_score":"1.193887297","decile":"3","lat":40.369622370569,"lng":-111.838928195406},{"id":"58757","name":"Skye Gutmann","party":"Dem","address":"778 E 2100 S, Lehi, UT 84043","precinct":"25LE35","hd":"52","v_score":"1.193887297","decile":"3","lat":40.362863285504,"lng":-111.836775652713},{"id":"58803","name":"Karol Hoeger-Gulgowski","party":"","address":"671 E 1530 S, Lehi, UT 84043","precinct":"25LE35","hd":"52","v_score":"3.93832808","decile":"6","lat":40.369718887177,"lng":-111.838746992921},{"id":"58907","name":"Ms. Fallon Parisian MD","party":"Rep","address":"739 E 1675 S, Lehi, UT 84043","precinct":"25LE35","hd":"52","v_score":"1.623113131","decile":"5","lat":40.367922298527,"lng":-111.837725547634},{"id":"58938","name":"Mrs. Lyndia Murphy DVM","party":"","address":"2075 S 750 E, Lehi, UT 84043","precinct":"25LE35","hd":"52","v_score":"0","decile":"1","lat":40.363199537733,"lng":-111.836578688391},{"id":"59135","name":"Maura Lindgren","party":"Rep","address":"1741 S 900 E, Lehi, UT 84043","precinct":"25LE35","hd":"52","v_score":"0","decile":"1","lat":40.366564190336,"lng":-111.834327306244},{"id":"59310","name":"Darrin Monahan","party":"Dem","address":"684 E 1470 S, Lehi, UT 84043","precinct":"25LE35","hd":"52","v_score":"9.344081435","decile":"8","lat":40.370371712152,"lng":-111.838508793299},{"id":"59578","name":"Curtiss Skiles","party":"Rep","address":"1277 S 200 E, Lehi, UT 84043","precinct":"25LE35","hd":"52","v_score":"12.90602733","decile":"9","lat":40.38528570765,"lng":-111.870042992782},{"id":"60269","name":"Loriann Harris","party":"Dem","address":"269 E 1210 S, Lehi, UT 84043","precinct":"25LE35","hd":"52","v_score":"1.193887297","decile":"3","lat":40.373022241098,"lng":-111.844704706847},{"id":"61102","name":"Lorelei Bogan","party":"Dem","address":"724 E 1675 S, Lehi, UT 84043","precinct":"25LE35","hd":"52","v_score":"9.839815554","decile":"8","lat":40.367807707149,"lng":-111.837811418799},{"id":"62689","name":"Stanford Bogan","party":"Dem","address":"232 E 1500 S, Lehi, UT 84043","precinct":"25LE35","hd":"52","v_score":"2.315214949","decile":"5","lat":40.369652707555,"lng":-111.845808898006},{"id":"63017","name":"Mrs. Bula Leannon","party":"Rep","address":"1831 S Meadow Marsh Dr, Lehi, UT 84043","precinct":"25LE35","hd":"52","v_score":"1.121327652","decile":"3","lat":40.36609372684,"lng":-111.835596129076},{"id":"63045","name":"Mrs. Kristy Shields","party":"Dem","address":"1417 S 740 E, Lehi, UT 84043","precinct":"25LE35","hd":"52","v_score":"5.331806201","decile":"7","lat":40.37114511972,"lng":-111.837084956051},{"id":"63879","name":"Zariah Ebert MD","party":"Dem","address":"688 E Sandhill Ct, Lehi, UT 84043","precinct":"25LE35","hd":"52","v_score":"1.193887297","decile":"3","lat":40.366731856088,"lng":-111.838388043063},{"id":"64632","name":"Sudie Koelpin","party":"","address":"269 E 1210 S, Lehi, UT 84043","precinct":"25LE35","hd":"52","v_score":"2.817000428","decile":"6","lat":40.373022241098,"lng":-111.844704706847},{"id":"67716","name":"Ignatius Blanda II","party":"Dem","address":"1557 S 270 E, Lehi, UT 84043","precinct":"25LE35","hd":"52","v_score":"6.52928996","decile":"7","lat":40.369188697336,"lng":-111.844913501273},{"id":"68368","name":"Naomi Kuhic","party":"Rep","address":"1661 S 900 E, Lehi, UT 84043","precinct":"25LE35","hd":"52","v_score":"2.817000428","decile":"6","lat":40.367339646345,"lng":-111.834307575296},{"id":"68534","name":"Dr. Cliff Terry IV","party":"","address":"1442 S Dragonfly Dr, Lehi, UT 84043","precinct":"25LE35","hd":"52","v_score":"8.284004873","decile":"8","lat":40.371280072619,"lng":-111.836269976964},{"id":"69241","name":"Larkin Boyer","party":"","address":"256 E 1450 S, Lehi, UT 84043","precinct":"25LE35","hd":"52","v_score":"10.52632313","decile":"9","lat":40.37039970745,"lng":-111.845545426067},{"id":"69911","name":"Heyward Bernier","party":"Rep","address":"1913 S 900 E, Lehi, UT 84043","precinct":"25LE35","hd":"52","v_score":"1.193887297","decile":"3","lat":40.36489951631,"lng":-111.834375845543},{"id":"71230","name":"Jefferson Kuvalis Jr.","party":"Dem","address":"1442 S Dragonfly Dr, Lehi, UT 84043","precinct":"25LE35","hd":"52","v_score":"2.315214949","decile":"5","lat":40.371280072619,"lng":-111.836269976964},{"id":"72568","name":"Concepcion Kuhn","party":"Dem","address":"1973 S 750 E, Lehi, UT 84043","precinct":"25LE35","hd":"52","v_score":"2.315214949","decile":"5","lat":40.364132105015,"lng":-111.836553545526},{"id":"72570","name":"Ms. Hester Medhurst","party":"Dem","address":"1775 S Meadow Marsh Dr, Lehi, UT 84043","precinct":"25LE35","hd":"52","v_score":"1.121327652","decile":"3","lat":40.366581568271,"lng":-111.835806597784},{"id":"72583","name":"Hartwell Beahan-Batz","party":"Rep","address":"1299 S 100 E, Unit K1, Lehi, UT 84043","precinct":"25LE35","hd":"52","v_score":"3.93832808","decile":"6","lat":40.37174846461,"lng":-111.847411473014},{"id":"73366","name":"Miss Georgette Zieme DDS","party":"","address":"2068 S Bullrush Pkwy, Lehi, UT 84043","precinct":"25LE35","hd":"52","v_score":"3.664562647","decile":"6","lat":40.363570864529,"lng":-111.837782002409},{"id":"73518","name":"Mr. Diane Baumbach V","party":"Rep","address":"1804 S 900 E, Lehi, UT 84043","precinct":"25LE35","hd":"52","v_score":"2.817000428","decile":"6","lat":40.366662561969,"lng":-111.834474642512},{"id":"73616","name":"Ivy Quigley-West","party":"Dem","address":"668 E 1900 S, Lehi, UT 84043","precinct":"25LE35","hd":"52","v_score":"2.315214949","decile":"5","lat":40.364945911632,"lng":-111.839003747917},{"id":"73656","name":"Mrs. Bina Kilback","party":"Dem","address":"572 E 1540 S, Lehi, UT 84043","precinct":"25LE35","hd":"52","v_score":"2.315214949","decile":"5","lat":40.369387849857,"lng":-111.839987072998},{"id":"73869","name":"Milan Leffler-Anderson","party":"Rep","address":"574 E 1590 S, Lehi, UT 84043","precinct":"25LE35","hd":"52","v_score":"0","decile":"1","lat":40.368895196059,"lng":-111.840077422481},{"id":"75263","name":"Sybil Schroeder DVM","party":"Rep","address":"1780 S Weeping Willow Way, Lehi, UT 84043","precinct":"25LE35","hd":"52","v_score":"0","decile":"1","lat":40.366554275602,"lng":-111.839852449715},{"id":"77219","name":"Dr. Babyboy Gusikowski","party":"Dem","address":"1906 S 900 E, Lehi, UT 84043","precinct":"25LE35","hd":"52","v_score":"2.315214949","decile":"5","lat":40.365426086743,"lng":-111.834513689257},{"id":"77475","name":"Adriana Emmerich PhD","party":"","address":"2026 S Bullrush Pkwy, Lehi, UT 84043","precinct":"25LE35","hd":"52","v_score":"2.817000428","decile":"6","lat":40.364390102918,"lng":-111.837621341942},{"id":"80291","name":"Mrs. Francine Witting","party":"Dem","address":"1694 S Spring Creek Ranch Rd, Lehi, UT 84043","precinct":"25LE35","hd":"52","v_score":"2.315214949","decile":"5","lat":40.36767911258,"lng":-111.836439718131},{"id":"82264","name":"Ayesha Stokes","party":"Rep","address":"724 E 1675 S, Lehi, UT 84043","precinct":"25LE35","hd":"52","v_score":"2.817000428","decile":"6","lat":40.367807707149,"lng":-111.837811418799},{"id":"82287","name":"Rustin Schultz-Klocko","party":"Rep","address":"1481 S Dragonfly Dr, Lehi, UT 84043","precinct":"25LE35","hd":"52","v_score":"0","decile":"1","lat":40.370871742777,"lng":-111.83623568975},{"id":"82303","name":"Vernon Terry","party":"","address":"598 E 1540 S, Lehi, UT 84043","precinct":"25LE35","hd":"52","v_score":"0","decile":"1","lat":40.369345637942,"lng":-111.839782043794},{"id":"82474","name":"Leona Robel","party":"Dem","address":"1458 S Dragonfly Dr, Lehi, UT 84043","precinct":"25LE35","hd":"52","v_score":"0","decile":"1","lat":40.371118672314,"lng":-111.836317344462},{"id":"82790","name":"Mr. Lish Feil","party":"","address":"227 E 1600 S, Lehi, UT 84043","precinct":"25LE35","hd":"52","v_score":"0","decile":"1","lat":40.368914095871,"lng":-111.845711882261},{"id":"82988","name":"Chandler O'Conner","party":"Dem","address":"2025 S Bullrush Pkwy, Lehi, UT 84043","precinct":"25LE35","hd":"52","v_score":"0","decile":"1","lat":40.363687856649,"lng":-111.837608516056},{"id":"83642","name":"Hezzie Hudson PhD","party":"Rep","address":"1376 S 740 E, Lehi, UT 84043","precinct":"25LE35","hd":"52","v_score":"1.193887297","decile":"3","lat":40.370937659201,"lng":-111.83730561895},{"id":"83709","name":"Lorena Johnston","party":"Dem","address":"1860 S Weeping Willow Way, Lehi, UT 84043","precinct":"25LE35","hd":"52","v_score":"0","decile":"1","lat":40.366176204298,"lng":-111.839857156668},{"id":"84417","name":"Zed Johnson","party":"","address":"1559 S 530 E, Lehi, UT 84043","precinct":"25LE35","hd":"52","v_score":"0","decile":"1","lat":40.368777182528,"lng":-111.840889714165},{"id":"84540","name":"Jerilynn Armstrong DVM","party":"Dem","address":"638 E 1530 S, Lehi, UT 84043","precinct":"25LE35","hd":"52","v_score":"0","decile":"1","lat":40.369622370569,"lng":-111.838928195406},{"id":"90055","name":"Mr. Alvy Harris III","party":"","address":"1599 S 530 E, Lehi, UT 84043","precinct":"25LE35","hd":"52","v_score":"1.193887297","decile":"4","lat":40.368683948611,"lng":-111.840894812907},{"id":"90566","name":"Verdie Kertzmann-Boyle","party":"Rep","address":"577 E 1590 S, Lehi, UT 84043","precinct":"25LE35","hd":"52","v_score":"0","decile":"1","lat":40.369009255914,"lng":-111.840051309708},{"id":"91528","name":"Vada Hyatt-Hane","party":"Dem","address":"722 E 1530 S, Lehi, UT 84043","precinct":"25LE35","hd":"52","v_score":"0","decile":"1","lat":40.369612846086,"lng":-111.837869078738},{"id":"91691","name":"Johnathan Luettgen-O'Reilly","party":"","address":"572 E 1540 S, Lehi, UT 84043","precinct":"25LE35","hd":"52","v_score":"1.193887297","decile":"4","lat":40.369387849857,"lng":-111.839987072998},{"id":"91795","name":"Earley Borer-Volkman","party":"Dem","address":"1941 S Bullrush Pkwy, Lehi, UT 84043","precinct":"25LE35","hd":"52","v_score":"0","decile":"1","lat":40.364505055048,"lng":-111.837458519585},{"id":"91873","name":"Willene Oberbrunner","party":"Dem","address":"1560 S 530 E, Lehi, UT 84043","precinct":"25LE35","hd":"52","v_score":"0","decile":"1","lat":40.368777291288,"lng":-111.8410402417},{"id":"93657","name":"Miss Effie Monahan","party":"Rep","address":"1367 S Grey Goose Rd, Lehi, UT 84043","precinct":"25LE35","hd":"52","v_score":"5.693042993","decile":"7","lat":40.37205262942,"lng":-111.837682546964},{"id":"93817","name":"Morgan Kassulke","party":"Dem","address":"791 E Sandhill Ct, Lehi, UT 84043","precinct":"25LE35","hd":"52","v_score":"1.193887297","decile":"4","lat":40.366340236461,"lng":-111.837020605436},{"id":"94174","name":"Malia Turner","party":"Dem","address":"1381 S Grey Goose Rd, Lehi, UT 84043","precinct":"25LE35","hd":"52","v_score":"5.693042993","decile":"7","lat":40.371906162536,"lng":-111.837825638427},{"id":"94632","name":"Lorna Becker-Effertz","party":"Dem","address":"1874 S 900 E, Lehi, UT 84043","precinct":"25LE35","hd":"52","v_score":"1.623113131","decile":"5","lat":40.365814000539,"lng":-111.834501439298},{"id":"94686","name":"Mr. Osborn Rice PhD","party":"","address":"1376 S 740 E, Lehi, UT 84043","precinct":"25LE35","hd":"52","v_score":"0","decile":"1","lat":40.370937659201,"lng":-111.83730561895},{"id":"94889","name":"Storm Luettgen","party":"Dem","address":"1693 S Spring Creek Ranch Rd, Lehi, UT 84043","precinct":"25LE35","hd":"52","v_score":"1.193887297","decile":"4","lat":40.367686425874,"lng":-111.836288635149},{"id":"95266","name":"Nakisha Borer-Prosacco","party":"Rep","address":"1323 S Dragonfly Dr, Lehi, UT 84043","precinct":"25LE35","hd":"52","v_score":"0","decile":"1","lat":40.372383075685,"lng":-111.835529192505},{"id":"96515","name":"Cyndi O'Connell","party":"","address":"2084 S Bullrush Pkwy, Lehi, UT 84043","precinct":"25LE35","hd":"52","v_score":"13.01661254","decile":"9","lat":40.363253863497,"lng":-111.837790723511},{"id":"96566","name":"Amina Gibson-Walsh","party":"","address":"1487 S 270 E, Lehi, UT 84043","precinct":"25LE35","hd":"52","v_score":"5.693042993","decile":"7","lat":40.369903600697,"lng":-111.844905613534},{"id":"98000","name":"Mr. Gregorio O'Keefe IV","party":"Dem","address":"1983 S Bullrush Pkwy, Lehi, UT 84043","precinct":"25LE35","hd":"52","v_score":"2.817000428","decile":"6","lat":40.364092012175,"lng":-111.837525118837},{"id":"98380","name":"Johathan Klein","party":"","address":"815 E Meadow Marsh Dr, Lehi, UT 84043","precinct":"25LE35","hd":"52","v_score":"1.193887297","decile":"4","lat":40.366902300243,"lng":-111.83630168888},{"id":"99560","name":"Dr. Margarita Schinner","party":"Dem","address":"1762 S 900 E, Lehi, UT 84043","precinct":"25LE35","hd":"52","v_score":"1.193887297","decile":"4","lat":40.367171424076,"lng":-111.834462039531},{"id":"99774","name":"Margarete Lockman","party":"Dem","address":"1351 S Grey Goose Rd, Lehi, UT 84043","precinct":"25LE35","hd":"52","v_score":"0","decile":"1","lat":40.372217871792,"lng":-111.837508124439},{"id":"100188","name":"Alayna Kuvalis","party":"Rep","address":"1755 S 710 E, Lehi, UT 84043","precinct":"25LE35","hd":"52","v_score":"0","decile":"1","lat":40.366918961753,"lng":-111.838017944869},{"id":"100679","name":"Taurus Johnson DDS","party":"Rep","address":"727 E 1675 S, Lehi, UT 84043","precinct":"25LE35","hd":"52","v_score":"0","decile":"1","lat":40.367922298533,"lng":-111.837799151477},{"id":"100892","name":"Olar Kshlerin","party":"Rep","address":"184 E 1290 S, Lehi, UT 84043","precinct":"25LE35","hd":"52","v_score":"1.193887297","decile":"4","lat":40.371891636781,"lng":-111.846263856787},{"id":"103152","name":"Davy Trantow","party":"","address":"751 E 1675 S, Lehi, UT 84043","precinct":"25LE35","hd":"52","v_score":"0","decile":"2","lat":40.367922298521,"lng":-111.837651943791},{"id":"103173","name":"Toni Fay","party":"","address":"1569 S 530 E, Lehi, UT 84043","precinct":"25LE35","hd":"52","v_score":"6.462591196","decile":"7","lat":40.368753874049,"lng":-111.840890988851},{"id":"103519","name":"Sedrick Funk","party":"Rep","address":"1586 S 530 E, Lehi, UT 84043","precinct":"25LE35","hd":"52","v_score":"0","decile":"2","lat":40.368716689243,"lng":-111.841043555882},{"id":"103866","name":"Mrs. Helga Gleichner DDS","party":"","address":"1481 S Dragonfly Dr, Lehi, UT 84043","precinct":"25LE35","hd":"52","v_score":"0","decile":"2","lat":40.370871742777,"lng":-111.83623568975},{"id":"104403","name":"Rosey Bradtke","party":"","address":"1693 S Spring Creek Ranch Rd, Lehi, UT 84043","precinct":"25LE35","hd":"52","v_score":"1.193887297","decile":"4","lat":40.367686425874,"lng":-111.836288635149},{"id":"104600","name":"Ms. Krysta Wiegand","party":"Dem","address":"1281 S 50 E, Unit 1, Lehi, UT 84043","precinct":"25LE35","hd":"52","v_score":"9.338633761","decile":"8","lat":40.371795437326,"lng":-111.848186041237},{"id":"104912","name":"Riley Connelly","party":"Rep","address":"1863 S 900 E, Lehi, UT 84043","precinct":"25LE35","hd":"52","v_score":"0","decile":"2","lat":40.365382241145,"lng":-111.834364631108},{"id":"105954","name":"Garrick Konopelski","party":"","address":"668 E 1900 S, Lehi, UT 84043","precinct":"25LE35","hd":"52","v_score":"0","decile":"2","lat":40.364945911632,"lng":-111.839003747917},{"id":"107229","name":"Mr. Xavier Dooley I","party":"","address":"688 E Sandhill Ct, Lehi, UT 84043","precinct":"25LE35","hd":"52","v_score":"1.193887297","decile":"4","lat":40.366731856088,"lng":-111.838388043063},{"id":"109156","name":"Kaley Bogisich","party":"","address":"545 E 1540 S, Lehi, UT 84043","precinct":"25LE35","hd":"52","v_score":"1.193887297","decile":"4","lat":40.369580010746,"lng":-111.840343875814},{"id":"110549","name":"Ryne Howe Jr.","party":"Dem","address":"289 E 1400 S, Lehi, UT 84043","precinct":"25LE35","hd":"52","v_score":"8.284004873","decile":"8","lat":40.384716748889,"lng":-111.872327818862},{"id":"110726","name":"Kaylan Kris-Luettgen","party":"Rep","address":"2090 S 750 E, Lehi, UT 84043","precinct":"25LE35","hd":"52","v_score":"8.284004873","decile":"8","lat":40.363055606232,"lng":-111.83673299142},{"id":"111641","name":"Wm Conroy","party":"Rep","address":"1381 S Grey Goose Rd, Lehi, UT 84043","precinct":"25LE35","hd":"52","v_score":"0","decile":"2","lat":40.371906162536,"lng":-111.837825638427},{"id":"112803","name":"Burnell Roberts","party":"Rep","address":"878 E 1630 S, Lehi, UT 84043","precinct":"25LE35","hd":"52","v_score":"1.193887297","decile":"4","lat":40.367956444751,"lng":-111.834767058675},{"id":"114337","name":"Rashaan Parisian MD","party":"","address":"1342 S Grey Goose Rd, Lehi, UT 84043","precinct":"25LE35","hd":"52","v_score":"4.069929862","decile":"7","lat":40.371831602018,"lng":-111.838100376785},{"id":"114345","name":"Myrta Miller","party":"Dem","address":"665 E 1900 S, Lehi, UT 84043","precinct":"25LE35","hd":"52","v_score":"1.193887297","decile":"4","lat":40.365154965149,"lng":-111.839267929993},{"id":"114358","name":"Margarita Kling","party":"Rep","address":"1941 S Bullrush Pkwy, Lehi, UT 84043","precinct":"25LE35","hd":"52","v_score":"0","decile":"2","lat":40.364505055048,"lng":-111.837458519585},{"id":"115147","name":"Gustaf Nolan","party":"Dem","address":"248 E 1210 S, Lehi, UT 84043","precinct":"25LE35","hd":"52","v_score":"8.284004873","decile":"8","lat":40.372886122523,"lng":-111.845271457074},{"id":"115359","name":"Layton Orn-McClure","party":"Rep","address":"1394 S Dragonfly Dr, Lehi, UT 84043","precinct":"25LE35","hd":"52","v_score":"0","decile":"2","lat":40.371767419856,"lng":-111.836096691718},{"id":"115376","name":"Brandie Lynch","party":"","address":"1941 S Bullrush Pkwy, Lehi, UT 84043","precinct":"25LE35","hd":"52","v_score":"0","decile":"2","lat":40.364505055048,"lng":-111.837458519585},{"id":"115470","name":"Stephaine Padberg","party":"Dem","address":"625 E Bullrush Pkwy, Lehi, UT 84043","precinct":"25LE35","hd":"52","v_score":"0","decile":"2","lat":40.365895800782,"lng":-111.839168343578},{"id":"115594","name":"Miss Bev Larkin","party":"","address":"1323 S Dragonfly Dr, Lehi, UT 84043","precinct":"25LE35","hd":"52","v_score":"1.193887297","decile":"4","lat":40.372383075685,"lng":-111.835529192505},{"id":"116293","name":"Lary Monahan","party":"","address":"1661 S 900 E, Lehi, UT 84043","precinct":"25LE35","hd":"52","v_score":"1.193887297","decile":"4","lat":40.367339646345,"lng":-111.834307575296},{"id":"116714","name":"Miss Abby Greenholt","party":"","address":"1262 S 50 E, Unit 3, Lehi, UT 84043","precinct":"25LE35","hd":"52","v_score":"1.193887297","decile":"4","lat":40.371952237555,"lng":-111.848335660502},{"id":"117538","name":"Martika Vandervort-Runolfsdottir","party":"Rep","address":"1554 S 270 E, Lehi, UT 84043","precinct":"25LE35","hd":"52","v_score":"0","decile":"2","lat":40.369209157379,"lng":-111.845063066304},{"id":"119449","name":"Asher Trantow-Reichel","party":"Rep","address":"229 E 1210 S, Lehi, UT 84043","precinct":"25LE35","hd":"52","v_score":"0","decile":"2","lat":40.373010037532,"lng":-111.845028101999},{"id":"119570","name":"Josefita Gibson-Eichmann","party":"","address":"1609 S 530 E, Lehi, UT 84043","precinct":"25LE35","hd":"52","v_score":"1.193887297","decile":"4","lat":40.368660640132,"lng":-111.840896087592},{"id":"119612","name":"Giuliana Murphy","party":"Dem","address":"1467 S Dragonfly Dr, Lehi, UT 84043","precinct":"25LE35","hd":"52","v_score":"8.954959708","decile":"8","lat":40.371012968044,"lng":-111.836194243189},{"id":"119730","name":"Braylon Breitenberg","party":"Rep","address":"1693 S 900 E, Lehi, UT 84043","precinct":"25LE35","hd":"52","v_score":"0","decile":"2","lat":40.367029588993,"lng":-111.834315016712},{"id":"119765","name":"David McClure","party":"","address":"1375 S 740 E, Lehi, UT 84043","precinct":"25LE35","hd":"52","v_score":"1.193887297","decile":"4","lat":40.37166079117,"lng":-111.836907626376},{"id":"120379","name":"Nan Paucek","party":"Dem","address":"212 E 1290 S, Lehi, UT 84043","precinct":"25LE35","hd":"52","v_score":"1.193887297","decile":"4","lat":40.371893707305,"lng":-111.845853690519},{"id":"124300","name":"Zenas Pfannerstill-Gibson","party":"","address":"1652 S 710 E, Lehi, UT 84043","precinct":"25LE35","hd":"52","v_score":"0","decile":"2","lat":40.368091606625,"lng":-111.838109028808},{"id":"125234","name":"Dr. Trenton Gusikowski","party":"","address":"2091 S 750 E, Lehi, UT 84043","precinct":"25LE35","hd":"52","v_score":"0","decile":"2","lat":40.363053252669,"lng":-111.83658263237},{"id":"125750","name":"Shelby Dach-Wolf","party":"Rep","address":"742 E Meadow Marsh Dr, Lehi, UT 84043","precinct":"25LE35","hd":"52","v_score":"0","decile":"2","lat":40.367093717119,"lng":-111.837367612228},{"id":"125994","name":"Tayshaun Sanford-Larkin","party":"Rep","address":"1694 S Spring Creek Ranch Rd, Lehi, UT 84043","precinct":"25LE35","hd":"52","v_score":"0","decile":"2","lat":40.36767911258,"lng":-111.836439718131},{"id":"126311","name":"Kaleena Willms-Heathcote","party":"","address":"1755 S 710 E, Lehi, UT 84043","precinct":"25LE35","hd":"52","v_score":"0","decile":"2","lat":40.366918961753,"lng":-111.838017944869},{"id":"126783","name":"Mr. Admiral Bashirian DDS","party":"Dem","address":"1376 S 740 E, Lehi, UT 84043","precinct":"25LE35","hd":"52","v_score":"0","decile":"2","lat":40.370937659201,"lng":-111.83730561895},{"id":"127411","name":"Ms. Vannie Yundt","party":"Rep","address":"848 E 2100 S, Lehi, UT 84043","precinct":"25LE35","hd":"52","v_score":"0","decile":"2","lat":40.362889476637,"lng":-111.835579825745},{"id":"128105","name":"Dr. Nataly Baumbach DDS","party":"Rep","address":"1560 S 530 E, Lehi, UT 84043","precinct":"25LE35","hd":"52","v_score":"0","decile":"2","lat":40.368777291288,"lng":-111.8410402417},{"id":"128157","name":"Dr. Durward Blick","party":"Dem","address":"848 E 1630 S, Lehi, UT 84043","precinct":"25LE35","hd":"52","v_score":"0","decile":"2","lat":40.367995348119,"lng":-111.835177485716},{"id":"129058","name":"Roswell Schowalter","party":"","address":"256 E 1450 S, Lehi, UT 84043","precinct":"25LE35","hd":"52","v_score":"0","decile":"2","lat":40.37039970745,"lng":-111.845545426067},{"id":"129349","name":"Meg Price","party":"Rep","address":"1467 S Dragonfly Dr, Lehi, UT 84043","precinct":"25LE35","hd":"52","v_score":"0","decile":"2","lat":40.371012968044,"lng":-111.836194243189},{"id":"130239","name":"Mr. Amerigo Casper III","party":"","address":"597 E 1590 S, Lehi, UT 84043","precinct":"25LE35","hd":"52","v_score":"0","decile":"2","lat":40.369004427509,"lng":-111.839834032269},{"id":"130319","name":"Dr. Carnell Legros MD","party":"Dem","address":"1358 S 50 E, Unit 1, Lehi, UT 84043","precinct":"25LE35","hd":"52","v_score":"2.876042565","decile":"6","lat":40.371360416803,"lng":-111.848340891942},{"id":"130468","name":"Jacques Walker DVM","party":"Dem","address":"1349 S Dragonfly Dr, Lehi, UT 84043","precinct":"25LE35","hd":"52","v_score":"7.090117576","decile":"8","lat":40.372120856434,"lng":-111.835658928405},{"id":"130481","name":"Braylon Pfeffer","party":"Rep","address":"1710 S Weeping Willow Way, Lehi, UT 84043","precinct":"25LE35","hd":"52","v_score":"0","decile":"2","lat":40.367384168661,"lng":-111.839844262035},{"id":"131443","name":"Marin Quitzon","party":"","address":"1307 S Grey Goose Rd, Lehi, UT 84043","precinct":"25LE35","hd":"52","v_score":"2.876042565","decile":"6","lat":40.372544091071,"lng":-111.836949224354},{"id":"131880","name":"Cristy Emmerich","party":"Dem","address":"787 E 1950 S, Lehi, UT 84043","precinct":"25LE35","hd":"52","v_score":"0","decile":"2","lat":40.364936252353,"lng":-111.835862826402},{"id":"132626","name":"Colten Moen","party":"","address":"739 E 1675 S, Lehi, UT 84043","precinct":"25LE35","hd":"52","v_score":"0","decile":"2","lat":40.367922298527,"lng":-111.837725547634},{"id":"133315","name":"Auther Blick","party":"Dem","address":"1552 S 530 E, Lehi, UT 84043","precinct":"25LE35","hd":"52","v_score":"0","decile":"2","lat":40.368795938072,"lng":-111.841039221952},{"id":"134696","name":"Dr. Elvis Gislason","party":"Rep","address":"251 E 1290 S, Lehi, UT 84043","precinct":"25LE35","hd":"52","v_score":"14.25581744","decile":"9","lat":40.372008298641,"lng":-111.845233247936},{"id":"134909","name":"Mcarthur Kozey","party":"Dem","address":"574 E 1590 S, Lehi, UT 84043","precinct":"25LE35","hd":"52","v_score":"0","decile":"2","lat":40.368895196059,"lng":-111.840077422481},{"id":"135406","name":"Handy Steuber","party":"","address":"738 E 1590 S, Lehi, UT 84043","precinct":"25LE35","hd":"52","v_score":"8.421194992","decile":"8","lat":40.368856981777,"lng":-111.838265542231},{"id":"135483","name":"Darcie Senger","party":"","address":"614 E 1900 S, Lehi, UT 84043","precinct":"25LE35","hd":"52","v_score":"2.315214949","decile":"5","lat":40.365152707609,"lng":-111.839887018693},{"id":"135617","name":"Gisselle Hagenes","party":"","address":"1377 S 100 E, Apt N2, Lehi, UT 84043","precinct":"25LE35","hd":"52","v_score":"12.50033525","decile":"9","lat":40.371390599514,"lng":-111.847400148217},{"id":"135618","name":"Minor Stehr","party":"Rep","address":"1377 S 100 E, Apt N2, Lehi, UT 84043","precinct":"25LE35","hd":"52","v_score":"22.46742893","decile":"10","lat":40.371390599514,"lng":-111.847400148217},{"id":"135692","name":"Dr. Tyreek Gislason","party":"","address":"640 E 1900 S, Lehi, UT 84043","precinct":"25LE35","hd":"52","v_score":"11.02844566","decile":"9","lat":40.365096597432,"lng":-111.839482879311},{"id":"135760","name":"Odalys Bogan","party":"Dem","address":"2017 S Meadow Marsh Dr, Lehi, UT 84043","precinct":"25LE35","hd":"52","v_score":"5.40460374","decile":"7","lat":40.363757354498,"lng":-111.835651892418},{"id":"135775","name":"Trevon Reilly-Tremblay","party":"","address":"1321 S Grey Goose Rd, Lehi, UT 84043","precinct":"25LE35","hd":"52","v_score":"19.91044312","decile":"10","lat":40.372481900106,"lng":-111.837159716238},{"id":"135921","name":"Leonard Jerde","party":"Rep","address":"1204 S 50 E, Unit 3, Lehi, UT 84043","precinct":"25LE35","hd":"52","v_score":"32.00858122","decile":"10","lat":40.372456061964,"lng":-111.848333115868},{"id":"136141","name":"Medora Crist","party":"Rep","address":"1303 S 50 E, Unit 3, Lehi, UT 84043","precinct":"25LE35","hd":"52","v_score":"5.40460374","decile":"7","lat":40.371518361867,"lng":-111.848188079364},{"id":"136142","name":"Krysten McClure","party":"","address":"1303 S 50 E, Unit 3, Lehi, UT 84043","precinct":"25LE35","hd":"52","v_score":"5.40460374","decile":"7","lat":40.371518361867,"lng":-111.848188079364},{"id":"136326","name":"Buna Nicolas-Purdy","party":"","address":"2048 S 900 E, Lehi, UT 84043","precinct":"25LE35","hd":"52","v_score":"2.315214949","decile":"5","lat":40.363704468573,"lng":-111.834543681364},{"id":"136328","name":"Carsen Oberbrunner","party":"Rep","address":"2048 S 900 E, Lehi, UT 84043","precinct":"25LE35","hd":"52","v_score":"2.315214949","decile":"5","lat":40.363704468573,"lng":-111.834543681364},{"id":"136772","name":"Justine Kuphal","party":"","address":"862 E 1630 S, Lehi, UT 84043","precinct":"25LE35","hd":"52","v_score":"16.34722249","decile":"9","lat":40.367965006496,"lng":-111.83498786507},{"id":"137182","name":"Mrs. Nancie O'Hara","party":"","address":"1351 S Grey Goose Rd, Lehi, UT 84043","precinct":"25LE35","hd":"52","v_score":"3.781490609","decile":"6","lat":40.372217871792,"lng":-111.837508124439},{"id":"137327","name":"Mr. Coley Dooley II","party":"Dem","address":"697 E 1530 S, Lehi, UT 84043","precinct":"25LE35","hd":"52","v_score":"6.724398202","decile":"8","lat":40.369709343959,"lng":-111.838527111191},{"id":"137836","name":"Deidre Green","party":"Dem","address":"1294 S 50 E, Unit 2, Lehi, UT 84043","precinct":"25LE35","hd":"52","v_score":"26.20798537","decile":"10","lat":40.371674265468,"lng":-111.848337064438},{"id":"137837","name":"Sonya Runolfsson","party":"","address":"1294 S 50 E, Unit 2, Lehi, UT 84043","precinct":"25LE35","hd":"52","v_score":"20.51100492","decile":"10","lat":40.371674265468,"lng":-111.848337064438},{"id":"138123","name":"Keion Goyette","party":"","address":"1463 S 270 E, Lehi, UT 84043","precinct":"25LE35","hd":"52","v_score":"0","decile":"2","lat":40.37017463758,"lng":-111.844910511755},{"id":"138321","name":"Claude Ruecker","party":"Dem","address":"222 E 1500 S, Lehi, UT 84043","precinct":"25LE35","hd":"52","v_score":"5.40460374","decile":"7","lat":40.369652707564,"lng":-111.845923499417},{"id":"138856","name":"Obie Reynolds","party":"Dem","address":"1437 S 270 E, Lehi, UT 84043","precinct":"25LE35","hd":"52","v_score":"1.193887297","decile":"4","lat":40.370579214817,"lng":-111.84491779637},{"id":"138923","name":"Elvira White MD","party":"Rep","address":"1330 S Grey Goose Rd, Lehi, UT 84043","precinct":"25LE35","hd":"52","v_score":"2.315214949","decile":"5","lat":40.371904898099,"lng":-111.838012512254},{"id":"138946","name":"Buell Hirthe V","party":"Rep","address":"2508 N 300 E, Lehi, UT 84043","precinct":"25LE35","hd":"52","v_score":"28.13856687","decile":"10","lat":40.418291683886,"lng":-111.840101579927},{"id":"139519","name":"Shelia DuBuque DVM","party":"","address":"1463 S 270 E, Lehi, UT 84043","precinct":"25LE35","hd":"52","v_score":"6.657533174","decile":"7","lat":40.37017463758,"lng":-111.844910511755},{"id":"139692","name":"Lilah Cassin","party":"","address":"1407 S Grey Goose Rd, Lehi, UT 84043","precinct":"25LE35","hd":"52","v_score":"5.815909755","decile":"7","lat":40.371645632954,"lng":-111.83810591799},{"id":"140097","name":"Mr. Gary Kunde II","party":"Rep","address":"1822 S 900 E, Lehi, UT 84043","precinct":"25LE35","hd":"52","v_score":"11.23922619","decile":"9","lat":40.366444360459,"lng":-111.834481533114},{"id":"140207","name":"Mr. Augustus Kirlin","party":"Rep","address":"665 E 1900 S, Lehi, UT 84043","precinct":"25LE35","hd":"52","v_score":"7.493443096","decile":"8","lat":40.365154965149,"lng":-111.839267929993},{"id":"140319","name":"Tex Harber","party":"","address":"1237 S 200 E, Lehi, UT 84043","precinct":"25LE35","hd":"52","v_score":"8.670935747","decile":"8","lat":40.385294707601,"lng":-111.869412594702},{"id":"140333","name":"Alanna Ullrich","party":"Dem","address":"1358 S 50 E, Unit 3, Lehi, UT 84043","precinct":"25LE35","hd":"52","v_score":"1.623113131","decile":"5","lat":40.371360416803,"lng":-111.848340891942},{"id":"140443","name":"Beula Emmerich","party":"Dem","address":"1183 S 100 E, Apt 2, Lehi, UT 84043","precinct":"25LE35","hd":"52","v_score":"11.38334565","decile":"9","lat":40.372215020954,"lng":-111.84742777562},{"id":"141029","name":"Lanette Berge DVM","party":"Rep","address":"1694 S Spring Creek Ranch Rd, Lehi, UT 84043","precinct":"25LE35","hd":"52","v_score":"2.315214949","decile":"5","lat":40.36767911258,"lng":-111.836439718131},{"id":"141049","name":"Shaylee Stamm","party":"","address":"1407 S Dragonfly Dr, Lehi, UT 84043","precinct":"25LE35","hd":"52","v_score":"11.78361243","decile":"9","lat":40.371607273222,"lng":-111.836026374153},{"id":"141057","name":"Ebenezer Shields","party":"","address":"1204 S 50 E, Unit 1, Lehi, UT 84043","precinct":"25LE35","hd":"52","v_score":"21.46269022","decile":"10","lat":40.372456061964,"lng":-111.848333115868},{"id":"141274","name":"Hester Thompson","party":"Dem","address":"1463 S 270 E, Lehi, UT 84043","precinct":"25LE35","hd":"52","v_score":"0","decile":"2","lat":40.37017463758,"lng":-111.844910511755},{"id":"141318","name":"Vernetta Gorczany","party":"Dem","address":"1899 S 900 E, Lehi, UT 84043","precinct":"25LE35","hd":"52","v_score":"0","decile":"2","lat":40.365033469253,"lng":-111.834375645002},{"id":"141843","name":"Lutie Farrell","party":"","address":"848 E 1630 S, Lehi, UT 84043","precinct":"25LE35","hd":"52","v_score":"1.121327652","decile":"3","lat":40.367995348119,"lng":-111.835177485716},{"id":"141925","name":"Lindsey Donnelly","party":"Rep","address":"1942 S 750 E, Lehi, UT 84043","precinct":"25LE35","hd":"52","v_score":"0","decile":"2","lat":40.364408743072,"lng":-111.836696509615},{"id":"141929","name":"Courtney Kuphal","party":"Dem","address":"1863 S 900 E, Lehi, UT 84043","precinct":"25LE35","hd":"52","v_score":"2.587603312","decile":"5","lat":40.365382241145,"lng":-111.834364631108},{"id":"142279","name":"Gerhardt Ullrich","party":"","address":"282 E 1210 S, Lehi, UT 84043","precinct":"25LE35","hd":"52","v_score":"3.781490609","decile":"6","lat":40.372907080281,"lng":-111.8447160754},{"id":"142478","name":"Breanne Mosciski","party":"","address":"1693 S Spring Creek Ranch Rd, Lehi, UT 84043","precinct":"25LE35","hd":"52","v_score":"8.347511332","decile":"8","lat":40.367686425874,"lng":-111.836288635149},{"id":"142627","name":"Dr. Kyleigh Volkman DDS","party":"Rep","address":"282 E 1210 S, Lehi, UT 84043","precinct":"25LE35","hd":"52","v_score":"3.781490609","decile":"6","lat":40.372907080281,"lng":-111.8447160754},{"id":"143058","name":"Ms. Rhona Moore PhD","party":"Rep","address":"671 E 1590 S, Lehi, UT 84043","precinct":"25LE35","hd":"52","v_score":"25.97773618","decile":"10","lat":40.368985909257,"lng":-111.838951614436},{"id":"143150","name":"Connor Grant-Ernser","party":"","address":"752 E 1675 S, Lehi, UT 84043","precinct":"25LE35","hd":"52","v_score":"5.40460374","decile":"7","lat":40.367807707136,"lng":-111.837639676499},{"id":"143199","name":"Jett Miller-Gottlieb","party":"Rep","address":"707 E 1900 S, Lehi, UT 84043","precinct":"25LE35","hd":"52","v_score":"5.815909755","decile":"7","lat":40.365069521777,"lng":-111.839002620941},{"id":"143286","name":"Miss Rebekah Hagenes DVM","party":"","address":"2091 S 750 E, Lehi, UT 84043","precinct":"25LE35","hd":"52","v_score":"3.781490609","decile":"6","lat":40.363053252669,"lng":-111.83658263237},{"id":"143331","name":"Elana Johnson DDS","party":"Dem","address":"625 E Bullrush Pkwy, Lehi, UT 84043","precinct":"25LE35","hd":"52","v_score":"4.069929862","decile":"7","lat":40.365895800782,"lng":-111.839168343578},{"id":"143370","name":"Candido Maggio Jr.","party":"Rep","address":"1863 S 900 E, Lehi, UT 84043","precinct":"25LE35","hd":"52","v_score":"2.315214949","decile":"5","lat":40.365382241145,"lng":-111.834364631108},{"id":"143610","name":"Grace Konopelski","party":"","address":"784 E 1530 S, Lehi, UT 84043","precinct":"25LE35","hd":"52","v_score":"2.315214949","decile":"5","lat":40.369575132321,"lng":-111.83656865243},{"id":"143706","name":"Taya Hahn-Berge","party":"Rep","address":"764 E Sandhill Ct, Lehi, UT 84043","precinct":"25LE35","hd":"52","v_score":"18.49474946","decile":"10","lat":40.366351031136,"lng":-111.837381767793},{"id":"144170","name":"Cedric Huels","party":"","address":"1962 S 750 E, Lehi, UT 84043","precinct":"25LE35","hd":"52","v_score":"9.61867875","decile":"8","lat":40.364225886742,"lng":-111.836701439589},{"id":"144252","name":"Roni Hoeger","party":"Rep","address":"269 E 1210 S, Lehi, UT 84043","precinct":"25LE35","hd":"52","v_score":"8.347511332","decile":"8","lat":40.373022241098,"lng":-111.844704706847},{"id":"144476","name":"Mattie Bins MD","party":"Rep","address":"1451 S Dragonfly Dr, Lehi, UT 84043","precinct":"25LE35","hd":"52","v_score":"10.87160818","decile":"9","lat":40.371174368348,"lng":-111.83614687569},{"id":"144777","name":"Washington Effertz-Price","party":"","address":"1323 S Dragonfly Dr, Lehi, UT 84043","precinct":"25LE35","hd":"52","v_score":"5.40460374","decile":"7","lat":40.372383075685,"lng":-111.835529192505},{"id":"145080","name":"Miss Caldonia Jast DDS","party":"Dem","address":"585 E 1540 S, Lehi, UT 84043","precinct":"25LE35","hd":"52","v_score":"0","decile":"3","lat":40.369547868028,"lng":-111.840187754121},{"id":"145643","name":"Joell Wintheiser","party":"Rep","address":"645 E 1590 S, Lehi, UT 84043","precinct":"25LE35","hd":"52","v_score":"3.781490609","decile":"6","lat":40.368991407062,"lng":-111.83921550808},{"id":"145669","name":"Saint Bins-Blick","party":"Dem","address":"1962 S 750 E, Lehi, UT 84043","precinct":"25LE35","hd":"52","v_score":"31.88369439","decile":"10","lat":40.364225886742,"lng":-111.836701439589},{"id":"146289","name":"Brad Reilly","party":"Rep","address":"668 E Bullrush Pkwy, Lehi, UT 84043","precinct":"25LE35","hd":"52","v_score":"6.881235673","decile":"8","lat":40.365417878853,"lng":-111.838396245089},{"id":"146945","name":"Ms. Viridiana Kling","party":"Dem","address":"1852 S 900 E, Lehi, UT 84043","precinct":"25LE35","hd":"52","v_score":"10.87160818","decile":"9","lat":40.366080691275,"lng":-111.834493017451},{"id":"147215","name":"Sada Parisian MD","party":"Dem","address":"607 E 1540 S, Lehi, UT 84043","precinct":"25LE35","hd":"52","v_score":"7.153624035","decile":"8","lat":40.369530189534,"lng":-111.840101887189},{"id":"150721","name":"Janae Leuschke DDS","party":"Dem","address":"1286 S Grey Goose Rd, Lehi, UT 84043","precinct":"25LE35","hd":"52","v_score":"5.40460374","decile":"7","lat":40.37221593479,"lng":-111.837703182876},{"id":"151415","name":"Kieran Russel","party":"Rep","address":"1913 S 900 E, Lehi, UT 84043","precinct":"25LE35","hd":"52","v_score":"2.315214949","decile":"5","lat":40.36489951631,"lng":-111.834375845543},{"id":"152199","name":"Darren Bailey-Blanda","party":"Rep","address":"2090 S 750 E, Lehi, UT 84043","precinct":"25LE35","hd":"52","v_score":"15.84893492","decile":"9","lat":40.363055606232,"lng":-111.83673299142},{"id":"152673","name":"Jaiden Bashirian","party":"Dem","address":"184 E 1290 S, Lehi, UT 84043","precinct":"25LE35","hd":"52","v_score":"2.315214949","decile":"5","lat":40.371891636781,"lng":-111.846263856787},{"id":"152777","name":"Ms. Euna Christiansen","party":"Dem","address":"1327 S 100 E, Unit 3, Lehi, UT 84043","precinct":"25LE35","hd":"52","v_score":"8.280646305","decile":"8","lat":40.371620000217,"lng":-111.847407407702},{"id":"153203","name":"Augustina Altenwerth","party":"","address":"1730 S Weeping Willow Way, Lehi, UT 84043","precinct":"25LE35","hd":"52","v_score":"5.40460374","decile":"7","lat":40.367217100383,"lng":-111.83984361053},{"id":"153912","name":"Stormy Rowe-Wisozk","party":"Dem","address":"83 E 1230 S, Unit 2, Lehi, UT 84043","precinct":"25LE35","hd":"52","v_score":"2.315214949","decile":"5","lat":40.372680833591,"lng":-111.847624248381},{"id":"154182","name":"Chanda Bruen","party":"Dem","address":"638 E 1530 S, Lehi, UT 84043","precinct":"25LE35","hd":"52","v_score":"9.917069994","decile":"9","lat":40.369622370569,"lng":-111.838928195406},{"id":"154610","name":"Dr. Dorr Runolfsdottir","party":"","address":"1324 S Dragonfly Dr, Lehi, UT 84043","precinct":"25LE35","hd":"52","v_score":"5.40460374","decile":"7","lat":40.37241191337,"lng":-111.835677271199},{"id":"154826","name":"Yetta Crona","party":"Dem","address":"1547 S 740 E, Lehi, UT 84043","precinct":"25LE35","hd":"52","v_score":"5.40460374","decile":"7","lat":40.369451141291,"lng":-111.837458588594},{"id":"155396","name":"Vara Monahan","party":"Rep","address":"739 E 1675 S, Lehi, UT 84043","precinct":"25LE35","hd":"52","v_score":"8.347511332","decile":"8","lat":40.367922298527,"lng":-111.837725547634},{"id":"157360","name":"Reginald Schamberger-Skiles","party":"Rep","address":"1357 S 100 E, Apt M4, Lehi, UT 84043","precinct":"25LE35","hd":"52","v_score":"6.724398202","decile":"8","lat":40.371482359795,"lng":-111.847403052011},{"id":"158341","name":"Jahir Hagenes","party":"","address":"668 E 1900 S, Lehi, UT 84043","precinct":"25LE35","hd":"52","v_score":"3.93832808","decile":"6","lat":40.364945911632,"lng":-111.839003747917},{"id":"160245","name":"Mrs. Dayanara Ullrich","party":"Rep","address":"752 E 1675 S, Lehi, UT 84043","precinct":"25LE35","hd":"52","v_score":"3.93832808","decile":"6","lat":40.367807707136,"lng":-111.837639676499},{"id":"160565","name":"Kianna O'Conner-Skiles","party":"","address":"588 E 1900 S, Lehi, UT 84043","precinct":"25LE35","hd":"52","v_score":"9.757278238","decile":"8","lat":40.365152707616,"lng":-111.839973055711},{"id":"161440","name":"Ora Zboncak","party":"","address":"665 E 1900 S, Lehi, UT 84043","precinct":"25LE35","hd":"52","v_score":"2.315214949","decile":"5","lat":40.365154965149,"lng":-111.839267929993},{"id":"161781","name":"Benjamine Tromp","party":"Dem","address":"1299 S 100 E, Unit 1, Lehi, UT 84043","precinct":"25LE35","hd":"52","v_score":"23.74421029","decile":"10","lat":40.37174846461,"lng":-111.847411473014},{"id":"162142","name":"Hilbert Mosciski","party":"Rep","address":"1913 S 900 E, Lehi, UT 84043","precinct":"25LE35","hd":"52","v_score":"1.121327652","decile":"3","lat":40.36489951631,"lng":-111.834375845543},{"id":"164198","name":"Thelma Pagac","party":"Rep","address":"1320 S Grey Goose Rd, Lehi, UT 84043","precinct":"25LE35","hd":"52","v_score":"3.781490609","decile":"6","lat":40.371976230878,"lng":-111.837944746105},{"id":"164694","name":"Kirby Howell","party":"Rep","address":"848 E 2100 S, Lehi, UT 84043","precinct":"25LE35","hd":"52","v_score":"13.61621523","decile":"9","lat":40.362889476637,"lng":-111.835579825745},{"id":"164943","name":"Vannie Effertz-Boyle","party":"","address":"751 E Sandhill Ct, Lehi, UT 84043","precinct":"25LE35","hd":"52","v_score":"2.315214949","decile":"5","lat":40.366515260171,"lng":-111.837472181706},{"id":"165232","name":"Mrs. Sara Mante","party":"Dem","address":"671 E 1530 S, Lehi, UT 84043","precinct":"25LE35","hd":"52","v_score":"5.40460374","decile":"7","lat":40.369718887177,"lng":-111.838746992921},{"id":"165260","name":"Dr. Jerrod Dibbert DVM","party":"Dem","address":"1320 S Grey Goose Rd, Lehi, UT 84043","precinct":"25LE35","hd":"52","v_score":"5.40460374","decile":"7","lat":40.371976230878,"lng":-111.837944746105},{"id":"165329","name":"Carmel Klocko-Gutmann","party":"Rep","address":"1267 S 100 E, Unit 4, Lehi, UT 84043","precinct":"25LE35","hd":"52","v_score":"24.33873278","decile":"10","lat":40.372000903772,"lng":-111.847419786202},{"id":"165428","name":"Mrs. Rosalia O'Connell MD","party":"","address":"1775 S Meadow Marsh Dr, Lehi, UT 84043","precinct":"25LE35","hd":"52","v_score":"1.121327652","decile":"3","lat":40.366581568271,"lng":-111.835806597784},{"id":"167409","name":"Shandra Mayer-Rempel","party":"Dem","address":"1840 S Weeping Willow Way, Lehi, UT 84043","precinct":"25LE35","hd":"52","v_score":"16.56594146","decile":"9","lat":40.366270662466,"lng":-111.839856212074},{"id":"167723","name":"Codie Armstrong","party":"","address":"1396 S Grey Goose Rd, Lehi, UT 84043","precinct":"25LE35","hd":"52","v_score":"1.193887297","decile":"4","lat":40.371391201007,"lng":-111.838421469028},{"id":"168179","name":"Warner Hessel","party":"Dem","address":"725 E Sandhill Ct, Lehi, UT 84043","precinct":"25LE35","hd":"52","v_score":"42.38158736","decile":"10","lat":40.366630970195,"lng":-111.837767745256},{"id":"168205","name":"Cory Cummerata-Stiedemann","party":"Dem","address":"754 E 1675 S, Lehi, UT 84043","precinct":"25LE35","hd":"52","v_score":"5.40460374","decile":"7","lat":40.367807707135,"lng":-111.837627409192},{"id":"168870","name":"Pearle Spinka","party":"Dem","address":"2038 S Meadow Marsh Dr, Lehi, UT 84043","precinct":"25LE35","hd":"52","v_score":"22.92703438","decile":"10","lat":40.36355832802,"lng":-111.835807431573},{"id":"168954","name":"Guillermo O'Connell-Rodriguez","party":"","address":"750 E Sandhill Ct, Lehi, UT 84043","precinct":"25LE35","hd":"52","v_score":"10.13721141","decile":"9","lat":40.366413336534,"lng":-111.837540917396},{"id":"168962","name":"Henery Oberbrunner","party":"","address":"724 E 1675 S, Lehi, UT 84043","precinct":"25LE35","hd":"52","v_score":"16.4922578","decile":"9","lat":40.367807707149,"lng":-111.837811418799},{"id":"168966","name":"Ellwood Bernhard","party":"Dem","address":"212 E 1290 S, Lehi, UT 84043","precinct":"25LE35","hd":"52","v_score":"8.280646305","decile":"8","lat":40.371893707305,"lng":-111.845853690519},{"id":"169064","name":"Budd Corwin","party":"","address":"1985 S Meadow Marsh Dr, Lehi, UT 84043","precinct":"25LE35","hd":"52","v_score":"2.315214949","decile":"5","lat":40.36405011092,"lng":-111.835644368266},{"id":"169892","name":"Harriet Medhurst","party":"","address":"283 E 1290 S, Lehi, UT 84043","precinct":"25LE35","hd":"52","v_score":"9.405332525","decile":"8","lat":40.372008298601,"lng":-111.844710769983},{"id":"170320","name":"Miss Leia Purdy DDS","party":"","address":"684 E 1590 S, Lehi, UT 84043","precinct":"25LE35","hd":"52","v_score":"4.283276088","decile":"7","lat":40.368868400295,"lng":-111.83881362903},{"id":"170391","name":"Alf Nolan","party":"Dem","address":"739 E 1675 S, Lehi, UT 84043","precinct":"25LE35","hd":"52","v_score":"8.347511332","decile":"8","lat":40.367922298527,"lng":-111.837725547634},{"id":"170794","name":"Royal Schaden-Wehner","party":"","address":"276 E 1290 S, Lehi, UT 84043","precinct":"25LE35","hd":"52","v_score":"16.2066738","decile":"9","lat":40.371893707225,"lng":-111.844808734614},{"id":"171113","name":"Cooper Moore","party":"Dem","address":"1429 S 740 E, Lehi, UT 84043","precinct":"25LE35","hd":"52","v_score":"34.01018412","decile":"10","lat":40.370996586823,"lng":-111.837132146207},{"id":"172082","name":"Orvel Tillman-Hammes","party":"","address":"632 E Sandhill Ct, Lehi, UT 84043","precinct":"25LE35","hd":"52","v_score":"9.873147294","decile":"8","lat":40.366991409076,"lng":-111.839207162538},{"id":"172616","name":"Mona Pfannerstill MD","party":"Dem","address":"1441 S 740 E, Lehi, UT 84043","precinct":"25LE35","hd":"52","v_score":"4.210716443","decile":"7","lat":40.370848053927,"lng":-111.837179336362},{"id":"172625","name":"Miss Nakia Beier MD","party":"","address":"212 E 1290 S, Lehi, UT 84043","precinct":"25LE35","hd":"52","v_score":"15.00919004","decile":"9","lat":40.371893707305,"lng":-111.845853690519},{"id":"172676","name":"Georgianna Marks-Mayert","party":"Dem","address":"724 E 1675 S, Lehi, UT 84043","precinct":"25LE35","hd":"52","v_score":"3.93832808","decile":"6","lat":40.367807707149,"lng":-111.837811418799},{"id":"172901","name":"Candyce Lindgren","party":"Dem","address":"751 E 1675 S, Lehi, UT 84043","precinct":"25LE35","hd":"52","v_score":"20.27055074","decile":"10","lat":40.367922298521,"lng":-111.837651943791},{"id":"173066","name":"Emilie Dickens","party":"","address":"713 E 1470 S, Lehi, UT 84043","precinct":"25LE35","hd":"52","v_score":"1.121327652","decile":"3","lat":40.370479109728,"lng":-111.838211437986},{"id":"174668","name":"Ms. Carma Mertz DVM","party":"Rep","address":"1985 S Meadow Marsh Dr, Lehi, UT 84043","precinct":"25LE35","hd":"52","v_score":"1.193887297","decile":"4","lat":40.36405011092,"lng":-111.835644368266},{"id":"174906","name":"Ethelbert Zemlak","party":"Dem","address":"1755 S 710 E, Lehi, UT 84043","precinct":"25LE35","hd":"52","v_score":"9.207031979","decile":"8","lat":40.366918961753,"lng":-111.838017944869},{"id":"175201","name":"Gilberto Hamill","party":"","address":"83 E 1230 S, Apt F4, Lehi, UT 84043","precinct":"25LE35","hd":"52","v_score":"1.193887297","decile":"4","lat":40.372680833591,"lng":-111.847624248381},{"id":"175323","name":"Ken Kiehn","party":"","address":"825 E Meadow Marsh Dr, Lehi, UT 84043","precinct":"25LE35","hd":"52","v_score":"7.282185415","decile":"8","lat":40.366842443742,"lng":-111.836159651539},{"id":"175347","name":"Malvin Boyle","party":"Rep","address":"738 E 1590 S, Lehi, UT 84043","precinct":"25LE35","hd":"52","v_score":"8.421194992","decile":"8","lat":40.368856981777,"lng":-111.838265542231},{"id":"175668","name":"Winter Bartell","party":"Dem","address":"709 E 1590 S, Lehi, UT 84043","precinct":"25LE35","hd":"52","v_score":"5.40460374","decile":"7","lat":40.368977874003,"lng":-111.838565923725},{"id":"175790","name":"Mr. Henry Ratke III","party":"","address":"213 E 1450 S, Lehi, UT 84043","precinct":"25LE35","hd":"52","v_score":"12.49472132","decile":"9","lat":40.370514298873,"lng":-111.846047651104},{"id":"176230","name":"Malaya Gleichner","party":"Rep","address":"2096 S Bullrush Pkwy, Lehi, UT 84043","precinct":"25LE35","hd":"52","v_score":"8.347511332","decile":"8","lat":40.363006511336,"lng":-111.837786752644},{"id":"176324","name":"Dr. Citlalli Steuber","party":"Dem","address":"675 E 1900 S, Lehi, UT 84043","precinct":"25LE35","hd":"52","v_score":"2.315214949","decile":"5","lat":40.36513693443,"lng":-111.839206416216},{"id":"177209","name":"Gerrit Wunsch","party":"Rep","address":"1375 S Dragonfly Dr, Lehi, UT 84043","precinct":"25LE35","hd":"52","v_score":"8.347511332","decile":"8","lat":40.371899631471,"lng":-111.835837658974},{"id":"177361","name":"Dr. Cass Ledner III","party":"Rep","address":"1377 S 100 E, Unit 1, Lehi, UT 84043","precinct":"25LE35","hd":"52","v_score":"14.74039814","decile":"9","lat":40.371390599514,"lng":-111.847400148217},{"id":"178303","name":"Mrs. Emmaline Stiedemann","party":"Dem","address":"232 E 1500 S, Lehi, UT 84043","precinct":"25LE35","hd":"52","v_score":"1.46627566","decile":"4","lat":40.369652707555,"lng":-111.845808898006},{"id":"179065","name":"Marjorie Ferry-Koelpin","party":"Rep","address":"658 E 1470 S, Lehi, UT 84043","precinct":"25LE35","hd":"52","v_score":"0","decile":"3","lat":40.370369436148,"lng":-111.838772812044},{"id":"179496","name":"Dr. Arletta Funk DVM","party":"Rep","address":"751 E Sandhill Ct, Lehi, UT 84043","precinct":"25LE35","hd":"52","v_score":"2.315214949","decile":"5","lat":40.366515260171,"lng":-111.837472181706},{"id":"179541","name":"Kaiya Ankunding","party":"","address":"638 E 1530 S, Lehi, UT 84043","precinct":"25LE35","hd":"52","v_score":"8.507303088","decile":"8","lat":40.369622370569,"lng":-111.838928195406},{"id":"179681","name":"Audie Reynolds","party":"","address":"675 E 1900 S, Lehi, UT 84043","precinct":"25LE35","hd":"52","v_score":"2.315214949","decile":"5","lat":40.36513693443,"lng":-111.839206416216},{"id":"180022","name":"Ronda Grady","party":"Rep","address":"1330 S Grey Goose Rd, Lehi, UT 84043","precinct":"25LE35","hd":"52","v_score":"3.781490609","decile":"6","lat":40.371904898099,"lng":-111.838012512254},{"id":"180780","name":"Lupe Barton","party":"Rep","address":"217 E 1500 S, Lehi, UT 84043","precinct":"25LE35","hd":"52","v_score":"2.315214949","decile":"5","lat":40.369767298953,"lng":-111.845992260248},{"id":"180896","name":"Darrin Mohr-Collins","party":"Dem","address":"1822 S 900 E, Lehi, UT 84043","precinct":"25LE35","hd":"52","v_score":"18.60295045","decile":"10","lat":40.366444360459,"lng":-111.834481533114}]