[{"vid":"1240562","name":"Mrs. Janell Keebler","party":"","address":"1386 N Linen Way, Lehi, UT 84048","precinct":"25LE49","hd":"51","v_score":"0","decile":"1","lat":40.404140910231256,"lng":-111.9156235912846,"phone":"(102) 429-0501","sd":"22","ssbd":"10","lsbd":"School Board Aspen Peaks 5"},{"vid":"1296129","name":"Dr. Lexie Mertz","party":"","address":"3976 W 1180 N, Lehi, UT 84043","precinct":"25LE49","hd":"51","v_score":"0","decile":"1","lat":40.40198541302547,"lng":-111.91238475852576,"phone":"(114) 375-5393","sd":"22","ssbd":"10","lsbd":"School Board Aspen Peaks 5"},{"vid":"1316803","name":"Sing Kshlerin","party":"Dem","address":"4196 W 1470 N, Lehi, UT 84043","precinct":"25LE49","hd":"51","v_score":"10.15822798","decile":"9","lat":40.405655842976124,"lng":-111.91622624627381,"phone":"(296) 924-2749","sd":"22","ssbd":"10","lsbd":"School Board Aspen Peaks 5"},{"vid":"0786c3d85283cb8362ad18a2ade87778f5f8d2f8a12154f2a7600fd5e2dc3c9e","name":"Tawanda Feeney","party":"Rep","address":"4160 W 1470 N, Lehi, UT 84043","precinct":"25LE49","hd":"51","v_score":"2.660162957","decile":"5","lat":40.405657972541924,"lng":-111.91580286309389,"phone":"(960) 033-7770","sd":"22","ssbd":"10","lsbd":"School Board Aspen Peaks 5"},{"vid":"d499e9918df54c1b1590cd0743d333287f76c1abc7e7420ea07ea2c27bbaef5a","name":"Machelle Daniel MD","party":"Rep","address":"4304 W 1470 N, Lehi, UT 84048","precinct":"25LE49","hd":"51","v_score":"11.29723756","decile":"9","lat":40.40560065118197,"lng":-111.91752585070236,"phone":"(503) 544-6415","sd":"22","ssbd":"10","lsbd":"School Board Aspen Peaks 5"},{"vid":"1427493","name":"Clabe Runolfsson-Schoen","party":"Dem","address":"1152 N West Rim Dr, Unit 102, Lehi, UT 84043","precinct":"25LE49","hd":"51","v_score":"3.93832808","decile":"6","lat":40.4016358615191,"lng":-111.91439087502908,"phone":"(947) 743-8866","sd":"22","ssbd":"10","lsbd":"School Board Aspen Peaks 5"},{"vid":"1501279","name":"Carlisle Kovacek","party":"","address":"4068 W 1100 N, Lehi, UT 84043","precinct":"25LE49","hd":"51","v_score":"3.93832808","decile":"6","lat":40.40140824703226,"lng":-111.91363935247877,"phone":"(712) 266-2735","sd":"22","ssbd":"10","lsbd":"School Board Aspen Peaks 5"},{"vid":"1522345","name":"Mr. Otto Cormier V","party":"","address":"1094 N 3980 W, Unit 201, Lehi, UT 84043","precinct":"25LE49","hd":"51","v_score":"2.587603312","decile":"5","lat":40.400806538147066,"lng":-111.91224955267315,"phone":"(931) 851-7327","sd":"22","ssbd":"10","lsbd":"School Board Aspen Peaks 5"},{"vid":"1541867","name":"Abie Vandervort V","party":"Dem","address":"4044 W 1180 N, Lehi, UT 84048","precinct":"25LE49","hd":"51","v_score":"5.530510904","decile":"7","lat":40.401982265430426,"lng":-111.91327678398594,"phone":"(146) 286-6837","sd":"22","ssbd":"10","lsbd":"School Board Aspen Peaks 5"},{"vid":"1597471","name":"Dr. Glennis Schaden MD","party":"Dem","address":"1338 N West Rim Dr, Lehi, UT 84043","precinct":"25LE49","hd":"51","v_score":"3.781490609","decile":"6","lat":40.40367866964046,"lng":-111.91589421541018,"phone":"(602) 614-8297","sd":"22","ssbd":"10","lsbd":"School Board Aspen Peaks 5"},{"vid":"1602957","name":"Vilma Grady","party":"Dem","address":"1442 N Linen Way, Lehi, UT 84043","precinct":"25LE49","hd":"51","v_score":"3.93832808","decile":"6","lat":40.40505075054165,"lng":-111.91522141403391,"phone":"(711) 411-2810","sd":"22","ssbd":"10","lsbd":"School Board Aspen Peaks 5"},{"vid":"1610094","name":"Unique McDermott","party":"","address":"4086 W 1470 N, Lehi, UT 84043","precinct":"25LE49","hd":"51","v_score":"3.93832808","decile":"6","lat":40.40566351193005,"lng":-111.91468480102667,"phone":"(687) 401-8267","sd":"22","ssbd":"10","lsbd":"School Board Aspen Peaks 5"},{"vid":"aca43cd8389450d3030554ec58e374205126e3423cb572d9f339511be725ed2c","name":"Anson Hackett","party":"Dem","address":"894 N Hillcrest Ln, Lehi, UT 84043","precinct":"25LE49","hd":"51","v_score":"3.93832808","decile":"6","lat":40.398145510021436,"lng":-111.91440595084704,"phone":"(966) 112-1988","sd":"22","ssbd":"10","lsbd":"School Board Aspen Peaks 5"},{"vid":"1666969","name":"Ms. Azul Casper","party":"","address":"1338 N West Rim Dr, Lehi, UT 84048","precinct":"25LE49","hd":"51","v_score":"5.40460374","decile":"7","lat":40.40367866964046,"lng":-111.91589421541018,"phone":"(151) 168-5173","sd":"22","ssbd":"10","lsbd":"School Board Aspen Peaks 5"},{"vid":"1683989","name":"Hollis Hintz","party":"Dem","address":"847 N Hilltop Dr, Lehi, UT 84043","precinct":"25LE49","hd":"51","v_score":"0","decile":"1","lat":40.39764172492448,"lng":-111.91499751912976,"phone":"(432) 924-5490","sd":"22","ssbd":"10","lsbd":"School Board Aspen Peaks 5"},{"vid":"cd893e2443001a5c4973d5357c5226ee8637f2dc1f52a0cc2ca4802ce0fd5c00","name":"Mr. Alonzo Ernser Jr.","party":"Dem","address":"4068 W King Peak Way, Unit 302, Lehi, UT 84048","precinct":"25LE49","hd":"51","v_score":"20.4068707","decile":"10","lat":40.40265001785512,"lng":-111.91360932665827,"phone":"(821) 695-9411","sd":"22","ssbd":"10","lsbd":"School Board Aspen Peaks 5"},{"vid":"1695351","name":"Franz Hirthe","party":"Rep","address":"4196 W 1470 N, Lehi, UT 84043","precinct":"25LE49","hd":"51","v_score":"11.2235539","decile":"9","lat":40.405655842976124,"lng":-111.91622624627381,"phone":"(172) 614-9792","sd":"22","ssbd":"10","lsbd":"School Board Aspen Peaks 5"},{"vid":"2bf75a71cf9eb408430964c036c8bc78917266955f494f1ba31d9b9cc0e18a50","name":"Erika Rowe","party":"Rep","address":"897 N Hilltop Dr, Lehi, UT 84048","precinct":"25LE49","hd":"51","v_score":"0","decile":"1","lat":40.398456205432694,"lng":-111.91521211245777,"phone":"(926) 336-3543","sd":"22","ssbd":"10","lsbd":"School Board Aspen Peaks 5"},{"vid":"1750950","name":"Araminta Stehr DDS","party":"Dem","address":"4196 W 1470 N, Lehi, UT 84043","precinct":"25LE49","hd":"51","v_score":"3.781490609","decile":"6","lat":40.405655842976124,"lng":-111.91622624627381,"phone":"(121) 493-1279","sd":"22","ssbd":"10","lsbd":"School Board Aspen Peaks 5"},{"vid":"64bbdecf529a009a8101534c2cb26e7a9f2485b9bfdda9e8fc2dde93222cde0c","name":"Benjman Jacobs","party":"Rep","address":"3993 W Big Horn Dr, Unit 301, Lehi, UT 84048","precinct":"25LE49","hd":"51","v_score":"1.121327652","decile":"3","lat":40.40254026327227,"lng":-111.91237562224012,"phone":"(387) 671-7363","sd":"22","ssbd":"10","lsbd":"School Board Aspen Peaks 5"},{"vid":"1818982","name":"Maudie Kiehn","party":"Dem","address":"1456 N 3920 W, Lehi, UT 84048","precinct":"25LE49","hd":"51","v_score":"8.94332411","decile":"8","lat":40.405174055363844,"lng":-111.91207162576033,"phone":"(163) 552-4263","sd":"22","ssbd":"10","lsbd":"School Board Aspen Peaks 5"},{"vid":"1820029","name":"Theo King","party":"","address":"1310 N Sage Dr, Lehi, UT 84043","precinct":"25LE49","hd":"51","v_score":"15.0180437","decile":"9","lat":40.40308987269337,"lng":-111.91325842439781,"phone":"(288) 880-6639","sd":"22","ssbd":"10","lsbd":"School Board Aspen Peaks 5"},{"vid":"1857347","name":"Uriel Keebler","party":"Dem","address":"1394 N Linen Way, Lehi, UT 84048","precinct":"25LE49","hd":"51","v_score":"3.93832808","decile":"6","lat":40.404287391547285,"lng":-111.91544270668793,"phone":"(696) 473-3755","sd":"22","ssbd":"10","lsbd":"School Board Aspen Peaks 5"},{"vid":"1859344","name":"Ruby Paucek","party":"Dem","address":"1092 N Sawtooth Way, Unit 302, Lehi, UT 84043","precinct":"25LE49","hd":"51","v_score":"2.315214949","decile":"5","lat":40.40106057853855,"lng":-111.9129457786091,"phone":"(670) 850-8524","sd":"22","ssbd":"10","lsbd":"School Board Aspen Peaks 5"},{"vid":"1863281","name":"Alvaro Beer","party":"","address":"1087 N Sawtooth Way, Unit 102, Lehi, UT 84043","precinct":"25LE49","hd":"51","v_score":"0","decile":"1","lat":40.40079878049052,"lng":-111.91327870897577,"phone":"(857) 994-3437","sd":"22","ssbd":"10","lsbd":"School Board Aspen Peaks 5"},{"vid":"1866363","name":"Francisca Reichert","party":"Rep","address":"4268 W 1470 N, Lehi, UT 84043","precinct":"25LE49","hd":"51","v_score":"2.587603312","decile":"5","lat":40.405603541262415,"lng":-111.91705777558765,"phone":"(359) 721-0776","sd":"22","ssbd":"10","lsbd":"School Board Aspen Peaks 5"},{"vid":"1878283","name":"Marcelino Pfannerstill","party":"Rep","address":"4045 W 1180 N, Lehi, UT 84043","precinct":"25LE49","hd":"51","v_score":"2.587603312","decile":"5","lat":40.40162924623558,"lng":-111.91330554858033,"phone":"(887) 182-7467","sd":"22","ssbd":"10","lsbd":"School Board Aspen Peaks 5"},{"vid":"c2e89042024bf1322b2d9b6bb41dec1f2a611dbcd83c19d94b2e1695ebfb049a","name":"Toney Herman","party":"Dem","address":"1092 N Sawtooth Way, Unit 202, Lehi, UT 84043","precinct":"25LE49","hd":"51","v_score":"5.40460374","decile":"7","lat":40.40106057853855,"lng":-111.9129457786091,"phone":"(734) 293-4214","sd":"22","ssbd":"10","lsbd":"School Board Aspen Peaks 5"},{"vid":"5878f61f08981dbf0ecd187b0f375af57b7802fc85e4bc5bda3040bfbf3ea5f1","name":"Sophia Miller-Zieme","party":"","address":"1092 N Sawtooth Way, Lehi, UT 84048","precinct":"25LE49","hd":"51","v_score":"3.93832808","decile":"6","lat":40.40106057853855,"lng":-111.9129457786091,"phone":"(505) 735-8710","sd":"22","ssbd":"10","lsbd":"School Board Aspen Peaks 5"},{"vid":"1944870","name":"Delwin Pouros-Fritsch","party":"","address":"1390 N Alder Way, Lehi, UT 84043","precinct":"25LE49","hd":"51","v_score":"1.193887297","decile":"3","lat":40.40415852182542,"lng":-111.9135854147215,"phone":"(916) 589-7732","sd":"22","ssbd":"10","lsbd":"School Board Aspen Peaks 5"},{"vid":"1958487","name":"Daisha Douglas-Block","party":"","address":"1093 N 3980 W, Unit 204, Lehi, UT 84043","precinct":"25LE49","hd":"51","v_score":"11.30609121","decile":"9","lat":40.40079783183184,"lng":-111.91256916412718,"phone":"(474) 062-8556","sd":"22","ssbd":"10","lsbd":"School Board Aspen Peaks 5"},{"vid":"1963972","name":"Bernetta Bosco","party":"Rep","address":"1335 N 3960 W, Lehi, UT 84043","precinct":"25LE49","hd":"51","v_score":"3.997370217","decile":"6","lat":40.403326299765986,"lng":-111.91235082304895,"phone":"(935) 929-1469","sd":"22","ssbd":"10","lsbd":"School Board Aspen Peaks 5"},{"vid":"1989531","name":"Dr. Monroe Dare","party":"","address":"1092 N Sawtooth Way, Apt Jj202, Lehi, UT 84043","precinct":"25LE49","hd":"51","v_score":"6.896907962","decile":"8","lat":40.40106057853855,"lng":-111.9129457786091,"phone":"(897) 741-0516","sd":"22","ssbd":"10","lsbd":"School Board Aspen Peaks 5"},{"vid":"2030189","name":"Isaak Bartoletti","party":"Rep","address":"1443 N Alder Way, Lehi, UT 84043","precinct":"25LE49","hd":"51","v_score":"0","decile":"1","lat":40.404947787741946,"lng":-111.91396298688238,"phone":"(329) 116-5601","sd":"22","ssbd":"10","lsbd":"School Board Aspen Peaks 5"},{"vid":"2057497","name":"Ethelbert Grady","party":"Dem","address":"4138 W Hillscape Cir, Lehi, UT 84043","precinct":"25LE49","hd":"51","v_score":"1.193887297","decile":"3","lat":40.39885229375312,"lng":-111.91464830696825,"phone":"(785) 157-4333","sd":"22","ssbd":"10","lsbd":"School Board Aspen Peaks 5"},{"vid":"2060685","name":"Mr. Carlo Bogisich MD","party":"Dem","address":"847 N Hilltop Dr, Lehi, UT 84043","precinct":"25LE49","hd":"51","v_score":"1.46627566","decile":"4","lat":40.39764172492448,"lng":-111.91499751912976,"phone":"(325) 227-1274","sd":"22","ssbd":"10","lsbd":"School Board Aspen Peaks 5"},{"vid":"2064475","name":"Cordero O'Hara III","party":"","address":"4045 W 1180 N, Lehi, UT 84043","precinct":"25LE49","hd":"51","v_score":"2.587603312","decile":"5","lat":40.40162924623558,"lng":-111.91330554858033,"phone":"(718) 499-2449","sd":"22","ssbd":"10","lsbd":"School Board Aspen Peaks 5"},{"vid":"2074563","name":"Shan Steuber PhD","party":"","address":"1340 N Sage Dr, Lehi, UT 84048","precinct":"25LE49","hd":"51","v_score":"6.881235673","decile":"8","lat":40.40343315803331,"lng":-111.9130050270835,"phone":"(586) 807-5857","sd":"22","ssbd":"10","lsbd":"School Board Aspen Peaks 5"},{"vid":"2081468","name":"Nila Schulist","party":"Rep","address":"1464 N 3920 W, Lehi, UT 84043","precinct":"25LE49","hd":"51","v_score":"1.193887297","decile":"3","lat":40.405294803434394,"lng":-111.91207242472194,"phone":"(356) 780-0151","sd":"22","ssbd":"10","lsbd":"School Board Aspen Peaks 5"},{"vid":"2085295","name":"Misty Beier","party":"","address":"4041 W Uinta Way, Unit 101, Lehi, UT 84048","precinct":"25LE49","hd":"51","v_score":"8.347511332","decile":"8","lat":40.402252297795826,"lng":-111.91316046347539,"phone":"(892) 368-9201","sd":"22","ssbd":"10","lsbd":"School Board Aspen Peaks 5"},{"vid":"2117961","name":"Therman Heller","party":"Dem","address":"1334 N Sage Dr, Lehi, UT 84043","precinct":"25LE49","hd":"51","v_score":"8.421194992","decile":"8","lat":40.4033731920432,"lng":-111.91304451073518,"phone":"(206) 650-9586","sd":"22","ssbd":"10","lsbd":"School Board Aspen Peaks 5"},{"vid":"2125060","name":"Wilton Rau","party":"","address":"1310 N Alder Way, Lehi, UT 84043","precinct":"25LE49","hd":"51","v_score":"3.781490609","decile":"6","lat":40.402961476240876,"lng":-111.91445920003171,"phone":"(133) 266-6673","sd":"22","ssbd":"10","lsbd":"School Board Aspen Peaks 5"},{"vid":"2130154","name":"Damarion Mohr","party":"","address":"4027 W Big Horn Dr, Unit Aa302, Lehi, UT 84043","precinct":"25LE49","hd":"51","v_score":"5.40460374","decile":"7","lat":40.402539627993974,"lng":-111.91291181001438,"phone":"(639) 380-9678","sd":"22","ssbd":"10","lsbd":"School Board Aspen Peaks 5"},{"vid":"662c99632703bebf498bbfe2a5ef3e104a25155dd7b2969e736492b3c9f3184d","name":"Mr. Bartley Swaniawski","party":"Rep","address":"1452 N 3920 W, Lehi, UT 84043","precinct":"25LE49","hd":"51","v_score":"13.84916389","decile":"9","lat":40.40510589854172,"lng":-111.91208505482524,"phone":"(159) 399-9506","sd":"22","ssbd":"10","lsbd":"School Board Aspen Peaks 5"},{"vid":"2167248","name":"Clydie Stracke DDS","party":"Rep","address":"1394 N Linen Way, Lehi, UT 84043","precinct":"25LE49","hd":"51","v_score":"3.089388791","decile":"6","lat":40.404287391547285,"lng":-111.91544270668793,"phone":"(568) 986-3993","sd":"22","ssbd":"10","lsbd":"School Board Aspen Peaks 5"},{"vid":"2173907","name":"Keri Corwin","party":"Rep","address":"1414 N Linen Way, Lehi, UT 84043","precinct":"25LE49","hd":"51","v_score":"3.93832808","decile":"6","lat":40.40462370816751,"lng":-111.91531920313291,"phone":"(708) 931-9523","sd":"22","ssbd":"10","lsbd":"School Board Aspen Peaks 5"},{"vid":"8f0c3d3dba64f7be8fe6689565e5c775cc1a7a949da0ca59f74adce876255b3e","name":"Caitlyn Cruickshank","party":"","address":"1385 N Linen Way, Lehi, UT 84043","precinct":"25LE49","hd":"51","v_score":"3.93832808","decile":"6","lat":40.404306881014016,"lng":-111.91615536544316,"phone":"(473) 645-5895","sd":"22","ssbd":"10","lsbd":"School Board Aspen Peaks 5"},{"vid":"2179439","name":"Mena Rempel","party":"","address":"1392 N West Rim Dr, Lehi, UT 84048","precinct":"25LE49","hd":"51","v_score":"0","decile":"1","lat":40.404383677351596,"lng":-111.91670178168502,"phone":"(388) 051-4824","sd":"22","ssbd":"10","lsbd":"School Board Aspen Peaks 5"},{"vid":"59fdc049564634036692fb75c003620325d0e255a5dc760739d5f5d4a99bb35b","name":"Cristen Volkman","party":"Rep","address":"4120 W Hillscape Cir, Lehi, UT 84048","precinct":"25LE49","hd":"51","v_score":"0","decile":"1","lat":40.398749802440555,"lng":-111.91439027919793,"phone":"(232) 879-2783","sd":"22","ssbd":"10","lsbd":"School Board Aspen Peaks 5"},{"vid":"559c4306ae1b7ecccf0bbec5006f18d0f2766edb6a602681e47b8be57f793aa3","name":"Eldora Kirlin","party":"Dem","address":"1389 N Sage Dr, Lehi, UT 84048","precinct":"25LE49","hd":"51","v_score":"0","decile":"1","lat":40.40425743453521,"lng":-111.91315201877273,"phone":"(670) 884-2800","sd":"22","ssbd":"10","lsbd":"School Board Aspen Peaks 5"},{"vid":"2203956","name":"Miss Cordelia Bruen","party":"","address":"4112 W Harper Ln, Lehi, UT 84043","precinct":"25LE49","hd":"51","v_score":"6.969824348","decile":"8","lat":40.3979240471768,"lng":-111.91425769199424,"phone":"(104) 487-8999","sd":"22","ssbd":"10","lsbd":"School Board Aspen Peaks 5"},{"vid":"2210188","name":"Tameka Fadel","party":"","address":"4084 W 1180 N, Lehi, UT 84043","precinct":"25LE49","hd":"51","v_score":"2.744440783","decile":"5","lat":40.40198041047539,"lng":-111.91380169457962,"phone":"(193) 291-1450","sd":"22","ssbd":"10","lsbd":"School Board Aspen Peaks 5"},{"vid":"2223104","name":"Dr. Caydence Lesch MD","party":"","address":"4114 W Hillscape Cir, Lehi, UT 84048","precinct":"25LE49","hd":"51","v_score":"3.93832808","decile":"6","lat":40.39872197608952,"lng":-111.91432022210421,"phone":"(727) 677-4187","sd":"22","ssbd":"10","lsbd":"School Board Aspen Peaks 5"},{"vid":"dc9e71aece61906034a9a9faf2403f3c10465c8a18ee37d76bf0ab6a03227bb1","name":"Alena Gutmann","party":"","address":"4304 W 1470 N, Lehi, UT 84048","precinct":"25LE49","hd":"51","v_score":"2.315214949","decile":"5","lat":40.40560065118197,"lng":-111.91752585070236,"phone":"(884) 250-7721","sd":"22","ssbd":"10","lsbd":"School Board Aspen Peaks 5"},{"vid":"2232908","name":"Willow Stehr","party":"","address":"1452 N 3920 W, Lehi, UT 84043","precinct":"25LE49","hd":"51","v_score":"18.13859789","decile":"10","lat":40.40510589854172,"lng":-111.91208505482524,"phone":"(975) 735-6269","sd":"22","ssbd":"10","lsbd":"School Board Aspen Peaks 5"},{"vid":"2264991","name":"Jay Kub","party":"Dem","address":"4068 W 1100 N, Lehi, UT 84043","precinct":"25LE49","hd":"51","v_score":"3.93832808","decile":"6","lat":40.40140824703226,"lng":-111.91363935247877,"phone":"(152) 037-0086","sd":"22","ssbd":"10","lsbd":"School Board Aspen Peaks 5"},{"vid":"2310035","name":"Santana Considine","party":"","address":"1466 N Sage Dr, Lehi, UT 84043","precinct":"25LE49","hd":"51","v_score":"1.193887297","decile":"3","lat":40.40527555692889,"lng":-111.91250305892318,"phone":"(417) 759-5908","sd":"22","ssbd":"10","lsbd":"School Board Aspen Peaks 5"},{"vid":"2320426","name":"Aleah Bradtke","party":"Dem","address":"1316 N Sage Dr, Lehi, UT 84043","precinct":"25LE49","hd":"51","v_score":"0","decile":"1","lat":40.40314678921722,"lng":-111.91321188627622,"phone":"(733) 201-1226","sd":"22","ssbd":"10","lsbd":"School Board Aspen Peaks 5"},{"vid":"2352094","name":"Keenen Erdman","party":"Rep","address":"4041 W Uinta Way, Unit 101, Lehi, UT 84043","precinct":"25LE49","hd":"51","v_score":"2.315214949","decile":"5","lat":40.402252297795826,"lng":-111.91316046347539,"phone":"(555) 171-2932","sd":"22","ssbd":"10","lsbd":"School Board Aspen Peaks 5"},{"vid":"2373717","name":"Yulissa Abernathy","party":"","address":"4136 W Harper Ln, Lehi, UT 84043","precinct":"25LE49","hd":"51","v_score":"14.74039814","decile":"9","lat":40.3980431565096,"lng":-111.91459694040196,"phone":"(877) 377-2542","sd":"22","ssbd":"10","lsbd":"School Board Aspen Peaks 5"},{"vid":"2377598","name":"Dori Abshire DDS","party":"","address":"4136 W Harper Ln, Lehi, UT 84043","precinct":"25LE49","hd":"51","v_score":"14.74039814","decile":"9","lat":40.3980431565096,"lng":-111.91459694040196,"phone":"(430) 007-7958","sd":"22","ssbd":"10","lsbd":"School Board Aspen Peaks 5"},{"vid":"2377791","name":"Alfie Ondricka","party":"Rep","address":"1092 N Sawtooth Way, Unit 102, Lehi, UT 84043","precinct":"25LE49","hd":"51","v_score":"5.191257514","decile":"7","lat":40.40106057853855,"lng":-111.9129457786091,"phone":"(995) 968-9066","sd":"22","ssbd":"10","lsbd":"School Board Aspen Peaks 5"},{"vid":"2384674","name":"Ms. Lee Wiegand DVM","party":"Rep","address":"1462 N Sage Dr, Lehi, UT 84043","precinct":"25LE49","hd":"51","v_score":"2.315214949","decile":"5","lat":40.405215184476766,"lng":-111.91250265935254,"phone":"(378) 687-8441","sd":"22","ssbd":"10","lsbd":"School Board Aspen Peaks 5"},{"vid":"2385722","name":"Salvatore Hegmann","party":"Rep","address":"4096 W King Peak Way, Unit Ee-202, Lehi, UT 84043","precinct":"25LE49","hd":"51","v_score":"6.52928996","decile":"7","lat":40.40224452511174,"lng":-111.91426335964503,"phone":"(215) 719-1387","sd":"22","ssbd":"10","lsbd":"School Board Aspen Peaks 5"},{"vid":"2395788","name":"Pearla Kassulke","party":"Dem","address":"1313 N Alder Way, Lehi, UT 84043","precinct":"25LE49","hd":"51","v_score":"1.121327652","decile":"3","lat":40.40328943187287,"lng":-111.9148200749338,"phone":"(781) 007-9348","sd":"22","ssbd":"10","lsbd":"School Board Aspen Peaks 5"},{"vid":"2403718","name":"Destiny Cummings","party":"","address":"1423 N Sierra Way, Lehi, UT 84048","precinct":"25LE49","hd":"51","v_score":"6.528952915","decile":"7","lat":40.40465491916698,"lng":-111.91487827637624,"phone":"(370) 942-3221","sd":"22","ssbd":"10","lsbd":"School Board Aspen Peaks 5"},{"vid":"2409901","name":"Dr. Theo Haag Sr.","party":"Dem","address":"1329 N 3960 W, Lehi, UT 84043","precinct":"25LE49","hd":"51","v_score":"6.45639327","decile":"7","lat":40.40326592843861,"lng":-111.91235031460249,"phone":"(215) 615-3631","sd":"22","ssbd":"10","lsbd":"School Board Aspen Peaks 5"},{"vid":"2416482","name":"Elizebeth Marquardt","party":"","address":"3928 W Canyon Falls Dr, Lehi, UT 84043","precinct":"25LE49","hd":"51","v_score":"24.68105261","decile":"10","lat":40.40455034870666,"lng":-111.91231090964324,"phone":"(980) 114-5567","sd":"22","ssbd":"10","lsbd":"School Board Aspen Peaks 5"},{"vid":"2439973","name":"Dr. Ervin Boyle Sr.","party":"","address":"4196 W 1470 N, Lehi, UT 84043","precinct":"25LE49","hd":"51","v_score":"6.814370645","decile":"8","lat":40.405655842976124,"lng":-111.91622624627381,"phone":"(516) 148-2969","sd":"22","ssbd":"10","lsbd":"School Board Aspen Peaks 5"},{"vid":"2441377","name":"Lena Ernser","party":"Dem","address":"4138 W Hillscape Cir, Lehi, UT 84043","precinct":"25LE49","hd":"51","v_score":"8.670935747","decile":"8","lat":40.39885229375312,"lng":-111.91464830696825,"phone":"(861) 230-5081","sd":"22","ssbd":"10","lsbd":"School Board Aspen Peaks 5"},{"vid":"2449333","name":"Vicy Hackett","party":"Rep","address":"1329 N 3960 W, Lehi, UT 84043","precinct":"25LE49","hd":"51","v_score":"6.528952915","decile":"7","lat":40.40326592843861,"lng":-111.91235031460249,"phone":"(441) 512-1800","sd":"22","ssbd":"10","lsbd":"School Board Aspen Peaks 5"},{"vid":"2507400","name":"Deneen Turcotte","party":"","address":"3972 W 1100 N, Lehi, UT 84048","precinct":"25LE49","hd":"51","v_score":"1.193887297","decile":"3","lat":40.40141291838989,"lng":-111.9123164111057,"phone":"(970) 018-6362","sd":"22","ssbd":"10","lsbd":"School Board Aspen Peaks 5"},{"vid":"2530897","name":"Margueritte Cassin","party":"Dem","address":"1392 N West Rim Dr, Lehi, UT 84048","precinct":"25LE49","hd":"51","v_score":"1.193887297","decile":"4","lat":40.404383677351596,"lng":-111.91670178168502,"phone":"(701) 094-7653","sd":"22","ssbd":"10","lsbd":"School Board Aspen Peaks 5"},{"vid":"2535897","name":"Ms. Hunter Renner DDS","party":"Rep","address":"1385 N Linen Way, Lehi, UT 84048","precinct":"25LE49","hd":"51","v_score":"0","decile":"1","lat":40.404306881014016,"lng":-111.91615536544316,"phone":"(852) 874-2789","sd":"22","ssbd":"10","lsbd":"School Board Aspen Peaks 5"},{"vid":"2539679","name":"Miss Fallon Lang","party":"","address":"910 N Hilltop Dr, Lehi, UT 84043","precinct":"25LE49","hd":"51","v_score":"0","decile":"1","lat":40.39845049154886,"lng":-111.91465981995657,"phone":"(867) 579-4697","sd":"22","ssbd":"10","lsbd":"School Board Aspen Peaks 5"},{"vid":"2554455","name":"Lavonda Thiel","party":"Rep","address":"891 N Hilltop Dr, Lehi, UT 84043","precinct":"25LE49","hd":"51","v_score":"0","decile":"1","lat":40.39822182237131,"lng":-111.91518884339695,"phone":"(193) 538-8866","sd":"22","ssbd":"10","lsbd":"School Board Aspen Peaks 5"},{"vid":"2556755","name":"Finnegan Beahan Sr.","party":"Rep","address":"4050 W 1470 N, Lehi, UT 84043","precinct":"25LE49","hd":"51","v_score":"0","decile":"1","lat":40.405701938057916,"lng":-111.91403149776717,"phone":"(924) 420-6216","sd":"22","ssbd":"10","lsbd":"School Board Aspen Peaks 5"},{"vid":"2577673","name":"Timmy Lindgren","party":"Rep","address":"1316 N Alder Way, Lehi, UT 84043","precinct":"25LE49","hd":"51","v_score":"1.193887297","decile":"4","lat":40.403157477886,"lng":-111.91435156918082,"phone":"(689) 074-0168","sd":"22","ssbd":"10","lsbd":"School Board Aspen Peaks 5"},{"vid":"2622393","name":"Halley Wintheiser-Rodriguez","party":"Dem","address":"4010 W 1180 N, Lehi, UT 84048","precinct":"25LE49","hd":"51","v_score":"8.085704327","decile":"8","lat":40.40196823359775,"lng":-111.91274278929872,"phone":"(976) 347-8149","sd":"22","ssbd":"10","lsbd":"School Board Aspen Peaks 5"},{"vid":"2650293","name":"Emmitt Haag PhD","party":"","address":"4050 W 1470 N, Lehi, UT 84043","precinct":"25LE49","hd":"51","v_score":"1.193887297","decile":"4","lat":40.405701938057916,"lng":-111.91403149776717,"phone":"(429) 779-8887","sd":"22","ssbd":"10","lsbd":"School Board Aspen Peaks 5"},{"vid":"2651768","name":"Windy Mills-Larkin","party":"","address":"1468 N Sage Dr, Lehi, UT 84043","precinct":"25LE49","hd":"51","v_score":"16.72856503","decile":"9","lat":40.40533922260402,"lng":-111.91250347789745,"phone":"(963) 285-9510","sd":"22","ssbd":"10","lsbd":"School Board Aspen Peaks 5"},{"vid":"2653470","name":"Leslie Schaden","party":"Rep","address":"4027 W Big Horn Dr, Unit AA-202, Lehi, UT 84048","precinct":"25LE49","hd":"51","v_score":"0","decile":"1","lat":40.402539627993974,"lng":-111.91291181001438,"phone":"(522) 074-1234","sd":"22","ssbd":"10","lsbd":"School Board Aspen Peaks 5"},{"vid":"2657970","name":"Vida Robel","party":"","address":"4267 W 1470 N, Lehi, UT 84043","precinct":"25LE49","hd":"51","v_score":"4.069929862","decile":"6","lat":40.40523652917089,"lng":-111.91707043433348,"phone":"(843) 360-4037","sd":"22","ssbd":"10","lsbd":"School Board Aspen Peaks 5"},{"vid":"2666680","name":"Dewayne Goldner PhD","party":"Dem","address":"1414 N Linen Way, Lehi, UT 84043","precinct":"25LE49","hd":"51","v_score":"1.193887297","decile":"4","lat":40.40462370816751,"lng":-111.91531920313291,"phone":"(770) 269-2490","sd":"22","ssbd":"10","lsbd":"School Board Aspen Peaks 5"},{"vid":"2671061","name":"Darcie Rodriguez","party":"","address":"3897 W 1500 N, Lehi, UT 84048","precinct":"25LE49","hd":"51","v_score":"1.193887297","decile":"4","lat":40.405695372227036,"lng":-111.91205872146128,"phone":"(658) 372-8449","sd":"22","ssbd":"10","lsbd":"School Board Aspen Peaks 5"},{"vid":"2696068","name":"Cato Douglas-Streich","party":"","address":"1093 N 3980 W, Lehi, UT 84048","precinct":"25LE49","hd":"51","v_score":"0","decile":"2","lat":40.40079783183184,"lng":-111.91256916412718,"phone":"(906) 426-6674","sd":"22","ssbd":"10","lsbd":"School Board Aspen Peaks 5"},{"vid":"2698207","name":"Dr. Hideo King PhD","party":"","address":"1456 N Linen Way, Lehi, UT 84043","precinct":"25LE49","hd":"51","v_score":"1.193887297","decile":"4","lat":40.40527234703303,"lng":-111.91531818860895,"phone":"(267) 016-5655","sd":"22","ssbd":"10","lsbd":"School Board Aspen Peaks 5"},{"vid":"2701588","name":"Keila Jacobs","party":"","address":"1152 N West Rim Dr, Unit 203, Lehi, UT 84043","precinct":"25LE49","hd":"51","v_score":"1.193887297","decile":"4","lat":40.4016358615191,"lng":-111.91439087502908,"phone":"(690) 779-7863","sd":"22","ssbd":"10","lsbd":"School Board Aspen Peaks 5"},{"vid":"2708999","name":"Samantha Cruickshank PhD","party":"","address":"853 N Hilltop Dr, Lehi, UT 84043","precinct":"25LE49","hd":"51","v_score":"0","decile":"2","lat":40.39771090830796,"lng":-111.9150203366973,"phone":"(350) 087-8126","sd":"22","ssbd":"10","lsbd":"School Board Aspen Peaks 5"},{"vid":"2715685","name":"Mr. Lindbergh Mohr Jr.","party":"","address":"3993 W Big Horn Dr, Unit Z201, Lehi, UT 84043","precinct":"25LE49","hd":"51","v_score":"1.193887297","decile":"4","lat":40.40254026327227,"lng":-111.91237562224012,"phone":"(640) 362-9662","sd":"22","ssbd":"10","lsbd":"School Board Aspen Peaks 5"},{"vid":"2729654","name":"Ewell Haag","party":"","address":"3904 W Canyon Falls Dr, Lehi, UT 84043","precinct":"25LE49","hd":"51","v_score":"1.193887297","decile":"4","lat":40.40454034193512,"lng":-111.9120480748082,"phone":"(777) 585-6505","sd":"22","ssbd":"10","lsbd":"School Board Aspen Peaks 5"},{"vid":"2735818","name":"Madisyn Heathcote","party":"","address":"3972 W 1100 N, Lehi, UT 84043","precinct":"25LE49","hd":"51","v_score":"0","decile":"2","lat":40.40141291838989,"lng":-111.9123164111057,"phone":"(147) 286-1787","sd":"22","ssbd":"10","lsbd":"School Board Aspen Peaks 5"},{"vid":"2736334","name":"Frederica Ullrich","party":"","address":"910 N Hilltop Dr, Lehi, UT 84048","precinct":"25LE49","hd":"51","v_score":"0","decile":"2","lat":40.39845049154886,"lng":-111.91465981995657,"phone":"(521) 431-0303","sd":"22","ssbd":"10","lsbd":"School Board Aspen Peaks 5"},{"vid":"2737518","name":"Mr. Algernon Abernathy DDS","party":"","address":"1087 N Sawtooth Way, Unit Gg301, Lehi, UT 84043","precinct":"25LE49","hd":"51","v_score":"1.193887297","decile":"4","lat":40.40079878049052,"lng":-111.91327870897577,"phone":"(366) 266-1945","sd":"22","ssbd":"10","lsbd":"School Board Aspen Peaks 5"},{"vid":"2743158","name":"Gary Ortiz","party":"","address":"4010 W 1180 N, Lehi, UT 84048","precinct":"25LE49","hd":"51","v_score":"1.193887297","decile":"4","lat":40.40196823359775,"lng":-111.91274278929872,"phone":"(874) 452-6576","sd":"22","ssbd":"10","lsbd":"School Board Aspen Peaks 5"},{"vid":"2743405","name":"Fleming Abernathy-Ryan","party":"Dem","address":"4022 W Big Horn Dr, Lehi, UT 84043","precinct":"25LE49","hd":"51","v_score":"1.193887297","decile":"4","lat":40.4029261783497,"lng":-111.91297698401593,"phone":"(551) 523-5121","sd":"22","ssbd":"10","lsbd":"School Board Aspen Peaks 5"},{"vid":"2761236","name":"Miss Madlyn Steuber MD","party":"","address":"1389 N Sage Dr, Lehi, UT 84048","precinct":"25LE49","hd":"51","v_score":"4.069929862","decile":"7","lat":40.40425743453521,"lng":-111.91315201877273,"phone":"(542) 974-5001","sd":"22","ssbd":"10","lsbd":"School Board Aspen Peaks 5"},{"vid":"2793768","name":"Renata Mraz","party":"Rep","address":"1023 N Sawtooth Way, Hh203, Lehi, UT 84048","precinct":"25LE49","hd":"51","v_score":"1.193887297","decile":"4","lat":40.400423104741336,"lng":-111.91323289301982,"phone":"(746) 806-7588","sd":"22","ssbd":"10","lsbd":"School Board Aspen Peaks 5"},{"vid":"2798925","name":"Alvira Hartmann DDS","party":"Rep","address":"1486 N Sage Dr, Lehi, UT 84043","precinct":"25LE49","hd":"51","v_score":"0","decile":"2","lat":40.4055804978103,"lng":-111.91250507905458,"phone":"(680) 428-6221","sd":"22","ssbd":"10","lsbd":"School Board Aspen Peaks 5"},{"vid":"2800532","name":"Lorayne Schroeder DDS","party":"Dem","address":"902 N Hillcrest Ln, Lehi, UT 84043","precinct":"25LE49","hd":"51","v_score":"1.193887297","decile":"4","lat":40.39819909851502,"lng":-111.91436955488466,"phone":"(739) 929-4478","sd":"22","ssbd":"10","lsbd":"School Board Aspen Peaks 5"},{"vid":"2812696","name":"Chet Bednar","party":"Dem","address":"3976 W 1180 N, Lehi, UT 84043","precinct":"25LE49","hd":"51","v_score":"1.193887297","decile":"4","lat":40.40198541302547,"lng":-111.91238475852576,"phone":"(692) 262-7557","sd":"22","ssbd":"10","lsbd":"School Board Aspen Peaks 5"},{"vid":"2820998","name":"Miss Jaden O'Connell","party":"Dem","address":"1293 N 3960 W, Lehi, UT 84048","precinct":"25LE49","hd":"51","v_score":"4.069929862","decile":"7","lat":40.40285460641389,"lng":-111.91232570540504,"phone":"(688) 256-1055","sd":"22","ssbd":"10","lsbd":"School Board Aspen Peaks 5"},{"vid":"2849097","name":"Dr. Rolland Volkman","party":"","address":"1298 N Sage Dr, Lehi, UT 84043","precinct":"25LE49","hd":"51","v_score":"1.193887297","decile":"4","lat":40.40297595643229,"lng":-111.91336486948889,"phone":"(575) 266-5083","sd":"22","ssbd":"10","lsbd":"School Board Aspen Peaks 5"},{"vid":"2854168","name":"Dillon McClure","party":"","address":"3928 W Canyon Falls Dr, Lehi, UT 84048","precinct":"25LE49","hd":"51","v_score":"0","decile":"2","lat":40.40455034870666,"lng":-111.91231090964324,"phone":"(617) 385-9609","sd":"22","ssbd":"10","lsbd":"School Board Aspen Peaks 5"},{"vid":"2862489","name":"Breana Krajcik","party":"Dem","address":"1434 N Alder Way, Lehi, UT 84043","precinct":"25LE49","hd":"51","v_score":"1.193887297","decile":"4","lat":40.40484796329,"lng":-111.91336882847466,"phone":"(334) 450-7555","sd":"22","ssbd":"10","lsbd":"School Board Aspen Peaks 5"},{"vid":"2862496","name":"Tana Hyatt PhD","party":"Rep","address":"1434 N Alder Way, Lehi, UT 84043","precinct":"25LE49","hd":"51","v_score":"1.193887297","decile":"4","lat":40.40484796329,"lng":-111.91336882847466,"phone":"(563) 468-8554","sd":"22","ssbd":"10","lsbd":"School Board Aspen Peaks 5"},{"vid":"2862790","name":"Ewin Abshire","party":"","address":"1456 N 3920 W, Lehi, UT 84048","precinct":"25LE49","hd":"51","v_score":"0","decile":"2","lat":40.405174055363844,"lng":-111.91207162576033,"phone":"(532) 924-5293","sd":"22","ssbd":"10","lsbd":"School Board Aspen Peaks 5"},{"vid":"2887557","name":"Jailene Monahan","party":"Dem","address":"1023 N Sawtooth Way, Unit 203, Lehi, UT 84043","precinct":"25LE49","hd":"51","v_score":"1.193887297","decile":"4","lat":40.400423104741336,"lng":-111.91323289301982,"phone":"(111) 220-5466","sd":"22","ssbd":"10","lsbd":"School Board Aspen Peaks 5"},{"vid":"2900226","name":"Isaiah Denesik PhD","party":"","address":"4010 W 1180 N, Lehi, UT 84048","precinct":"25LE49","hd":"51","v_score":"0","decile":"2","lat":40.40196823359775,"lng":-111.91274278929872,"phone":"(264) 833-3724","sd":"22","ssbd":"10","lsbd":"School Board Aspen Peaks 5"},{"vid":"2915545","name":"Taylor Bashirian","party":"Dem","address":"4009 W 1180 N, Lehi, UT 84043","precinct":"25LE49","hd":"51","v_score":"0","decile":"2","lat":40.40163092552725,"lng":-111.91282985183015,"phone":"(590) 054-9799","sd":"22","ssbd":"10","lsbd":"School Board Aspen Peaks 5"},{"vid":"2915786","name":"Dimitri Auer","party":"","address":"4068 W King Peak Way, Unit 101, Lehi, UT 84043","precinct":"25LE49","hd":"51","v_score":"0","decile":"2","lat":40.40265001785512,"lng":-111.91360932665827,"phone":"(227) 082-2297","sd":"22","ssbd":"10","lsbd":"School Board Aspen Peaks 5"},{"vid":"2916251","name":"Dr. Auston Hermann III","party":"Rep","address":"4096 W King Peak Way, Unit 304, Lehi, UT 84043","precinct":"25LE49","hd":"51","v_score":"0","decile":"2","lat":40.40224452511174,"lng":-111.91426335964503,"phone":"(590) 302-7679","sd":"22","ssbd":"10","lsbd":"School Board Aspen Peaks 5"},{"vid":"2919716","name":"Rasheed Pagac","party":"Dem","address":"4102 W Hillscape Cir, Lehi, UT 84043","precinct":"25LE49","hd":"51","v_score":"0","decile":"2","lat":40.39866629598835,"lng":-111.91418007234347,"phone":"(851) 746-4254","sd":"22","ssbd":"10","lsbd":"School Board Aspen Peaks 5"},{"vid":"2929665","name":"Tera Jakubowski PhD","party":"Dem","address":"3991 W Uinta Way, Unit 204, Lehi, UT 84043","precinct":"25LE49","hd":"51","v_score":"0","decile":"2","lat":40.40215903062894,"lng":-111.91266967317196,"phone":"(273) 092-0910","sd":"22","ssbd":"10","lsbd":"School Board Aspen Peaks 5"},{"vid":"2934203","name":"Lila Nolan","party":"","address":"1092 N Sawtooth Way, Apt JJ301, Lehi, UT 84043","precinct":"25LE49","hd":"51","v_score":"0","decile":"2","lat":40.40106057853855,"lng":-111.9129457786091,"phone":"(544) 433-2731","sd":"22","ssbd":"10","lsbd":"School Board Aspen Peaks 5"},{"vid":"2935199","name":"Lora Fahey","party":"Rep","address":"1384 N Alder Way, Lehi, UT 84043","precinct":"25LE49","hd":"51","v_score":"0","decile":"2","lat":40.4040119478422,"lng":-111.91365200418775,"phone":"(488) 964-8063","sd":"22","ssbd":"10","lsbd":"School Board Aspen Peaks 5"},{"vid":"2937773","name":"Laila Rice","party":"Dem","address":"4268 W 1470 N, Lehi, UT 84048","precinct":"25LE49","hd":"51","v_score":"0","decile":"2","lat":40.405603541262415,"lng":-111.91705777558765,"phone":"(118) 933-2441","sd":"22","ssbd":"10","lsbd":"School Board Aspen Peaks 5"},{"vid":"2947022","name":"Stacia Nader","party":"","address":"1299 N 3960 W, Lehi, UT 84048","precinct":"25LE49","hd":"51","v_score":"2.876042565","decile":"6","lat":40.4029218310735,"lng":-111.91234712666122,"phone":"(263) 632-3782","sd":"22","ssbd":"10","lsbd":"School Board Aspen Peaks 5"},{"vid":"2947050","name":"Dustan Funk","party":"","address":"1299 N 3960 W, Lehi, UT 84048","precinct":"25LE49","hd":"51","v_score":"2.876042565","decile":"6","lat":40.4029218310735,"lng":-111.91234712666122,"phone":"(901) 377-5241","sd":"22","ssbd":"10","lsbd":"School Board Aspen Peaks 5"},{"vid":"2951549","name":"Dannie Steuber","party":"Rep","address":"1389 N Sage Dr, Lehi, UT 84048","precinct":"25LE49","hd":"51","v_score":"0","decile":"2","lat":40.40425743453521,"lng":-111.91315201877273,"phone":"(822) 142-5119","sd":"22","ssbd":"10","lsbd":"School Board Aspen Peaks 5"},{"vid":"2951692","name":"Pat Pfeffer","party":"","address":"1439 N Linen Way, Lehi, UT 84048","precinct":"25LE49","hd":"51","v_score":"0","decile":"2","lat":40.40494311528883,"lng":-111.9157521007746,"phone":"(792) 947-9960","sd":"22","ssbd":"10","lsbd":"School Board Aspen Peaks 5"},{"vid":"2971293","name":"Sherrie Nitzsche PhD","party":"","address":"1087 N Sawtooth Way, Unit 201, Lehi, UT 84048","precinct":"25LE49","hd":"51","v_score":"0","decile":"2","lat":40.40079878049052,"lng":-111.91327870897577,"phone":"(172) 576-7513","sd":"22","ssbd":"10","lsbd":"School Board Aspen Peaks 5"},{"vid":"2979206","name":"Vlasta Ziemann-Stamm","party":"Rep","address":"1298 N Sage Dr, Lehi, UT 84048","precinct":"25LE49","hd":"51","v_score":"0","decile":"2","lat":40.40297595643229,"lng":-111.91336486948889,"phone":"(813) 767-2435","sd":"22","ssbd":"10","lsbd":"School Board Aspen Peaks 5"},{"vid":"2979823","name":"Dr. Russel Schaden DDS","party":"","address":"3991 W Uinta Way, # Bb201, Lehi, UT 84048","precinct":"25LE49","hd":"51","v_score":"0","decile":"2","lat":40.40215903062894,"lng":-111.91266967317196,"phone":"(856) 839-2156","sd":"22","ssbd":"10","lsbd":"School Board Aspen Peaks 5"},{"vid":"2981000","name":"Leslie Pagac","party":"","address":"4088 W Hillscape Cir, Lehi, UT 84048","precinct":"25LE49","hd":"51","v_score":"0","decile":"2","lat":40.39856380329809,"lng":-111.91392208158373,"phone":"(844) 221-8964","sd":"22","ssbd":"10","lsbd":"School Board Aspen Peaks 5"},{"vid":"2982745","name":"Dr. Farrell Osinski IV","party":"Rep","address":"1452 N 3920 W, Lehi, UT 84048","precinct":"25LE49","hd":"51","v_score":"0","decile":"2","lat":40.40510589854172,"lng":-111.91208505482524,"phone":"(676) 222-0731","sd":"22","ssbd":"10","lsbd":"School Board Aspen Peaks 5"},{"vid":"2983354","name":"Dellar Senger","party":"Rep","address":"1496 N Sage Dr, Lehi, UT 84048","precinct":"25LE49","hd":"51","v_score":"0","decile":"2","lat":40.405704535948416,"lng":-111.91250589724014,"phone":"(248) 919-2052","sd":"22","ssbd":"10","lsbd":"School Board Aspen Peaks 5"},{"vid":"2983385","name":"Mr. Monte Kovacek","party":"Dem","address":"1496 N Sage Dr, Lehi, UT 84048","precinct":"25LE49","hd":"51","v_score":"0","decile":"2","lat":40.405704535948416,"lng":-111.91250589724014,"phone":"(232) 020-8718","sd":"22","ssbd":"10","lsbd":"School Board Aspen Peaks 5"},{"vid":"4600608","name":"Fannie Pfeffer","party":"Rep","address":"910 N Hilltop Dr, Lehi, UT 84048","precinct":"25LE49","hd":"51","v_score":"2.587603312","decile":"5","lat":40.39845049154886,"lng":-111.91465981995657,"phone":"(696) 622-1782","sd":"22","ssbd":"10","lsbd":"School Board Aspen Peaks 5"},{"vid":"4613162","name":"Lemuel Pacocha","party":"Dem","address":"910 N Hilltop Dr, Lehi, UT 84048","precinct":"25LE49","hd":"51","v_score":"2.587603312","decile":"5","lat":40.39845049154886,"lng":-111.91465981995657,"phone":"(786) 935-1107","sd":"22","ssbd":"10","lsbd":"School Board Aspen Peaks 5"},{"vid":"6259333","name":"Semaj Macejkovic","party":"Rep","address":"4196 W 1470 N, Lehi, UT 84043","precinct":"25LE49","hd":"51","v_score":"12.49472132","decile":"9","lat":40.405655842976124,"lng":-111.91622624627381,"phone":"(462) 466-8569","sd":"22","ssbd":"10","lsbd":"School Board Aspen Peaks 5"},{"vid":"6288037","name":"Kyle Corwin-Jenkins","party":"Dem","address":"4138 W Hillscape Cir, Lehi, UT 84048","precinct":"25LE49","hd":"51","v_score":"2.587603312","decile":"5","lat":40.39885229375312,"lng":-111.91464830696825,"phone":"(409) 508-9885","sd":"22","ssbd":"10","lsbd":"School Board Aspen Peaks 5"},{"vid":"db7dc745fd592c8d11504e882b0ee35c8cbcb1a2ca17122d94cecb22f1a638df","name":"Carma Jacobs","party":"Rep","address":"4114 W Hillscape Cir, Lehi, UT 84048","precinct":"25LE49","hd":"51","v_score":"14.48247422","decile":"9","lat":40.39872197608952,"lng":-111.91432022210421,"phone":"(682) 034-3551","sd":"22","ssbd":"10","lsbd":"School Board Aspen Peaks 5"},{"vid":"d3107a7e4f1957786ca729ebfff9116fa5e715d25790bbae26d32d72effd2d9c","name":"Marianna Braun","party":"Rep","address":"3899 W 1450 N, Lehi, UT 84048","precinct":"25LE49","hd":"51","v_score":"0","decile":"3","lat":40.40479269399985,"lng":-111.9120363160408,"phone":"(908) 878-1368","sd":"22","ssbd":"10","lsbd":"School Board Aspen Peaks 5"},{"vid":"6420204","name":"Collie Dietrich","party":"","address":"3972 W 1100 N, Lehi, UT 84043","precinct":"25LE49","hd":"51","v_score":"1.193887297","decile":"4","lat":40.40141291838989,"lng":-111.9123164111057,"phone":"(618) 062-3967","sd":"22","ssbd":"10","lsbd":"School Board Aspen Peaks 5"},{"vid":"6457338","name":"Orlando Hudson","party":"","address":"4152 W Hillscape Cir, Lehi, UT 84043","precinct":"25LE49","hd":"51","v_score":"11.30609121","decile":"9","lat":40.39890797260587,"lng":-111.91478845744761,"phone":"(754) 469-3531","sd":"22","ssbd":"10","lsbd":"School Board Aspen Peaks 5"},{"vid":"6467469","name":"Shelva Bechtelar-Nicolas","party":"Dem","address":"1413 N Sage Dr, Lehi, UT 84043","precinct":"25LE49","hd":"51","v_score":"3.93832808","decile":"6","lat":40.404625647415386,"lng":-111.9130795166445,"phone":"(380) 074-3560","sd":"22","ssbd":"10","lsbd":"School Board Aspen Peaks 5"},{"vid":"6491177","name":"Ms. Lucindy Rath MD","party":"","address":"916 N Hilltop Dr, Lehi, UT 84048","precinct":"25LE49","hd":"51","v_score":"1.121327652","decile":"3","lat":40.398504052298186,"lng":-111.91462342435352,"phone":"(744) 051-8263","sd":"22","ssbd":"10","lsbd":"School Board Aspen Peaks 5"},{"vid":"6521506","name":"Mrs. Julianne Cummings DVM","party":"","address":"3972 W 1100 N, Lehi, UT 84043","precinct":"25LE49","hd":"51","v_score":"1.193887297","decile":"4","lat":40.40141291838989,"lng":-111.9123164111057,"phone":"(377) 888-2681","sd":"22","ssbd":"10","lsbd":"School Board Aspen Peaks 5"}]