[{"vid":"811678","name":"Myrl Runte","party":"","address":"852 N Pheasant Run Ln, Lehi, UT 84043","precinct":"25LE24","hd":"51","v_score":"2.315214949","decile":"5","lat":40.397984991116076,"lng":-111.90627718764888,"phone":"(222) 544-2807","sd":"22","ssbd":"11","lsbd":"School Board Aspen Peaks 5"},{"vid":"1253056","name":"Reid Erdman","party":"","address":"1965 N 3410 W, Unit 101, Lehi, UT 84043","precinct":"25LE24","hd":"51","v_score":"1.121327652","decile":"3","lat":40.41152723924327,"lng":-111.90415446949,"phone":"(399) 014-2349","sd":"22","ssbd":"11","lsbd":"School Board Aspen Peaks 5"},{"vid":"1289769","name":"Dr. Byrd Doyle","party":"","address":"3283 W Ada Loop, Lehi, UT 84043","precinct":"25LE24","hd":"51","v_score":"6.74007049","decile":"8","lat":40.398411508463425,"lng":-111.90200344842744,"phone":"(828) 595-0629","sd":"22","ssbd":"11","lsbd":"School Board Aspen Peaks 5"},{"vid":"1321469","name":"Nicky Waelchi","party":"Rep","address":"3471 W Mitchell Dr, Lehi, UT 84043","precinct":"25LE24","hd":"51","v_score":"10.96442999","decile":"9","lat":40.39743461287333,"lng":-111.90486074584811,"phone":"(455) 798-1619","sd":"22","ssbd":"11","lsbd":"School Board Aspen Peaks 5"},{"vid":"1328495","name":"Saul Reinger","party":"","address":"3283 W Ada Loop, Lehi, UT 84043","precinct":"25LE24","hd":"51","v_score":"6.74007049","decile":"8","lat":40.398411508463425,"lng":-111.90200344842744,"phone":"(499) 219-4466","sd":"22","ssbd":"11","lsbd":"School Board Aspen Peaks 5"},{"vid":"1386547","name":"Herschel Raynor","party":"Dem","address":"3391 W Mitchell Dr, Lehi, UT 84043","precinct":"25LE24","hd":"51","v_score":"0","decile":"1","lat":40.39743830141545,"lng":-111.90379351620886,"phone":"(839) 890-0952","sd":"22","ssbd":"11","lsbd":"School Board Aspen Peaks 5"},{"vid":"1428754","name":"Javon Volkman","party":"Dem","address":"1958 N 3330 W, Apt C102, Lehi, UT 84043","precinct":"25LE24","hd":"51","v_score":"6.954919332","decile":"8","lat":40.4114851041151,"lng":-111.9023820961702,"phone":"(545) 138-5045","sd":"22","ssbd":"11","lsbd":"School Board Aspen Peaks 5"},{"vid":"1458140","name":"Dr. Darron Blanda III","party":"","address":"3484 W 850 N, Lehi, UT 84043","precinct":"25LE24","hd":"51","v_score":"4.069929862","decile":"6","lat":40.39811458859569,"lng":-111.904712486097,"phone":"(248) 712-3348","sd":"22","ssbd":"11","lsbd":"School Board Aspen Peaks 5"},{"vid":"1468265","name":"Marlon Lynch-Welch","party":"","address":"1958 N 3330 W, Unit C303, Lehi, UT 84043","precinct":"25LE24","hd":"51","v_score":"3.93832808","decile":"6","lat":40.4114851041151,"lng":-111.9023820961702,"phone":"(541) 964-8805","sd":"22","ssbd":"11","lsbd":"School Board Aspen Peaks 5"},{"vid":"1487157","name":"Ezell Wilderman","party":"","address":"834 N Pheasant Run Ln, Lehi, UT 84043","precinct":"25LE24","hd":"51","v_score":"1.193887297","decile":"3","lat":40.39779982161845,"lng":-111.90636740347657,"phone":"(461) 409-5189","sd":"22","ssbd":"11","lsbd":"School Board Aspen Peaks 5"},{"vid":"1500051","name":"Zaid Feil-Lang","party":"Rep","address":"1923 N 3410 W, Apt N102, Lehi, UT 84043","precinct":"25LE24","hd":"51","v_score":"0","decile":"1","lat":40.41101524746206,"lng":-111.90415104821538,"phone":"(422) 514-6877","sd":"22","ssbd":"11","lsbd":"School Board Aspen Peaks 5"},{"vid":"1527861","name":"Sherry Romaguera","party":"Rep","address":"851 N Pearl Dr, Lehi, UT 84043","precinct":"25LE24","hd":"51","v_score":"3.93832808","decile":"6","lat":40.39781924385227,"lng":-111.90134914125042,"phone":"(821) 997-5404","sd":"22","ssbd":"11","lsbd":"School Board Aspen Peaks 5"},{"vid":"1550566","name":"Malakai Lehner","party":"Dem","address":"3484 W 850 N, Lehi, UT 84043","precinct":"25LE24","hd":"51","v_score":"4.069929862","decile":"6","lat":40.39811458859569,"lng":-111.904712486097,"phone":"(544) 782-3999","sd":"22","ssbd":"11","lsbd":"School Board Aspen Peaks 5"},{"vid":"1555588","name":"Talia Denesik PhD","party":"Dem","address":"861 N 3540 W, Lehi, UT 84043","precinct":"25LE24","hd":"51","v_score":"1.193887297","decile":"3","lat":40.39813571875354,"lng":-111.90580165115817,"phone":"(785) 178-8672","sd":"22","ssbd":"11","lsbd":"School Board Aspen Peaks 5"},{"vid":"e0fbaaeea08ccc5ef9a3705ad8bec0995e6165333dab7b2118a99b2fbcfc480d","name":"Mr. Mekhi Dach II","party":"Rep","address":"783 N Sierra Spring Way, Lehi, UT 84043","precinct":"25LE24","hd":"51","v_score":"6.724398202","decile":"8","lat":40.396963221673445,"lng":-111.90642434112472,"phone":"(882) 581-0817","sd":"22","ssbd":"11","lsbd":"School Board Aspen Peaks 5"},{"vid":"1570185","name":"Mr. Watson Rice DDS","party":"Dem","address":"3261 W Ada Loop, Lehi, UT 84048","precinct":"25LE24","hd":"51","v_score":"0","decile":"1","lat":40.39839131758712,"lng":-111.90154984137017,"phone":"(540) 332-8020","sd":"22","ssbd":"11","lsbd":"School Board Aspen Peaks 5"},{"vid":"0fae3158fd4f03e0bcb8e93f7f6599d956f72f0b234f78c9ff08de9aa892e5eb","name":"Mrs. Deena Gibson DVM","party":"Rep","address":"3375 W Mitchell Dr, Lehi, UT 84043","precinct":"25LE24","hd":"51","v_score":"2.744440783","decile":"5","lat":40.397439019065196,"lng":-111.90358553196607,"phone":"(423) 818-8263","sd":"22","ssbd":"11","lsbd":"School Board Aspen Peaks 5"},{"vid":"1584856","name":"Percival Daniel","party":"","address":"3323 W Hardman Way, Apt G101, Lehi, UT 84043","precinct":"25LE24","hd":"51","v_score":"3.93832808","decile":"6","lat":40.410194941629,"lng":-111.9024070946676,"phone":"(274) 463-6113","sd":"22","ssbd":"11","lsbd":"School Board Aspen Peaks 5"},{"vid":"1592713","name":"Mr. Dale Stanton","party":"Dem","address":"1985 N 3330 W, Unit 102, Lehi, UT 84043","precinct":"25LE24","hd":"51","v_score":"3.781490609","decile":"6","lat":40.41207126957354,"lng":-111.90281082684137,"phone":"(115) 623-3664","sd":"22","ssbd":"11","lsbd":"School Board Aspen Peaks 5"},{"vid":"d765bac6a08f3dcba08ca67da9c72ca77daf11fad483c09acead76a618adad00","name":"Margarite Hyatt","party":"Dem","address":"3325 W 1830 N, Unit H302, Lehi, UT 84043","precinct":"25LE24","hd":"51","v_score":"2.315214949","decile":"5","lat":40.409948069852085,"lng":-111.90243851286536,"phone":"(977) 212-9362","sd":"22","ssbd":"11","lsbd":"School Board Aspen Peaks 5"},{"vid":"1616189","name":"Jevon Boyle I","party":"Dem","address":"834 N Pheasant Run Ln, Lehi, UT 84043","precinct":"25LE24","hd":"51","v_score":"0","decile":"1","lat":40.39779982161845,"lng":-111.90636740347657,"phone":"(485) 797-5860","sd":"22","ssbd":"11","lsbd":"School Board Aspen Peaks 5"},{"vid":"1616520","name":"Mervyn Oberbrunner II","party":"","address":"3420 W 750 N, Lehi, UT 84048","precinct":"25LE24","hd":"51","v_score":"12.49472132","decile":"9","lat":40.3965677755897,"lng":-111.90417099014775,"phone":"(777) 733-2165","sd":"22","ssbd":"11","lsbd":"School Board Aspen Peaks 5"},{"vid":"1622089","name":"Dr. Kevin Schaden","party":"","address":"1965 N 3410 W, Apt S201, Lehi, UT 84043","precinct":"25LE24","hd":"51","v_score":"8.347511332","decile":"8","lat":40.41152723924327,"lng":-111.90415446949,"phone":"(427) 507-8446","sd":"22","ssbd":"11","lsbd":"School Board Aspen Peaks 5"},{"vid":"bf151c21f69c836c840bfe01a24cde536af7572455eb6fd104323057c6062fea","name":"Theodis Conn","party":"","address":"896 N Old Ranch Rd, Lehi, UT 84043","precinct":"25LE24","hd":"51","v_score":"8.347511332","decile":"8","lat":40.39848954341279,"lng":-111.9064826618191,"phone":"(203) 745-8930","sd":"22","ssbd":"11","lsbd":"School Board Aspen Peaks 5"},{"vid":"1660127","name":"Charles O'Hara II","party":"Rep","address":"3528 W 750 N, Lehi, UT 84043","precinct":"25LE24","hd":"51","v_score":"2.315214949","decile":"5","lat":40.396562887207075,"lng":-111.90559132827131,"phone":"(635) 250-4675","sd":"22","ssbd":"11","lsbd":"School Board Aspen Peaks 5"},{"vid":"1663626","name":"Era Connelly","party":"Dem","address":"1923 N 3410 W, Apt N202, Lehi, UT 84043","precinct":"25LE24","hd":"51","v_score":"3.781490609","decile":"6","lat":40.41101524746206,"lng":-111.90415104821538,"phone":"(269) 579-6682","sd":"22","ssbd":"11","lsbd":"School Board Aspen Peaks 5"},{"vid":"02f6e8faf394f92f8f18625259a6ef8e22ec7a212f79079bf4e11d5dd6009987","name":"Claudia Effertz-Kemmer","party":"","address":"1822 N 3470 W, Lehi, UT 84043","precinct":"25LE24","hd":"51","v_score":"7.041027428","decile":"8","lat":40.40968551612737,"lng":-111.90459448214362,"phone":"(249) 654-2303","sd":"22","ssbd":"11","lsbd":"School Board Aspen Peaks 5"},{"vid":"1697117","name":"Lloyd Hodkiewicz","party":"Dem","address":"3538 W 800 N, Lehi, UT 84043","precinct":"25LE24","hd":"51","v_score":"7.791860021","decile":"8","lat":40.3971730809314,"lng":-111.90568747241093,"phone":"(952) 029-2391","sd":"22","ssbd":"11","lsbd":"School Board Aspen Peaks 5"},{"vid":"1702912","name":"Irene Kutch-Hackett","party":"Rep","address":"3302 W Ada Loop, Lehi, UT 84043","precinct":"25LE24","hd":"51","v_score":"10.02741907","decile":"9","lat":40.39867354434293,"lng":-111.90227534836525,"phone":"(683) 302-4504","sd":"22","ssbd":"11","lsbd":"School Board Aspen Peaks 5"},{"vid":"1707143","name":"Preston Corkery-Schaefer","party":"","address":"1937 N 3330 W, Apt D201, Lehi, UT 84043","precinct":"25LE24","hd":"51","v_score":"6.462591196","decile":"7","lat":40.411233027125085,"lng":-111.90288378674109,"phone":"(917) 216-9373","sd":"22","ssbd":"11","lsbd":"School Board Aspen Peaks 5"},{"vid":"1717841","name":"Horatio Denesik","party":"","address":"3374 W 1960 N, Apt P201, Lehi, UT 84043","precinct":"25LE24","hd":"51","v_score":"15.45891513","decile":"9","lat":40.41174559555218,"lng":-111.90343795744985,"phone":"(707) 564-6632","sd":"22","ssbd":"11","lsbd":"School Board Aspen Peaks 5"},{"vid":"1728947","name":"Dr. Levern Grant","party":"","address":"3364 W Hardman Way, Unit 201, Lehi, UT 84043","precinct":"25LE24","hd":"51","v_score":"3.781490609","decile":"6","lat":40.41069244935146,"lng":-111.90317249484298,"phone":"(919) 014-6364","sd":"22","ssbd":"11","lsbd":"School Board Aspen Peaks 5"},{"vid":"1736691","name":"Sharonda Cassin","party":"Dem","address":"3445 W Hardman Way, Lot 106, Lehi, UT 84048","precinct":"25LE24","hd":"51","v_score":"0","decile":"1","lat":40.41019045939066,"lng":-111.90442928932906,"phone":"(725) 376-8382","sd":"22","ssbd":"11","lsbd":"School Board Aspen Peaks 5"},{"vid":"1752188","name":"Ms. Eloise Stiedemann PhD","party":"Dem","address":"904 N 3490 W, Lehi, UT 84043","precinct":"25LE24","hd":"51","v_score":"3.781490609","decile":"6","lat":40.39857327242193,"lng":-111.90466837540293,"phone":"(455) 460-9278","sd":"22","ssbd":"11","lsbd":"School Board Aspen Peaks 5"},{"vid":"1766828","name":"Fawn Leuschke","party":"Dem","address":"3324 W Ada Loop, Lehi, UT 84043","precinct":"25LE24","hd":"51","v_score":"1.121327652","decile":"3","lat":40.39861512146121,"lng":-111.90253931812035,"phone":"(611) 805-1030","sd":"22","ssbd":"11","lsbd":"School Board Aspen Peaks 5"},{"vid":"1768026","name":"Christen Jerde","party":"Dem","address":"1965 N 3410 W, Unit 204, Lehi, UT 84043","precinct":"25LE24","hd":"51","v_score":"6.724398202","decile":"8","lat":40.41152723924327,"lng":-111.90415446949,"phone":"(581) 996-2627","sd":"22","ssbd":"11","lsbd":"School Board Aspen Peaks 5"},{"vid":"1811678","name":"Zillah Abbott","party":"Rep","address":"3548 W 900 N, Lehi, UT 84048","precinct":"25LE24","hd":"51","v_score":"0","decile":"1","lat":40.398788004871975,"lng":-111.90570932231327,"phone":"(174) 711-4660","sd":"22","ssbd":"11","lsbd":"School Board Aspen Peaks 5"},{"vid":"fd0b025fe03b25a06fb2ffb0a6fbd9f47b7b79b6e32c10e0bdb29ecd9e49531a","name":"Ms. Kylie Haag","party":"","address":"1984 N 3410 W, Unit R101, Lehi, UT 84048","precinct":"25LE24","hd":"51","v_score":"4.210716443","decile":"7","lat":40.412032631976956,"lng":-111.9037283922505,"phone":"(305) 191-6441","sd":"22","ssbd":"11","lsbd":"School Board Aspen Peaks 5"},{"vid":"1822610","name":"Quincy Haley","party":"","address":"1886 N 3330 W, Unit 201, Lehi, UT 84043","precinct":"25LE24","hd":"51","v_score":"1.193887297","decile":"3","lat":40.41064838864645,"lng":-111.90248585647635,"phone":"(170) 837-3547","sd":"22","ssbd":"11","lsbd":"School Board Aspen Peaks 5"},{"vid":"1823921","name":"Mr. Myer Volkman","party":"Rep","address":"1965 N 3410 W, Apt S204, Lehi, UT 84043","precinct":"25LE24","hd":"51","v_score":"6.724398202","decile":"8","lat":40.41152723924327,"lng":-111.90415446949,"phone":"(142) 295-5022","sd":"22","ssbd":"11","lsbd":"School Board Aspen Peaks 5"},{"vid":"1824014","name":"Erin Lind","party":"Dem","address":"1985 N 3330 W, Apt B102, Lehi, UT 84043","precinct":"25LE24","hd":"51","v_score":"2.315214949","decile":"5","lat":40.41207126957354,"lng":-111.90281082684137,"phone":"(147) 893-8884","sd":"22","ssbd":"11","lsbd":"School Board Aspen Peaks 5"},{"vid":"1831715","name":"Brittnay Kshlerin-Monahan","party":"Rep","address":"3363 W Hardman Way, Unit I102, Lehi, UT 84043","precinct":"25LE24","hd":"51","v_score":"3.781490609","decile":"6","lat":40.41025378454365,"lng":-111.9030047191923,"phone":"(828) 771-0675","sd":"22","ssbd":"11","lsbd":"School Board Aspen Peaks 5"},{"vid":"1833864","name":"Mose Buckridge","party":"","address":"3375 W 2010 N, Unit 304, Lehi, UT 84043","precinct":"25LE24","hd":"51","v_score":"6.798081861","decile":"8","lat":40.41200293548388,"lng":-111.90339498749995,"phone":"(792) 082-9099","sd":"22","ssbd":"11","lsbd":"School Board Aspen Peaks 5"},{"vid":"1840714","name":"Johnie Medhurst III","party":"","address":"904 N 3490 W, Lehi, UT 84043","precinct":"25LE24","hd":"51","v_score":"12.58300477","decile":"9","lat":40.39857327242193,"lng":-111.90466837540293,"phone":"(875) 823-0963","sd":"22","ssbd":"11","lsbd":"School Board Aspen Peaks 5"},{"vid":"1849382","name":"Miss Arielle Thiel PhD","party":"","address":"1886 N 3330 W, # F202, Lehi, UT 84043","precinct":"25LE24","hd":"51","v_score":"22.16617265","decile":"10","lat":40.41064838864645,"lng":-111.90248585647635,"phone":"(120) 855-4736","sd":"22","ssbd":"11","lsbd":"School Board Aspen Peaks 5"},{"vid":"1872673","name":"Dezzie Herzog-Corkery","party":"","address":"9776 N 10400 W, Lehi, UT 84045","precinct":"25LE24","hd":"51","v_score":"3.781490609","decile":"6","lat":40.409590924865796,"lng":-111.90131546256312,"phone":"(647) 141-7665","sd":"22","ssbd":"11","lsbd":"School Board Aspen Peaks 5"},{"vid":"185dfd4f38aa37bfec5d10a73298f99b4889d658d6a7ab9fa47ecd22f77a92c5","name":"Hansel Farrell DVM","party":"","address":"3372 W 1910 N, Unit 201, Lehi, UT 84043","precinct":"25LE24","hd":"51","v_score":"0","decile":"1","lat":40.41114733943903,"lng":-111.90330599511427,"phone":"(802) 573-1489","sd":"22","ssbd":"11","lsbd":"School Board Aspen Peaks 5"},{"vid":"1891217","name":"Zane DuBuque","party":"","address":"3372 W 1910 N, Apt L202, Lehi, UT 84043","precinct":"25LE24","hd":"51","v_score":"17.85170867","decile":"10","lat":40.41114733943903,"lng":-111.90330599511427,"phone":"(305) 794-9631","sd":"22","ssbd":"11","lsbd":"School Board Aspen Peaks 5"},{"vid":"1904565","name":"Dr. Iva Keeling DVM","party":"","address":"3325 W 1830 N, Apt H304, Lehi, UT 84043","precinct":"25LE24","hd":"51","v_score":"0","decile":"1","lat":40.409948069852085,"lng":-111.90243851286536,"phone":"(978) 478-3630","sd":"22","ssbd":"11","lsbd":"School Board Aspen Peaks 5"},{"vid":"1913831","name":"Anya Wisoky-Volkman","party":"Dem","address":"1923 N 3410 W, Unit 101, Lehi, UT 84043","precinct":"25LE24","hd":"51","v_score":"3.781490609","decile":"6","lat":40.41101524746206,"lng":-111.90415104821538,"phone":"(827) 834-8825","sd":"22","ssbd":"11","lsbd":"School Board Aspen Peaks 5"},{"vid":"1914834","name":"Forest Fritsch DDS","party":"","address":"865 N Ada Loop, Lehi, UT 84043","precinct":"25LE24","hd":"51","v_score":"5.40460374","decile":"7","lat":40.39783465363314,"lng":-111.90213135190095,"phone":"(730) 551-6104","sd":"22","ssbd":"11","lsbd":"School Board Aspen Peaks 5"},{"vid":"1922598","name":"Dr. Adams Bruen","party":"Dem","address":"1994 N 3330 W, Apt A302, Lehi, UT 84043","precinct":"25LE24","hd":"51","v_score":"3.93832808","decile":"6","lat":40.4119965501807,"lng":-111.90249009828118,"phone":"(678) 967-8507","sd":"22","ssbd":"11","lsbd":"School Board Aspen Peaks 5"},{"vid":"1924547","name":"Ms. Nicole Haag MD","party":"Rep","address":"849 N 3540 W, Lehi, UT 84043","precinct":"25LE24","hd":"51","v_score":"6.896907962","decile":"8","lat":40.39797517943798,"lng":-111.90580069876431,"phone":"(838) 533-0564","sd":"22","ssbd":"11","lsbd":"School Board Aspen Peaks 5"},{"vid":"1928783","name":"Dr. Willian Schimmel","party":"Rep","address":"3458 W Mitchell Dr, Lehi, UT 84048","precinct":"25LE24","hd":"51","v_score":"5.40460374","decile":"7","lat":40.39783026471278,"lng":-111.90439447925247,"phone":"(492) 042-0791","sd":"22","ssbd":"11","lsbd":"School Board Aspen Peaks 5"},{"vid":"1934280","name":"Florence Paucek-Durgan","party":"","address":"9776 N 10400 W, Lehi, UT 84043","precinct":"25LE24","hd":"51","v_score":"5.40460374","decile":"7","lat":40.409590924865796,"lng":-111.90131546256312,"phone":"(832) 926-5087","sd":"22","ssbd":"11","lsbd":"School Board Aspen Peaks 5"},{"vid":"1938130","name":"Paloma Bins","party":"","address":"3402 W 750 N, Lehi, UT 84043","precinct":"25LE24","hd":"51","v_score":"5.258122542","decile":"7","lat":40.39656859210646,"lng":-111.90393454143772,"phone":"(731) 405-2291","sd":"22","ssbd":"11","lsbd":"School Board Aspen Peaks 5"},{"vid":"1940693","name":"Olive Hintz","party":"","address":"1984 N 3410 W, Apt R-304, Lehi, UT 84048","precinct":"25LE24","hd":"51","v_score":"0","decile":"1","lat":40.412032631976956,"lng":-111.9037283922505,"phone":"(171) 856-4828","sd":"22","ssbd":"11","lsbd":"School Board Aspen Peaks 5"},{"vid":"1949785","name":"Grafton Schaden","party":"","address":"849 N 3540 W, Lehi, UT 84043","precinct":"25LE24","hd":"51","v_score":"3.93832808","decile":"6","lat":40.39797517943798,"lng":-111.90580069876431,"phone":"(389) 447-3212","sd":"22","ssbd":"11","lsbd":"School Board Aspen Peaks 5"},{"vid":"1952920","name":"Garfield Spencer-Rohan","party":"","address":"3466 W 850 N, Lehi, UT 84043","precinct":"25LE24","hd":"51","v_score":"1.623113131","decile":"4","lat":40.39811538846957,"lng":-111.9044971203975,"phone":"(391) 986-6476","sd":"22","ssbd":"11","lsbd":"School Board Aspen Peaks 5"},{"vid":"1954361","name":"Miss Bernardine Thiel","party":"","address":"3372 W 1910 N, Lehi, UT 84043","precinct":"25LE24","hd":"51","v_score":"8.347511332","decile":"8","lat":40.41114733943903,"lng":-111.90330599511427,"phone":"(539) 062-8249","sd":"22","ssbd":"11","lsbd":"School Board Aspen Peaks 5"},{"vid":"1966347","name":"Kimberli Howell PhD","party":"Rep","address":"1887 N 3410 W, Apt K202, Lehi, UT 84043","precinct":"25LE24","hd":"51","v_score":"2.315214949","decile":"5","lat":40.41061905225301,"lng":-111.90403648342752,"phone":"(131) 711-1835","sd":"22","ssbd":"11","lsbd":"School Board Aspen Peaks 5"},{"vid":"1970545","name":"Matie Rogahn","party":"Rep","address":"3420 W 850 N, Lehi, UT 84043","precinct":"25LE24","hd":"51","v_score":"2.315214949","decile":"5","lat":40.39811749487702,"lng":-111.903919113801,"phone":"(286) 363-3390","sd":"22","ssbd":"11","lsbd":"School Board Aspen Peaks 5"},{"vid":"1989488","name":"Micheal Pagac","party":"Rep","address":"3420 W 850 N, Lehi, UT 84043","precinct":"25LE24","hd":"51","v_score":"3.93832808","decile":"6","lat":40.39811749487702,"lng":-111.903919113801,"phone":"(161) 948-5558","sd":"22","ssbd":"11","lsbd":"School Board Aspen Peaks 5"},{"vid":"1993669","name":"Rosa DuBuque","party":"","address":"3451 W Hardman Way, Lehi, UT 84048","precinct":"25LE24","hd":"51","v_score":"2.587603312","decile":"5","lat":40.41019007170061,"lng":-111.90450982113832,"phone":"(938) 770-0331","sd":"22","ssbd":"11","lsbd":"School Board Aspen Peaks 5"},{"vid":"2003644","name":"Tempie Fritsch","party":"","address":"830 N Old Ranch Rd, Lehi, UT 84043","precinct":"25LE24","hd":"51","v_score":"0","decile":"1","lat":40.39783465692262,"lng":-111.90677079177523,"phone":"(144) 943-3258","sd":"22","ssbd":"11","lsbd":"School Board Aspen Peaks 5"},{"vid":"2011383","name":"Estevan Nader","party":"","address":"3398 W Mitchell Dr, Lehi, UT 84043","precinct":"25LE24","hd":"51","v_score":"2.315214949","decile":"5","lat":40.39783275054405,"lng":-111.90367465652035,"phone":"(673) 177-0702","sd":"22","ssbd":"11","lsbd":"School Board Aspen Peaks 5"},{"vid":"2018268","name":"Whit Veum-Rodriguez","party":"","address":"3373 W 1960 N, Unit 101, Lehi, UT 84043","precinct":"25LE24","hd":"51","v_score":"11.96985375","decile":"9","lat":40.411441627886866,"lng":-111.90339181935333,"phone":"(372) 611-0756","sd":"22","ssbd":"11","lsbd":"School Board Aspen Peaks 5"},{"vid":"2030226","name":"Zoa Frami-Spencer","party":"","address":"1936 N 3410 W, Unit M303, Lehi, UT 84043","precinct":"25LE24","hd":"51","v_score":"1.121327652","decile":"3","lat":40.411438261774194,"lng":-111.90373089645702,"phone":"(464) 020-2976","sd":"22","ssbd":"11","lsbd":"School Board Aspen Peaks 5"},{"vid":"2039397","name":"Stefanie Murphy","party":"Rep","address":"791 N Sierra Spring Way, Lehi, UT 84048","precinct":"25LE24","hd":"51","v_score":"3.781490609","decile":"6","lat":40.397083022264646,"lng":-111.90637576652236,"phone":"(950) 552-0914","sd":"22","ssbd":"11","lsbd":"School Board Aspen Peaks 5"},{"vid":"68210d0fca6e0e6a4441875640730a9ea0936d92650f897c71b66d7d411428cf","name":"Trudie Wolf","party":"Dem","address":"3566 W 900 N, Lehi, UT 84043","precinct":"25LE24","hd":"51","v_score":"4.192796624","decile":"7","lat":40.39878710813557,"lng":-111.9059678001395,"phone":"(884) 909-4688","sd":"22","ssbd":"11","lsbd":"School Board Aspen Peaks 5"},{"vid":"2048609","name":"Dusty Hilpert","party":"","address":"1997 N 3410 W, Unit 201, Lehi, UT 84043","precinct":"25LE24","hd":"51","v_score":"1.46627566","decile":"4","lat":40.41217752194359,"lng":-111.90415913619705,"phone":"(422) 306-8730","sd":"22","ssbd":"11","lsbd":"School Board Aspen Peaks 5"},{"vid":"99362fc368b9acf0a6d335469a5459a300a461f09ac1b5c629108ae4774f5564","name":"Ms. Mitzi Parisian DDS","party":"Rep","address":"1994 N 3330 W, Unit 102, Lehi, UT 84043","precinct":"25LE24","hd":"51","v_score":"1.193887297","decile":"3","lat":40.4119965501807,"lng":-111.90249009828118,"phone":"(560) 037-4542","sd":"22","ssbd":"11","lsbd":"School Board Aspen Peaks 5"},{"vid":"2056829","name":"Floretta Armstrong-Brown","party":"Dem","address":"1922 N 3330 W, Unit E304, Lehi, UT 84043","precinct":"25LE24","hd":"51","v_score":"5.40460374","decile":"7","lat":40.41129698314117,"lng":-111.90249188287433,"phone":"(343) 279-9327","sd":"22","ssbd":"11","lsbd":"School Board Aspen Peaks 5"},{"vid":"2061114","name":"Sarita Boyle","party":"Dem","address":"3398 W Mitchell Dr, Lehi, UT 84043","precinct":"25LE24","hd":"51","v_score":"7.934314529","decile":"8","lat":40.39783275054405,"lng":-111.90367465652035,"phone":"(969) 017-9138","sd":"22","ssbd":"11","lsbd":"School Board Aspen Peaks 5"},{"vid":"2065038","name":"Kayli O'Conner","party":"","address":"1886 N 3330 W, Unit F101, Lehi, UT 84043","precinct":"25LE24","hd":"51","v_score":"19.30937315","decile":"10","lat":40.41064838864645,"lng":-111.90248585647635,"phone":"(513) 168-7257","sd":"22","ssbd":"11","lsbd":"School Board Aspen Peaks 5"},{"vid":"ab2d15adfa851360a22d8262311507ea37c79cb67469449dd155916a3f66d95e","name":"Regis Mann Sr.","party":"","address":"893 N 3490 W, Lehi, UT 84043","precinct":"25LE24","hd":"51","v_score":"2.660162957","decile":"5","lat":40.39846742057528,"lng":-111.90512157312817,"phone":"(315) 528-0586","sd":"22","ssbd":"11","lsbd":"School Board Aspen Peaks 5"},{"vid":"061073d31afc23cd278b6abb32396a60bb033f581bcf969f25a29f94baa43760","name":"Nia Langworth","party":"Rep","address":"3375 W 2010 N, Bldg Q301, Lehi, UT 84043","precinct":"25LE24","hd":"51","v_score":"9.839687999","decile":"8","lat":40.41200293548388,"lng":-111.90339498749995,"phone":"(742) 240-8177","sd":"22","ssbd":"11","lsbd":"School Board Aspen Peaks 5"},{"vid":"2090126","name":"Lorna Morar","party":"","address":"862 N 3540 W, Lehi, UT 84043","precinct":"25LE24","hd":"51","v_score":"5.40460374","decile":"7","lat":40.39813728880993,"lng":-111.90535656126735,"phone":"(372) 987-7419","sd":"22","ssbd":"11","lsbd":"School Board Aspen Peaks 5"},{"vid":"2096876","name":"Dr. Braxton Larkin DDS","party":"Rep","address":"3374 W 1960 N, Apt P303, Lehi, UT 84043","precinct":"25LE24","hd":"51","v_score":"1.46627566","decile":"4","lat":40.41174559555218,"lng":-111.90343795744985,"phone":"(612) 391-2441","sd":"22","ssbd":"11","lsbd":"School Board Aspen Peaks 5"},{"vid":"58a7c16276b24aa08832dcd9e1c3b680eab2f04fdfe1772e0d8452d39f5d67c5","name":"Gracelyn Hodkiewicz","party":"Dem","address":"870 N Ada Loop, Lehi, UT 84043","precinct":"25LE24","hd":"51","v_score":"0","decile":"1","lat":40.39807041443496,"lng":-111.90174367080265,"phone":"(530) 977-0914","sd":"22","ssbd":"11","lsbd":"School Board Aspen Peaks 5"},{"vid":"3955e3df22d3052f66139e9d1d8e8a69e4378eadb9aba980fa5572367d5f05d9","name":"Edmonia Kemmer","party":"","address":"3325 W 1830 N, Apt H202, Lehi, UT 84048","precinct":"25LE24","hd":"51","v_score":"0","decile":"1","lat":40.409948069852085,"lng":-111.90243851286536,"phone":"(176) 638-6995","sd":"22","ssbd":"11","lsbd":"School Board Aspen Peaks 5"},{"vid":"a5870e0337bf9f8b648f5b53fedcf301211fcdd773349262ca4098e492e2ce25","name":"Carry Bechtelar","party":"","address":"1922 N 3330 W, Bldg E301, Lehi, UT 84043","precinct":"25LE24","hd":"51","v_score":"23.52685352","decile":"10","lat":40.41129698314117,"lng":-111.90249188287433,"phone":"(597) 462-6571","sd":"22","ssbd":"11","lsbd":"School Board Aspen Peaks 5"},{"vid":"2145520","name":"Marius Windler-Zboncak","party":"Rep","address":"1922 N 3330 W, Apt E303, Lehi, UT 84043","precinct":"25LE24","hd":"51","v_score":"3.781490609","decile":"6","lat":40.41129698314117,"lng":-111.90249188287433,"phone":"(870) 448-8261","sd":"22","ssbd":"11","lsbd":"School Board Aspen Peaks 5"},{"vid":"2150750","name":"Ozella Jakubowski","party":"","address":"1887 N 3410 W, Apt K202, Lehi, UT 84043","precinct":"25LE24","hd":"51","v_score":"3.93832808","decile":"6","lat":40.41061905225301,"lng":-111.90403648342752,"phone":"(998) 884-8510","sd":"22","ssbd":"11","lsbd":"School Board Aspen Peaks 5"},{"vid":"98288fd1d63a94d4d133817158d4863a5bcbf489b00927d15079a741cc478d4c","name":"Karyn Bode-Schimmel","party":"","address":"1997 N 3410 W, Unit T302, Lehi, UT 84043","precinct":"25LE24","hd":"51","v_score":"1.121327652","decile":"3","lat":40.41217752194359,"lng":-111.90415913619705,"phone":"(601) 169-1980","sd":"22","ssbd":"11","lsbd":"School Board Aspen Peaks 5"},{"vid":"b39324da48dd4bc7733f8541e3a6b9d02a51a57080e526c1b00b0b6ec9a05b62","name":"Dr. Kyle Rice DDS","party":"Rep","address":"3333 W 1500 N, Lehi, UT 84048","precinct":"25LE24","hd":"51","v_score":"13.84932621","decile":"9","lat":40.4052410187575,"lng":-111.90327745289376,"phone":"(435) 408-2791","sd":"22","ssbd":"11","lsbd":"School Board Aspen Peaks 5"},{"vid":"2163597","name":"Azzie White-Bailey","party":"Rep","address":"3374 W 1960 N, Unit 101, Lehi, UT 84043","precinct":"25LE24","hd":"51","v_score":"2.587603312","decile":"5","lat":40.41174559555218,"lng":-111.90343795744985,"phone":"(997) 239-8502","sd":"22","ssbd":"11","lsbd":"School Board Aspen Peaks 5"},{"vid":"2164835","name":"Jahiem Murphy","party":"Dem","address":"1886 N 3330 W, Unit F303, Lehi, UT 84043","precinct":"25LE24","hd":"51","v_score":"2.587603312","decile":"5","lat":40.41064838864645,"lng":-111.90248585647635,"phone":"(613) 552-8834","sd":"22","ssbd":"11","lsbd":"School Board Aspen Peaks 5"},{"vid":"be21475c900b90bb2dea543c4a391de71f89759adc4ae5421f044a75898ef99a","name":"Delmar Farrell Jr.","party":"","address":"3384 W 750 N, Lehi, UT 84043","precinct":"25LE24","hd":"51","v_score":"10.43562833","decile":"9","lat":40.39656969630258,"lng":-111.90361463429707,"phone":"(578) 553-1109","sd":"22","ssbd":"11","lsbd":"School Board Aspen Peaks 5"},{"vid":"2180198","name":"Dr. Brandyn Abshire","party":"Rep","address":"1937 N 3330 W, D202, Lehi, UT 84043","precinct":"25LE24","hd":"51","v_score":"1.121327652","decile":"3","lat":40.411233027125085,"lng":-111.90288378674109,"phone":"(296) 529-7643","sd":"22","ssbd":"11","lsbd":"School Board Aspen Peaks 5"},{"vid":"2191107","name":"Risa Turner","party":"Rep","address":"1886 N 3330 W, Unit 201, Lehi, UT 84043","precinct":"25LE24","hd":"51","v_score":"4.214075011","decile":"7","lat":40.41064838864645,"lng":-111.90248585647635,"phone":"(621) 464-6873","sd":"22","ssbd":"11","lsbd":"School Board Aspen Peaks 5"},{"vid":"af1f4202682186eb6a47bc49d4b79706b8c587d113f0cae3966d6ec17492b9ba","name":"Dr. Kristofer Koelpin DDS","party":"Rep","address":"914 N Old Ranch Rd, Lehi, UT 84043","precinct":"25LE24","hd":"51","v_score":"2.315214949","decile":"5","lat":40.39870775567382,"lng":-111.90642731158388,"phone":"(538) 645-5438","sd":"22","ssbd":"11","lsbd":"School Board Aspen Peaks 5"},{"vid":"2198574","name":"Ruthe Larson","party":"Rep","address":"3542 W 900 N, Lehi, UT 84043","precinct":"25LE24","hd":"51","v_score":"0","decile":"1","lat":40.39878830355608,"lng":-111.90562317513515,"phone":"(321) 133-4682","sd":"22","ssbd":"11","lsbd":"School Board Aspen Peaks 5"},{"vid":"5e9a9c287d431d0da470cd16e4cde593947a2ddfe15f1a3514cc968ab7551b46","name":"Miss Sheyla Kutch","party":"Rep","address":"1887 N 3410 W, Apt K102, Lehi, UT 84043","precinct":"25LE24","hd":"51","v_score":"2.315214949","decile":"5","lat":40.41061905225301,"lng":-111.90403648342752,"phone":"(264) 069-1083","sd":"22","ssbd":"11","lsbd":"School Board Aspen Peaks 5"},{"vid":"fde616a13d5c59a6c06723c610658ce079229f378f9d9724b9280fbf5c42e101","name":"Philip Kautzer","party":"","address":"3372 W 1910 N, Unit 302, Lehi, UT 84043","precinct":"25LE24","hd":"51","v_score":"5.191257514","decile":"7","lat":40.41114733943903,"lng":-111.90330599511427,"phone":"(281) 751-5576","sd":"22","ssbd":"11","lsbd":"School Board Aspen Peaks 5"},{"vid":"294074d424425aa0c50c44d2318fc1633d5cd9ebb6f8ae398d0bc4686098641c","name":"Gisselle Connelly","party":"Dem","address":"3363 W Hardman Way, Unit 204, Lehi, UT 84043","precinct":"25LE24","hd":"51","v_score":"0","decile":"1","lat":40.41025378454365,"lng":-111.9030047191923,"phone":"(847) 978-6951","sd":"22","ssbd":"11","lsbd":"School Board Aspen Peaks 5"},{"vid":"38b36287287239707d166c35c94cf2ea94a089f1112ea167728c67cb0eee1e3b","name":"Jean Glover DDS","party":"Dem","address":"3524 W 900 N, Lehi, UT 84043","precinct":"25LE24","hd":"51","v_score":"0","decile":"1","lat":40.39878932863221,"lng":-111.9053274021329,"phone":"(753) 835-5699","sd":"22","ssbd":"11","lsbd":"School Board Aspen Peaks 5"},{"vid":"2260327","name":"Mr. Lazaro Boyer II","party":"","address":"833 N 3490 W, Lehi, UT 84043","precinct":"25LE24","hd":"51","v_score":"1.193887297","decile":"3","lat":40.39777995698471,"lng":-111.90511750070564,"phone":"(711) 205-5899","sd":"22","ssbd":"11","lsbd":"School Board Aspen Peaks 5"},{"vid":"2264213","name":"Daijah Dietrich","party":"Dem","address":"1922 N 3330 W, Unit E304, Lehi, UT 84043","precinct":"25LE24","hd":"51","v_score":"3.93832808","decile":"6","lat":40.41129698314117,"lng":-111.90249188287433,"phone":"(349) 042-8374","sd":"22","ssbd":"11","lsbd":"School Board Aspen Peaks 5"},{"vid":"2272327","name":"Christion Stanton","party":"","address":"1936 N 3410 W, M202, Lehi, UT 84043","precinct":"25LE24","hd":"51","v_score":"2.315214949","decile":"5","lat":40.411438261774194,"lng":-111.90373089645702,"phone":"(859) 998-0724","sd":"22","ssbd":"11","lsbd":"School Board Aspen Peaks 5"},{"vid":"6f6e138233d361cde8d474c700b0a4e6306d1b0d62887173c056fd5babd10b78","name":"Zilpha Dietrich","party":"","address":"3392 W Mitchell Dr, Lehi, UT 84043","precinct":"25LE24","hd":"51","v_score":"1.193887297","decile":"3","lat":40.39783299819676,"lng":-111.90360286801376,"phone":"(189) 726-8648","sd":"22","ssbd":"11","lsbd":"School Board Aspen Peaks 5"},{"vid":"590628a51a6fe56a81e17f91cedcef49707ccb7ca1c67b371c0bb6be20458ad3","name":"Dirk Denesik","party":"Rep","address":"1936 N 3410 W, M202, Lehi, UT 84043","precinct":"25LE24","hd":"51","v_score":"2.315214949","decile":"5","lat":40.411438261774194,"lng":-111.90373089645702,"phone":"(865) 330-7528","sd":"22","ssbd":"11","lsbd":"School Board Aspen Peaks 5"},{"vid":"2300421","name":"Ammie Bogisich","party":"","address":"3452 W Mitchell Dr, Lehi, UT 84048","precinct":"25LE24","hd":"51","v_score":"15.99768744","decile":"9","lat":40.397830512775975,"lng":-111.90432269092551,"phone":"(676) 121-9859","sd":"22","ssbd":"11","lsbd":"School Board Aspen Peaks 5"},{"vid":"2317404","name":"Kelly O'Hara","party":"","address":"3374 W 1960 N, Unit 303, Lehi, UT 84043","precinct":"25LE24","hd":"51","v_score":"0","decile":"1","lat":40.41174559555218,"lng":-111.90343795744985,"phone":"(139) 931-7314","sd":"22","ssbd":"11","lsbd":"School Board Aspen Peaks 5"},{"vid":"2331459","name":"Mr. Hughie Crist IV","party":"Rep","address":"1887 N 3410 W, Apt K303, Lehi, UT 84043","precinct":"25LE24","hd":"51","v_score":"13.57168065","decile":"9","lat":40.41061905225301,"lng":-111.90403648342752,"phone":"(608) 432-4049","sd":"22","ssbd":"11","lsbd":"School Board Aspen Peaks 5"},{"vid":"2333387","name":"Dr. Laquan Fahey DDS","party":"Dem","address":"1994 N 3330 W, Unit 301, Lehi, UT 84043","precinct":"25LE24","hd":"51","v_score":"3.93832808","decile":"6","lat":40.4119965501807,"lng":-111.90249009828118,"phone":"(762) 104-6421","sd":"22","ssbd":"11","lsbd":"School Board Aspen Peaks 5"},{"vid":"2338154","name":"Dillie Zulauf-Thompson","party":"Rep","address":"3493 W Hardman Way, Lehi, UT 84043","precinct":"25LE24","hd":"51","v_score":"3.93832808","decile":"6","lat":40.41018722202832,"lng":-111.90506387056452,"phone":"(636) 771-1870","sd":"22","ssbd":"11","lsbd":"School Board Aspen Peaks 5"},{"vid":"2339395","name":"Baylie Goodwin","party":"Rep","address":"1923 N 3410 W, Apt N202, Lehi, UT 84043","precinct":"25LE24","hd":"51","v_score":"1.121327652","decile":"3","lat":40.41101524746206,"lng":-111.90415104821538,"phone":"(594) 250-9646","sd":"22","ssbd":"11","lsbd":"School Board Aspen Peaks 5"},{"vid":"2356077","name":"Corie Ruecker DDS","party":"Dem","address":"862 N 3540 W, Lehi, UT 84043","precinct":"25LE24","hd":"51","v_score":"2.315214949","decile":"5","lat":40.39813728880993,"lng":-111.90535656126735,"phone":"(152) 805-2834","sd":"22","ssbd":"11","lsbd":"School Board Aspen Peaks 5"},{"vid":"2362174","name":"Carrie Metz","party":"","address":"3374 W 1960 N, Unit 301, Lehi, UT 84043","precinct":"25LE24","hd":"51","v_score":"3.93832808","decile":"6","lat":40.41174559555218,"lng":-111.90343795744985,"phone":"(970) 601-8630","sd":"22","ssbd":"11","lsbd":"School Board Aspen Peaks 5"},{"vid":"2367509","name":"Ms. Leontine Doyle DDS","party":"Rep","address":"3373 W 1960 N, Unit 303, Lehi, UT 84043","precinct":"25LE24","hd":"51","v_score":"3.93832808","decile":"6","lat":40.411441627886866,"lng":-111.90339181935333,"phone":"(859) 455-0892","sd":"22","ssbd":"11","lsbd":"School Board Aspen Peaks 5"},{"vid":"2386527","name":"Dr. Hans Johns","party":"","address":"1937 N 3330 W, Unit 302, Lehi, UT 84043","precinct":"25LE24","hd":"51","v_score":"2.315214949","decile":"5","lat":40.411233027125085,"lng":-111.90288378674109,"phone":"(549) 150-2665","sd":"22","ssbd":"11","lsbd":"School Board Aspen Peaks 5"},{"vid":"2393154","name":"Mr. Tavaris Collier","party":"Rep","address":"3451 W Hardman Way, Lehi, UT 84043","precinct":"25LE24","hd":"51","v_score":"1.121327652","decile":"3","lat":40.41019007170061,"lng":-111.90450982113832,"phone":"(454) 067-6952","sd":"22","ssbd":"11","lsbd":"School Board Aspen Peaks 5"},{"vid":"2408999","name":"Hassan Erdman III","party":"Dem","address":"3472 W 850 N, Lehi, UT 84043","precinct":"25LE24","hd":"51","v_score":"0","decile":"1","lat":40.39811511208482,"lng":-111.90456890854479,"phone":"(398) 447-6188","sd":"22","ssbd":"11","lsbd":"School Board Aspen Peaks 5"},{"vid":"2422061","name":"Champ Olson","party":"","address":"1936 N 3410 W, # M303, Lehi, UT 84043","precinct":"25LE24","hd":"51","v_score":"1.121327652","decile":"3","lat":40.411438261774194,"lng":-111.90373089645702,"phone":"(564) 505-8106","sd":"22","ssbd":"11","lsbd":"School Board Aspen Peaks 5"},{"vid":"2425196","name":"Cleon Funk","party":"Dem","address":"3373 W 1960 N, Unit O-202, Lehi, UT 84043","precinct":"25LE24","hd":"51","v_score":"3.93832808","decile":"6","lat":40.411441627886866,"lng":-111.90339181935333,"phone":"(697) 403-3398","sd":"22","ssbd":"11","lsbd":"School Board Aspen Peaks 5"},{"vid":"2429358","name":"Tollie Pollich","party":"Dem","address":"1822 N 3470 W, Lehi, UT 84043","precinct":"25LE24","hd":"51","v_score":"2.315214949","decile":"5","lat":40.40968551612737,"lng":-111.90459448214362,"phone":"(645) 807-4000","sd":"22","ssbd":"11","lsbd":"School Board Aspen Peaks 5"},{"vid":"2433668","name":"Dr. Keegan Herzog","party":"Rep","address":"3363 W Hardman Way, Unit I202, Lehi, UT 84043","precinct":"25LE24","hd":"51","v_score":"2.315214949","decile":"5","lat":40.41025378454365,"lng":-111.9030047191923,"phone":"(278) 607-6896","sd":"22","ssbd":"11","lsbd":"School Board Aspen Peaks 5"},{"vid":"2435404","name":"Macy Powlowski","party":"","address":"1985 N 3330 W, Apt B203, Lehi, UT 84043","precinct":"25LE24","hd":"51","v_score":"2.315214949","decile":"5","lat":40.41207126957354,"lng":-111.90281082684137,"phone":"(210) 113-7943","sd":"22","ssbd":"11","lsbd":"School Board Aspen Peaks 5"},{"vid":"2460424","name":"Admiral Carroll-Gleason","party":"","address":"894 N Pheasant Run Ln, Lehi, UT 84043","precinct":"25LE24","hd":"51","v_score":"9.928536428","decile":"9","lat":40.39846733348719,"lng":-111.90610057257581,"phone":"(880) 264-2642","sd":"22","ssbd":"11","lsbd":"School Board Aspen Peaks 5"},{"vid":"2467815","name":"Lesia Jast","party":"","address":"1958 N 3330 W, Unit 202, Lehi, UT 84043","precinct":"25LE24","hd":"51","v_score":"1.193887297","decile":"3","lat":40.4114851041151,"lng":-111.9023820961702,"phone":"(159) 045-5138","sd":"22","ssbd":"11","lsbd":"School Board Aspen Peaks 5"},{"vid":"2477493","name":"Mark Sporer","party":"","address":"1922 N 3330 W, Unit E101, Lehi, UT 84043","precinct":"25LE24","hd":"51","v_score":"0","decile":"1","lat":40.41129698314117,"lng":-111.90249188287433,"phone":"(220) 835-0480","sd":"22","ssbd":"11","lsbd":"School Board Aspen Peaks 5"},{"vid":"2481253","name":"Dale DuBuque","party":"Dem","address":"3415 W Hardman Way, Lehi, UT 84043","precinct":"25LE24","hd":"51","v_score":"10.06908511","decile":"9","lat":40.41019253149397,"lng":-111.90402821868382,"phone":"(948) 588-3117","sd":"22","ssbd":"11","lsbd":"School Board Aspen Peaks 5"},{"vid":"2486543","name":"Kelsi Paucek","party":"","address":"1923 N 3410 W, Lehi, UT 84043","precinct":"25LE24","hd":"51","v_score":"0","decile":"1","lat":40.41101524746206,"lng":-111.90415104821538,"phone":"(130) 825-3167","sd":"22","ssbd":"11","lsbd":"School Board Aspen Peaks 5"},{"vid":"2496491","name":"Mordechai Hackett","party":"","address":"3391 W 800 N, Lehi, UT 84043","precinct":"25LE24","hd":"51","v_score":"1.193887297","decile":"3","lat":40.396824706392536,"lng":-111.90363965177885,"phone":"(804) 468-3140","sd":"22","ssbd":"11","lsbd":"School Board Aspen Peaks 5"},{"vid":"2500335","name":"Mr. Dannie Cormier DVM","party":"Rep","address":"759 N Sierra Spring Way, Lehi, UT 84043","precinct":"25LE24","hd":"51","v_score":"0","decile":"1","lat":40.39655559126323,"lng":-111.90651625532735,"phone":"(608) 933-7837","sd":"22","ssbd":"11","lsbd":"School Board Aspen Peaks 5"},{"vid":"2501351","name":"Blair Murazik-Pfeffer","party":"Rep","address":"1997 N 3410 W, # T301, Lehi, UT 84043","precinct":"25LE24","hd":"51","v_score":"1.193887297","decile":"3","lat":40.41217752194359,"lng":-111.90415913619705,"phone":"(651) 794-3933","sd":"22","ssbd":"11","lsbd":"School Board Aspen Peaks 5"},{"vid":"2506944","name":"Dr. Christoper Gerhold DVM","party":"Dem","address":"1997 N 3410 W, Apt T301, Lehi, UT 84043","precinct":"25LE24","hd":"51","v_score":"1.193887297","decile":"3","lat":40.41217752194359,"lng":-111.90415913619705,"phone":"(655) 664-7219","sd":"22","ssbd":"11","lsbd":"School Board Aspen Peaks 5"},{"vid":"2511448","name":"Meghann Champlin","party":"Dem","address":"1936 N 3410 W, Unit M302, Lehi, UT 84043","precinct":"25LE24","hd":"51","v_score":"1.193887297","decile":"4","lat":40.411438261774194,"lng":-111.90373089645702,"phone":"(851) 204-7088","sd":"22","ssbd":"11","lsbd":"School Board Aspen Peaks 5"},{"vid":"2517272","name":"Qiana Murazik","party":"","address":"836 N Old Ranch Rd, Lehi, UT 84043","precinct":"25LE24","hd":"51","v_score":"0","decile":"1","lat":40.39788492315196,"lng":-111.90674197992946,"phone":"(737) 362-1388","sd":"22","ssbd":"11","lsbd":"School Board Aspen Peaks 5"},{"vid":"2520262","name":"Raymon Willms","party":"","address":"1922 N 3330 W, Apt E204, Lehi, UT 84043","precinct":"25LE24","hd":"51","v_score":"1.193887297","decile":"4","lat":40.41129698314117,"lng":-111.90249188287433,"phone":"(357) 130-1532","sd":"22","ssbd":"11","lsbd":"School Board Aspen Peaks 5"},{"vid":"2542671","name":"Dr. Caiden Kshlerin V","party":"Rep","address":"1984 N 3410 W, Unit 202, Lehi, UT 84048","precinct":"25LE24","hd":"51","v_score":"0","decile":"1","lat":40.412032631976956,"lng":-111.9037283922505,"phone":"(792) 757-8242","sd":"22","ssbd":"11","lsbd":"School Board Aspen Peaks 5"},{"vid":"2554754","name":"Tristen Dicki","party":"","address":"3325 W 1830 N, Apt H302, Lehi, UT 84043","precinct":"25LE24","hd":"51","v_score":"1.193887297","decile":"4","lat":40.409948069852085,"lng":-111.90243851286536,"phone":"(498) 635-5602","sd":"22","ssbd":"11","lsbd":"School Board Aspen Peaks 5"},{"vid":"2563480","name":"Cordie Lehner","party":"Rep","address":"786 N 3620 W, Lehi, UT 84048","precinct":"25LE24","hd":"51","v_score":"0","decile":"1","lat":40.39681558597665,"lng":-111.9067641730481,"phone":"(819) 453-5160","sd":"22","ssbd":"11","lsbd":"School Board Aspen Peaks 5"},{"vid":"2581838","name":"Mrs. Susanna Murphy","party":"","address":"1937 N 3330 W, D303, Lehi, UT 84043","precinct":"25LE24","hd":"51","v_score":"1.193887297","decile":"4","lat":40.411233027125085,"lng":-111.90288378674109,"phone":"(694) 705-3248","sd":"22","ssbd":"11","lsbd":"School Board Aspen Peaks 5"},{"vid":"2581858","name":"Dr. Jerald Vandervort","party":"Rep","address":"1937 N 3330 W, Unit D303, Lehi, UT 84043","precinct":"25LE24","hd":"51","v_score":"0","decile":"1","lat":40.411233027125085,"lng":-111.90288378674109,"phone":"(331) 991-4492","sd":"22","ssbd":"11","lsbd":"School Board Aspen Peaks 5"},{"vid":"2594436","name":"Dr. Jodie Nader","party":"Rep","address":"1923 N 3410 W, Unit 304, Lehi, UT 84043","precinct":"25LE24","hd":"51","v_score":"0","decile":"1","lat":40.41101524746206,"lng":-111.90415104821538,"phone":"(528) 448-0394","sd":"22","ssbd":"11","lsbd":"School Board Aspen Peaks 5"},{"vid":"2609693","name":"Abdul Rice","party":"","address":"1922 N 3330 W, Apt E303, Lehi, UT 84043","precinct":"25LE24","hd":"51","v_score":"1.193887297","decile":"4","lat":40.41129698314117,"lng":-111.90249188287433,"phone":"(703) 125-3835","sd":"22","ssbd":"11","lsbd":"School Board Aspen Peaks 5"},{"vid":"2620145","name":"Laurine Kozey","party":"Dem","address":"1819 N 3530 W, Lehi, UT 84048","precinct":"25LE24","hd":"51","v_score":"0","decile":"1","lat":40.40967832479232,"lng":-111.90580557697561,"phone":"(950) 124-3749","sd":"22","ssbd":"11","lsbd":"School Board Aspen Peaks 5"},{"vid":"2624910","name":"Mr. Haskell Schaefer","party":"Rep","address":"1922 N 3330 W, Apt E203, Lehi, UT 84043","precinct":"25LE24","hd":"51","v_score":"2.817000428","decile":"6","lat":40.41129698314117,"lng":-111.90249188287433,"phone":"(971) 194-5765","sd":"22","ssbd":"11","lsbd":"School Board Aspen Peaks 5"},{"vid":"2626087","name":"Ruby Harris","party":"","address":"3363 W Hardman Way, Apt I201, Lehi, UT 84043","precinct":"25LE24","hd":"51","v_score":"0","decile":"1","lat":40.41025378454365,"lng":-111.9030047191923,"phone":"(663) 889-4714","sd":"22","ssbd":"11","lsbd":"School Board Aspen Peaks 5"},{"vid":"2655820","name":"Saint Block-Corkery","party":"Rep","address":"876 N Pheasant Run Ln, Lehi, UT 84043","precinct":"25LE24","hd":"51","v_score":"1.193887297","decile":"4","lat":40.398270469412225,"lng":-111.90616049433753,"phone":"(940) 184-9356","sd":"22","ssbd":"11","lsbd":"School Board Aspen Peaks 5"},{"vid":"2655860","name":"Casey O'Keefe","party":"Dem","address":"3333 W 1500 N, Lehi, UT 84043","precinct":"25LE24","hd":"51","v_score":"0","decile":"1","lat":40.4052410187575,"lng":-111.90327745289376,"phone":"(640) 601-4772","sd":"22","ssbd":"11","lsbd":"School Board Aspen Peaks 5"},{"vid":"2658225","name":"Miss Star Renner DDS","party":"","address":"1958 N 3330 W, Apt C102, Lehi, UT 84043","precinct":"25LE24","hd":"51","v_score":"1.193887297","decile":"4","lat":40.4114851041151,"lng":-111.9023820961702,"phone":"(450) 001-0143","sd":"22","ssbd":"11","lsbd":"School Board Aspen Peaks 5"},{"vid":"2661669","name":"Cory Wilkinson-Jacobs","party":"","address":"3364 W Hardman Way, Unit 302, Lehi, UT 84043","precinct":"25LE24","hd":"51","v_score":"1.193887297","decile":"4","lat":40.41069244935146,"lng":-111.90317249484298,"phone":"(112) 830-4699","sd":"22","ssbd":"11","lsbd":"School Board Aspen Peaks 5"},{"vid":"2661930","name":"Alan Johnston","party":"Rep","address":"1984 N 3410 W, Unit 203, Lehi, UT 84043","precinct":"25LE24","hd":"51","v_score":"0","decile":"1","lat":40.412032631976956,"lng":-111.9037283922505,"phone":"(241) 539-5895","sd":"22","ssbd":"11","lsbd":"School Board Aspen Peaks 5"},{"vid":"2675001","name":"Golden Ritchie","party":"Dem","address":"1922 N 3330 W, Apt E202, Lehi, UT 84043","precinct":"25LE24","hd":"51","v_score":"0","decile":"2","lat":40.41129698314117,"lng":-111.90249188287433,"phone":"(442) 567-1199","sd":"22","ssbd":"11","lsbd":"School Board Aspen Peaks 5"},{"vid":"2676093","name":"Hakeem Kulas-Macejkovic","party":"","address":"3323 W Hardman Way, Unit G301, Lehi, UT 84043","precinct":"25LE24","hd":"51","v_score":"0","decile":"2","lat":40.410194941629,"lng":-111.9024070946676,"phone":"(833) 346-2582","sd":"22","ssbd":"11","lsbd":"School Board Aspen Peaks 5"},{"vid":"2683754","name":"Dr. Louie Rath","party":"","address":"3373 W 1960 N, Lehi, UT 84043","precinct":"25LE24","hd":"51","v_score":"4.905839784","decile":"7","lat":40.411441627886866,"lng":-111.90339181935333,"phone":"(205) 513-7709","sd":"22","ssbd":"11","lsbd":"School Board Aspen Peaks 5"},{"vid":"2709675","name":"Chrissie Lemke-Wuckert","party":"Rep","address":"875 N 3490 W, Lehi, UT 84043","precinct":"25LE24","hd":"51","v_score":"1.193887297","decile":"4","lat":40.39826983413922,"lng":-111.90512040316234,"phone":"(631) 270-0063","sd":"22","ssbd":"11","lsbd":"School Board Aspen Peaks 5"},{"vid":"2712258","name":"Dr. Kendell Franecki I","party":"Dem","address":"3524 W 900 N, Lehi, UT 84043","precinct":"25LE24","hd":"51","v_score":"1.193887297","decile":"4","lat":40.39878932863221,"lng":-111.9053274021329,"phone":"(636) 491-8291","sd":"22","ssbd":"11","lsbd":"School Board Aspen Peaks 5"},{"vid":"2712836","name":"Dr. Norton Wisozk","party":"","address":"3323 W Hardman Way, Unit 102, Lehi, UT 84043","precinct":"25LE24","hd":"51","v_score":"0","decile":"2","lat":40.410194941629,"lng":-111.9024070946676,"phone":"(206) 711-5247","sd":"22","ssbd":"11","lsbd":"School Board Aspen Peaks 5"},{"vid":"2734640","name":"Lamonte Schaden","party":"","address":"3325 W 1830 N, Apt H201, Lehi, UT 84043","precinct":"25LE24","hd":"51","v_score":"1.193887297","decile":"4","lat":40.409948069852085,"lng":-111.90243851286536,"phone":"(795) 952-2214","sd":"22","ssbd":"11","lsbd":"School Board Aspen Peaks 5"},{"vid":"2741708","name":"Mrs. Brianda Rath MD","party":"Rep","address":"3372 W 1910 N, # L304, Lehi, UT 84043","precinct":"25LE24","hd":"51","v_score":"1.193887297","decile":"4","lat":40.41114733943903,"lng":-111.90330599511427,"phone":"(491) 215-4572","sd":"22","ssbd":"11","lsbd":"School Board Aspen Peaks 5"},{"vid":"2741711","name":"Lenard Collins","party":"Rep","address":"3554 W 800 N, Lehi, UT 84043","precinct":"25LE24","hd":"51","v_score":"1.193887297","decile":"4","lat":40.39710791834882,"lng":-111.90595320529617,"phone":"(449) 831-0784","sd":"22","ssbd":"11","lsbd":"School Board Aspen Peaks 5"},{"vid":"2744491","name":"Talen Wintheiser PhD","party":"Dem","address":"3374 W 1960 N, Unit 301, Lehi, UT 84043","precinct":"25LE24","hd":"51","v_score":"0","decile":"2","lat":40.41174559555218,"lng":-111.90343795744985,"phone":"(816) 349-6380","sd":"22","ssbd":"11","lsbd":"School Board Aspen Peaks 5"},{"vid":"2751254","name":"Gilman Gottlieb","party":"","address":"3472 W 850 N, Lehi, UT 84043","precinct":"25LE24","hd":"51","v_score":"1.193887297","decile":"4","lat":40.39811511208482,"lng":-111.90456890854479,"phone":"(452) 099-6261","sd":"22","ssbd":"11","lsbd":"School Board Aspen Peaks 5"},{"vid":"2753607","name":"Maxine Cremin","party":"Rep","address":"3374 W 1960 N, Unit 304, Lehi, UT 84043","precinct":"25LE24","hd":"51","v_score":"1.193887297","decile":"4","lat":40.41174559555218,"lng":-111.90343795744985,"phone":"(663) 348-2369","sd":"22","ssbd":"11","lsbd":"School Board Aspen Peaks 5"},{"vid":"2769821","name":"Mistie Donnelly","party":"Dem","address":"3421 W Hardman Way, Lehi, UT 84043","precinct":"25LE24","hd":"51","v_score":"0","decile":"2","lat":40.41019211644403,"lng":-111.9041086283222,"phone":"(469) 735-8067","sd":"22","ssbd":"11","lsbd":"School Board Aspen Peaks 5"},{"vid":"2771577","name":"Edmonia Gibson","party":"","address":"1965 N 3410 W, Unit 204, Lehi, UT 84043","precinct":"25LE24","hd":"51","v_score":"0","decile":"2","lat":40.41152723924327,"lng":-111.90415446949,"phone":"(133) 178-0125","sd":"22","ssbd":"11","lsbd":"School Board Aspen Peaks 5"},{"vid":"2782818","name":"Timothy Collins","party":"Dem","address":"914 N Old Ranch Rd, Lehi, UT 84043","precinct":"25LE24","hd":"51","v_score":"1.193887297","decile":"4","lat":40.39870775567382,"lng":-111.90642731158388,"phone":"(781) 908-5137","sd":"22","ssbd":"11","lsbd":"School Board Aspen Peaks 5"},{"vid":"2792640","name":"Mr. Chance Blanda","party":"Rep","address":"846 N Pheasant Run Ln, Lehi, UT 84043","precinct":"25LE24","hd":"51","v_score":"0","decile":"2","lat":40.397923277128406,"lng":-111.90630725947167,"phone":"(825) 869-4781","sd":"22","ssbd":"11","lsbd":"School Board Aspen Peaks 5"},{"vid":"2794791","name":"Doll Lind","party":"","address":"1958 N 3330 W, Unit C102, Lehi, UT 84043","precinct":"25LE24","hd":"51","v_score":"0","decile":"2","lat":40.4114851041151,"lng":-111.9023820961702,"phone":"(978) 026-8446","sd":"22","ssbd":"11","lsbd":"School Board Aspen Peaks 5"},{"vid":"2801534","name":"Odin Frami","party":"Dem","address":"3363 W Hardman Way, Unit 204, Lehi, UT 84043","precinct":"25LE24","hd":"51","v_score":"0","decile":"2","lat":40.41025378454365,"lng":-111.9030047191923,"phone":"(444) 109-2622","sd":"22","ssbd":"11","lsbd":"School Board Aspen Peaks 5"},{"vid":"2811518","name":"Miss Mona Flatley","party":"","address":"3325 W 1830 N, Apt H201, Lehi, UT 84043","precinct":"25LE24","hd":"51","v_score":"1.193887297","decile":"4","lat":40.409948069852085,"lng":-111.90243851286536,"phone":"(880) 978-6814","sd":"22","ssbd":"11","lsbd":"School Board Aspen Peaks 5"},{"vid":"2830858","name":"Mackenzie Wolf","party":"Rep","address":"3375 W 2010 N, Unit Q204, Lehi, UT 84043","precinct":"25LE24","hd":"51","v_score":"8.758817347","decile":"8","lat":40.41200293548388,"lng":-111.90339498749995,"phone":"(401) 930-3850","sd":"22","ssbd":"11","lsbd":"School Board Aspen Peaks 5"},{"vid":"2839736","name":"Mr. Roscoe Hagenes Jr.","party":"Dem","address":"799 N Sierra Spring Way, Lehi, UT 84048","precinct":"25LE24","hd":"51","v_score":"4.069929862","decile":"7","lat":40.397195637831295,"lng":-111.90625983015657,"phone":"(115) 836-5206","sd":"22","ssbd":"11","lsbd":"School Board Aspen Peaks 5"},{"vid":"2873007","name":"Jerri Feest-Bartell","party":"Dem","address":"840 N Pheasant Run Ln, Lehi, UT 84043","precinct":"25LE24","hd":"51","v_score":"1.193887297","decile":"4","lat":40.3978615353088,"lng":-111.90633733147412,"phone":"(960) 248-3136","sd":"22","ssbd":"11","lsbd":"School Board Aspen Peaks 5"},{"vid":"2879611","name":"Ms. Syreeta Prosacco","party":"","address":"783 N Sierra Spring Way, Lehi, UT 84043","precinct":"25LE24","hd":"51","v_score":"6.724398202","decile":"8","lat":40.396963221673445,"lng":-111.90642434112472,"phone":"(561) 252-1003","sd":"22","ssbd":"11","lsbd":"School Board Aspen Peaks 5"},{"vid":"2883504","name":"Devontae Bogisich","party":"","address":"1958 N 3330 W, Unit 202, Lehi, UT 84043","precinct":"25LE24","hd":"51","v_score":"1.193887297","decile":"4","lat":40.4114851041151,"lng":-111.9023820961702,"phone":"(779) 925-4482","sd":"22","ssbd":"11","lsbd":"School Board Aspen Peaks 5"},{"vid":"2886587","name":"Evertt Mann-Dare","party":"Rep","address":"1994 N 3330 W, Unit A302, Lehi, UT 84043","precinct":"25LE24","hd":"51","v_score":"1.193887297","decile":"4","lat":40.4119965501807,"lng":-111.90249009828118,"phone":"(392) 250-2089","sd":"22","ssbd":"11","lsbd":"School Board Aspen Peaks 5"},{"vid":"2887585","name":"Miss Kaelynn Harris DDS","party":"Rep","address":"3377 W 800 N, Lehi, UT 84043","precinct":"25LE24","hd":"51","v_score":"1.193887297","decile":"4","lat":40.396853106614714,"lng":-111.90342068644253,"phone":"(117) 592-8857","sd":"22","ssbd":"11","lsbd":"School Board Aspen Peaks 5"},{"vid":"2888684","name":"Eddy Reinger-Muller","party":"","address":"3324 W Ada Loop, Lehi, UT 84043","precinct":"25LE24","hd":"51","v_score":"1.193887297","decile":"4","lat":40.39861512146121,"lng":-111.90253931812035,"phone":"(456) 759-9181","sd":"22","ssbd":"11","lsbd":"School Board Aspen Peaks 5"},{"vid":"2899508","name":"Jaidyn Koch","party":"Rep","address":"3510 W 750 N, Lehi, UT 84043","precinct":"25LE24","hd":"51","v_score":"0","decile":"2","lat":40.39656366427203,"lng":-111.90536714291237,"phone":"(351) 185-2523","sd":"22","ssbd":"11","lsbd":"School Board Aspen Peaks 5"},{"vid":"2901771","name":"Dr. Billie Ward Jr.","party":"Dem","address":"1923 N 3410 W, Lehi, UT 84043","precinct":"25LE24","hd":"51","v_score":"0","decile":"2","lat":40.41101524746206,"lng":-111.90415104821538,"phone":"(319) 980-8025","sd":"22","ssbd":"11","lsbd":"School Board Aspen Peaks 5"},{"vid":"2913322","name":"Burk Gutmann-Murphy","party":"Rep","address":"865 N Pearl Dr, Lehi, UT 84043","precinct":"25LE24","hd":"51","v_score":"0","decile":"2","lat":40.39815509704754,"lng":-111.9012662686657,"phone":"(185) 078-0819","sd":"22","ssbd":"11","lsbd":"School Board Aspen Peaks 5"},{"vid":"2916249","name":"Santos Kuhic","party":"","address":"890 N Old Ranch Rd, Lehi, UT 84043","precinct":"25LE24","hd":"51","v_score":"0","decile":"2","lat":40.39843648766738,"lng":-111.90650104799734,"phone":"(988) 303-1139","sd":"22","ssbd":"11","lsbd":"School Board Aspen Peaks 5"},{"vid":"2936449","name":"Abbigail Will","party":"","address":"1836 N 3530 W, Lehi, UT 84043","precinct":"25LE24","hd":"51","v_score":"0","decile":"2","lat":40.40986473426942,"lng":-111.90540499788851,"phone":"(470) 730-3754","sd":"22","ssbd":"11","lsbd":"School Board Aspen Peaks 5"},{"vid":"2946700","name":"Miss Maira Bruen DVM","party":"","address":"3446 W Mitchell Dr, Lehi, UT 84048","precinct":"25LE24","hd":"51","v_score":"0","decile":"2","lat":40.39783076070232,"lng":-111.90425090241891,"phone":"(579) 802-7847","sd":"22","ssbd":"11","lsbd":"School Board Aspen Peaks 5"},{"vid":"2947123","name":"Reagan Dooley","party":"Rep","address":"3374 W 1960 N, Unit 102, Lehi, UT 84048","precinct":"25LE24","hd":"51","v_score":"0","decile":"2","lat":40.41174559555218,"lng":-111.90343795744985,"phone":"(998) 836-4606","sd":"22","ssbd":"11","lsbd":"School Board Aspen Peaks 5"},{"vid":"2948211","name":"Dr. Judie Pacocha","party":"Dem","address":"1923 N 3410 W, Apt N302, Lehi, UT 84048","precinct":"25LE24","hd":"51","v_score":"0","decile":"2","lat":40.41101524746206,"lng":-111.90415104821538,"phone":"(579) 018-5904","sd":"22","ssbd":"11","lsbd":"School Board Aspen Peaks 5"},{"vid":"2948845","name":"Valentina Von","party":"Dem","address":"3374 W 1960 N, Unit P202, Lehi, UT 84043","precinct":"25LE24","hd":"51","v_score":"0","decile":"2","lat":40.41174559555218,"lng":-111.90343795744985,"phone":"(900) 530-2726","sd":"22","ssbd":"11","lsbd":"School Board Aspen Peaks 5"},{"vid":"2955836","name":"Citlalli Weimann","party":"","address":"3524 W 900 N, Lehi, UT 84048","precinct":"25LE24","hd":"51","v_score":"0","decile":"2","lat":40.39878932863221,"lng":-111.9053274021329,"phone":"(688) 123-0937","sd":"22","ssbd":"11","lsbd":"School Board Aspen Peaks 5"},{"vid":"2957979","name":"Dr. Horacio Klein III","party":"Rep","address":"3364 W Hardman Way, Lehi, UT 84048","precinct":"25LE24","hd":"51","v_score":"0","decile":"2","lat":40.41069244935146,"lng":-111.90317249484298,"phone":"(828) 312-0029","sd":"22","ssbd":"11","lsbd":"School Board Aspen Peaks 5"},{"vid":"2980895","name":"Madilyn Champlin","party":"","address":"1887 N 3410 W, Unit K101, Lehi, UT 84048","precinct":"25LE24","hd":"51","v_score":"0","decile":"2","lat":40.41061905225301,"lng":-111.90403648342752,"phone":"(566) 532-4632","sd":"22","ssbd":"11","lsbd":"School Board Aspen Peaks 5"},{"vid":"2982536","name":"Mr. Simpson Ratke","party":"Dem","address":"3458 W Mitchell Dr, Lehi, UT 84048","precinct":"25LE24","hd":"51","v_score":"0","decile":"2","lat":40.39783026471278,"lng":-111.90439447925247,"phone":"(737) 628-4470","sd":"22","ssbd":"11","lsbd":"School Board Aspen Peaks 5"},{"vid":"2984806","name":"Malaki Hessel-Hoeger","party":"","address":"858 N Pheasant Run Ln, Lehi, UT 84048","precinct":"25LE24","hd":"51","v_score":"0","decile":"2","lat":40.398046705047136,"lng":-111.90624711492778,"phone":"(491) 088-6983","sd":"22","ssbd":"11","lsbd":"School Board Aspen Peaks 5"},{"vid":"3006691","name":"Trent Doyle","party":"Rep","address":"3554 W 900 N, Lehi, UT 84043","precinct":"25LE24","hd":"51","v_score":"3.781490609","decile":"6","lat":40.39878770618791,"lng":-111.9057954693117,"phone":"(735) 431-3566","sd":"22","ssbd":"11","lsbd":"School Board Aspen Peaks 5"},{"vid":"3155401","name":"Valorie Kub","party":"Rep","address":"3474 W Mitchell Dr, Lehi, UT 84043","precinct":"25LE24","hd":"51","v_score":"3.93832808","decile":"6","lat":40.397829643528574,"lng":-111.90457395078847,"phone":"(830) 713-3082","sd":"22","ssbd":"11","lsbd":"School Board Aspen Peaks 5"},{"vid":"3176398","name":"Dr. Seaborn Wiegand DDS","party":"Rep","address":"1886 N 3330 W, Unit F102, Lehi, UT 84043","precinct":"25LE24","hd":"51","v_score":"10.93813617","decile":"9","lat":40.41064838864645,"lng":-111.90248585647635,"phone":"(764) 651-6184","sd":"22","ssbd":"11","lsbd":"School Board Aspen Peaks 5"},{"vid":"3196560","name":"Anner Gerhold","party":"Dem","address":"3373 W 1960 N, Unit O-202, Lehi, UT 84043","precinct":"25LE24","hd":"51","v_score":"5.530510904","decile":"7","lat":40.411441627886866,"lng":-111.90339181935333,"phone":"(837) 998-7673","sd":"22","ssbd":"11","lsbd":"School Board Aspen Peaks 5"},{"vid":"3196561","name":"Annalise Littel","party":"","address":"3373 W 1960 N, Unit O-202, Lehi, UT 84043","precinct":"25LE24","hd":"51","v_score":"8.347511332","decile":"8","lat":40.411441627886866,"lng":-111.90339181935333,"phone":"(113) 631-2375","sd":"22","ssbd":"11","lsbd":"School Board Aspen Peaks 5"},{"vid":"5639669a0a829b70364b8c163c938df8d0aeab1a1c558b94202d1c8335b92fe4","name":"Nolen Kshlerin","party":"","address":"3325 W 1830 N, Unit H202, Lehi, UT 84043","precinct":"25LE24","hd":"51","v_score":"4.409183253","decile":"7","lat":40.409948069852085,"lng":-111.90243851286536,"phone":"(662) 112-1073","sd":"22","ssbd":"11","lsbd":"School Board Aspen Peaks 5"},{"vid":"e2d785e8c1706ab12c055e570ed6460c9b6ba3ea47eb457833952205ee83f239","name":"Mr. Patrick Lang V","party":"Rep","address":"3474 W Mitchell Dr, Lehi, UT 84043","precinct":"25LE24","hd":"51","v_score":"3.93832808","decile":"6","lat":40.397829643528574,"lng":-111.90457395078847,"phone":"(400) 566-2034","sd":"22","ssbd":"11","lsbd":"School Board Aspen Peaks 5"},{"vid":"3500961","name":"Mr. Valentin Wisoky Jr.","party":"","address":"3364 W Hardman Way, Unit J202, Lehi, UT 84043","precinct":"25LE24","hd":"51","v_score":"2.315214949","decile":"5","lat":40.41069244935146,"lng":-111.90317249484298,"phone":"(699) 601-7036","sd":"22","ssbd":"11","lsbd":"School Board Aspen Peaks 5"},{"vid":"3503156","name":"Launa Klein","party":"Dem","address":"870 N Pheasant Run Ln, Lehi, UT 84043","precinct":"25LE24","hd":"51","v_score":"3.781490609","decile":"6","lat":40.39820699599353,"lng":-111.90618351995488,"phone":"(180) 478-3748","sd":"22","ssbd":"11","lsbd":"School Board Aspen Peaks 5"},{"vid":"3546551","name":"Manila Green","party":"Dem","address":"3507 W 800 N, Lehi, UT 84043","precinct":"25LE24","hd":"51","v_score":"22.34725063","decile":"10","lat":40.39677658862508,"lng":-111.90525809073071,"phone":"(590) 199-3657","sd":"22","ssbd":"11","lsbd":"School Board Aspen Peaks 5"},{"vid":"3867cc634e3910c3ef0ac78bfb5339c191e87376a7d43c6be0edecd5201549b3","name":"Orra Haley","party":"","address":"1887 N 3410 W, Unit 204, Lehi, UT 84043","precinct":"25LE24","hd":"51","v_score":"6.724398202","decile":"8","lat":40.41061905225301,"lng":-111.90403648342752,"phone":"(789) 473-4222","sd":"22","ssbd":"11","lsbd":"School Board Aspen Peaks 5"},{"vid":"3564198","name":"Dicy Upton","party":"Dem","address":"3323 W Hardman Way, Unit 301, Lehi, UT 84043","precinct":"25LE24","hd":"51","v_score":"9.55742766","decile":"8","lat":40.410194941629,"lng":-111.9024070946676,"phone":"(101) 594-2383","sd":"22","ssbd":"11","lsbd":"School Board Aspen Peaks 5"},{"vid":"3575271","name":"Bethzy Rohan DVM","party":"Rep","address":"3492 W 750 N, Lehi, UT 84043","precinct":"25LE24","hd":"51","v_score":"39.27888801","decile":"10","lat":40.39655377969729,"lng":-111.905147548768,"phone":"(792) 606-0051","sd":"22","ssbd":"11","lsbd":"School Board Aspen Peaks 5"},{"vid":"3575326","name":"Vickie Becker-Hirthe","party":"","address":"3492 W 750 N, Lehi, UT 84043","precinct":"25LE24","hd":"51","v_score":"36.40284545","decile":"10","lat":40.39655377969729,"lng":-111.905147548768,"phone":"(891) 478-4208","sd":"22","ssbd":"11","lsbd":"School Board Aspen Peaks 5"},{"vid":"4422214","name":"Sky Gulgowski","party":"Dem","address":"838 N 3540 W, Lehi, UT 84043","precinct":"25LE24","hd":"51","v_score":"1.193887297","decile":"4","lat":40.397844998269534,"lng":-111.9053548282375,"phone":"(532) 398-3865","sd":"22","ssbd":"11","lsbd":"School Board Aspen Peaks 5"},{"vid":"9a77ea7a7c8dd7f253ae687a9654081d0db6de74cca227ee5ba0dd0914e606ef","name":"Teagan Wiza","party":"","address":"3472 W 850 N, Lehi, UT 84043","precinct":"25LE24","hd":"51","v_score":"5.40460374","decile":"7","lat":40.39811511208482,"lng":-111.90456890854479,"phone":"(904) 916-5056","sd":"22","ssbd":"11","lsbd":"School Board Aspen Peaks 5"},{"vid":"6062890","name":"Johanna Zieme","party":"Rep","address":"3373 W 1960 N, Unit 301, Lehi, UT 84043","precinct":"25LE24","hd":"51","v_score":"1.121327652","decile":"3","lat":40.411441627886866,"lng":-111.90339181935333,"phone":"(253) 222-5846","sd":"22","ssbd":"11","lsbd":"School Board Aspen Peaks 5"},{"vid":"6148651","name":"Elon Bailey","party":"Rep","address":"1936 N 3410 W, Unit 302, Lehi, UT 84043","precinct":"25LE24","hd":"51","v_score":"0","decile":"3","lat":40.411438261774194,"lng":-111.90373089645702,"phone":"(695) 539-8607","sd":"22","ssbd":"11","lsbd":"School Board Aspen Peaks 5"},{"vid":"67ab844ca3d9377fceb1aa532cc70088c734cfabd1fc7c39b804e854a24b2605","name":"Marget Schamberger","party":"Rep","address":"780 N 3620 W, Lehi, UT 84048","precinct":"25LE24","hd":"51","v_score":"5.40460374","decile":"7","lat":40.396659544951255,"lng":-111.9068883608428,"phone":"(680) 899-1160","sd":"22","ssbd":"11","lsbd":"School Board Aspen Peaks 5"},{"vid":"e025c3ad1b2cbb1da6efaed7037cd269ae2081f335d65822f6f83b929497d48e","name":"Junior Konopelski IV","party":"Rep","address":"3325 W 1830 N, # H102, Lehi, UT 84043","precinct":"25LE24","hd":"51","v_score":"1.193887297","decile":"4","lat":40.409948069852085,"lng":-111.90243851286536,"phone":"(336) 593-8130","sd":"22","ssbd":"11","lsbd":"School Board Aspen Peaks 5"},{"vid":"c5dabbf54dec4cc90d562887402be354f3dfc3cd1032ebcb89111da0e9acc421","name":"Shavon Dietrich","party":"Rep","address":"9776 N 10400 W, Lehi, UT 84043","precinct":"25LE24","hd":"51","v_score":"5.40460374","decile":"7","lat":40.409590924865796,"lng":-111.90131546256312,"phone":"(527) 303-2502","sd":"22","ssbd":"11","lsbd":"School Board Aspen Peaks 5"},{"vid":"0424cabb397a6dd9e61f9d03f7f78754c88eb745a972a223007aa2976c24f17d","name":"Percival Treutel","party":"","address":"857 N 3490 W, Lehi, UT 84043","precinct":"25LE24","hd":"51","v_score":"5.40460374","decile":"7","lat":40.398043405393,"lng":-111.90511906143863,"phone":"(364) 889-0934","sd":"22","ssbd":"11","lsbd":"School Board Aspen Peaks 5"},{"vid":"6459840","name":"Mallie West DDS","party":"","address":"3325 W 1830 N, Unit H301, Lehi, UT 84043","precinct":"25LE24","hd":"51","v_score":"4.214075011","decile":"7","lat":40.409948069852085,"lng":-111.90243851286536,"phone":"(302) 612-2147","sd":"22","ssbd":"11","lsbd":"School Board Aspen Peaks 5"},{"vid":"6482793","name":"Elden Shanahan","party":"","address":"9776 N 10400 W, Lehi, UT 84043","precinct":"25LE24","hd":"51","v_score":"5.40460374","decile":"7","lat":40.409590924865796,"lng":-111.90131546256312,"phone":"(899) 981-1017","sd":"22","ssbd":"11","lsbd":"School Board Aspen Peaks 5"},{"vid":"6504380","name":"Sena Satterfield","party":"Dem","address":"9776 N 10400 W, Lehi, UT 84043","precinct":"25LE24","hd":"51","v_score":"5.40460374","decile":"7","lat":40.409590924865796,"lng":-111.90131546256312,"phone":"(446) 869-0563","sd":"22","ssbd":"11","lsbd":"School Board Aspen Peaks 5"}]