[{"id":"1120","name":"Mrs. Janell Keebler","party":"","address":"1386 N Linen Way, Lehi, UT 84048","precinct":"25LE49","hd":"51","v_score":"0","decile":"1","lat":40.404140910231256,"lng":-111.9156235912846},{"id":"2939","name":"Dr. Lexie Mertz","party":"","address":"3976 W 1180 N, Lehi, UT 84043","precinct":"25LE49","hd":"51","v_score":"0","decile":"1","lat":40.40198541302547,"lng":-111.91238475852576},{"id":"3437","name":"Sing Kshlerin","party":"Dem","address":"4196 W 1470 N, Lehi, UT 84043","precinct":"25LE49","hd":"51","v_score":"10.15822798","decile":"9","lat":40.405655842976124,"lng":-111.91622624627381},{"id":"3751","name":"Tawanda Feeney","party":"Rep","address":"4160 W 1470 N, Lehi, UT 84043","precinct":"25LE49","hd":"51","v_score":"2.660162957","decile":"5","lat":40.405657972541924,"lng":-111.91580286309389},{"id":"7710","name":"Machelle Daniel MD","party":"Rep","address":"4304 W 1470 N, Lehi, UT 84048","precinct":"25LE49","hd":"51","v_score":"11.29723756","decile":"9","lat":40.40560065118197,"lng":-111.91752585070236},{"id":"11983","name":"Carlisle Kovacek","party":"","address":"4068 W 1100 N, Lehi, UT 84043","precinct":"25LE49","hd":"51","v_score":"3.93832808","decile":"6","lat":40.40140824703226,"lng":-111.91363935247877},{"id":"13833","name":"Abie Vandervort V","party":"Dem","address":"4044 W 1180 N, Lehi, UT 84048","precinct":"25LE49","hd":"51","v_score":"5.530510904","decile":"7","lat":40.401982265430426,"lng":-111.91327678398594},{"id":"16848","name":"Dr. Glennis Schaden MD","party":"Dem","address":"1338 N West Rim Dr, Lehi, UT 84043","precinct":"25LE49","hd":"51","v_score":"3.781490609","decile":"6","lat":40.40367866964046,"lng":-111.91589421541018},{"id":"17106","name":"Vilma Grady","party":"Dem","address":"1442 N Linen Way, Lehi, UT 84043","precinct":"25LE49","hd":"51","v_score":"3.93832808","decile":"6","lat":40.40505075054165,"lng":-111.91522141403391},{"id":"17343","name":"Unique McDermott","party":"","address":"4086 W 1470 N, Lehi, UT 84043","precinct":"25LE49","hd":"51","v_score":"3.93832808","decile":"6","lat":40.40566351193005,"lng":-111.91468480102667},{"id":"18574","name":"Anson Hackett","party":"Dem","address":"894 N Hillcrest Ln, Lehi, UT 84043","precinct":"25LE49","hd":"51","v_score":"3.93832808","decile":"6","lat":40.398145510021436,"lng":-111.91440595084704},{"id":"20798","name":"Ms. Azul Casper","party":"","address":"1338 N West Rim Dr, Lehi, UT 84048","precinct":"25LE49","hd":"51","v_score":"5.40460374","decile":"7","lat":40.40367866964046,"lng":-111.91589421541018},{"id":"21562","name":"Hollis Hintz","party":"Dem","address":"847 N Hilltop Dr, Lehi, UT 84043","precinct":"25LE49","hd":"51","v_score":"0","decile":"1","lat":40.39764172492448,"lng":-111.91499751912976},{"id":"22164","name":"Franz Hirthe","party":"Rep","address":"4196 W 1470 N, Lehi, UT 84043","precinct":"25LE49","hd":"51","v_score":"11.2235539","decile":"9","lat":40.405655842976124,"lng":-111.91622624627381},{"id":"22492","name":"Erika Rowe","party":"Rep","address":"897 N Hilltop Dr, Lehi, UT 84048","precinct":"25LE49","hd":"51","v_score":"0","decile":"1","lat":40.398456205432694,"lng":-111.91521211245777},{"id":"24894","name":"Araminta Stehr DDS","party":"Dem","address":"4196 W 1470 N, Lehi, UT 84043","precinct":"25LE49","hd":"51","v_score":"3.781490609","decile":"6","lat":40.405655842976124,"lng":-111.91622624627381},{"id":"28880","name":"Maudie Kiehn","party":"Dem","address":"1456 N 3920 W, Lehi, UT 84048","precinct":"25LE49","hd":"51","v_score":"8.94332411","decile":"8","lat":40.405174055363844,"lng":-111.91207162576033},{"id":"28981","name":"Theo King","party":"","address":"1310 N Sage Dr, Lehi, UT 84043","precinct":"25LE49","hd":"51","v_score":"15.0180437","decile":"9","lat":40.40308987269337,"lng":-111.91325842439781},{"id":"31544","name":"Uriel Keebler","party":"Dem","address":"1394 N Linen Way, Lehi, UT 84048","precinct":"25LE49","hd":"51","v_score":"3.93832808","decile":"6","lat":40.404287391547285,"lng":-111.91544270668793},{"id":"31864","name":"Francisca Reichert","party":"Rep","address":"4268 W 1470 N, Lehi, UT 84043","precinct":"25LE49","hd":"51","v_score":"2.587603312","decile":"5","lat":40.405603541262415,"lng":-111.91705777558765},{"id":"32995","name":"Marcelino Pfannerstill","party":"Rep","address":"4045 W 1180 N, Lehi, UT 84043","precinct":"25LE49","hd":"51","v_score":"2.587603312","decile":"5","lat":40.40162924623558,"lng":-111.91330554858033},{"id":"37565","name":"Delwin Pouros-Fritsch","party":"","address":"1390 N Alder Way, Lehi, UT 84043","precinct":"25LE49","hd":"51","v_score":"1.193887297","decile":"3","lat":40.40415852182542,"lng":-111.9135854147215},{"id":"38695","name":"Bernetta Bosco","party":"Rep","address":"1335 N 3960 W, Lehi, UT 84043","precinct":"25LE49","hd":"51","v_score":"3.997370217","decile":"6","lat":40.403326299765986,"lng":-111.91235082304895},{"id":"44016","name":"Isaak Bartoletti","party":"Rep","address":"1443 N Alder Way, Lehi, UT 84043","precinct":"25LE49","hd":"51","v_score":"0","decile":"1","lat":40.404947787741946,"lng":-111.91396298688238},{"id":"45756","name":"Ethelbert Grady","party":"Dem","address":"4138 W Hillscape Cir, Lehi, UT 84043","precinct":"25LE49","hd":"51","v_score":"1.193887297","decile":"3","lat":40.39885229375312,"lng":-111.91464830696825},{"id":"46188","name":"Mr. Carlo Bogisich MD","party":"Dem","address":"847 N Hilltop Dr, Lehi, UT 84043","precinct":"25LE49","hd":"51","v_score":"1.46627566","decile":"4","lat":40.39764172492448,"lng":-111.91499751912976},{"id":"46439","name":"Cordero O'Hara III","party":"","address":"4045 W 1180 N, Lehi, UT 84043","precinct":"25LE49","hd":"51","v_score":"2.587603312","decile":"5","lat":40.40162924623558,"lng":-111.91330554858033},{"id":"47145","name":"Shan Steuber PhD","party":"","address":"1340 N Sage Dr, Lehi, UT 84048","precinct":"25LE49","hd":"51","v_score":"6.881235673","decile":"8","lat":40.40343315803331,"lng":-111.9130050270835},{"id":"47587","name":"Nila Schulist","party":"Rep","address":"1464 N 3920 W, Lehi, UT 84043","precinct":"25LE49","hd":"51","v_score":"1.193887297","decile":"3","lat":40.405294803434394,"lng":-111.91207242472194},{"id":"50359","name":"Therman Heller","party":"Dem","address":"1334 N Sage Dr, Lehi, UT 84043","precinct":"25LE49","hd":"51","v_score":"8.421194992","decile":"8","lat":40.4033731920432,"lng":-111.91304451073518},{"id":"50882","name":"Wilton Rau","party":"","address":"1310 N Alder Way, Lehi, UT 84043","precinct":"25LE49","hd":"51","v_score":"3.781490609","decile":"6","lat":40.402961476240876,"lng":-111.91445920003171},{"id":"53147","name":"Mr. Bartley Swaniawski","party":"Rep","address":"1452 N 3920 W, Lehi, UT 84043","precinct":"25LE49","hd":"51","v_score":"13.84916389","decile":"9","lat":40.40510589854172,"lng":-111.91208505482524},{"id":"54020","name":"Clydie Stracke DDS","party":"Rep","address":"1394 N Linen Way, Lehi, UT 84043","precinct":"25LE49","hd":"51","v_score":"3.089388791","decile":"6","lat":40.404287391547285,"lng":-111.91544270668793},{"id":"54669","name":"Keri Corwin","party":"Rep","address":"1414 N Linen Way, Lehi, UT 84043","precinct":"25LE49","hd":"51","v_score":"3.93832808","decile":"6","lat":40.40462370816751,"lng":-111.91531920313291},{"id":"54888","name":"Caitlyn Cruickshank","party":"","address":"1385 N Linen Way, Lehi, UT 84043","precinct":"25LE49","hd":"51","v_score":"3.93832808","decile":"6","lat":40.404306881014016,"lng":-111.91615536544316},{"id":"55421","name":"Mena Rempel","party":"","address":"1392 N West Rim Dr, Lehi, UT 84048","precinct":"25LE49","hd":"51","v_score":"0","decile":"1","lat":40.404383677351596,"lng":-111.91670178168502},{"id":"55920","name":"Cristen Volkman","party":"Rep","address":"4120 W Hillscape Cir, Lehi, UT 84048","precinct":"25LE49","hd":"51","v_score":"0","decile":"1","lat":40.398749802440555,"lng":-111.91439027919793},{"id":"56535","name":"Eldora Kirlin","party":"Dem","address":"1389 N Sage Dr, Lehi, UT 84048","precinct":"25LE49","hd":"51","v_score":"0","decile":"1","lat":40.40425743453521,"lng":-111.91315201877273},{"id":"57460","name":"Miss Cordelia Bruen","party":"","address":"4112 W Harper Ln, Lehi, UT 84043","precinct":"25LE49","hd":"51","v_score":"6.969824348","decile":"8","lat":40.3979240471768,"lng":-111.91425769199424},{"id":"57901","name":"Tameka Fadel","party":"","address":"4084 W 1180 N, Lehi, UT 84043","precinct":"25LE49","hd":"51","v_score":"2.744440783","decile":"5","lat":40.40198041047539,"lng":-111.91380169457962},{"id":"59168","name":"Dr. Caydence Lesch MD","party":"","address":"4114 W Hillscape Cir, Lehi, UT 84048","precinct":"25LE49","hd":"51","v_score":"3.93832808","decile":"6","lat":40.39872197608952,"lng":-111.91432022210421},{"id":"59203","name":"Alena Gutmann","party":"","address":"4304 W 1470 N, Lehi, UT 84048","precinct":"25LE49","hd":"51","v_score":"2.315214949","decile":"5","lat":40.40560065118197,"lng":-111.91752585070236},{"id":"60110","name":"Willow Stehr","party":"","address":"1452 N 3920 W, Lehi, UT 84043","precinct":"25LE49","hd":"51","v_score":"18.13859789","decile":"10","lat":40.40510589854172,"lng":-111.91208505482524},{"id":"62949","name":"Jay Kub","party":"Dem","address":"4068 W 1100 N, Lehi, UT 84043","precinct":"25LE49","hd":"51","v_score":"3.93832808","decile":"6","lat":40.40140824703226,"lng":-111.91363935247877},{"id":"67046","name":"Santana Considine","party":"","address":"1466 N Sage Dr, Lehi, UT 84043","precinct":"25LE49","hd":"51","v_score":"1.193887297","decile":"3","lat":40.40527555692889,"lng":-111.91250305892318},{"id":"67937","name":"Aleah Bradtke","party":"Dem","address":"1316 N Sage Dr, Lehi, UT 84043","precinct":"25LE49","hd":"51","v_score":"0","decile":"1","lat":40.40314678921722,"lng":-111.91321188627622},{"id":"72661","name":"Yulissa Abernathy","party":"","address":"4136 W Harper Ln, Lehi, UT 84043","precinct":"25LE49","hd":"51","v_score":"14.74039814","decile":"9","lat":40.3980431565096,"lng":-111.91459694040196},{"id":"72888","name":"Dori Abshire DDS","party":"","address":"4136 W Harper Ln, Lehi, UT 84043","precinct":"25LE49","hd":"51","v_score":"14.74039814","decile":"9","lat":40.3980431565096,"lng":-111.91459694040196},{"id":"73263","name":"Ms. Lee Wiegand DVM","party":"Rep","address":"1462 N Sage Dr, Lehi, UT 84043","precinct":"25LE49","hd":"51","v_score":"2.315214949","decile":"5","lat":40.405215184476766,"lng":-111.91250265935254},{"id":"74369","name":"Pearla Kassulke","party":"Dem","address":"1313 N Alder Way, Lehi, UT 84043","precinct":"25LE49","hd":"51","v_score":"1.121327652","decile":"3","lat":40.40328943187287,"lng":-111.9148200749338},{"id":"75060","name":"Destiny Cummings","party":"","address":"1423 N Sierra Way, Lehi, UT 84048","precinct":"25LE49","hd":"51","v_score":"6.528952915","decile":"7","lat":40.40465491916698,"lng":-111.91487827637624},{"id":"75640","name":"Dr. Theo Haag Sr.","party":"Dem","address":"1329 N 3960 W, Lehi, UT 84043","precinct":"25LE49","hd":"51","v_score":"6.45639327","decile":"7","lat":40.40326592843861,"lng":-111.91235031460249},{"id":"76146","name":"Elizebeth Marquardt","party":"","address":"3928 W Canyon Falls Dr, Lehi, UT 84043","precinct":"25LE49","hd":"51","v_score":"24.68105261","decile":"10","lat":40.40455034870666,"lng":-111.91231090964324},{"id":"78384","name":"Dr. Ervin Boyle Sr.","party":"","address":"4196 W 1470 N, Lehi, UT 84043","precinct":"25LE49","hd":"51","v_score":"6.814370645","decile":"8","lat":40.405655842976124,"lng":-111.91622624627381},{"id":"78523","name":"Lena Ernser","party":"Dem","address":"4138 W Hillscape Cir, Lehi, UT 84043","precinct":"25LE49","hd":"51","v_score":"8.670935747","decile":"8","lat":40.39885229375312,"lng":-111.91464830696825},{"id":"79850","name":"Vicy Hackett","party":"Rep","address":"1329 N 3960 W, Lehi, UT 84043","precinct":"25LE49","hd":"51","v_score":"6.528952915","decile":"7","lat":40.40326592843861,"lng":-111.91235031460249},{"id":"85838","name":"Deneen Turcotte","party":"","address":"3972 W 1100 N, Lehi, UT 84048","precinct":"25LE49","hd":"51","v_score":"1.193887297","decile":"3","lat":40.40141291838989,"lng":-111.9123164111057},{"id":"88302","name":"Margueritte Cassin","party":"Dem","address":"1392 N West Rim Dr, Lehi, UT 84048","precinct":"25LE49","hd":"51","v_score":"1.193887297","decile":"4","lat":40.404383677351596,"lng":-111.91670178168502},{"id":"88825","name":"Ms. Hunter Renner DDS","party":"Rep","address":"1385 N Linen Way, Lehi, UT 84048","precinct":"25LE49","hd":"51","v_score":"0","decile":"1","lat":40.404306881014016,"lng":-111.91615536544316},{"id":"89164","name":"Miss Fallon Lang","party":"","address":"910 N Hilltop Dr, Lehi, UT 84043","precinct":"25LE49","hd":"51","v_score":"0","decile":"1","lat":40.39845049154886,"lng":-111.91465981995657},{"id":"90579","name":"Lavonda Thiel","party":"Rep","address":"891 N Hilltop Dr, Lehi, UT 84043","precinct":"25LE49","hd":"51","v_score":"0","decile":"1","lat":40.39822182237131,"lng":-111.91518884339695},{"id":"90878","name":"Finnegan Beahan Sr.","party":"Rep","address":"4050 W 1470 N, Lehi, UT 84043","precinct":"25LE49","hd":"51","v_score":"0","decile":"1","lat":40.405701938057916,"lng":-111.91403149776717},{"id":"92521","name":"Timmy Lindgren","party":"Rep","address":"1316 N Alder Way, Lehi, UT 84043","precinct":"25LE49","hd":"51","v_score":"1.193887297","decile":"4","lat":40.403157477886,"lng":-111.91435156918082},{"id":"95810","name":"Halley Wintheiser-Rodriguez","party":"Dem","address":"4010 W 1180 N, Lehi, UT 84048","precinct":"25LE49","hd":"51","v_score":"8.085704327","decile":"8","lat":40.40196823359775,"lng":-111.91274278929872},{"id":"98731","name":"Emmitt Haag PhD","party":"","address":"4050 W 1470 N, Lehi, UT 84043","precinct":"25LE49","hd":"51","v_score":"1.193887297","decile":"4","lat":40.405701938057916,"lng":-111.91403149776717},{"id":"98793","name":"Windy Mills-Larkin","party":"","address":"1468 N Sage Dr, Lehi, UT 84043","precinct":"25LE49","hd":"51","v_score":"16.72856503","decile":"9","lat":40.40533922260402,"lng":-111.91250347789745},{"id":"99446","name":"Vida Robel","party":"","address":"4267 W 1470 N, Lehi, UT 84043","precinct":"25LE49","hd":"51","v_score":"4.069929862","decile":"6","lat":40.40523652917089,"lng":-111.91707043433348},{"id":"100449","name":"Dewayne Goldner PhD","party":"Dem","address":"1414 N Linen Way, Lehi, UT 84043","precinct":"25LE49","hd":"51","v_score":"1.193887297","decile":"4","lat":40.40462370816751,"lng":-111.91531920313291},{"id":"100968","name":"Darcie Rodriguez","party":"","address":"3897 W 1500 N, Lehi, UT 84048","precinct":"25LE49","hd":"51","v_score":"1.193887297","decile":"4","lat":40.405695372227036,"lng":-111.91205872146128},{"id":"104114","name":"Dr. Hideo King PhD","party":"","address":"1456 N Linen Way, Lehi, UT 84043","precinct":"25LE49","hd":"51","v_score":"1.193887297","decile":"4","lat":40.40527234703303,"lng":-111.91531818860895},{"id":"105439","name":"Samantha Cruickshank PhD","party":"","address":"853 N Hilltop Dr, Lehi, UT 84043","precinct":"25LE49","hd":"51","v_score":"0","decile":"2","lat":40.39771090830796,"lng":-111.9150203366973},{"id":"107465","name":"Ewell Haag","party":"","address":"3904 W Canyon Falls Dr, Lehi, UT 84043","precinct":"25LE49","hd":"51","v_score":"1.193887297","decile":"4","lat":40.40454034193512,"lng":-111.9120480748082},{"id":"108056","name":"Madisyn Heathcote","party":"","address":"3972 W 1100 N, Lehi, UT 84043","precinct":"25LE49","hd":"51","v_score":"0","decile":"2","lat":40.40141291838989,"lng":-111.9123164111057},{"id":"108186","name":"Frederica Ullrich","party":"","address":"910 N Hilltop Dr, Lehi, UT 84048","precinct":"25LE49","hd":"51","v_score":"0","decile":"2","lat":40.39845049154886,"lng":-111.91465981995657},{"id":"108921","name":"Gary Ortiz","party":"","address":"4010 W 1180 N, Lehi, UT 84048","precinct":"25LE49","hd":"51","v_score":"1.193887297","decile":"4","lat":40.40196823359775,"lng":-111.91274278929872},{"id":"108938","name":"Fleming Abernathy-Ryan","party":"Dem","address":"4022 W Big Horn Dr, Lehi, UT 84043","precinct":"25LE49","hd":"51","v_score":"1.193887297","decile":"4","lat":40.4029261783497,"lng":-111.91297698401593},{"id":"110881","name":"Miss Madlyn Steuber MD","party":"","address":"1389 N Sage Dr, Lehi, UT 84048","precinct":"25LE49","hd":"51","v_score":"4.069929862","decile":"7","lat":40.40425743453521,"lng":-111.91315201877273},{"id":"114989","name":"Alvira Hartmann DDS","party":"Rep","address":"1486 N Sage Dr, Lehi, UT 84043","precinct":"25LE49","hd":"51","v_score":"0","decile":"2","lat":40.4055804978103,"lng":-111.91250507905458},{"id":"115129","name":"Lorayne Schroeder DDS","party":"Dem","address":"902 N Hillcrest Ln, Lehi, UT 84043","precinct":"25LE49","hd":"51","v_score":"1.193887297","decile":"4","lat":40.39819909851502,"lng":-111.91436955488466},{"id":"116281","name":"Chet Bednar","party":"Dem","address":"3976 W 1180 N, Lehi, UT 84043","precinct":"25LE49","hd":"51","v_score":"1.193887297","decile":"4","lat":40.40198541302547,"lng":-111.91238475852576},{"id":"117160","name":"Miss Jaden O'Connell","party":"Dem","address":"1293 N 3960 W, Lehi, UT 84048","precinct":"25LE49","hd":"51","v_score":"4.069929862","decile":"7","lat":40.40285460641389,"lng":-111.91232570540504},{"id":"119869","name":"Dr. Rolland Volkman","party":"","address":"1298 N Sage Dr, Lehi, UT 84043","precinct":"25LE49","hd":"51","v_score":"1.193887297","decile":"4","lat":40.40297595643229,"lng":-111.91336486948889},{"id":"120272","name":"Dillon McClure","party":"","address":"3928 W Canyon Falls Dr, Lehi, UT 84048","precinct":"25LE49","hd":"51","v_score":"0","decile":"2","lat":40.40455034870666,"lng":-111.91231090964324},{"id":"121163","name":"Breana Krajcik","party":"Dem","address":"1434 N Alder Way, Lehi, UT 84043","precinct":"25LE49","hd":"51","v_score":"1.193887297","decile":"4","lat":40.40484796329,"lng":-111.91336882847466},{"id":"121166","name":"Tana Hyatt PhD","party":"Rep","address":"1434 N Alder Way, Lehi, UT 84043","precinct":"25LE49","hd":"51","v_score":"1.193887297","decile":"4","lat":40.40484796329,"lng":-111.91336882847466},{"id":"121235","name":"Ewin Abshire","party":"","address":"1456 N 3920 W, Lehi, UT 84048","precinct":"25LE49","hd":"51","v_score":"0","decile":"2","lat":40.405174055363844,"lng":-111.91207162576033},{"id":"125458","name":"Isaiah Denesik PhD","party":"","address":"4010 W 1180 N, Lehi, UT 84048","precinct":"25LE49","hd":"51","v_score":"0","decile":"2","lat":40.40196823359775,"lng":-111.91274278929872},{"id":"127000","name":"Taylor Bashirian","party":"Dem","address":"4009 W 1180 N, Lehi, UT 84043","precinct":"25LE49","hd":"51","v_score":"0","decile":"2","lat":40.40163092552725,"lng":-111.91282985183015},{"id":"127451","name":"Rasheed Pagac","party":"Dem","address":"4102 W Hillscape Cir, Lehi, UT 84043","precinct":"25LE49","hd":"51","v_score":"0","decile":"2","lat":40.39866629598835,"lng":-111.91418007234347},{"id":"129119","name":"Lora Fahey","party":"Rep","address":"1384 N Alder Way, Lehi, UT 84043","precinct":"25LE49","hd":"51","v_score":"0","decile":"2","lat":40.4040119478422,"lng":-111.91365200418775},{"id":"129402","name":"Laila Rice","party":"Dem","address":"4268 W 1470 N, Lehi, UT 84048","precinct":"25LE49","hd":"51","v_score":"0","decile":"2","lat":40.405603541262415,"lng":-111.91705777558765},{"id":"130372","name":"Stacia Nader","party":"","address":"1299 N 3960 W, Lehi, UT 84048","precinct":"25LE49","hd":"51","v_score":"2.876042565","decile":"6","lat":40.4029218310735,"lng":-111.91234712666122},{"id":"130379","name":"Dustan Funk","party":"","address":"1299 N 3960 W, Lehi, UT 84048","precinct":"25LE49","hd":"51","v_score":"2.876042565","decile":"6","lat":40.4029218310735,"lng":-111.91234712666122},{"id":"131041","name":"Dannie Steuber","party":"Rep","address":"1389 N Sage Dr, Lehi, UT 84048","precinct":"25LE49","hd":"51","v_score":"0","decile":"2","lat":40.40425743453521,"lng":-111.91315201877273},{"id":"131092","name":"Pat Pfeffer","party":"","address":"1439 N Linen Way, Lehi, UT 84048","precinct":"25LE49","hd":"51","v_score":"0","decile":"2","lat":40.40494311528883,"lng":-111.9157521007746},{"id":"133804","name":"Vlasta Ziemann-Stamm","party":"Rep","address":"1298 N Sage Dr, Lehi, UT 84048","precinct":"25LE49","hd":"51","v_score":"0","decile":"2","lat":40.40297595643229,"lng":-111.91336486948889},{"id":"133965","name":"Leslie Pagac","party":"","address":"4088 W Hillscape Cir, Lehi, UT 84048","precinct":"25LE49","hd":"51","v_score":"0","decile":"2","lat":40.39856380329809,"lng":-111.91392208158373},{"id":"134135","name":"Dr. Farrell Osinski IV","party":"Rep","address":"1452 N 3920 W, Lehi, UT 84048","precinct":"25LE49","hd":"51","v_score":"0","decile":"2","lat":40.40510589854172,"lng":-111.91208505482524},{"id":"134253","name":"Dellar Senger","party":"Rep","address":"1496 N Sage Dr, Lehi, UT 84048","precinct":"25LE49","hd":"51","v_score":"0","decile":"2","lat":40.405704535948416,"lng":-111.91250589724014},{"id":"134260","name":"Mr. Monte Kovacek","party":"Dem","address":"1496 N Sage Dr, Lehi, UT 84048","precinct":"25LE49","hd":"51","v_score":"0","decile":"2","lat":40.405704535948416,"lng":-111.91250589724014},{"id":"142114","name":"Fannie Pfeffer","party":"Rep","address":"910 N Hilltop Dr, Lehi, UT 84048","precinct":"25LE49","hd":"51","v_score":"2.587603312","decile":"5","lat":40.39845049154886,"lng":-111.91465981995657},{"id":"142189","name":"Lemuel Pacocha","party":"Dem","address":"910 N Hilltop Dr, Lehi, UT 84048","precinct":"25LE49","hd":"51","v_score":"2.587603312","decile":"5","lat":40.39845049154886,"lng":-111.91465981995657},{"id":"152631","name":"Semaj Macejkovic","party":"Rep","address":"4196 W 1470 N, Lehi, UT 84043","precinct":"25LE49","hd":"51","v_score":"12.49472132","decile":"9","lat":40.405655842976124,"lng":-111.91622624627381},{"id":"155144","name":"Kyle Corwin-Jenkins","party":"Dem","address":"4138 W Hillscape Cir, Lehi, UT 84048","precinct":"25LE49","hd":"51","v_score":"2.587603312","decile":"5","lat":40.39885229375312,"lng":-111.91464830696825},{"id":"155663","name":"Carma Jacobs","party":"Rep","address":"4114 W Hillscape Cir, Lehi, UT 84048","precinct":"25LE49","hd":"51","v_score":"14.48247422","decile":"9","lat":40.39872197608952,"lng":-111.91432022210421},{"id":"165613","name":"Marianna Braun","party":"Rep","address":"3899 W 1450 N, Lehi, UT 84048","precinct":"25LE49","hd":"51","v_score":"0","decile":"3","lat":40.40479269399985,"lng":-111.9120363160408},{"id":"167726","name":"Collie Dietrich","party":"","address":"3972 W 1100 N, Lehi, UT 84043","precinct":"25LE49","hd":"51","v_score":"1.193887297","decile":"4","lat":40.40141291838989,"lng":-111.9123164111057},{"id":"172252","name":"Orlando Hudson","party":"","address":"4152 W Hillscape Cir, Lehi, UT 84043","precinct":"25LE49","hd":"51","v_score":"11.30609121","decile":"9","lat":40.39890797260587,"lng":-111.91478845744761},{"id":"173444","name":"Shelva Bechtelar-Nicolas","party":"Dem","address":"1413 N Sage Dr, Lehi, UT 84043","precinct":"25LE49","hd":"51","v_score":"3.93832808","decile":"6","lat":40.404625647415386,"lng":-111.9130795166445},{"id":"176239","name":"Ms. Lucindy Rath MD","party":"","address":"916 N Hilltop Dr, Lehi, UT 84048","precinct":"25LE49","hd":"51","v_score":"1.121327652","decile":"3","lat":40.398504052298186,"lng":-111.91462342435352},{"id":"179786","name":"Mrs. Julianne Cummings DVM","party":"","address":"3972 W 1100 N, Lehi, UT 84043","precinct":"25LE49","hd":"51","v_score":"1.193887297","decile":"4","lat":40.40141291838989,"lng":-111.9123164111057}]