[{"vid":"1227869","name":"Jinnie Maggio","party":"Rep","address":"1234 E 50 N, Lindon, UT 84042","precinct":"25LI09","hd":"58","v_score":"24.67828754","decile":"10","lat":40.338396220353054,"lng":-111.6855153189536,"phone":"(161) 169-1916","sd":"21","ssbd":"12","lsbd":"School Board Timpanogos 2"},{"vid":"1291563","name":"Wilbur Volkman","party":"Dem","address":"1433 E 200 S, Lindon, UT 84042","precinct":"25LI09","hd":"58","v_score":"1.121327652","decile":"3","lat":40.33413260570317,"lng":-111.67992988565851,"phone":"(886) 404-6300","sd":"21","ssbd":"12","lsbd":"School Board Timpanogos 2"},{"vid":"1296213","name":"Ms. April Spinka","party":"","address":"1296 E Teton Dr, Lindon, UT 84042","precinct":"25LI09","hd":"58","v_score":"7.153624035","decile":"8","lat":40.338598807212705,"lng":-111.6839021726624,"phone":"(646) 223-4534","sd":"21","ssbd":"12","lsbd":"School Board Timpanogos 2"},{"vid":"1492915","name":"Glynda Runolfsson","party":"Rep","address":"1255 E 10 S, Lindon, UT 84042","precinct":"25LI09","hd":"58","v_score":"0","decile":"1","lat":40.33756095088525,"lng":-111.68532436059624,"phone":"(253) 524-2307","sd":"21","ssbd":"12","lsbd":"School Board Timpanogos 2"},{"vid":"1546578","name":"Dr. Raven Effertz PhD","party":"Dem","address":"1296 E Teton Dr, Lindon, UT 84042","precinct":"25LI09","hd":"58","v_score":"2.942907593","decile":"6","lat":40.338598807212705,"lng":-111.6839021726624,"phone":"(736) 429-7023","sd":"21","ssbd":"12","lsbd":"School Board Timpanogos 2"},{"vid":"1612707","name":"Annie Larson","party":"Dem","address":"1263 E 10 S, Lindon, UT 84042","precinct":"25LI09","hd":"58","v_score":"13.6254517","decile":"9","lat":40.33735452915871,"lng":-111.68504062649157,"phone":"(903) 739-2692","sd":"21","ssbd":"12","lsbd":"School Board Timpanogos 2"},{"vid":"1616209","name":"Teri Howell-Upton","party":"","address":"110 S 1320 E, Lindon, UT 84042","precinct":"25LI09","hd":"58","v_score":"2.315214949","decile":"5","lat":40.335406309469995,"lng":-111.68363422501994,"phone":"(130) 263-7173","sd":"21","ssbd":"12","lsbd":"School Board Timpanogos 2"},{"vid":"1652299","name":"Dona Lemke","party":"","address":"1425 E 80 S, Lindon, UT 84042","precinct":"25LI09","hd":"58","v_score":"3.781490609","decile":"6","lat":40.33622774298091,"lng":-111.68296351483824,"phone":"(899) 002-4074","sd":"21","ssbd":"12","lsbd":"School Board Timpanogos 2"},{"vid":"c7ff4d312c4b3e6e15bb1cb5488a875f97869cd516732cab61abdda494dd8bd0","name":"Cortney Greenholt","party":"Dem","address":"92 S Denali Dr, Lindon, UT 84042","precinct":"25LI09","hd":"58","v_score":"16.03869888","decile":"9","lat":40.33664391014564,"lng":-111.68062172524245,"phone":"(933) 792-1227","sd":"21","ssbd":"12","lsbd":"School Board Timpanogos 2"},{"vid":"1703339","name":"Tambra Littel-Gulgowski","party":"","address":"141 S Denali Dr, Lindon, UT 84042","precinct":"25LI09","hd":"58","v_score":"2.315214949","decile":"5","lat":40.3356776183873,"lng":-111.67921549174507,"phone":"(125) 843-3971","sd":"21","ssbd":"12","lsbd":"School Board Timpanogos 2"},{"vid":"1873770","name":"Aurelio Abbott","party":"Dem","address":"1443 E 80 S, Lindon, UT 84042","precinct":"25LI09","hd":"58","v_score":"1.193887297","decile":"3","lat":40.33623768194941,"lng":-111.68136386798638,"phone":"(824) 205-1343","sd":"21","ssbd":"12","lsbd":"School Board Timpanogos 2"},{"vid":"1889648","name":"Mrs. Judy Shields","party":"Dem","address":"69 S 1200 E, Lindon, UT 84042","precinct":"25LI09","hd":"58","v_score":"3.781490609","decile":"6","lat":40.33609133325348,"lng":-111.68639132899521,"phone":"(415) 042-4069","sd":"21","ssbd":"12","lsbd":"School Board Timpanogos 2"},{"vid":"1973575","name":"Mrs. Taina Legros MD","party":"Rep","address":"95 S 1200 E, Lindon, UT 84042","precinct":"25LI09","hd":"58","v_score":"3.93832808","decile":"6","lat":40.33583011097374,"lng":-111.68641825512304,"phone":"(266) 827-1907","sd":"21","ssbd":"12","lsbd":"School Board Timpanogos 2"},{"vid":"1985531","name":"Aaden Weber-Harvey","party":"","address":"67 S Denali Cir, Lindon, UT 84042","precinct":"25LI09","hd":"58","v_score":"0","decile":"1","lat":40.3373146862435,"lng":-111.68063715702559,"phone":"(104) 718-1401","sd":"21","ssbd":"12","lsbd":"School Board Timpanogos 2"},{"vid":"1992646","name":"Jaydin Gutmann-Halvorson","party":"Rep","address":"92 S Denali Dr, Lindon, UT 84042","precinct":"25LI09","hd":"58","v_score":"3.93832808","decile":"6","lat":40.33664391014564,"lng":-111.68062172524245,"phone":"(242) 233-1967","sd":"21","ssbd":"12","lsbd":"School Board Timpanogos 2"},{"vid":"1992739","name":"Miss Dorathy Heidenreich DVM","party":"","address":"77 S Dry Canyon Dr, Lindon, UT 84042","precinct":"25LI09","hd":"58","v_score":"4.283276088","decile":"7","lat":40.33695206694418,"lng":-111.67809234416326,"phone":"(981) 848-7432","sd":"21","ssbd":"12","lsbd":"School Board Timpanogos 2"},{"vid":"1993570","name":"Marin Cassin","party":"","address":"1292 E 150 S, Lindon, UT 84042","precinct":"25LI09","hd":"58","v_score":"2.817000428","decile":"6","lat":40.334528046581106,"lng":-111.68460005178206,"phone":"(722) 427-6273","sd":"21","ssbd":"12","lsbd":"School Board Timpanogos 2"},{"vid":"14835c5873f8297ffd0f0dc9885c676427ef30e8ea41be67d42fc2a3c5b5a9e9","name":"Dr. Nichol O'Keefe","party":"","address":"65 S Denali Cir, Lindon, UT 84042","precinct":"25LI09","hd":"58","v_score":"1.623113131","decile":"5","lat":40.33779181600385,"lng":-111.68076395795984,"phone":"(294) 562-5564","sd":"21","ssbd":"12","lsbd":"School Board Timpanogos 2"},{"vid":"2027403","name":"Jaleesa Mills","party":"Dem","address":"107 S 1320 E, Lindon, UT 84042","precinct":"25LI09","hd":"58","v_score":"23.36545058","decile":"10","lat":40.33540884064737,"lng":-111.68394155002842,"phone":"(990) 943-1406","sd":"21","ssbd":"12","lsbd":"School Board Timpanogos 2"},{"vid":"2031810","name":"Haylie Ondricka","party":"Dem","address":"114 S 1410 E, Lindon, UT 84042","precinct":"25LI09","hd":"58","v_score":"2.315214949","decile":"5","lat":40.33529173200045,"lng":-111.681599275231,"phone":"(568) 557-4922","sd":"21","ssbd":"12","lsbd":"School Board Timpanogos 2"},{"vid":"2031955","name":"Sebrina Donnelly DDS","party":"","address":"114 N 1200 E, Lindon, UT 84042","precinct":"25LI09","hd":"58","v_score":"3.93832808","decile":"6","lat":40.340547426766506,"lng":-111.68596279099445,"phone":"(611) 443-3209","sd":"21","ssbd":"12","lsbd":"School Board Timpanogos 2"},{"vid":"eff797431c901738a93018e7d52563dec6b33c30ba747d570bd4425687ef5cfd","name":"Colonel Marvin","party":"","address":"1433 E 200 S, Lindon, UT 84042","precinct":"25LI09","hd":"58","v_score":"5.759908021","decile":"7","lat":40.33413260570317,"lng":-111.67992988565851,"phone":"(221) 178-7002","sd":"21","ssbd":"12","lsbd":"School Board Timpanogos 2"},{"vid":"2095904","name":"Newt Fay-Hudson","party":"","address":"17 S 1200 E, Lindon, UT 84042","precinct":"25LI09","hd":"58","v_score":"9.757278238","decile":"8","lat":40.3372128962755,"lng":-111.68657384813739,"phone":"(224) 889-8231","sd":"21","ssbd":"12","lsbd":"School Board Timpanogos 2"},{"vid":"2146725","name":"Miss Manila Runte DDS","party":"","address":"1241 E 60 S, Lindon, UT 84042","precinct":"25LI09","hd":"58","v_score":"5.40460374","decile":"7","lat":40.336397663353644,"lng":-111.68554990461608,"phone":"(305) 680-7198","sd":"21","ssbd":"12","lsbd":"School Board Timpanogos 2"},{"vid":"a00dea1252b398f544d2b51c859dc0246c6e249e936ee9a13c1110d116974cdb","name":"Bayard Fay","party":"Rep","address":"110 S 1320 E, Lindon, UT 84042","precinct":"25LI09","hd":"58","v_score":"9.61867875","decile":"8","lat":40.335406309469995,"lng":-111.68363422501994,"phone":"(262) 697-8987","sd":"21","ssbd":"12","lsbd":"School Board Timpanogos 2"},{"vid":"2198652","name":"Destin Douglas","party":"","address":"55 S 1200 E, Lindon, UT 84042","precinct":"25LI09","hd":"58","v_score":"0","decile":"1","lat":40.33655820691797,"lng":-111.6865687135469,"phone":"(115) 633-5935","sd":"21","ssbd":"12","lsbd":"School Board Timpanogos 2"},{"vid":"bdaf0e96b47dc88edfed466bab2443f5f3421bcdbb25880f6a282cc66bc1b798","name":"Chastity Gerhold","party":"Rep","address":"63 S Denali Dr, Lindon, UT 84042","precinct":"25LI09","hd":"58","v_score":"2.817000428","decile":"6","lat":40.33767113515995,"lng":-111.68006766712735,"phone":"(221) 019-3417","sd":"21","ssbd":"12","lsbd":"School Board Timpanogos 2"},{"vid":"2226175","name":"Marni Friesen","party":"","address":"132 S 1370 E, Lindon, UT 84042","precinct":"25LI09","hd":"58","v_score":"7.791860021","decile":"8","lat":40.33512038964917,"lng":-111.68223872148815,"phone":"(631) 527-4003","sd":"21","ssbd":"12","lsbd":"School Board Timpanogos 2"},{"vid":"6b623e17fc0427cf112826d3c9e119cf0687394476c5a31adbcbe6e5311aa811","name":"Glennie Mills","party":"Rep","address":"1443 E 80 S, Lindon, UT 84042","precinct":"25LI09","hd":"58","v_score":"1.193887297","decile":"3","lat":40.33623768194941,"lng":-111.68136386798638,"phone":"(739) 810-5202","sd":"21","ssbd":"12","lsbd":"School Board Timpanogos 2"},{"vid":"0ff7712f009b883cc587753762dd08bf3e2a6d98029202eb069c945da208e986","name":"Brogan Reichert-Pollich","party":"Rep","address":"17 S 1200 E, Lindon, UT 84042","precinct":"25LI09","hd":"58","v_score":"5.191257514","decile":"7","lat":40.3372128962755,"lng":-111.68657384813739,"phone":"(294) 712-7188","sd":"21","ssbd":"12","lsbd":"School Board Timpanogos 2"},{"vid":"60201dd819e8116ff88852bf3c437e973c23f495134d10cfdb2df533485d6750","name":"Gilmore Heathcote V","party":"Dem","address":"80 S Kings Peak Dr, Lindon, UT 84042","precinct":"25LI09","hd":"58","v_score":"0","decile":"1","lat":40.33688157940057,"lng":-111.67863657097018,"phone":"(926) 256-9271","sd":"21","ssbd":"12","lsbd":"School Board Timpanogos 2"},{"vid":"2264612","name":"Kareen Hodkiewicz","party":"Rep","address":"107 S 1320 E, Lindon, UT 84042","precinct":"25LI09","hd":"58","v_score":"8.713230707","decile":"8","lat":40.33540884064737,"lng":-111.68394155002842,"phone":"(499) 457-6496","sd":"21","ssbd":"12","lsbd":"School Board Timpanogos 2"},{"vid":"bc150fed8a5fea3ec6a9f4cff6d2512d91085d5bab4483b47af278f7dfac5c8d","name":"Cappie Funk","party":"Dem","address":"136 S Denali Dr, Lindon, UT 84042","precinct":"25LI09","hd":"58","v_score":"3.016591252","decile":"6","lat":40.335608820816255,"lng":-111.68015697830467,"phone":"(868) 519-8871","sd":"21","ssbd":"12","lsbd":"School Board Timpanogos 2"},{"vid":"940aa5b03bbeaba4188f6d943d380999bdc56d6c9fef17ba0276a4b58e486b84","name":"Lacey Brakus","party":"Rep","address":"22 Windriver Ln, Lindon, UT 84042","precinct":"25LI09","hd":"58","v_score":"12.63735678","decile":"9","lat":40.337146389616926,"lng":-111.6840161235238,"phone":"(961) 522-5948","sd":"21","ssbd":"12","lsbd":"School Board Timpanogos 2"},{"vid":"8b5ed4ce7d1d2303517a7c2d12f564bcbffca8427314b01a0e20a631183d2aed","name":"Cordero Fisher","party":"","address":"129 S 1320 E, Lindon, UT 84042","precinct":"25LI09","hd":"58","v_score":"2.315214949","decile":"5","lat":40.33518688163155,"lng":-111.68397426786572,"phone":"(283) 843-8530","sd":"21","ssbd":"12","lsbd":"School Board Timpanogos 2"},{"vid":"2332664","name":"Jimmie Bailey","party":"Rep","address":"107 S 1320 E, Lindon, UT 84042","precinct":"25LI09","hd":"58","v_score":"12.42518319","decile":"9","lat":40.33540884064737,"lng":-111.68394155002842,"phone":"(313) 962-0705","sd":"21","ssbd":"12","lsbd":"School Board Timpanogos 2"},{"vid":"2341833","name":"Clarke Renner","party":"Dem","address":"1276 E 150 S, Lindon, UT 84042","precinct":"25LI09","hd":"58","v_score":"1.121327652","decile":"3","lat":40.33448236699074,"lng":-111.68489600584921,"phone":"(195) 670-7843","sd":"21","ssbd":"12","lsbd":"School Board Timpanogos 2"},{"vid":"2348078","name":"Alexis Runte","party":"Dem","address":"1366 E 160 S, Lindon, UT 84042","precinct":"25LI09","hd":"58","v_score":"9.457082231","decile":"8","lat":40.334553183922395,"lng":-111.68230706872183,"phone":"(461) 679-3871","sd":"21","ssbd":"12","lsbd":"School Board Timpanogos 2"},{"vid":"2363048","name":"Tameka Bernhard","party":"Dem","address":"158 S Dry Canyon Dr, Lindon, UT 84042","precinct":"25LI09","hd":"58","v_score":"2.744440783","decile":"5","lat":40.335364139391295,"lng":-111.67804115022703,"phone":"(693) 142-4668","sd":"21","ssbd":"12","lsbd":"School Board Timpanogos 2"},{"vid":"2378828","name":"Maynard Kozey","party":"Rep","address":"136 S Denali Dr, Lindon, UT 84042","precinct":"25LI09","hd":"58","v_score":"5.331806201","decile":"7","lat":40.335608820816255,"lng":-111.68015697830467,"phone":"(874) 311-5102","sd":"21","ssbd":"12","lsbd":"School Board Timpanogos 2"},{"vid":"2462869","name":"Khadijah Haag","party":"","address":"1443 E 80 S, Lindon, UT 84042","precinct":"25LI09","hd":"58","v_score":"0","decile":"1","lat":40.33623768194941,"lng":-111.68136386798638,"phone":"(849) 224-4947","sd":"21","ssbd":"12","lsbd":"School Board Timpanogos 2"},{"vid":"2467588","name":"Mr. Lyric Hansen PhD","party":"Dem","address":"80 S Kings Peak Dr, Lindon, UT 84042","precinct":"25LI09","hd":"58","v_score":"2.543234995","decile":"5","lat":40.33688157940057,"lng":-111.67863657097018,"phone":"(856) 803-7117","sd":"21","ssbd":"12","lsbd":"School Board Timpanogos 2"},{"vid":"2487964","name":"Mr. Greg Powlowski","party":"Rep","address":"80 S Kings Peak Dr, Lindon, UT 84042","precinct":"25LI09","hd":"58","v_score":"1.193887297","decile":"3","lat":40.33688157940057,"lng":-111.67863657097018,"phone":"(135) 678-1468","sd":"21","ssbd":"12","lsbd":"School Board Timpanogos 2"},{"vid":"2491088","name":"Addison Beer","party":"Rep","address":"1433 E 200 S, Lindon, UT 84042","precinct":"25LI09","hd":"58","v_score":"1.193887297","decile":"3","lat":40.33413260570317,"lng":-111.67992988565851,"phone":"(555) 680-9216","sd":"21","ssbd":"12","lsbd":"School Board Timpanogos 2"},{"vid":"2492504","name":"Dr. Marilynn Huels DDS","party":"Rep","address":"55 S 1200 E, Lindon, UT 84042","precinct":"25LI09","hd":"58","v_score":"1.193887297","decile":"3","lat":40.33655820691797,"lng":-111.6865687135469,"phone":"(300) 665-7671","sd":"21","ssbd":"12","lsbd":"School Board Timpanogos 2"},{"vid":"2503206","name":"Clide Turner","party":"Dem","address":"81 S Denali Dr, Lindon, UT 84042","precinct":"25LI09","hd":"58","v_score":"1.193887297","decile":"3","lat":40.33695081820801,"lng":-111.68025075819688,"phone":"(672) 695-2739","sd":"21","ssbd":"12","lsbd":"School Board Timpanogos 2"},{"vid":"2509428","name":"Elzie Durgan","party":"Rep","address":"118 S 1370 E, Lindon, UT 84042","precinct":"25LI09","hd":"58","v_score":"18.58831228","decile":"10","lat":40.33536016908285,"lng":-111.68224651680347,"phone":"(871) 043-7290","sd":"21","ssbd":"12","lsbd":"School Board Timpanogos 2"},{"vid":"2526426","name":"Lera Leffler","party":"Dem","address":"1366 E 160 S, Lindon, UT 84042","precinct":"25LI09","hd":"58","v_score":"0","decile":"1","lat":40.334553183922395,"lng":-111.68230706872183,"phone":"(890) 872-1872","sd":"21","ssbd":"12","lsbd":"School Board Timpanogos 2"},{"vid":"2547060","name":"Kelly Emard-Wolff","party":"Rep","address":"136 S Denali Dr, Lindon, UT 84042","precinct":"25LI09","hd":"58","v_score":"1.193887297","decile":"4","lat":40.335608820816255,"lng":-111.68015697830467,"phone":"(574) 177-3376","sd":"21","ssbd":"12","lsbd":"School Board Timpanogos 2"},{"vid":"2548877","name":"Murl Gerhold","party":"Rep","address":"132 S 1370 E, Lindon, UT 84042","precinct":"25LI09","hd":"58","v_score":"11.99595736","decile":"9","lat":40.33512038964917,"lng":-111.68223872148815,"phone":"(879) 664-7262","sd":"21","ssbd":"12","lsbd":"School Board Timpanogos 2"},{"vid":"2566958","name":"Marius Wolf","party":"","address":"1443 E 80 S, Lindon, UT 84042","precinct":"25LI09","hd":"58","v_score":"0","decile":"1","lat":40.33623768194941,"lng":-111.68136386798638,"phone":"(897) 549-8906","sd":"21","ssbd":"12","lsbd":"School Board Timpanogos 2"},{"vid":"2574016","name":"Lulah Farrell","party":"","address":"1260 E 150 S, Lindon, UT 84042","precinct":"25LI09","hd":"58","v_score":"1.623113131","decile":"5","lat":40.33450390525337,"lng":-111.68536090824843,"phone":"(792) 359-0114","sd":"21","ssbd":"12","lsbd":"School Board Timpanogos 2"},{"vid":"2621686","name":"Cristofer Hansen","party":"Dem","address":"61 S Kings Peak Dr, Lindon, UT 84042","precinct":"25LI09","hd":"58","v_score":"9.40499548","decile":"8","lat":40.337841349566034,"lng":-111.67944971170104,"phone":"(935) 222-6639","sd":"21","ssbd":"12","lsbd":"School Board Timpanogos 2"},{"vid":"2640502","name":"Nicholaus Schamberger-Hoeger","party":"","address":"1284 E 10 S, Lindon, UT 84042","precinct":"25LI09","hd":"58","v_score":"5.407962308","decile":"7","lat":40.33687740602745,"lng":-111.68536187409293,"phone":"(890) 075-2215","sd":"21","ssbd":"12","lsbd":"School Board Timpanogos 2"},{"vid":"2663487","name":"Robyn Durgan","party":"Dem","address":"1253 E 60 S, Lindon, UT 84042","precinct":"25LI09","hd":"58","v_score":"1.193887297","decile":"4","lat":40.336217785004344,"lng":-111.68536694601806,"phone":"(437) 053-3578","sd":"21","ssbd":"12","lsbd":"School Board Timpanogos 2"},{"vid":"2711116","name":"Georgeann Runolfsdottir","party":"Dem","address":"132 S 1370 E, Lindon, UT 84042","precinct":"25LI09","hd":"58","v_score":"4.214075011","decile":"7","lat":40.33512038964917,"lng":-111.68223872148815,"phone":"(196) 761-6231","sd":"21","ssbd":"12","lsbd":"School Board Timpanogos 2"},{"vid":"2730713","name":"Dr. Lisa Littel MD","party":"Dem","address":"1295 E 150 S, Lindon, UT 84042","precinct":"25LI09","hd":"58","v_score":"3.711952487","decile":"6","lat":40.33478740657902,"lng":-111.68458817038699,"phone":"(586) 584-6816","sd":"21","ssbd":"12","lsbd":"School Board Timpanogos 2"},{"vid":"2735977","name":"Miss Genesis Schmidt DDS","party":"Rep","address":"114 N 1200 E, Lindon, UT 84042","precinct":"25LI09","hd":"58","v_score":"0","decile":"2","lat":40.340547426766506,"lng":-111.68596279099445,"phone":"(953) 737-7924","sd":"21","ssbd":"12","lsbd":"School Board Timpanogos 2"},{"vid":"2759628","name":"Yehuda Welch","party":"Dem","address":"1359 E 200 S, Lindon, UT 84042","precinct":"25LI09","hd":"58","v_score":"1.193887297","decile":"4","lat":40.33409598394581,"lng":-111.68269867781824,"phone":"(640) 158-9670","sd":"21","ssbd":"12","lsbd":"School Board Timpanogos 2"},{"vid":"2805689","name":"Haruko Nitzsche","party":"","address":"1263 E 10 S, Lindon, UT 84042","precinct":"25LI09","hd":"58","v_score":"1.193887297","decile":"4","lat":40.33735452915871,"lng":-111.68504062649157,"phone":"(996) 391-2069","sd":"21","ssbd":"12","lsbd":"School Board Timpanogos 2"},{"vid":"2821843","name":"Johannah Douglas DDS","party":"Rep","address":"141 S Denali Dr, Lindon, UT 84042","precinct":"25LI09","hd":"58","v_score":"1.193887297","decile":"4","lat":40.3356776183873,"lng":-111.67921549174507,"phone":"(108) 743-4845","sd":"21","ssbd":"12","lsbd":"School Board Timpanogos 2"},{"vid":"2860073","name":"Carnell Bartoletti-Miller","party":"Rep","address":"1255 E 10 S, Lindon, UT 84042","precinct":"25LI09","hd":"58","v_score":"1.193887297","decile":"4","lat":40.33756095088525,"lng":-111.68532436059624,"phone":"(472) 044-2961","sd":"21","ssbd":"12","lsbd":"School Board Timpanogos 2"},{"vid":"2880708","name":"Andy Funk","party":"","address":"63 S Denali Dr, Lindon, UT 84042","precinct":"25LI09","hd":"58","v_score":"4.069929862","decile":"7","lat":40.33767113515995,"lng":-111.68006766712735,"phone":"(128) 284-1877","sd":"21","ssbd":"12","lsbd":"School Board Timpanogos 2"},{"vid":"2884482","name":"Dr. Eppie Bernhard DDS","party":"Rep","address":"55 S 1200 E, Lindon, UT 84042","precinct":"25LI09","hd":"58","v_score":"1.193887297","decile":"4","lat":40.33655820691797,"lng":-111.6865687135469,"phone":"(212) 657-5026","sd":"21","ssbd":"12","lsbd":"School Board Timpanogos 2"},{"vid":"2884953","name":"Elizbeth Kulas DDS","party":"","address":"1292 E 150 S, Lindon, UT 84042","precinct":"25LI09","hd":"58","v_score":"1.193887297","decile":"4","lat":40.334528046581106,"lng":-111.68460005178206,"phone":"(545) 565-8919","sd":"21","ssbd":"12","lsbd":"School Board Timpanogos 2"},{"vid":"2889149","name":"Bertram Price","party":"Rep","address":"1268 E Teton Dr, Lindon, UT 84042","precinct":"25LI09","hd":"58","v_score":"0","decile":"2","lat":40.33903369903396,"lng":-111.68470672051036,"phone":"(698) 381-8659","sd":"21","ssbd":"12","lsbd":"School Board Timpanogos 2"},{"vid":"2914511","name":"Zeb Ferry","party":"","address":"1359 E 200 S, Lindon, UT 84042","precinct":"25LI09","hd":"58","v_score":"0","decile":"2","lat":40.33409598394581,"lng":-111.68269867781824,"phone":"(730) 871-1432","sd":"21","ssbd":"12","lsbd":"School Board Timpanogos 2"},{"vid":"2934714","name":"Christoper O'Hara","party":"","address":"114 S 1410 E, Lindon, UT 84042","precinct":"25LI09","hd":"58","v_score":"0","decile":"2","lat":40.33529173200045,"lng":-111.681599275231,"phone":"(998) 933-5805","sd":"21","ssbd":"12","lsbd":"School Board Timpanogos 2"},{"vid":"3069418","name":"Dink Hoppe","party":"Dem","address":"1428 E 80 S, Lindon, UT 84042","precinct":"25LI09","hd":"58","v_score":"2.817000428","decile":"6","lat":40.335831255137954,"lng":-111.6824267831741,"phone":"(603) 983-3188","sd":"21","ssbd":"12","lsbd":"School Board Timpanogos 2"},{"vid":"3123019","name":"Mr. Kayden Moore Jr.","party":"","address":"1385 E 80 S, Lindon, UT 84042","precinct":"25LI09","hd":"58","v_score":"18.46989245","decile":"10","lat":40.33633218481367,"lng":-111.68349819100546,"phone":"(899) 964-0638","sd":"21","ssbd":"12","lsbd":"School Board Timpanogos 2"},{"vid":"3385589","name":"Kamryn Thompson-Walter","party":"","address":"122 S 1320 E, Lindon, UT 84042","precinct":"25LI09","hd":"58","v_score":"11.93269927","decile":"9","lat":40.335187137316034,"lng":-111.68345271126192,"phone":"(658) 170-7191","sd":"21","ssbd":"12","lsbd":"School Board Timpanogos 2"},{"vid":"3554828","name":"Angelic Lindgren","party":"","address":"1385 E 80 S, Lindon, UT 84042","precinct":"25LI09","hd":"58","v_score":"8.207848766","decile":"8","lat":40.33633218481367,"lng":-111.68349819100546,"phone":"(197) 896-3232","sd":"21","ssbd":"12","lsbd":"School Board Timpanogos 2"},{"vid":"6200600","name":"Violeta Kassulke PhD","party":"Rep","address":"78 S Denali Cir, Lindon, UT 84042","precinct":"25LI09","hd":"58","v_score":"5.40460374","decile":"7","lat":40.33698836266423,"lng":-111.6807816933786,"phone":"(807) 326-0488","sd":"21","ssbd":"12","lsbd":"School Board Timpanogos 2"},{"vid":"6220033","name":"Keifer Larson-Nader","party":"Dem","address":"55 S 1200 E, Lindon, UT 84042","precinct":"25LI09","hd":"58","v_score":"9.2240886540000009","decile":"8","lat":40.33655820691797,"lng":-111.6865687135469,"phone":"(960) 136-5775","sd":"21","ssbd":"12","lsbd":"School Board Timpanogos 2"},{"vid":"6225257","name":"Malik Cummerata","party":"Dem","address":"1302 E 10 S, Lindon, UT 84042","precinct":"25LI09","hd":"58","v_score":"6.52928996","decile":"7","lat":40.336630993023896,"lng":-111.68516309033676,"phone":"(407) 502-9197","sd":"21","ssbd":"12","lsbd":"School Board Timpanogos 2"},{"vid":"6243915","name":"Dean Rohan","party":"Dem","address":"132 S 1370 E, Lindon, UT 84042","precinct":"25LI09","hd":"58","v_score":"23.25880427","decile":"10","lat":40.33512038964917,"lng":-111.68223872148815,"phone":"(523) 492-6811","sd":"21","ssbd":"12","lsbd":"School Board Timpanogos 2"},{"vid":"6256299","name":"Leone Barrows","party":"Dem","address":"114 S 1410 E, Lindon, UT 84042","precinct":"25LI09","hd":"58","v_score":"3.93832808","decile":"6","lat":40.33529173200045,"lng":-111.681599275231,"phone":"(747) 070-1968","sd":"21","ssbd":"12","lsbd":"School Board Timpanogos 2"},{"vid":"6262084","name":"Lyric Dooley","party":"","address":"1255 E 10 S, Lindon, UT 84042","precinct":"25LI09","hd":"58","v_score":"10.79293211","decile":"9","lat":40.33756095088525,"lng":-111.68532436059624,"phone":"(944) 072-9621","sd":"21","ssbd":"12","lsbd":"School Board Timpanogos 2"},{"vid":"b2156c7f918a8f46d7305966fdfa51af5a7f42094b56f38a07d733b718c4402b","name":"Obed Kuphal","party":"Rep","address":"80 S Kings Peak Dr, Lindon, UT 84042","precinct":"25LI09","hd":"58","v_score":"6.481563075","decile":"7","lat":40.33688157940057,"lng":-111.67863657097018,"phone":"(675) 079-9032","sd":"21","ssbd":"12","lsbd":"School Board Timpanogos 2"},{"vid":"6279574","name":"Adelaide Smitham","party":"Dem","address":"61 S Kings Peak Dr, Lindon, UT 84042","precinct":"25LI09","hd":"58","v_score":"6.814370645","decile":"8","lat":40.337841349566034,"lng":-111.67944971170104,"phone":"(598) 368-5840","sd":"21","ssbd":"12","lsbd":"School Board Timpanogos 2"},{"vid":"6279823","name":"Burnice Ernser","party":"Rep","address":"114 N 1200 E, Lindon, UT 84042","precinct":"25LI09","hd":"58","v_score":"8.280646305","decile":"8","lat":40.340547426766506,"lng":-111.68596279099445,"phone":"(513) 309-8436","sd":"21","ssbd":"12","lsbd":"School Board Timpanogos 2"},{"vid":"d89e050d2c7299c7a1ce30348147eb43d0b244c524a4f8e21adfa2899c070dbc","name":"Elzada Marquardt","party":"","address":"33 S 1200 E, Lindon, UT 84042","precinct":"25LI09","hd":"58","v_score":"14.93550638","decile":"9","lat":40.3368875166429,"lng":-111.68657129656266,"phone":"(995) 810-5092","sd":"21","ssbd":"12","lsbd":"School Board Timpanogos 2"},{"vid":"6302700","name":"Lylah Kertzmann","party":"Rep","address":"33 S 1200 E, Lindon, UT 84042","precinct":"25LI09","hd":"58","v_score":"14.93550638","decile":"9","lat":40.3368875166429,"lng":-111.68657129656266,"phone":"(206) 696-3648","sd":"21","ssbd":"12","lsbd":"School Board Timpanogos 2"},{"vid":"6302814","name":"Chanie Reynolds","party":"Rep","address":"1443 E 80 S, Lindon, UT 84042","precinct":"25LI09","hd":"58","v_score":"16.34722249","decile":"9","lat":40.33623768194941,"lng":-111.68136386798638,"phone":"(400) 862-4536","sd":"21","ssbd":"12","lsbd":"School Board Timpanogos 2"},{"vid":"6305354","name":"Jaycob Zemlak III","party":"Rep","address":"61 S Kings Peak Dr, Lindon, UT 84042","precinct":"25LI09","hd":"58","v_score":"6.814370645","decile":"8","lat":40.337841349566034,"lng":-111.67944971170104,"phone":"(400) 982-3922","sd":"21","ssbd":"12","lsbd":"School Board Timpanogos 2"},{"vid":"bc8a0174949979c169df6bc23a9a5de2f735ccb93e8110644309481d8dcb98e3","name":"Tyreek McLaughlin","party":"Rep","address":"150 S 1320 E, Lindon, UT 84042","precinct":"25LI09","hd":"58","v_score":"21.84619848","decile":"10","lat":40.33463920914672,"lng":-111.68345951408284,"phone":"(444) 325-3835","sd":"21","ssbd":"12","lsbd":"School Board Timpanogos 2"},{"vid":"6354604","name":"Miss Jeri Grimes MD","party":"Rep","address":"68 S Denali Cir, Lindon, UT 84042","precinct":"25LI09","hd":"58","v_score":"12.72478346","decile":"9","lat":40.33733972175854,"lng":-111.68109017191986,"phone":"(307) 042-9069","sd":"21","ssbd":"12","lsbd":"School Board Timpanogos 2"},{"vid":"77fc0be7004f89e610bc688b996e76cc18cd935a912c4aed58e462eb79a0809d","name":"Javier Champlin MD","party":"Dem","address":"110 S 1320 E, Lindon, UT 84042","precinct":"25LI09","hd":"58","v_score":"5.40460374","decile":"7","lat":40.335406309469995,"lng":-111.68363422501994,"phone":"(825) 384-2645","sd":"21","ssbd":"12","lsbd":"School Board Timpanogos 2"},{"vid":"6368436","name":"Ruth Reynolds-Bashirian","party":"","address":"114 N 1200 E, Lindon, UT 84042","precinct":"25LI09","hd":"58","v_score":"8.280646305","decile":"8","lat":40.340547426766506,"lng":-111.68596279099445,"phone":"(915) 003-2032","sd":"21","ssbd":"12","lsbd":"School Board Timpanogos 2"},{"vid":"6372249","name":"Katina Littel","party":"Dem","address":"38 N Teton Dr, Lindon, UT 84042","precinct":"25LI09","hd":"58","v_score":"35.07427534","decile":"10","lat":40.33783843925181,"lng":-111.68246228639079,"phone":"(682) 844-9245","sd":"21","ssbd":"12","lsbd":"School Board Timpanogos 2"},{"vid":"dccfef86db804d41a8f2611e1338b8ead0ef43dc10edcdd6671e80b133ac803c","name":"Mina Pagac","party":"Rep","address":"1251 E Teton Dr, Lindon, UT 84042","precinct":"25LI09","hd":"58","v_score":"18.17875442","decile":"10","lat":40.339617506753676,"lng":-111.68480024394331,"phone":"(692) 321-1535","sd":"21","ssbd":"12","lsbd":"School Board Timpanogos 2"},{"vid":"6382480","name":"Yancy Reichert","party":"Dem","address":"1227 E 10 S, Lindon, UT 84042","precinct":"25LI09","hd":"58","v_score":"10.37384553","decile":"9","lat":40.33776749014771,"lng":-111.68553840832043,"phone":"(509) 686-0495","sd":"21","ssbd":"12","lsbd":"School Board Timpanogos 2"},{"vid":"6429846","name":"Dema Yundt","party":"Dem","address":"67 S Denali Cir, Lindon, UT 84042","precinct":"25LI09","hd":"58","v_score":"20.46064175","decile":"10","lat":40.3373146862435,"lng":-111.68063715702559,"phone":"(318) 759-3706","sd":"21","ssbd":"12","lsbd":"School Board Timpanogos 2"},{"vid":"9eeb4ee53b30fe26cf4381adf0fc6c7b2a3d93d8d8af2847a30583efc324c343","name":"Dalton Nikolaus-Homenick","party":"Dem","address":"63 S Denali Dr, Lindon, UT 84042","precinct":"25LI09","hd":"58","v_score":"8.280646305","decile":"8","lat":40.33767113515995,"lng":-111.68006766712735,"phone":"(107) 649-0058","sd":"21","ssbd":"12","lsbd":"School Board Timpanogos 2"},{"vid":"6434963","name":"Jessee Kub","party":"Rep","address":"1448 E 155 S, Lindon, UT 84042","precinct":"25LI09","hd":"58","v_score":"0","decile":"3","lat":40.334689343279685,"lng":-111.67980074909138,"phone":"(357) 403-2956","sd":"21","ssbd":"12","lsbd":"School Board Timpanogos 2"},{"vid":"6459172","name":"Mr. Jaleel Ritchie PhD","party":"Rep","address":"1416 E 80 S, Lindon, UT 84042","precinct":"25LI09","hd":"58","v_score":"22.69979726","decile":"10","lat":40.33583124322324,"lng":-111.68279974050354,"phone":"(971) 805-6175","sd":"21","ssbd":"12","lsbd":"School Board Timpanogos 2"},{"vid":"6464014","name":"Mrs. Ettie Gerlach DDS","party":"Dem","address":"1314 E 10 S, Lindon, UT 84042","precinct":"25LI09","hd":"58","v_score":"35.07427534","decile":"10","lat":40.33638979034052,"lng":-111.6849259304305,"phone":"(157) 361-2113","sd":"21","ssbd":"12","lsbd":"School Board Timpanogos 2"},{"vid":"6470757","name":"Rayna VonRueden","party":"Rep","address":"1252 E 50 N, Lindon, UT 84042","precinct":"25LI09","hd":"58","v_score":"2.587603312","decile":"5","lat":40.33822322695174,"lng":-111.68500350581068,"phone":"(276) 659-4525","sd":"21","ssbd":"12","lsbd":"School Board Timpanogos 2"},{"vid":"6495622","name":"Burley Walker-Koelpin","party":"Dem","address":"1276 E 150 S, Lindon, UT 84042","precinct":"25LI09","hd":"58","v_score":"3.781490609","decile":"6","lat":40.33448236699074,"lng":-111.68489600584921,"phone":"(727) 573-3077","sd":"21","ssbd":"12","lsbd":"School Board Timpanogos 2"},{"vid":"6495699","name":"Jordin Reilly","party":"Dem","address":"1295 E 150 S, Lindon, UT 84042","precinct":"25LI09","hd":"58","v_score":"17.89408627","decile":"10","lat":40.33478740657902,"lng":-111.68458817038699,"phone":"(447) 019-8284","sd":"21","ssbd":"12","lsbd":"School Board Timpanogos 2"},{"vid":"6510910","name":"Derrell O'Keefe","party":"","address":"1443 E 80 S, Lindon, UT 84042","precinct":"25LI09","hd":"58","v_score":"13.60278171","decile":"9","lat":40.33623768194941,"lng":-111.68136386798638,"phone":"(589) 421-0355","sd":"21","ssbd":"12","lsbd":"School Board Timpanogos 2"},{"vid":"6516568","name":"Bolden Carroll","party":"","address":"114 S 1410 E, Lindon, UT 84042","precinct":"25LI09","hd":"58","v_score":"2.817000428","decile":"6","lat":40.33529173200045,"lng":-111.681599275231,"phone":"(154) 180-1644","sd":"21","ssbd":"12","lsbd":"School Board Timpanogos 2"},{"vid":"6518336","name":"Amani Jacobson","party":"Rep","address":"108 S Denali Dr, Lindon, UT 84042","precinct":"25LI09","hd":"58","v_score":"5.331806201","decile":"7","lat":40.336217726094645,"lng":-111.68053888682726,"phone":"(569) 393-7680","sd":"21","ssbd":"12","lsbd":"School Board Timpanogos 2"},{"vid":"1e8829711d0383634ed21e2c38c6851449b975a138084f7ad151ebf6cae9185c","name":"Cristi Dicki","party":"Dem","address":"143 S 1320 E, Lindon, UT 84042","precinct":"25LI09","hd":"58","v_score":"15.66769105","decile":"9","lat":40.33482810420624,"lng":-111.68400186559752,"phone":"(206) 331-7728","sd":"21","ssbd":"12","lsbd":"School Board Timpanogos 2"},{"vid":"6523015","name":"Jordyn Cremin-Olson","party":"Rep","address":"1247 E 150 S, Lindon, UT 84042","precinct":"25LI09","hd":"58","v_score":"5.83359168","decile":"7","lat":40.33487794870247,"lng":-111.68543183828437,"phone":"(912) 602-0150","sd":"21","ssbd":"12","lsbd":"School Board Timpanogos 2"},{"vid":"6523965","name":"Dr. Virge Trantow","party":"Rep","address":"1252 E 50 N, Lindon, UT 84042","precinct":"25LI09","hd":"58","v_score":"2.315214949","decile":"5","lat":40.33822322695174,"lng":-111.68500350581068,"phone":"(441) 607-1390","sd":"21","ssbd":"12","lsbd":"School Board Timpanogos 2"},{"vid":"6532814","name":"Nasir Jones","party":"Dem","address":"148 S Denali Dr, Lindon, UT 84042","precinct":"25LI09","hd":"58","v_score":"11.36410258","decile":"9","lat":40.335333972259946,"lng":-111.67949876332686,"phone":"(329) 400-4413","sd":"21","ssbd":"12","lsbd":"School Board Timpanogos 2"}]