[{"id":"681","name":"Jinnie Maggio","party":"Rep","address":"1234 E 50 N, Lindon, UT 84042","precinct":"25LI09","hd":"58","v_score":"24.67828754","decile":"10","lat":40.338485466756,"lng":-111.685328413461},{"id":"2770","name":"Wilbur Volkman","party":"Dem","address":"1433 E 200 S, Lindon, UT 84042","precinct":"25LI09","hd":"58","v_score":"1.121327652","decile":"3","lat":40.333860393209,"lng":-111.680596027989},{"id":"2949","name":"Ms. April Spinka","party":"","address":"1296 E Teton Dr, Lindon, UT 84042","precinct":"25LI09","hd":"58","v_score":"7.153624035","decile":"8","lat":40.338998792811,"lng":-111.684294803611},{"id":"4958","name":"Mr. Efrem Rowe II","party":"","address":"68 Denali Cir, Lindon, UT 84042","precinct":"25LI09","hd":"58","v_score":"8.347511332","decile":"8","lat":40.337097705382,"lng":-111.680770132515},{"id":"5105","name":"Alida Feest DVM","party":"Rep","address":"165 S 1325 E, Lindon, UT 84042","precinct":"25LI09","hd":"58","v_score":"1.193887297","decile":"3","lat":40.334042814751,"lng":-111.683540690068},{"id":"8124","name":"Ellwood Langworth","party":"","address":"174 McKinley, Lindon, UT 84042","precinct":"25LI09","hd":"58","v_score":"17.83029024","decile":"10","lat":40.335000851354,"lng":-111.679970233651},{"id":"8931","name":"Christene Schneider MD","party":"Rep","address":"1340 CANBERRA Dr, Lindon, UT 84042","precinct":"25LI09","hd":"58","v_score":"0","decile":"1","lat":40.336157814413,"lng":-111.684010407572},{"id":"10864","name":"Ms. Eboni Ortiz","party":"","address":"137 Dry Canyon Dr, Lindon, UT 84042","precinct":"25LI09","hd":"58","v_score":"2.817000428","decile":"6","lat":40.335807022494,"lng":-111.67798016104},{"id":"11489","name":"Glynda Runolfsson","party":"Rep","address":"1255 E 10 S, Lindon, UT 84042","precinct":"25LI09","hd":"58","v_score":"0","decile":"1","lat":40.337295948479,"lng":-111.685215021327},{"id":"13434","name":"Mr. Judd Trantow DVM","party":"","address":"1278 CANBERRA Dr, Lindon, UT 84042","precinct":"25LI09","hd":"58","v_score":"14.16540258","decile":"9","lat":40.335657508865,"lng":-111.684660265315},{"id":"14099","name":"Dr. Raven Effertz PhD","party":"Dem","address":"1296 E Teton Dr, Lindon, UT 84042","precinct":"25LI09","hd":"58","v_score":"2.942907593","decile":"6","lat":40.338998792811,"lng":-111.684294803611},{"id":"17445","name":"Annie Larson","party":"Dem","address":"1263 E 10 S, Lindon, UT 84042","precinct":"25LI09","hd":"58","v_score":"13.6254517","decile":"9","lat":40.337211095217,"lng":-111.68514133299},{"id":"17623","name":"Teri Howell-Upton","party":"","address":"110 S 1320 E, Lindon, UT 84042","precinct":"25LI09","hd":"58","v_score":"2.315214949","decile":"5","lat":40.335103696981,"lng":-111.683679007042},{"id":"19863","name":"Dona Lemke","party":"","address":"1425 E 80 S, Lindon, UT 84042","precinct":"25LI09","hd":"58","v_score":"3.781490609","decile":"6","lat":40.336080290214,"lng":-111.682253360639},{"id":"20441","name":"Steward Schmitt","party":"","address":"1264 CANBERRA Dr, Lindon, UT 84042","precinct":"25LI09","hd":"58","v_score":"2.315214949","decile":"5","lat":40.335532687427,"lng":-111.684819705216},{"id":"22044","name":"Cortney Greenholt","party":"Dem","address":"92 S Denali Dr, Lindon, UT 84042","precinct":"25LI09","hd":"58","v_score":"16.03869888","decile":"9","lat":40.337388699734,"lng":-111.680126596144},{"id":"22521","name":"Tambra Littel-Gulgowski","party":"","address":"141 S Denali Dr, Lindon, UT 84042","precinct":"25LI09","hd":"58","v_score":"2.315214949","decile":"5","lat":40.335864876409,"lng":-111.679826114677},{"id":"23330","name":"Moira Harris","party":"Dem","address":"108 Denali Dr, Lindon, UT 84042","precinct":"25LI09","hd":"58","v_score":"8.547102156","decile":"8","lat":40.337348383398,"lng":-111.680180351265},{"id":"24876","name":"Brandy Murphy","party":"","address":"1278 CANBERRA Dr, Lindon, UT 84042","precinct":"25LI09","hd":"58","v_score":"2.958579882","decile":"6","lat":40.335657508865,"lng":-111.684660265315},{"id":"27029","name":"Antone Bernhard","party":"Rep","address":"1335 E 10 S, Lindon, UT 84042","precinct":"25LI09","hd":"58","v_score":"3.781490609","decile":"6","lat":40.336551275836,"lng":-111.684529972272},{"id":"30819","name":"Timmy Mann","party":"Dem","address":"1278 CANBERRA Dr, Lindon, UT 84042","precinct":"25LI09","hd":"58","v_score":"10.22509301","decile":"9","lat":40.335657508865,"lng":-111.684660265315},{"id":"32425","name":"Aurelio Abbott","party":"Dem","address":"1443 E 80 S, Lindon, UT 84042","precinct":"25LI09","hd":"58","v_score":"1.193887297","decile":"3","lat":40.336080290185,"lng":-111.681879916316},{"id":"33668","name":"Mrs. Judy Shields","party":"Dem","address":"69 S 1200 E, Lindon, UT 84042","precinct":"25LI09","hd":"58","v_score":"3.781490609","decile":"6","lat":40.336440599274,"lng":-111.686247527937},{"id":"40132","name":"Mrs. Taina Legros MD","party":"Rep","address":"95 S 1200 E, Lindon, UT 84042","precinct":"25LI09","hd":"58","v_score":"3.93832808","decile":"6","lat":40.335661322779,"lng":-111.686247526705},{"id":"40511","name":"Aaden Weber-Harvey","party":"","address":"67 S Denali Cir, Lindon, UT 84042","precinct":"25LI09","hd":"58","v_score":"0","decile":"1","lat":40.337166123122,"lng":-111.680649158054},{"id":"40738","name":"Miss Minta Reilly","party":"Dem","address":"7 McKinley, Lindon, UT 84042","precinct":"25LI09","hd":"58","v_score":"2.315214949","decile":"5","lat":40.337358310749,"lng":-111.681826796835},{"id":"40842","name":"Karyme Rodriguez-Hoppe","party":"Dem","address":"1292 CANBERRA Dr, Lindon, UT 84042","precinct":"25LI09","hd":"58","v_score":"0","decile":"1","lat":40.335782330303,"lng":-111.684500825414},{"id":"41052","name":"Mr. Delos Flatley III","party":"","address":"183 Dry Canyon Dr, Lindon, UT 84042","precinct":"25LI09","hd":"58","v_score":"0","decile":"1","lat":40.334547076518,"lng":-111.677940679593},{"id":"41217","name":"Jaydin Gutmann-Halvorson","party":"Rep","address":"92 S Denali Dr, Lindon, UT 84042","precinct":"25LI09","hd":"58","v_score":"3.93832808","decile":"6","lat":40.337388699734,"lng":-111.680126596144},{"id":"41243","name":"Mrs. Santa Marvin","party":"Rep","address":"77 Dry Canyon Dr, Lindon, UT 84042","precinct":"25LI09","hd":"58","v_score":"5.40460374","decile":"7","lat":40.336849528699,"lng":-111.678298302646},{"id":"41244","name":"Miss Dorathy Heidenreich DVM","party":"","address":"77 S Dry Canyon Dr, Lindon, UT 84042","precinct":"25LI09","hd":"58","v_score":"4.283276088","decile":"7","lat":40.336849528699,"lng":-111.678298302646},{"id":"41313","name":"Marin Cassin","party":"","address":"1292 E 150 S, Lindon, UT 84042","precinct":"25LI09","hd":"58","v_score":"2.817000428","decile":"6","lat":40.334570699193,"lng":-111.684918842148},{"id":"42765","name":"Kenney Feest II","party":"","address":"1335 E 10 S, Lindon, UT 84042","precinct":"25LI09","hd":"58","v_score":"8.955296752","decile":"8","lat":40.336551275836,"lng":-111.684529972272},{"id":"42800","name":"Dr. Nichol O'Keefe","party":"","address":"65 S Denali Cir, Lindon, UT 84042","precinct":"25LI09","hd":"58","v_score":"1.623113131","decile":"5","lat":40.337175007492,"lng":-111.680656709767},{"id":"43681","name":"Jaleesa Mills","party":"Dem","address":"107 S 1320 E, Lindon, UT 84042","precinct":"25LI09","hd":"58","v_score":"23.36545058","decile":"10","lat":40.335132486325,"lng":-111.683827706747},{"id":"44145","name":"Haylie Ondricka","party":"Dem","address":"114 S 1410 E, Lindon, UT 84042","precinct":"25LI09","hd":"58","v_score":"2.315214949","decile":"5","lat":40.335036216727,"lng":-111.681436551607},{"id":"44168","name":"Sebrina Donnelly DDS","party":"","address":"114 N 1200 E, Lindon, UT 84042","precinct":"25LI09","hd":"58","v_score":"3.93832808","decile":"6","lat":40.340574968913,"lng":-111.686185405909},{"id":"46535","name":"Seldon Feest","party":"","address":"1460 CANBERRA Dr, Lindon, UT 84042","precinct":"25LI09","hd":"58","v_score":"1.193887297","decile":"3","lat":40.336999328356,"lng":-111.682697737271},{"id":"47618","name":"Colonel Marvin","party":"","address":"1433 E 200 S, Lindon, UT 84042","precinct":"25LI09","hd":"58","v_score":"5.759908021","decile":"7","lat":40.333860393209,"lng":-111.680596027989},{"id":"48888","name":"Newt Fay-Hudson","party":"","address":"17 S 1200 E, Lindon, UT 84042","precinct":"25LI09","hd":"58","v_score":"9.757278238","decile":"8","lat":40.337144204929,"lng":-111.686247527845},{"id":"49069","name":"Ludie Runolfsdottir-Keebler","party":"Dem","address":"7 McKinley, Lindon, UT 84042","precinct":"25LI09","hd":"58","v_score":"3.781490609","decile":"6","lat":40.337358310749,"lng":-111.681826796835},{"id":"51509","name":"Chalmers Denesik","party":"Rep","address":"1278 CANBERRA Dr, Lindon, UT 84042","precinct":"25LI09","hd":"58","v_score":"6.801678322","decile":"8","lat":40.335657508865,"lng":-111.684660265315},{"id":"52658","name":"Miss Manila Runte DDS","party":"","address":"1241 E 60 S, Lindon, UT 84042","precinct":"25LI09","hd":"58","v_score":"5.40460374","decile":"7","lat":40.336305290469,"lng":-111.685911443425},{"id":"52846","name":"Bayard Fay","party":"Rep","address":"110 S 1320 E, Lindon, UT 84042","precinct":"25LI09","hd":"58","v_score":"9.61867875","decile":"8","lat":40.335103696981,"lng":-111.683679007042},{"id":"54165","name":"Gertha Langosh","party":"Dem","address":"22 N Windriver Ln, Lindon, UT 84042","precinct":"25LI09","hd":"58","v_score":"2.587603312","decile":"5","lat":40.336903946281,"lng":-111.684504869788},{"id":"56977","name":"Destin Douglas","party":"","address":"55 S 1200 E, Lindon, UT 84042","precinct":"25LI09","hd":"58","v_score":"0","decile":"1","lat":40.336630031566,"lng":-111.686247527912},{"id":"57022","name":"Miss Nealy Weber","party":"","address":"8 Windriver Ln, Lindon, UT 84042","precinct":"25LI09","hd":"58","v_score":"0","decile":"1","lat":40.336795808228,"lng":-111.684655890189},{"id":"58038","name":"Chastity Gerhold","party":"Rep","address":"63 S Denali Dr, Lindon, UT 84042","precinct":"25LI09","hd":"58","v_score":"2.817000428","decile":"6","lat":40.337183891863,"lng":-111.68066426148},{"id":"58958","name":"Imo Koepp DVM","party":"","address":"22 N Windriver Ln, Lindon, UT 84042","precinct":"25LI09","hd":"58","v_score":"2.315214949","decile":"5","lat":40.336903946281,"lng":-111.684504869788},{"id":"59496","name":"Marni Friesen","party":"","address":"132 S 1370 E, Lindon, UT 84042","precinct":"25LI09","hd":"58","v_score":"7.791860021","decile":"8","lat":40.335072623472,"lng":-111.682340123333},{"id":"60636","name":"Glennie Mills","party":"Rep","address":"1443 E 80 S, Lindon, UT 84042","precinct":"25LI09","hd":"58","v_score":"1.193887297","decile":"3","lat":40.336080290185,"lng":-111.681879916316},{"id":"60675","name":"Kayson Kiehn","party":"","address":"1228 Teton Dr, Lindon, UT 84042","precinct":"25LI09","hd":"58","v_score":"0","decile":"1","lat":40.337778766293,"lng":-111.682994579728},{"id":"61097","name":"Brogan Reichert-Pollich","party":"Rep","address":"17 S 1200 E, Lindon, UT 84042","precinct":"25LI09","hd":"58","v_score":"5.191257514","decile":"7","lat":40.337144204929,"lng":-111.686247527845},{"id":"61950","name":"Cambria Rutherford","party":"","address":"140 McKinley, Lindon, UT 84042","precinct":"25LI09","hd":"58","v_score":"0","decile":"1","lat":40.335164830415,"lng":-111.680207092226},{"id":"62195","name":"Gilmore Heathcote V","party":"Dem","address":"80 S Kings Peak Dr, Lindon, UT 84042","precinct":"25LI09","hd":"58","v_score":"0","decile":"1","lat":40.336966508558,"lng":-111.678726750117},{"id":"62921","name":"Kareen Hodkiewicz","party":"Rep","address":"107 S 1320 E, Lindon, UT 84042","precinct":"25LI09","hd":"58","v_score":"8.713230707","decile":"8","lat":40.335132486325,"lng":-111.683827706747},{"id":"63392","name":"Jamel Fritsch","party":"Dem","address":"191 Dry Canyon Dr, Lindon, UT 84042","precinct":"25LI09","hd":"58","v_score":"0","decile":"1","lat":40.334329492312,"lng":-111.678104927444},{"id":"64187","name":"Cinnamon White","party":"Dem","address":"1237 CANBERRA Dr, Lindon, UT 84042","precinct":"25LI09","hd":"58","v_score":"4.210478549","decile":"7","lat":40.335008880825,"lng":-111.6857406121},{"id":"64537","name":"Cappie Funk","party":"Dem","address":"136 S Denali Dr, Lindon, UT 84042","precinct":"25LI09","hd":"58","v_score":"3.016591252","decile":"6","lat":40.337272461833,"lng":-111.680276657167},{"id":"64668","name":"Lacey Brakus","party":"Rep","address":"22 Windriver Ln, Lindon, UT 84042","precinct":"25LI09","hd":"58","v_score":"12.63735678","decile":"9","lat":40.336903946281,"lng":-111.684504869788},{"id":"65265","name":"Dr. Titus Moore I","party":"Dem","address":"1460 CANBERRA Dr, Lindon, UT 84042","precinct":"25LI09","hd":"58","v_score":"1.623113131","decile":"5","lat":40.336999328356,"lng":-111.682697737271},{"id":"66955","name":"Cordero Fisher","party":"","address":"129 S 1320 E, Lindon, UT 84042","precinct":"25LI09","hd":"58","v_score":"2.315214949","decile":"5","lat":40.335000532852,"lng":-111.683835426477},{"id":"69036","name":"Jimmie Bailey","party":"Rep","address":"107 S 1320 E, Lindon, UT 84042","precinct":"25LI09","hd":"58","v_score":"12.42518319","decile":"9","lat":40.335132486325,"lng":-111.683827706747},{"id":"69834","name":"Clarke Renner","party":"Dem","address":"1276 E 150 S, Lindon, UT 84042","precinct":"25LI09","hd":"58","v_score":"1.121327652","decile":"3","lat":40.334570699205,"lng":-111.685083683451},{"id":"70117","name":"Luciana Franecki PhD","party":"","address":"158 Dry Canyon Dr, Lindon, UT 84042","precinct":"25LI09","hd":"58","v_score":"6.954919332","decile":"8","lat":40.335440905759,"lng":-111.677930045727},{"id":"70381","name":"Alexis Runte","party":"Dem","address":"1366 E 160 S, Lindon, UT 84042","precinct":"25LI09","hd":"58","v_score":"9.457082231","decile":"8","lat":40.334623176243,"lng":-111.682721450915},{"id":"70388","name":"Miss Zoie Schoen MD","party":"","address":"1278 CANBERRA Dr, Lindon, UT 84042","precinct":"25LI09","hd":"58","v_score":"1.193887297","decile":"3","lat":40.335657508865,"lng":-111.684660265315},{"id":"71654","name":"Tameka Bernhard","party":"Dem","address":"158 S Dry Canyon Dr, Lindon, UT 84042","precinct":"25LI09","hd":"58","v_score":"2.744440783","decile":"5","lat":40.335440905759,"lng":-111.677930045727},{"id":"72517","name":"Mr. Rogelio Kerluke","party":"Rep","address":"70 S Kings Peak Dr, Lindon, UT 84042","precinct":"25LI09","hd":"58","v_score":"13.54291438","decile":"9","lat":40.336997236158,"lng":-111.67887654709},{"id":"72940","name":"Maynard Kozey","party":"Rep","address":"136 S Denali Dr, Lindon, UT 84042","precinct":"25LI09","hd":"58","v_score":"5.331806201","decile":"7","lat":40.337272461833,"lng":-111.680276657167},{"id":"78577","name":"Brynlee Torp","party":"Rep","address":"124 Denali Dr, Lindon, UT 84042","precinct":"25LI09","hd":"58","v_score":"2.315214949","decile":"5","lat":40.337308067062,"lng":-111.680234106386},{"id":"81354","name":"Khadijah Haag","party":"","address":"1443 E 80 S, Lindon, UT 84042","precinct":"25LI09","hd":"58","v_score":"0","decile":"1","lat":40.336080290185,"lng":-111.681879916316},{"id":"81768","name":"Mr. Lyric Hansen PhD","party":"Dem","address":"80 S Kings Peak Dr, Lindon, UT 84042","precinct":"25LI09","hd":"58","v_score":"2.543234995","decile":"5","lat":40.336966508558,"lng":-111.678726750117},{"id":"82917","name":"Gavyn Walsh","party":"Rep","address":"1218 E Teton Dr, Lindon, UT 84042","precinct":"25LI09","hd":"58","v_score":"0","decile":"1","lat":40.337581846478,"lng":-111.68282471765},{"id":"83789","name":"Mr. Greg Powlowski","party":"Rep","address":"80 S Kings Peak Dr, Lindon, UT 84042","precinct":"25LI09","hd":"58","v_score":"1.193887297","decile":"3","lat":40.336966508558,"lng":-111.678726750117},{"id":"84096","name":"Addison Beer","party":"Rep","address":"1433 E 200 S, Lindon, UT 84042","precinct":"25LI09","hd":"58","v_score":"1.193887297","decile":"3","lat":40.333860393209,"lng":-111.680596027989},{"id":"84227","name":"Dr. Marilynn Huels DDS","party":"Rep","address":"55 S 1200 E, Lindon, UT 84042","precinct":"25LI09","hd":"58","v_score":"1.193887297","decile":"3","lat":40.336630031566,"lng":-111.686247527912},{"id":"85353","name":"Clide Turner","party":"Dem","address":"81 S Denali Dr, Lindon, UT 84042","precinct":"25LI09","hd":"58","v_score":"1.193887297","decile":"3","lat":40.337272333839,"lng":-111.680067403789},{"id":"86065","name":"Elzie Durgan","party":"Rep","address":"118 S 1370 E, Lindon, UT 84042","precinct":"25LI09","hd":"58","v_score":"18.58831228","decile":"10","lat":40.335113337822,"lng":-111.68234884783},{"id":"87845","name":"Lera Leffler","party":"Dem","address":"1366 E 160 S, Lindon, UT 84042","precinct":"25LI09","hd":"58","v_score":"0","decile":"1","lat":40.334623176243,"lng":-111.682721450915},{"id":"89906","name":"Kelly Emard-Wolff","party":"Rep","address":"136 S Denali Dr, Lindon, UT 84042","precinct":"25LI09","hd":"58","v_score":"1.193887297","decile":"4","lat":40.337272461833,"lng":-111.680276657167},{"id":"90129","name":"Murl Gerhold","party":"Rep","address":"132 S 1370 E, Lindon, UT 84042","precinct":"25LI09","hd":"58","v_score":"11.99595736","decile":"9","lat":40.335072623472,"lng":-111.682340123333},{"id":"91732","name":"Marius Wolf","party":"","address":"1443 E 80 S, Lindon, UT 84042","precinct":"25LI09","hd":"58","v_score":"0","decile":"1","lat":40.336080290185,"lng":-111.681879916316},{"id":"92186","name":"Lulah Farrell","party":"","address":"1260 E 150 S, Lindon, UT 84042","precinct":"25LI09","hd":"58","v_score":"1.623113131","decile":"5","lat":40.334570699218,"lng":-111.685248524755},{"id":"95058","name":"Anona Dietrich","party":"Rep","address":"162 S Denali Dr, Lindon, UT 84042","precinct":"25LI09","hd":"58","v_score":"0","decile":"1","lat":40.337201295879,"lng":-111.680356034587},{"id":"95765","name":"Cristofer Hansen","party":"Dem","address":"61 S Kings Peak Dr, Lindon, UT 84042","precinct":"25LI09","hd":"58","v_score":"9.40499548","decile":"8","lat":40.337145065509,"lng":-111.678937051255},{"id":"96907","name":"Trent Littel","party":"","address":"1320 CANBERRA Dr, Lindon, UT 84042","precinct":"25LI09","hd":"58","v_score":"2.817000428","decile":"6","lat":40.336031973179,"lng":-111.684181945611},{"id":"97770","name":"Nicholaus Schamberger-Hoeger","party":"","address":"1284 E 10 S, Lindon, UT 84042","precinct":"25LI09","hd":"58","v_score":"5.407962308","decile":"7","lat":40.337011498532,"lng":-111.685150658032},{"id":"100130","name":"Robyn Durgan","party":"Dem","address":"1253 E 60 S, Lindon, UT 84042","precinct":"25LI09","hd":"58","v_score":"1.193887297","decile":"4","lat":40.336305290464,"lng":-111.685855717457},{"id":"103779","name":"Armand Gerlach-Gulgowski","party":"Rep","address":"1268 Teton Dr, Lindon, UT 84042","precinct":"25LI09","hd":"58","v_score":"0","decile":"2","lat":40.338556402278,"lng":-111.683683785309},{"id":"105657","name":"Georgeann Runolfsdottir","party":"Dem","address":"132 S 1370 E, Lindon, UT 84042","precinct":"25LI09","hd":"58","v_score":"4.214075011","decile":"7","lat":40.335072623472,"lng":-111.682340123333},{"id":"105701","name":"Pleasant McClure","party":"Rep","address":"1315 CANBERRA Dr, Lindon, UT 84042","precinct":"25LI09","hd":"58","v_score":"1.193887297","decile":"4","lat":40.335809113092,"lng":-111.684676433415},{"id":"107560","name":"Dr. Lisa Littel MD","party":"Dem","address":"1295 E 150 S, Lindon, UT 84042","precinct":"25LI09","hd":"58","v_score":"3.711952487","decile":"6","lat":40.334685290575,"lng":-111.68489823697},{"id":"108101","name":"Miss Genesis Schmidt DDS","party":"Rep","address":"114 N 1200 E, Lindon, UT 84042","precinct":"25LI09","hd":"58","v_score":"0","decile":"2","lat":40.340574968913,"lng":-111.686185405909},{"id":"110558","name":"Yehuda Welch","party":"Dem","address":"1359 E 200 S, Lindon, UT 84042","precinct":"25LI09","hd":"58","v_score":"1.193887297","decile":"4","lat":40.333866290504,"lng":-111.682755125754},{"id":"115646","name":"Haruko Nitzsche","party":"","address":"1263 E 10 S, Lindon, UT 84042","precinct":"25LI09","hd":"58","v_score":"1.193887297","decile":"4","lat":40.337211095217,"lng":-111.68514133299},{"id":"117286","name":"Johannah Douglas DDS","party":"Rep","address":"141 S Denali Dr, Lindon, UT 84042","precinct":"25LI09","hd":"58","v_score":"1.193887297","decile":"4","lat":40.335864876409,"lng":-111.679826114677},{"id":"117798","name":"Dimitrios Schaden","party":"","address":"1435 CANBERRA Dr, Lindon, UT 84042","precinct":"25LI09","hd":"58","v_score":"1.193887297","decile":"4","lat":40.336774479417,"lng":-111.683371931718},{"id":"120832","name":"Carnell Bartoletti-Miller","party":"Rep","address":"1255 E 10 S, Lindon, UT 84042","precinct":"25LI09","hd":"58","v_score":"1.193887297","decile":"4","lat":40.337295948479,"lng":-111.685215021327},{"id":"122462","name":"Andy Funk","party":"","address":"63 S Denali Dr, Lindon, UT 84042","precinct":"25LI09","hd":"58","v_score":"4.069929862","decile":"7","lat":40.337183891863,"lng":-111.68066426148},{"id":"122932","name":"Dr. Eppie Bernhard DDS","party":"Rep","address":"55 S 1200 E, Lindon, UT 84042","precinct":"25LI09","hd":"58","v_score":"1.193887297","decile":"4","lat":40.336630031566,"lng":-111.686247527912},{"id":"122973","name":"Elizbeth Kulas DDS","party":"","address":"1292 E 150 S, Lindon, UT 84042","precinct":"25LI09","hd":"58","v_score":"1.193887297","decile":"4","lat":40.334570699193,"lng":-111.684918842148},{"id":"124021","name":"Bertram Price","party":"Rep","address":"1268 E Teton Dr, Lindon, UT 84042","precinct":"25LI09","hd":"58","v_score":"0","decile":"2","lat":40.338556402278,"lng":-111.683683785309},{"id":"124603","name":"Miss Ottie Greenfelder MD","party":"","address":"1292 CANBERRA Dr, Lindon, UT 84042","precinct":"25LI09","hd":"58","v_score":"4.214075011","decile":"7","lat":40.335782330303,"lng":-111.684500825414},{"id":"126893","name":"Zeb Ferry","party":"","address":"1359 E 200 S, Lindon, UT 84042","precinct":"25LI09","hd":"58","v_score":"0","decile":"2","lat":40.333866290504,"lng":-111.682755125754},{"id":"129086","name":"Christoper O'Hara","party":"","address":"114 S 1410 E, Lindon, UT 84042","precinct":"25LI09","hd":"58","v_score":"0","decile":"2","lat":40.335036216727,"lng":-111.681436551607},{"id":"132424","name":"Rikki Turcotte","party":"","address":"1218 Teton Dr, Lindon, UT 84042","precinct":"25LI09","hd":"58","v_score":"0","decile":"2","lat":40.337581846478,"lng":-111.68282471765},{"id":"132921","name":"Olie Thiel","party":"Rep","address":"191 Dry Canyon Dr, Lindon, UT 84042","precinct":"25LI09","hd":"58","v_score":"0","decile":"2","lat":40.334329492312,"lng":-111.678104927444},{"id":"135337","name":"Dink Hoppe","party":"Dem","address":"1428 E 80 S, Lindon, UT 84042","precinct":"25LI09","hd":"58","v_score":"2.817000428","decile":"6","lat":40.335965698824,"lng":-111.682175028575},{"id":"135994","name":"Mr. Kayden Moore Jr.","party":"","address":"1385 E 80 S, Lindon, UT 84042","precinct":"25LI09","hd":"58","v_score":"18.46989245","decile":"10","lat":40.336080290254,"lng":-111.682775574497},{"id":"138939","name":"Kamryn Thompson-Walter","party":"","address":"122 S 1320 E, Lindon, UT 84042","precinct":"25LI09","hd":"58","v_score":"11.93269927","decile":"9","lat":40.335033688537,"lng":-111.683683382579},{"id":"140816","name":"Angelic Lindgren","party":"","address":"1385 E 80 S, Lindon, UT 84042","precinct":"25LI09","hd":"58","v_score":"8.207848766","decile":"8","lat":40.336080290254,"lng":-111.682775574497},{"id":"143296","name":"Oris Boyle","party":"Rep","address":"139 Denali Dr, Lindon, UT 84042","precinct":"25LI09","hd":"58","v_score":"16.74868926","decile":"9","lat":40.335879842124,"lng":-111.679848765483},{"id":"147315","name":"Violeta Kassulke PhD","party":"Rep","address":"78 S Denali Cir, Lindon, UT 84042","precinct":"25LI09","hd":"58","v_score":"5.40460374","decile":"7","lat":40.337049411274,"lng":-111.680684121822},{"id":"147641","name":"Debera Considine","party":"","address":"1284 Teton Dr, Lindon, UT 84042","precinct":"25LI09","hd":"58","v_score":"2.315214949","decile":"5","lat":40.338824159469,"lng":-111.68400978534},{"id":"149297","name":"Keifer Larson-Nader","party":"Dem","address":"55 S 1200 E, Lindon, UT 84042","precinct":"25LI09","hd":"58","v_score":"9.2240886540000009","decile":"8","lat":40.336630031566,"lng":-111.686247527912},{"id":"149813","name":"Malik Cummerata","party":"Dem","address":"1302 E 10 S, Lindon, UT 84042","precinct":"25LI09","hd":"58","v_score":"6.52928996","decile":"7","lat":40.336841084435,"lng":-111.684999097895},{"id":"151319","name":"Phil Zieme","party":"Dem","address":"65 Denali Cir, Lindon, UT 84042","precinct":"25LI09","hd":"58","v_score":"13.6254517","decile":"9","lat":40.337175007492,"lng":-111.680656709767},{"id":"151418","name":"Dean Rohan","party":"Dem","address":"132 S 1370 E, Lindon, UT 84042","precinct":"25LI09","hd":"58","v_score":"23.25880427","decile":"10","lat":40.335072623472,"lng":-111.682340123333},{"id":"152295","name":"Dr. Bennie Jenkins V","party":"","address":"65 Denali Cir, Lindon, UT 84042","precinct":"25LI09","hd":"58","v_score":"16.05145849","decile":"9","lat":40.337175007492,"lng":-111.680656709767},{"id":"152412","name":"Leone Barrows","party":"Dem","address":"114 S 1410 E, Lindon, UT 84042","precinct":"25LI09","hd":"58","v_score":"3.93832808","decile":"6","lat":40.335036216727,"lng":-111.681436551607},{"id":"152849","name":"Lyric Dooley","party":"","address":"1255 E 10 S, Lindon, UT 84042","precinct":"25LI09","hd":"58","v_score":"10.79293211","decile":"9","lat":40.337295948479,"lng":-111.685215021327},{"id":"153618","name":"Obed Kuphal","party":"Rep","address":"80 S Kings Peak Dr, Lindon, UT 84042","precinct":"25LI09","hd":"58","v_score":"6.481563075","decile":"7","lat":40.336966508558,"lng":-111.678726750117},{"id":"154491","name":"Adelaide Smitham","party":"Dem","address":"61 S Kings Peak Dr, Lindon, UT 84042","precinct":"25LI09","hd":"58","v_score":"6.814370645","decile":"8","lat":40.337145065509,"lng":-111.678937051255},{"id":"154506","name":"Burnice Ernser","party":"Rep","address":"114 N 1200 E, Lindon, UT 84042","precinct":"25LI09","hd":"58","v_score":"8.280646305","decile":"8","lat":40.340574968913,"lng":-111.686185405909},{"id":"156090","name":"Elzada Marquardt","party":"","address":"33 S 1200 E, Lindon, UT 84042","precinct":"25LI09","hd":"58","v_score":"14.93550638","decile":"9","lat":40.336927710882,"lng":-111.686247527873},{"id":"156426","name":"Lylah Kertzmann","party":"Rep","address":"33 S 1200 E, Lindon, UT 84042","precinct":"25LI09","hd":"58","v_score":"14.93550638","decile":"9","lat":40.336927710882,"lng":-111.686247527873},{"id":"156439","name":"Chanie Reynolds","party":"Rep","address":"1443 E 80 S, Lindon, UT 84042","precinct":"25LI09","hd":"58","v_score":"16.34722249","decile":"9","lat":40.336080290185,"lng":-111.681879916316},{"id":"156649","name":"Jaycob Zemlak III","party":"Rep","address":"61 S Kings Peak Dr, Lindon, UT 84042","precinct":"25LI09","hd":"58","v_score":"6.814370645","decile":"8","lat":40.337145065509,"lng":-111.678937051255},{"id":"157185","name":"Noel Gutkowski","party":"","address":"140 McKinley, Lindon, UT 84042","precinct":"25LI09","hd":"58","v_score":"8.15240309","decile":"8","lat":40.335164830415,"lng":-111.680207092226},{"id":"158122","name":"Elisabeth Pfeffer","party":"Rep","address":"124 Denali Dr, Lindon, UT 84042","precinct":"25LI09","hd":"58","v_score":"3.93832808","decile":"6","lat":40.337308067062,"lng":-111.680234106386},{"id":"158422","name":"Tyreek McLaughlin","party":"Rep","address":"150 S 1320 E, Lindon, UT 84042","precinct":"25LI09","hd":"58","v_score":"21.84619848","decile":"10","lat":40.334873800178,"lng":-111.683682546341},{"id":"160211","name":"Loney Weissnat","party":"Dem","address":"124 Denali Dr, Lindon, UT 84042","precinct":"25LI09","hd":"58","v_score":"3.93832808","decile":"6","lat":40.337308067062,"lng":-111.680234106386},{"id":"160717","name":"Miss Jeri Grimes MD","party":"Rep","address":"68 S Denali Cir, Lindon, UT 84042","precinct":"25LI09","hd":"58","v_score":"12.72478346","decile":"9","lat":40.337097705382,"lng":-111.680770132515},{"id":"160789","name":"Ms. Brittnay Dicki MD","party":"Rep","address":"1340 E Canberra Dr, Lindon, UT 84042","precinct":"25LI09","hd":"58","v_score":"14.32268247","decile":"9","lat":40.336157814413,"lng":-111.684010407572},{"id":"161235","name":"Leesa Miller","party":"","address":"1269 CANBERRA Dr, Lindon, UT 84042","precinct":"25LI09","hd":"58","v_score":"12.63527","decile":"9","lat":40.335344817716,"lng":-111.685269498277},{"id":"161956","name":"Javier Champlin MD","party":"Dem","address":"110 S 1320 E, Lindon, UT 84042","precinct":"25LI09","hd":"58","v_score":"5.40460374","decile":"7","lat":40.335103696981,"lng":-111.683679007042},{"id":"162112","name":"Ruth Reynolds-Bashirian","party":"","address":"114 N 1200 E, Lindon, UT 84042","precinct":"25LI09","hd":"58","v_score":"8.280646305","decile":"8","lat":40.340574968913,"lng":-111.686185405909},{"id":"162559","name":"Starr Kuhn","party":"","address":"108 Denali Dr, Lindon, UT 84042","precinct":"25LI09","hd":"58","v_score":"6.954919332","decile":"8","lat":40.337348383398,"lng":-111.680180351265},{"id":"163548","name":"Yancy Reichert","party":"Dem","address":"1227 E 10 S, Lindon, UT 84042","precinct":"25LI09","hd":"58","v_score":"10.37384553","decile":"9","lat":40.337589969,"lng":-111.685500178967},{"id":"164706","name":"Miss Raegan Schroeder","party":"Rep","address":"152 McKinley, Lindon, UT 84042","precinct":"25LI09","hd":"58","v_score":"24.60381286","decile":"10","lat":40.335106955452,"lng":-111.680123495082},{"id":"165974","name":"Mr. Karim Altenwerth","party":"","address":"1340 CANBERRA Dr, Lindon, UT 84042","precinct":"25LI09","hd":"58","v_score":"5.40460374","decile":"7","lat":40.336157814413,"lng":-111.684010407572},{"id":"167697","name":"Caren Pagac PhD","party":"","address":"1375 CANBERRA Dr, Lindon, UT 84042","precinct":"25LI09","hd":"58","v_score":"0","decile":"3","lat":40.336573580353,"lng":-111.683668703871},{"id":"168866","name":"Dema Yundt","party":"Dem","address":"67 S Denali Cir, Lindon, UT 84042","precinct":"25LI09","hd":"58","v_score":"20.46064175","decile":"10","lat":40.337166123122,"lng":-111.680649158054},{"id":"168889","name":"Dalton Nikolaus-Homenick","party":"Dem","address":"63 S Denali Dr, Lindon, UT 84042","precinct":"25LI09","hd":"58","v_score":"8.280646305","decile":"8","lat":40.337183891863,"lng":-111.68066426148},{"id":"169475","name":"Jessee Kub","party":"Rep","address":"1448 E 155 S, Lindon, UT 84042","precinct":"25LI09","hd":"58","v_score":"0","decile":"3","lat":40.334569257865,"lng":-111.680479371411},{"id":"172311","name":"Dr. Leonidas Fadel","party":"","address":"1269 CANBERRA Dr, Lindon, UT 84042","precinct":"25LI09","hd":"58","v_score":"1.193887297","decile":"4","lat":40.335344817716,"lng":-111.685269498277},{"id":"172482","name":"Mr. Jaleel Ritchie PhD","party":"Rep","address":"1416 E 80 S, Lindon, UT 84042","precinct":"25LI09","hd":"58","v_score":"22.69979726","decile":"10","lat":40.335965698836,"lng":-111.68233414061},{"id":"173056","name":"Mrs. Ettie Gerlach DDS","party":"Dem","address":"1314 E 10 S, Lindon, UT 84042","precinct":"25LI09","hd":"58","v_score":"35.07427534","decile":"10","lat":40.336658910806,"lng":-111.684827881192},{"id":"173536","name":"Erby Cremin","party":"","address":"94 Dry Canyon Dr, Lindon, UT 84042","precinct":"25LI09","hd":"58","v_score":"10.84720178","decile":"9","lat":40.337053457718,"lng":-111.678372454857},{"id":"173847","name":"Rayna VonRueden","party":"Rep","address":"1252 E 50 N, Lindon, UT 84042","precinct":"25LI09","hd":"58","v_score":"2.587603312","decile":"5","lat":40.338361403022,"lng":-111.684967891465},{"id":"173897","name":"Mr. Kristopher Williamson","party":"","address":"70 S Kings Peak Dr, Lindon, UT 84042","precinct":"25LI09","hd":"58","v_score":"20.39377672","decile":"10","lat":40.336997236158,"lng":-111.67887654709},{"id":"175397","name":"Matie Wilderman","party":"","address":"1292 CANBERRA Dr, Lindon, UT 84042","precinct":"25LI09","hd":"58","v_score":"8.15240309","decile":"8","lat":40.335782330303,"lng":-111.684500825414},{"id":"176893","name":"Burley Walker-Koelpin","party":"Dem","address":"1276 E 150 S, Lindon, UT 84042","precinct":"25LI09","hd":"58","v_score":"3.781490609","decile":"6","lat":40.334570699205,"lng":-111.685083683451},{"id":"176907","name":"Jordin Reilly","party":"Dem","address":"1295 E 150 S, Lindon, UT 84042","precinct":"25LI09","hd":"58","v_score":"17.89408627","decile":"10","lat":40.334685290575,"lng":-111.68489823697},{"id":"177079","name":"Ryder Reinger","party":"Rep","address":"174 McKinley, Lindon, UT 84042","precinct":"25LI09","hd":"58","v_score":"14.88738265","decile":"9","lat":40.335000851354,"lng":-111.679970233651},{"id":"178753","name":"Derrell O'Keefe","party":"","address":"1443 E 80 S, Lindon, UT 84042","precinct":"25LI09","hd":"58","v_score":"13.60278171","decile":"9","lat":40.336080290185,"lng":-111.681879916316},{"id":"178935","name":"Donat O'Connell","party":"Dem","address":"1284 Teton Dr, Lindon, UT 84042","precinct":"25LI09","hd":"58","v_score":"5.40460374","decile":"7","lat":40.338824159469,"lng":-111.68400978534},{"id":"179014","name":"Jerrod Kuphal","party":"Dem","address":"70 S Kings Peak Dr, Lindon, UT 84042","precinct":"25LI09","hd":"58","v_score":"17.96776993","decile":"10","lat":40.336997236158,"lng":-111.67887654709},{"id":"179227","name":"Bethel Walsh","party":"","address":"1460 CANBERRA Dr, Lindon, UT 84042","precinct":"25LI09","hd":"58","v_score":"7.947838735","decile":"8","lat":40.336999328356,"lng":-111.682697737271},{"id":"179266","name":"Bolden Carroll","party":"","address":"114 S 1410 E, Lindon, UT 84042","precinct":"25LI09","hd":"58","v_score":"2.817000428","decile":"6","lat":40.335036216727,"lng":-111.681436551607},{"id":"179463","name":"Amani Jacobson","party":"Rep","address":"108 S Denali Dr, Lindon, UT 84042","precinct":"25LI09","hd":"58","v_score":"5.331806201","decile":"7","lat":40.337348383398,"lng":-111.680180351265},{"id":"179881","name":"Cristi Dicki","party":"Dem","address":"143 S 1320 E, Lindon, UT 84042","precinct":"25LI09","hd":"58","v_score":"15.66769105","decile":"9","lat":40.334918773194,"lng":-111.683833791295},{"id":"179965","name":"Jordyn Cremin-Olson","party":"Rep","address":"1247 E 150 S, Lindon, UT 84042","precinct":"25LI09","hd":"58","v_score":"5.83359168","decile":"7","lat":40.334685290613,"lng":-111.68539276088},{"id":"180081","name":"Dr. Virge Trantow","party":"Rep","address":"1252 E 50 N, Lindon, UT 84042","precinct":"25LI09","hd":"58","v_score":"2.315214949","decile":"5","lat":40.338361403022,"lng":-111.684967891465},{"id":"181311","name":"Nasir Jones","party":"Dem","address":"148 S Denali Dr, Lindon, UT 84042","precinct":"25LI09","hd":"58","v_score":"11.36410258","decile":"9","lat":40.337239616008,"lng":-111.680313292899}]