[{"id":"248","name":"Arlena Kutch-Kutch","party":"","address":"1470 W 1400 N, Mapleton, UT 84664","precinct":"25MA01","hd":"63","v_score":"0","decile":"1","lat":40.143066305718,"lng":-111.596163426493},{"id":"846","name":"Minda Torp","party":"Dem","address":"1837 N 1250 W, Mapleton, UT 84664","precinct":"25MA01","hd":"63","v_score":"15.02443211","decile":"9","lat":40.147369993369,"lng":-111.594016807198},{"id":"1788","name":"Patsy Bauch","party":"Rep","address":"2070 N 700 W, Mapleton, UT 84664","precinct":"25MA01","hd":"63","v_score":"8.903210001","decile":"8","lat":40.14898388849,"lng":-111.587078000053},{"id":"2235","name":"Mr. Urijah Walter","party":"Dem","address":"1326 N 1380 W, Mapleton, UT 84664","precinct":"25MA01","hd":"63","v_score":"6.897264703","decile":"8","lat":40.141989428043,"lng":-111.595118381717},{"id":"2387","name":"Louie O'Kon","party":"","address":"1525 W 1600 N, Mapleton, UT 84664","precinct":"25MA01","hd":"63","v_score":"0","decile":"1","lat":40.144730002605,"lng":-111.597092722019},{"id":"2625","name":"Almeda Breitenberg","party":"Rep","address":"1442 W 1800 N, Mapleton, UT 84664","precinct":"25MA01","hd":"63","v_score":"25.72541572","decile":"10","lat":40.146716389143,"lng":-111.595852568686},{"id":"3770","name":"Mellisa Waters","party":"Dem","address":"885 W 1800 N, Mapleton, UT 84664","precinct":"25MA01","hd":"63","v_score":"21.85180194","decile":"10","lat":40.146642999216,"lng":-111.589531198224},{"id":"4691","name":"Mrs. Makayla Prosacco","party":"","address":"450 W 2000 N, Mapleton, UT 84664","precinct":"25MA01","hd":"63","v_score":"18.11188939","decile":"10","lat":40.148605748388,"lng":-111.584038240434},{"id":"4925","name":"Carma Ziemann-Kuhic","party":"Dem","address":"1776 N 800 W, Mapleton, UT 84664","precinct":"25MA01","hd":"63","v_score":"3.93832808","decile":"6","lat":40.146432457282,"lng":-111.588247031328},{"id":"5098","name":"Arvilla Lehner MD","party":"","address":"1385 W 2000 N, Mapleton, UT 84664","precinct":"25MA01","hd":"63","v_score":"8.280646305","decile":"8","lat":40.14845071365,"lng":-111.595469633881},{"id":"5141","name":"Rosalyn Doyle","party":"Dem","address":"1465 N 1200 W, Mapleton, UT 84664","precinct":"25MA01","hd":"63","v_score":"2.315214949","decile":"5","lat":40.143665931427,"lng":-111.593315818017},{"id":"5172","name":"Miss Kayli Jerde","party":"","address":"1986 N 1600 W, Mapleton, UT 84664","precinct":"25MA01","hd":"63","v_score":"0","decile":"1","lat":40.147902883273,"lng":-111.597981866182},{"id":"5262","name":"Patric Kautzer","party":"","address":"1749 N 800 W, Mapleton, UT 84664","precinct":"25MA01","hd":"63","v_score":"18.54373362","decile":"10","lat":40.146185043424,"lng":-111.588390101349},{"id":"5793","name":"Dr. Lenwood Von","party":"Rep","address":"1385 W 2000 N, Mapleton, UT 84664","precinct":"25MA01","hd":"63","v_score":"8.280646305","decile":"8","lat":40.14845071365,"lng":-111.595469633881},{"id":"6485","name":"Dr. Aleah Bode","party":"Rep","address":"1665 N Main St, Mapleton, UT 84664","precinct":"25MA01","hd":"63","v_score":"1.193887297","decile":"3","lat":40.145692526093,"lng":-111.57884368488},{"id":"7783","name":"Dr. Lorean Murray","party":"Rep","address":"80 W 1600 N, Mapleton, UT 84664","precinct":"25MA01","hd":"63","v_score":"0","decile":"1","lat":40.144950358421,"lng":-111.579654635098},{"id":"8127","name":"Miss Kayli Fahey DVM","party":"Dem","address":"965 W 1700 N, Mapleton, UT 84664","precinct":"25MA01","hd":"63","v_score":"25.23294859","decile":"10","lat":40.145777946742,"lng":-111.590581584517},{"id":"8869","name":"Nicholaus Cormier","party":"","address":"550 W 2000 N, Mapleton, UT 84664","precinct":"25MA01","hd":"63","v_score":"26.33466886","decile":"10","lat":40.148587721177,"lng":-111.586556208354},{"id":"9711","name":"Rene Ward","party":"Rep","address":"1663 N 300 W, Mapleton, UT 84664","precinct":"25MA01","hd":"63","v_score":"4.214075011","decile":"7","lat":40.14547921069,"lng":-111.582303368538},{"id":"10660","name":"Consuela Hegmann","party":"","address":"965 W 1700 N, Mapleton, UT 84664","precinct":"25MA01","hd":"63","v_score":"9.757278238","decile":"8","lat":40.145777946742,"lng":-111.590581584517},{"id":"10728","name":"Vernetta Kemmer DDS","party":"","address":"1560 N 1800 W, Mapleton, UT 84664","precinct":"25MA01","hd":"63","v_score":"0","decile":"1","lat":40.143862284798,"lng":-111.602150713214},{"id":"11689","name":"Mr. Kerwin Runolfsson","party":"Dem","address":"1897 N 1250 W, Mapleton, UT 84664","precinct":"25MA01","hd":"63","v_score":"6.881235673","decile":"8","lat":40.148423919371,"lng":-111.594032775636},{"id":"11817","name":"Llewellyn Zulauf","party":"Dem","address":"1915 N 700 W, Apt B, Mapleton, UT 84664","precinct":"25MA01","hd":"63","v_score":"2.744440783","decile":"5","lat":40.147737105606,"lng":-111.587386862193},{"id":"12432","name":"Dr. Mae Towne","party":"","address":"1502 N 900 W, Mapleton, UT 84664","precinct":"25MA01","hd":"63","v_score":"9.405332525","decile":"8","lat":40.143963449985,"lng":-111.589347504012},{"id":"12571","name":"Isidro Schmeler","party":"","address":"1489 N 1200 W, Mapleton, UT 84664","precinct":"25MA01","hd":"63","v_score":"1.46627566","decile":"4","lat":40.143904564318,"lng":-111.593319762331},{"id":"13198","name":"Mabelle Corkery MD","party":"Dem","address":"928 W 1700 N, Mapleton, UT 84664","precinct":"25MA01","hd":"63","v_score":"9.40499548","decile":"8","lat":40.145773984117,"lng":-111.59007365282},{"id":"14472","name":"Dorthea Leuschke","party":"Rep","address":"520 W 1600 N, Mapleton, UT 84664","precinct":"25MA01","hd":"63","v_score":"1.121327652","decile":"3","lat":40.14491014913,"lng":-111.58518148448},{"id":"14565","name":"Parthenia Mosciski DDS","party":"Dem","address":"1477 N 1600 W, Mapleton, UT 84664","precinct":"25MA01","hd":"63","v_score":"1.121327652","decile":"3","lat":40.143669394191,"lng":-111.598076826266},{"id":"15052","name":"Winifred Ullrich","party":"","address":"1262 N 1380 W, Mapleton, UT 84664","precinct":"25MA01","hd":"63","v_score":"0","decile":"1","lat":40.141631326862,"lng":-111.595117477468},{"id":"15887","name":"Dr. Mae Smitham","party":"Dem","address":"1370 W 1600 N, Mapleton, UT 84664","precinct":"25MA01","hd":"63","v_score":"0","decile":"1","lat":40.144854709338,"lng":-111.595307898784},{"id":"16276","name":"Catalina Friesen-Jacobson","party":"Rep","address":"1714 N 500 W, Mapleton, UT 84664","precinct":"25MA01","hd":"63","v_score":"14.74039814","decile":"9","lat":40.145917908883,"lng":-111.584626953568},{"id":"16897","name":"Mrs. Sena Ortiz MD","party":"","address":"1256 N 1600 W, Mapleton, UT 84664","precinct":"25MA01","hd":"63","v_score":"19.30359342","decile":"10","lat":40.141853005258,"lng":-111.597885989879},{"id":"17147","name":"Mr. Shellie Towne","party":"Rep","address":"960 W 1800 N, Mapleton, UT 84664","precinct":"25MA01","hd":"63","v_score":"1.121327652","decile":"3","lat":40.146773914691,"lng":-111.590546612732},{"id":"17231","name":"Raoul Marvin","party":"Dem","address":"1052 W 1700 N, Mapleton, UT 84664","precinct":"25MA01","hd":"63","v_score":"12.13417825","decile":"9","lat":40.145954801832,"lng":-111.591874886318},{"id":"18307","name":"Andria Kreiger","party":"","address":"1396 W 1600 N, Mapleton, UT 84664","precinct":"25MA01","hd":"63","v_score":"26.33466886","decile":"10","lat":40.144853001024,"lng":-111.595609420154},{"id":"18308","name":"Karon Carroll","party":"","address":"1396 W 1600 N, Mapleton, UT 84664","precinct":"25MA01","hd":"63","v_score":"24.8683932","decile":"10","lat":40.144853001024,"lng":-111.595609420154},{"id":"18918","name":"Sarita Reichert","party":"Dem","address":"863 W 1700 N, Mapleton, UT 84664","precinct":"25MA01","hd":"63","v_score":"5.604194564","decile":"7","lat":40.145640846513,"lng":-111.589211430723},{"id":"19876","name":"Charlotta Wintheiser-Schinner","party":"","address":"1973 N 600 W, Mapleton, UT 84664","precinct":"25MA01","hd":"63","v_score":"4.069929862","decile":"6","lat":40.148255438774,"lng":-111.586014364294},{"id":"20005","name":"Alfonso Stark","party":"Dem","address":"1630 N 1650 W, Mapleton, UT 84664","precinct":"25MA01","hd":"63","v_score":"12.71559837","decile":"9","lat":40.144939996689,"lng":-111.598852348653},{"id":"20053","name":"Sharleen Aufderhar","party":"Rep","address":"374 W 2000 N, Mapleton, UT 84664","precinct":"25MA01","hd":"63","v_score":"1.46627566","decile":"4","lat":40.148612336507,"lng":-111.583140599954},{"id":"20054","name":"Dr. Tyrique Moore Jr.","party":"Dem","address":"374 W 2000 N, Mapleton, UT 84664","precinct":"25MA01","hd":"63","v_score":"1.46627566","decile":"4","lat":40.148612336507,"lng":-111.583140599954},{"id":"20264","name":"Ludwig Stokes-Douglas","party":"","address":"1556 N 800 W, Mapleton, UT 84664","precinct":"25MA01","hd":"63","v_score":"9.405332525","decile":"8","lat":40.144402529735,"lng":-111.588200325395},{"id":"20339","name":"Elige Becker","party":"Rep","address":"1630 N 1600 W, Mapleton, UT 84664","precinct":"25MA01","hd":"63","v_score":"4.465184987","decile":"7","lat":40.14510379178,"lng":-111.597948338557},{"id":"20950","name":"Tahj Kub","party":"Rep","address":"1860 N 1250 W, Mapleton, UT 84664","precinct":"25MA01","hd":"63","v_score":"21.84896306","decile":"10","lat":40.147260604945,"lng":-111.593865224875},{"id":"20959","name":"Antoine Swift","party":"","address":"1041 W 1800 N, Mapleton, UT 84664","precinct":"25MA01","hd":"63","v_score":"1.623113131","decile":"4","lat":40.146657462387,"lng":-111.591759720009},{"id":"22282","name":"Burley Mann V","party":"","address":"1401 N 800 W, Mapleton, UT 84664","precinct":"25MA01","hd":"63","v_score":"3.93832808","decile":"6","lat":40.14300288649,"lng":-111.588336902322},{"id":"22371","name":"Ola Streich-Little","party":"","address":"1714 N 500 W, Mapleton, UT 84664","precinct":"25MA01","hd":"63","v_score":"2.587603312","decile":"5","lat":40.145917908883,"lng":-111.584626953568},{"id":"22621","name":"Olie Donnelly","party":"Rep","address":"1478 W 1800 N, Mapleton, UT 84664","precinct":"25MA01","hd":"63","v_score":"4.210716443","decile":"7","lat":40.146713379128,"lng":-111.596412439389},{"id":"23420","name":"Jennie Rath","party":"Dem","address":"2070 N 700 W, Mapleton, UT 84664","precinct":"25MA01","hd":"63","v_score":"19.03120506","decile":"10","lat":40.14898388849,"lng":-111.587078000053},{"id":"27523","name":"Tella Becker DDS","party":"Dem","address":"1897 N 1250 W, Mapleton, UT 84664","precinct":"25MA01","hd":"63","v_score":"12.71585812","decile":"9","lat":40.148423919371,"lng":-111.594032775636},{"id":"27989","name":"Mr. Fidencio Fadel","party":"Dem","address":"1696 N 300 W, Mapleton, UT 84664","precinct":"25MA01","hd":"63","v_score":"5.191257514","decile":"7","lat":40.145784351233,"lng":-111.582149742907},{"id":"28105","name":"Felicia Sawayn","party":"Dem","address":"1643 N 1100 W, Mapleton, UT 84664","precinct":"25MA01","hd":"63","v_score":"2.660162957","decile":"5","lat":40.145285194598,"lng":-111.592660860723},{"id":"28151","name":"Miss Vergie Hilll","party":"","address":"1675 N 1000 W, Mapleton, UT 84664","precinct":"25MA01","hd":"63","v_score":"1.46627566","decile":"4","lat":40.145610389696,"lng":-111.591137202668},{"id":"28530","name":"Ludwig Bednar-Heaney","party":"","address":"1355 N 900 W, Mapleton, UT 84664","precinct":"25MA01","hd":"63","v_score":"1.121327652","decile":"3","lat":40.142705793136,"lng":-111.589490989738},{"id":"28775","name":"Colt Thompson","party":"Rep","address":"1791 N 1600 W, Mapleton, UT 84664","precinct":"25MA01","hd":"63","v_score":"6.798081861","decile":"8","lat":40.146517495879,"lng":-111.598084594359},{"id":"29892","name":"Brant Beahan","party":"Dem","address":"1741 N 500 W, Mapleton, UT 84664","precinct":"25MA01","hd":"63","v_score":"0","decile":"1","lat":40.146166263024,"lng":-111.584770110598},{"id":"30550","name":"Fleta Boyer-Krajcik","party":"Dem","address":"825 W 2000 N, Mapleton, UT 84664","precinct":"25MA01","hd":"63","v_score":"1.121327652","decile":"3","lat":40.148468260541,"lng":-111.588851257633},{"id":"30569","name":"Tyra Grimes-Miller","party":"","address":"1579 W Apple Orchard Ln, Mapleton, UT 84664","precinct":"25MA01","hd":"63","v_score":"3.93832808","decile":"6","lat":40.147406713946,"lng":-111.597786764359},{"id":"30732","name":"Lowell Crona","party":"","address":"1485 W 2000 N, Mapleton, UT 84664","precinct":"25MA01","hd":"63","v_score":"13.61621523","decile":"9","lat":40.148450713695,"lng":-111.59606376862},{"id":"31276","name":"Mona Schmitt","party":"Rep","address":"1825 N 800 W, Mapleton, UT 84664","precinct":"25MA01","hd":"63","v_score":"1.121327652","decile":"3","lat":40.14694416788,"lng":-111.588420395168},{"id":"31442","name":"Sophronia Price-Kuhlman","party":"","address":"1288 W 1500 N, Mapleton, UT 84664","precinct":"25MA01","hd":"63","v_score":"1.46627566","decile":"4","lat":40.144057037309,"lng":-111.594080515351},{"id":"32040","name":"Joshuah Okuneva","party":"Rep","address":"1702 W Maple Leaf Ct, Mapleton, UT 84664","precinct":"25MA01","hd":"63","v_score":"1.193887297","decile":"3","lat":40.145933930974,"lng":-111.59670977024},{"id":"32170","name":"Adrienne Gulgowski","party":"","address":"1384 N 1000 W, Mapleton, UT 84664","precinct":"25MA01","hd":"63","v_score":"3.102699348","decile":"6","lat":40.142905658468,"lng":-111.590921469532},{"id":"32689","name":"Taj Prosacco","party":"","address":"1555 N 1600 W, Mapleton, UT 84664","precinct":"25MA01","hd":"63","v_score":"2.817000428","decile":"6","lat":40.144343494639,"lng":-111.598091696041},{"id":"33130","name":"Mr. Luca Volkman","party":"","address":"1533 N 800 W, Mapleton, UT 84664","precinct":"25MA01","hd":"63","v_score":"3.781490609","decile":"6","lat":40.144186494115,"lng":-111.588348174622},{"id":"33550","name":"Dr. Chet Kerluke PhD","party":"","address":"430 W 2000 N, Mapleton, UT 84664","precinct":"25MA01","hd":"63","v_score":"19.16525368","decile":"10","lat":40.148607482103,"lng":-111.583802019255},{"id":"34678","name":"Dr. Arthur Hand I","party":"Rep","address":"1410 N 900 W, Mapleton, UT 84664","precinct":"25MA01","hd":"63","v_score":"2.587603312","decile":"5","lat":40.14318194111,"lng":-111.589343516823},{"id":"34779","name":"Hildur Schowalter-Reichert","party":"","address":"1663 N 300 W, Mapleton, UT 84664","precinct":"25MA01","hd":"63","v_score":"9.750280533","decile":"8","lat":40.14547921069,"lng":-111.582303368538},{"id":"34891","name":"Ms. Elna Turner","party":"Dem","address":"1256 N 1600 W, Mapleton, UT 84664","precinct":"25MA01","hd":"63","v_score":"19.30359342","decile":"10","lat":40.141853005258,"lng":-111.597885989879},{"id":"35226","name":"Yessenia Von","party":"","address":"1563 W 2000 N, Mapleton, UT 84664","precinct":"25MA01","hd":"63","v_score":"2.315214949","decile":"5","lat":40.148450713795,"lng":-111.597386344584},{"id":"35284","name":"Pandora Veum","party":"","address":"846 W 1800 N, Mapleton, UT 84664","precinct":"25MA01","hd":"63","v_score":"12.51600754","decile":"9","lat":40.146749390613,"lng":-111.58901877007},{"id":"35459","name":"Dr. Cornie Hane DDS","party":"Rep","address":"1310 W 1600 N, Mapleton, UT 84664","precinct":"25MA01","hd":"63","v_score":"22.12059385","decile":"10","lat":40.1448586516,"lng":-111.594612080237},{"id":"37310","name":"Mrs. Allisson Thompson MD","party":"Dem","address":"1690 N 700 W, Mapleton, UT 84664","precinct":"25MA01","hd":"63","v_score":"16.64754524","decile":"9","lat":40.145692679323,"lng":-111.587090712638},{"id":"38887","name":"Levar Ryan","party":"Rep","address":"768 W 1600 N, Mapleton, UT 84664","precinct":"25MA01","hd":"63","v_score":"20.22868881","decile":"10","lat":40.14489627734,"lng":-111.587887414289},{"id":"39145","name":"Kellie Wehner","party":"","address":"1700 N 1650 W, Mapleton, UT 84664","precinct":"25MA01","hd":"63","v_score":"5.40460374","decile":"7","lat":40.145195393983,"lng":-111.598853721723},{"id":"39552","name":"Lennie Cremin","party":"Dem","address":"1579 W Apple Orchard Ln, Mapleton, UT 84664","precinct":"25MA01","hd":"63","v_score":"3.93832808","decile":"6","lat":40.147406713946,"lng":-111.597786764359},{"id":"39852","name":"Rodolfo Crist","party":"Rep","address":"1495 W 1600 N, Mapleton, UT 84664","precinct":"25MA01","hd":"63","v_score":"5.40460374","decile":"7","lat":40.144731973736,"lng":-111.596744812745},{"id":"39866","name":"Juston Gleason","party":"Dem","address":"1662 W 1200 N, Mapleton, UT 84664","precinct":"25MA01","hd":"63","v_score":"1.121327652","decile":"3","lat":40.141257306113,"lng":-111.598631462275},{"id":"41120","name":"Dianna Carroll MD","party":"Dem","address":"1940 N 700 W, Mapleton, UT 84664","precinct":"25MA01","hd":"63","v_score":"5.191257514","decile":"7","lat":40.147964824648,"lng":-111.5872408336},{"id":"41304","name":"Ms. Merle Douglas DVM","party":"Rep","address":"1764 W 1200 N, Mapleton, UT 84664","precinct":"25MA01","hd":"63","v_score":"1.193887297","decile":"3","lat":40.141257306189,"lng":-111.599636832341},{"id":"41558","name":"Salome Swaniawski","party":"Rep","address":"1351 N 800 W, Mapleton, UT 84664","precinct":"25MA01","hd":"63","v_score":"0","decile":"1","lat":40.142574033114,"lng":-111.588331932685},{"id":"41907","name":"Hailee Goodwin","party":"Dem","address":"1225 N 800 W, Mapleton, UT 84664","precinct":"25MA01","hd":"63","v_score":"11.02844566","decile":"9","lat":40.14150546191,"lng":-111.588324097714},{"id":"41908","name":"Leanne Dietrich","party":"Rep","address":"1384 N 1000 W, Mapleton, UT 84664","precinct":"25MA01","hd":"63","v_score":"5.40460374","decile":"7","lat":40.142905658468,"lng":-111.590921469532},{"id":"42526","name":"Lesta Toy","party":"","address":"1892 N 1350 W, Mapleton, UT 84664","precinct":"25MA01","hd":"63","v_score":"12.51936611","decile":"9","lat":40.147525409707,"lng":-111.59507017796},{"id":"43324","name":"Thedore Erdman","party":"Rep","address":"940 W 1800 N, Mapleton, UT 84664","precinct":"25MA01","hd":"63","v_score":"5.258122542","decile":"7","lat":40.146769612221,"lng":-111.59027857016},{"id":"44242","name":"Cicely O'Conner","party":"","address":"1032 W 1900 N, Mapleton, UT 84664","precinct":"25MA01","hd":"63","v_score":"13.98702554","decile":"9","lat":40.147658775899,"lng":-111.591685297578},{"id":"44270","name":"Eddy McGlynn DVM","party":"","address":"1390 W 2000 N, Mapleton, UT 84664","precinct":"25MA01","hd":"63","v_score":"2.315214949","decile":"5","lat":40.14856530506,"lng":-111.59581965499},{"id":"44339","name":"Zina Dickens","party":"","address":"966 W 1900 N, Mapleton, UT 84664","precinct":"25MA01","hd":"63","v_score":"2.587603312","decile":"5","lat":40.147681283883,"lng":-111.591025134029},{"id":"44390","name":"Arlie Homenick II","party":"","address":"1538 N 900 W, Mapleton, UT 84664","precinct":"25MA01","hd":"63","v_score":"5.331806201","decile":"7","lat":40.144269257806,"lng":-111.589349064216},{"id":"44763","name":"Hilario Lueilwitz","party":"Rep","address":"1237 N 1200 W, Mapleton, UT 84664","precinct":"25MA01","hd":"63","v_score":"10.13721141","decile":"9","lat":40.141583078961,"lng":-111.593280805995},{"id":"45124","name":"Mr. Ashby Legros Jr.","party":"Rep","address":"1892 N 1350 W, Mapleton, UT 84664","precinct":"25MA01","hd":"63","v_score":"1.46627566","decile":"4","lat":40.147525409707,"lng":-111.59507017796},{"id":"46342","name":"Nikko Parisian","party":"Rep","address":"1095 W 2000 N, Mapleton, UT 84664","precinct":"25MA01","hd":"63","v_score":"5.40460374","decile":"7","lat":40.148462714728,"lng":-111.592165031084},{"id":"46596","name":"Luna Batz","party":"Rep","address":"1538 N 900 W, Mapleton, UT 84664","precinct":"25MA01","hd":"63","v_score":"9.545544167","decile":"8","lat":40.144269257806,"lng":-111.589349064216},{"id":"46734","name":"Daphne Beier-Lehner","party":"Rep","address":"1016 W 1900 N, Mapleton, UT 84664","precinct":"25MA01","hd":"63","v_score":"3.93832808","decile":"6","lat":40.147665379469,"lng":-111.591468039599},{"id":"46811","name":"Geneva Runte-Schaden","party":"Rep","address":"1633 N 300 W, Mapleton, UT 84664","precinct":"25MA01","hd":"63","v_score":"3.781490609","decile":"6","lat":40.145209028795,"lng":-111.582306655457},{"id":"47402","name":"Jovita Morar","party":"Rep","address":"876 W 1300 N, Mapleton, UT 84664","precinct":"25MA01","hd":"63","v_score":"31.5296891","decile":"10","lat":40.142247305277,"lng":-111.589111475292},{"id":"47599","name":"Kaia Mayert","party":"Dem","address":"865 W 1800 N, Mapleton, UT 84664","precinct":"25MA01","hd":"63","v_score":"9.843102335","decile":"8","lat":40.146638696746,"lng":-111.589263155651},{"id":"47837","name":"Cleve Pfeffer","party":"Rep","address":"928 W 1900 N, Mapleton, UT 84664","precinct":"25MA01","hd":"63","v_score":"22.62271637","decile":"10","lat":40.147685564758,"lng":-111.590933095064},{"id":"48179","name":"Weaver Fahey V","party":"Dem","address":"1538 N 900 W, Mapleton, UT 84664","precinct":"25MA01","hd":"63","v_score":"2.315214949","decile":"5","lat":40.144269257806,"lng":-111.589349064216},{"id":"49309","name":"Juwan Von","party":"Rep","address":"374 W 2000 N, Mapleton, UT 84664","precinct":"25MA01","hd":"63","v_score":"4.210716443","decile":"7","lat":40.148612336507,"lng":-111.583140599954},{"id":"50249","name":"Lauryn Rowe MD","party":"","address":"1873 N 700 W, Mapleton, UT 84664","precinct":"25MA01","hd":"63","v_score":"15.51131257","decile":"9","lat":40.147371674366,"lng":-111.587380604856},{"id":"50472","name":"Ami Pagac","party":"Rep","address":"720 W 1800 N, Mapleton, UT 84664","precinct":"25MA01","hd":"63","v_score":"0","decile":"1","lat":40.146747304639,"lng":-111.587517281819},{"id":"51107","name":"Ms. Winnifred Schroeder MD","party":"Dem","address":"1776 N 800 W, Mapleton, UT 84664","precinct":"25MA01","hd":"63","v_score":"0","decile":"1","lat":40.146432457282,"lng":-111.588247031328},{"id":"51234","name":"Jon Rippin","party":"Rep","address":"1929 N 600 W, Mapleton, UT 84664","precinct":"25MA01","hd":"63","v_score":"0","decile":"1","lat":40.147886239675,"lng":-111.585932767002},{"id":"51941","name":"Patti Dach DVM","party":"Dem","address":"1016 W 1900 N, Mapleton, UT 84664","precinct":"25MA01","hd":"63","v_score":"5.530510904","decile":"7","lat":40.147665379469,"lng":-111.591468039599},{"id":"52571","name":"Michael Reichel","party":"","address":"465 W 2000 N, Mapleton, UT 84664","precinct":"25MA01","hd":"63","v_score":"1.121327652","decile":"3","lat":40.1484899487,"lng":-111.584202155871},{"id":"53145","name":"Ms. Citlali Hartmann","party":"Rep","address":"1032 W 1900 N, Mapleton, UT 84664","precinct":"25MA01","hd":"63","v_score":"14.74039814","decile":"9","lat":40.147658775899,"lng":-111.591685297578},{"id":"53551","name":"Gaylon Jacobson","party":"","address":"1035 W 1600 N, Mapleton, UT 84664","precinct":"25MA01","hd":"63","v_score":"8.280646305","decile":"8","lat":40.144767220832,"lng":-111.591446889333},{"id":"53848","name":"Elizah Morar","party":"Dem","address":"1729 N 1600 W, Mapleton, UT 84664","precinct":"25MA01","hd":"63","v_score":"17.74888221","decile":"10","lat":40.145970013482,"lng":-111.598089884114},{"id":"53884","name":"Kadeem Luettgen","party":"Rep","address":"949 W 1800 N, Mapleton, UT 84664","precinct":"25MA01","hd":"63","v_score":"2.660162957","decile":"5","lat":40.146656767119,"lng":-111.590388934455},{"id":"54171","name":"Harlow Kreiger-Rolfson","party":"Dem","address":"1478 W 1800 N, Mapleton, UT 84664","precinct":"25MA01","hd":"63","v_score":"2.587603312","decile":"5","lat":40.146713379128,"lng":-111.596412439389},{"id":"54208","name":"Mr. Earlie Monahan I","party":"","address":"1288 W 1500 N, Mapleton, UT 84664","precinct":"25MA01","hd":"63","v_score":"5.40460374","decile":"7","lat":40.144057037309,"lng":-111.594080515351},{"id":"55268","name":"Burr Russel","party":"Rep","address":"1225 W 1600 N, Mapleton, UT 84664","precinct":"25MA01","hd":"63","v_score":"0","decile":"1","lat":40.144749713916,"lng":-111.593613629283},{"id":"55333","name":"Geovanni Roob","party":"Dem","address":"1261 N 1380 W, Mapleton, UT 84664","precinct":"25MA01","hd":"63","v_score":"14.74039814","decile":"9","lat":40.141619914999,"lng":-111.595267347846},{"id":"55433","name":"Mr. Skylar Lueilwitz DVM","party":"Dem","address":"1986 N 1600 W, Mapleton, UT 84664","precinct":"25MA01","hd":"63","v_score":"1.193887297","decile":"3","lat":40.147902883273,"lng":-111.597981866182},{"id":"55608","name":"Admiral Hudson DDS","party":"Dem","address":"1390 W 2000 N, Mapleton, UT 84664","precinct":"25MA01","hd":"63","v_score":"2.817000428","decile":"6","lat":40.14856530506,"lng":-111.59581965499},{"id":"55871","name":"Derik Welch","party":"Rep","address":"1510 N 1600 W, Mapleton, UT 84664","precinct":"25MA01","hd":"63","v_score":"1.121327652","decile":"3","lat":40.144041217177,"lng":-111.597935100126},{"id":"56091","name":"Darrick Flatley","party":"","address":"1892 N 1350 W, Mapleton, UT 84664","precinct":"25MA01","hd":"63","v_score":"0","decile":"1","lat":40.147525409707,"lng":-111.59507017796},{"id":"56097","name":"Sylas Beier V","party":"","address":"1477 N 1600 W, Mapleton, UT 84664","precinct":"25MA01","hd":"63","v_score":"0","decile":"1","lat":40.143669394191,"lng":-111.598076826266},{"id":"56471","name":"Makaila Dietrich DDS","party":"Dem","address":"1355 N 900 W, Mapleton, UT 84664","precinct":"25MA01","hd":"63","v_score":"2.315214949","decile":"5","lat":40.142705793136,"lng":-111.589490989738},{"id":"56891","name":"Ema Torphy","party":"Dem","address":"1210 W 1600 N, Mapleton, UT 84664","precinct":"25MA01","hd":"63","v_score":"15.18126958","decile":"9","lat":40.144865222037,"lng":-111.593452382658},{"id":"57774","name":"Jermain Towne MD","party":"Dem","address":"1345 W 2000 N, Mapleton, UT 84664","precinct":"25MA01","hd":"63","v_score":"1.121327652","decile":"3","lat":40.148451273614,"lng":-111.595093222175},{"id":"58268","name":"Arlis Beier-Kirlin","party":"","address":"515 W 2000 N, Mapleton, UT 84664","precinct":"25MA01","hd":"63","v_score":"0","decile":"1","lat":40.148485047216,"lng":-111.584912245608},{"id":"58339","name":"Jaiden Donnelly DVM","party":"Rep","address":"1084 W 1900 N, Mapleton, UT 84664","precinct":"25MA01","hd":"63","v_score":"0","decile":"1","lat":40.147637314297,"lng":-111.592391386007},{"id":"58361","name":"Ms. Charolette Leannon DDS","party":"Rep","address":"1950 N 1250 W, Mapleton, UT 84664","precinct":"25MA01","hd":"63","v_score":"0","decile":"1","lat":40.148043065158,"lng":-111.593877080231},{"id":"59185","name":"Dori Greenfelder","party":"","address":"1210 W 1600 N, Mapleton, UT 84664","precinct":"25MA01","hd":"63","v_score":"2.315214949","decile":"5","lat":40.144865222037,"lng":-111.593452382658},{"id":"59259","name":"Ryan Bechtelar","party":"","address":"374 W 2000 N, Mapleton, UT 84664","precinct":"25MA01","hd":"63","v_score":"2.744440783","decile":"5","lat":40.148612336507,"lng":-111.583140599954},{"id":"59287","name":"Jaslene Crooks","party":"Dem","address":"1306 W 1200 N, Mapleton, UT 84664","precinct":"25MA01","hd":"63","v_score":"4.064235245","decile":"6","lat":40.14130110944,"lng":-111.594211332741},{"id":"59581","name":"Bart Schultz","party":"Dem","address":"1210 W 1600 N, Mapleton, UT 84664","precinct":"25MA01","hd":"63","v_score":"13.97135325","decile":"9","lat":40.144865222037,"lng":-111.593452382658},{"id":"59593","name":"Dr. Icie Bechtelar DDS","party":"","address":"1872 N 1100 W, Mapleton, UT 84664","precinct":"25MA01","hd":"63","v_score":"3.016591252","decile":"6","lat":40.147314182213,"lng":-111.5925744581},{"id":"60121","name":"Arminda Douglas","party":"Dem","address":"515 W 2000 N, Mapleton, UT 84664","precinct":"25MA01","hd":"63","v_score":"0","decile":"1","lat":40.148485047216,"lng":-111.584912245608},{"id":"60769","name":"Leaner Wehner","party":"Dem","address":"1121 W 1800 N, Mapleton, UT 84664","precinct":"25MA01","hd":"63","v_score":"0","decile":"1","lat":40.146639221048,"lng":-111.592804927322},{"id":"60868","name":"Judd Reilly","party":"Rep","address":"1072 W 1900 N, Mapleton, UT 84664","precinct":"25MA01","hd":"63","v_score":"0","decile":"1","lat":40.147642266974,"lng":-111.592228442524},{"id":"60903","name":"Girtha Armstrong","party":"Rep","address":"1869 N 600 W, Mapleton, UT 84664","precinct":"25MA01","hd":"63","v_score":"5.693042993","decile":"7","lat":40.147373307301,"lng":-111.585929023036},{"id":"60911","name":"Wess Hintz","party":"Dem","address":"1837 N 1250 W, Mapleton, UT 84664","precinct":"25MA01","hd":"63","v_score":"6.52928996","decile":"7","lat":40.147369993369,"lng":-111.594016807198},{"id":"60918","name":"Melbourne Walker DDS","party":"Dem","address":"1039 W 2000 N, Mapleton, UT 84664","precinct":"25MA01","hd":"63","v_score":"1.121327652","decile":"3","lat":40.148463864971,"lng":-111.591477729924},{"id":"61429","name":"Anice Terry","party":"Dem","address":"1825 N Main St, Mapleton, UT 84664","precinct":"25MA01","hd":"63","v_score":"0","decile":"1","lat":40.147099615592,"lng":-111.578899240758},{"id":"61555","name":"Carma Bogisich-Kling","party":"","address":"1401 N 800 W, Mapleton, UT 84664","precinct":"25MA01","hd":"63","v_score":"1.121327652","decile":"3","lat":40.14300288649,"lng":-111.588336902322},{"id":"63053","name":"Darryn Nitzsche-Yundt","party":"","address":"1237 N 1200 W, Mapleton, UT 84664","precinct":"25MA01","hd":"63","v_score":"10.7597751","decile":"9","lat":40.141583078961,"lng":-111.593280805995},{"id":"63296","name":"Illa Runolfsdottir-Sipes","party":"","address":"1032 W 1900 N, Mapleton, UT 84664","precinct":"25MA01","hd":"63","v_score":"11.02844566","decile":"9","lat":40.147658775899,"lng":-111.591685297578},{"id":"63386","name":"Yaritza Reynolds","party":"","address":"2050 N 1600 W, Mapleton, UT 84664","precinct":"25MA01","hd":"63","v_score":"1.121327652","decile":"3","lat":40.148191698172,"lng":-111.597998627722},{"id":"64432","name":"Doshia Funk","party":"Dem","address":"1512 W 1800 N, Mapleton, UT 84664","precinct":"25MA01","hd":"63","v_score":"2.315214949","decile":"5","lat":40.146709676716,"lng":-111.597003503192},{"id":"65180","name":"Fernand Schimmel","party":"Rep","address":"1630 N 1600 W, Mapleton, UT 84664","precinct":"25MA01","hd":"63","v_score":"22.06057786","decile":"10","lat":40.14510379178,"lng":-111.597948338557},{"id":"65697","name":"Florance Little-Reynolds","party":"Dem","address":"938 W 1900 N, Mapleton, UT 84664","precinct":"25MA01","hd":"63","v_score":"5.258122542","decile":"7","lat":40.147684438212,"lng":-111.590957315844},{"id":"66152","name":"Isla Fahey DDS","party":"Rep","address":"1756 N 500 W, Mapleton, UT 84664","precinct":"25MA01","hd":"63","v_score":"9.405332525","decile":"8","lat":40.146268114993,"lng":-111.58457137535},{"id":"66242","name":"Valentine Schmitt","party":"","address":"1010 W 2000 N, Mapleton, UT 84664","precinct":"25MA01","hd":"63","v_score":"2.426006793","decile":"5","lat":40.14857842047,"lng":-111.591499331763},{"id":"66314","name":"Veola Crist","party":"Rep","address":"1690 N 700 W, Mapleton, UT 84664","precinct":"25MA01","hd":"63","v_score":"13.57168065","decile":"9","lat":40.145692679323,"lng":-111.587090712638},{"id":"66436","name":"Mr. Tollie Klein Sr.","party":"Rep","address":"928 W 1900 N, Mapleton, UT 84664","precinct":"25MA01","hd":"63","v_score":"12.92370926","decile":"9","lat":40.147685564758,"lng":-111.590933095064},{"id":"67184","name":"Daryl Spinka-Hammes","party":"Dem","address":"1230 W 1500 N, Mapleton, UT 84664","precinct":"25MA01","hd":"63","v_score":"5.191257514","decile":"7","lat":40.144103083589,"lng":-111.593582342088},{"id":"67529","name":"Damaris VonRueden","party":"Rep","address":"1095 W 2000 N, Mapleton, UT 84664","precinct":"25MA01","hd":"63","v_score":"3.93832808","decile":"6","lat":40.148462714728,"lng":-111.592165031084},{"id":"68020","name":"Mikal Cremin","party":"","address":"833 W 1800 N, Mapleton, UT 84664","precinct":"25MA01","hd":"63","v_score":"1.121327652","decile":"3","lat":40.146631812795,"lng":-111.588834287536},{"id":"68101","name":"Montie Eichmann II","party":"Rep","address":"1310 W 1600 N, Mapleton, UT 84664","precinct":"25MA01","hd":"63","v_score":"1.121327652","decile":"3","lat":40.1448586516,"lng":-111.594612080237},{"id":"69312","name":"Hugo Cormier","party":"","address":"1669 W 1320 N, Mapleton, UT 84664","precinct":"25MA01","hd":"63","v_score":"6.954919332","decile":"8","lat":40.14227347802,"lng":-111.59848671185},{"id":"69462","name":"Atha Daniel","party":"","address":"1465 N 1200 W, Mapleton, UT 84664","precinct":"25MA01","hd":"63","v_score":"2.315214949","decile":"5","lat":40.143665931427,"lng":-111.593315818017},{"id":"69770","name":"Johannah Kunze","party":"Dem","address":"1973 N 600 W, Mapleton, UT 84664","precinct":"25MA01","hd":"63","v_score":"0","decile":"1","lat":40.148255438774,"lng":-111.586014364294},{"id":"69793","name":"Jarett Goyette","party":"Rep","address":"374 W 2000 N, Mapleton, UT 84664","precinct":"25MA01","hd":"63","v_score":"1.121327652","decile":"3","lat":40.148612336507,"lng":-111.583140599954},{"id":"69908","name":"Zachery Stamm-Hackett","party":"Rep","address":"1549 W 1800 N, Mapleton, UT 84664","precinct":"25MA01","hd":"63","v_score":"3.93832808","decile":"6","lat":40.146591999438,"lng":-111.597391552341},{"id":"71531","name":"Tollie Beatty","party":"","address":"1556 N 800 W, Mapleton, UT 84664","precinct":"25MA01","hd":"63","v_score":"9.405332525","decile":"8","lat":40.144402529735,"lng":-111.588200325395},{"id":"72253","name":"Sharyl Schaefer","party":"","address":"1485 W 2000 N, Mapleton, UT 84664","precinct":"25MA01","hd":"63","v_score":"2.315214949","decile":"5","lat":40.148450713695,"lng":-111.59606376862},{"id":"72352","name":"Shellie Wilderman","party":"Rep","address":"1728 N 1600 W, Mapleton, UT 84664","precinct":"25MA01","hd":"63","v_score":"1.121327652","decile":"3","lat":40.145969167182,"lng":-111.597939977332},{"id":"72423","name":"Kadin Braun DDS","party":"","address":"1556 W Apple Orchard Ln, Mapleton, UT 84664","precinct":"25MA01","hd":"63","v_score":"2.315214949","decile":"5","lat":40.147528974433,"lng":-111.597228823726},{"id":"73021","name":"Tyree Botsford","party":"","address":"882 W 1600 N, Mapleton, UT 84664","precinct":"25MA01","hd":"63","v_score":"14.04503691","decile":"9","lat":40.144892877564,"lng":-111.589502415283},{"id":"73063","name":"Dr. Rickey Klocko DVM","party":"","address":"1400 N 1800 W, Mapleton, UT 84664","precinct":"25MA01","hd":"63","v_score":"0","decile":"1","lat":40.142271492112,"lng":-111.600846708835},{"id":"73199","name":"Ms. Sherie Kunze MD","party":"Dem","address":"823 W Merrill Cir, Mapleton, UT 84664","precinct":"25MA01","hd":"63","v_score":"5.191257514","decile":"7","lat":40.147577713233,"lng":-111.588662709209},{"id":"74172","name":"Dr. Alonso Feil","party":"Dem","address":"960 W 1800 N, Mapleton, UT 84664","precinct":"25MA01","hd":"63","v_score":"2.315214949","decile":"5","lat":40.146773914691,"lng":-111.590546612732},{"id":"74358","name":"Gust Schowalter","party":"Rep","address":"1837 N 1250 W, Mapleton, UT 84664","precinct":"25MA01","hd":"63","v_score":"8.955296752","decile":"8","lat":40.147369993369,"lng":-111.594016807198},{"id":"74409","name":"Nila Goodwin","party":"","address":"966 W 1900 N, Mapleton, UT 84664","precinct":"25MA01","hd":"63","v_score":"2.315214949","decile":"5","lat":40.147681283883,"lng":-111.591025134029},{"id":"74460","name":"Marta Lesch","party":"","address":"2050 N 1600 W, Mapleton, UT 84664","precinct":"25MA01","hd":"63","v_score":"2.744440783","decile":"5","lat":40.148191698172,"lng":-111.597998627722},{"id":"74483","name":"Ms. Akeelah Rolfson","party":"","address":"1412 W 1800 N, Mapleton, UT 84664","precinct":"25MA01","hd":"63","v_score":"1.193887297","decile":"3","lat":40.146718897489,"lng":-111.595386009768},{"id":"74674","name":"Shelia Osinski","party":"","address":"1035 W 1600 N, Mapleton, UT 84664","precinct":"25MA01","hd":"63","v_score":"2.744440783","decile":"5","lat":40.144767220832,"lng":-111.591446889333},{"id":"74951","name":"Lennie Barton","party":"Dem","address":"1897 N 1250 W, Mapleton, UT 84664","precinct":"25MA01","hd":"63","v_score":"9.830961897","decile":"8","lat":40.148423919371,"lng":-111.594032775636},{"id":"75039","name":"Altie Terry","party":"Rep","address":"1662 W 1200 N, Mapleton, UT 84664","precinct":"25MA01","hd":"63","v_score":"2.315214949","decile":"5","lat":40.141257306113,"lng":-111.598631462275},{"id":"75161","name":"Ms. Gisele Vandervort","party":"","address":"1472 N 900 W, Mapleton, UT 84664","precinct":"25MA01","hd":"63","v_score":"2.817000428","decile":"6","lat":40.143708610135,"lng":-111.589346203841},{"id":"75240","name":"Dr. Maegan Heaney","party":"Dem","address":"1225 N 1380 W, Mapleton, UT 84664","precinct":"25MA01","hd":"63","v_score":"2.315214949","decile":"5","lat":40.141418483084,"lng":-111.595266839206},{"id":"75631","name":"Tex Mosciski II","party":"Rep","address":"1889 N 1100 W, Mapleton, UT 84664","precinct":"25MA01","hd":"63","v_score":"1.121327652","decile":"3","lat":40.147436650891,"lng":-111.592726273392},{"id":"76451","name":"Johny Auer","party":"","address":"1130 W 1200 N, Mapleton, UT 84664","precinct":"25MA01","hd":"63","v_score":"2.315214949","decile":"5","lat":40.141313919645,"lng":-111.592342328467},{"id":"78585","name":"Miss Samira Lakin PhD","party":"","address":"20 W 2000 N, Mapleton, UT 84664","precinct":"25MA01","hd":"63","v_score":"2.315214949","decile":"5","lat":40.134198696109,"lng":-111.554931705761},{"id":"80392","name":"Idabelle Eichmann","party":"Dem","address":"960 W 1800 N, Mapleton, UT 84664","precinct":"25MA01","hd":"63","v_score":"1.121327652","decile":"3","lat":40.146773914691,"lng":-111.590546612732},{"id":"80435","name":"Monserrat Kovacek","party":"","address":"1825 N Main St, Mapleton, UT 84664","precinct":"25MA01","hd":"63","v_score":"2.315214949","decile":"5","lat":40.147099615592,"lng":-111.578899240758},{"id":"80568","name":"Gilda Rodriguez","party":"","address":"1619 W 1320 N, Mapleton, UT 84664","precinct":"25MA01","hd":"63","v_score":"1.121327652","decile":"3","lat":40.142275512656,"lng":-111.598163200881},{"id":"80651","name":"Marisol Tromp","party":"","address":"1940 N 700 W, Mapleton, UT 84664","precinct":"25MA01","hd":"63","v_score":"5.191257514","decile":"7","lat":40.147964824648,"lng":-111.5872408336},{"id":"81356","name":"Sofia Bode","party":"Dem","address":"1225 W 1600 N, Mapleton, UT 84664","precinct":"25MA01","hd":"63","v_score":"0","decile":"1","lat":40.144749713916,"lng":-111.593613629283},{"id":"81431","name":"Dr. Jarrett Jacobson V","party":"Dem","address":"1357 W 1800 N, Mapleton, UT 84664","precinct":"25MA01","hd":"63","v_score":"0","decile":"1","lat":40.146604673798,"lng":-111.595317092302},{"id":"82777","name":"Dr. Bryanna Ryan PhD","party":"Rep","address":"243 W 2000 N, Mapleton, UT 84664","precinct":"25MA01","hd":"63","v_score":"0","decile":"1","lat":40.148518142722,"lng":-111.581454711742},{"id":"83807","name":"Denzel Runolfsson","party":"Dem","address":"1355 N 900 W, Mapleton, UT 84664","precinct":"25MA01","hd":"63","v_score":"0","decile":"1","lat":40.142705793136,"lng":-111.589490989738},{"id":"84807","name":"Bernard Hagenes","party":"","address":"1306 W 1200 N, Mapleton, UT 84664","precinct":"25MA01","hd":"63","v_score":"0","decile":"1","lat":40.14130110944,"lng":-111.594211332741},{"id":"84835","name":"Mikhail Kshlerin","party":"Dem","address":"1864 N 1350 W, Mapleton, UT 84664","precinct":"25MA01","hd":"63","v_score":"2.817000428","decile":"6","lat":40.147280703067,"lng":-111.595064150735},{"id":"84983","name":"Mr. Colter Prohaska III","party":"Rep","address":"1412 W 1800 N, Mapleton, UT 84664","precinct":"25MA01","hd":"63","v_score":"0","decile":"1","lat":40.146718897489,"lng":-111.595386009768},{"id":"85552","name":"Andon Johnston-Hoppe","party":"Dem","address":"450 W 2000 N, Mapleton, UT 84664","precinct":"25MA01","hd":"63","v_score":"0","decile":"1","lat":40.148605748388,"lng":-111.584038240434},{"id":"85580","name":"Tracee Kub","party":"Rep","address":"1050 W 2000 N, Mapleton, UT 84664","precinct":"25MA01","hd":"63","v_score":"1.193887297","decile":"3","lat":40.148577571481,"lng":-111.592006625476},{"id":"85784","name":"Citlalli Wilkinson","party":"","address":"1225 N 800 W, Mapleton, UT 84664","precinct":"25MA01","hd":"63","v_score":"1.193887297","decile":"3","lat":40.14150546191,"lng":-111.588324097714},{"id":"86358","name":"Vicy West","party":"Rep","address":"865 W 1800 N, Mapleton, UT 84664","precinct":"25MA01","hd":"63","v_score":"1.193887297","decile":"4","lat":40.146638696746,"lng":-111.589263155651},{"id":"86438","name":"Dr. Alphonse Ondricka","party":"Rep","address":"873 W Merrill Cir, Mapleton, UT 84664","precinct":"25MA01","hd":"63","v_score":"3.711952487","decile":"6","lat":40.147577713253,"lng":-111.588923722888},{"id":"87145","name":"Valentine Mitchell","party":"","address":"876 W 1300 N, Mapleton, UT 84664","precinct":"25MA01","hd":"63","v_score":"18.88777439","decile":"10","lat":40.142247305277,"lng":-111.589111475292},{"id":"87183","name":"Dr. Ham Lowe V","party":"Dem","address":"1864 N 1350 W, Mapleton, UT 84664","precinct":"25MA01","hd":"63","v_score":"2.817000428","decile":"6","lat":40.147280703067,"lng":-111.595064150735},{"id":"87221","name":"Lorie Renner-Dach","party":"","address":"1542 W 1800 N, Mapleton, UT 84664","precinct":"25MA01","hd":"63","v_score":"12.92370926","decile":"9","lat":40.146707099984,"lng":-111.597328174468},{"id":"87578","name":"Deandra Wisoky","party":"Dem","address":"1864 N 1350 W, Mapleton, UT 84664","precinct":"25MA01","hd":"63","v_score":"0","decile":"1","lat":40.147280703067,"lng":-111.595064150735},{"id":"87922","name":"Rahul Boyle","party":"Rep","address":"435 W 2000 N, Mapleton, UT 84664","precinct":"25MA01","hd":"63","v_score":"1.193887297","decile":"4","lat":40.148492549273,"lng":-111.583847824103},{"id":"88403","name":"Baron Langosh","party":"Rep","address":"1760 N 1250 W, Mapleton, UT 84664","precinct":"25MA01","hd":"63","v_score":"0","decile":"1","lat":40.146440513956,"lng":-111.593860662703},{"id":"88465","name":"Dr. Lyric Bauch","party":"Rep","address":"1542 W 1800 N, Mapleton, UT 84664","precinct":"25MA01","hd":"63","v_score":"9.907118004","decile":"8","lat":40.146707099984,"lng":-111.597328174468},{"id":"88804","name":"Mr. Wilburn Eichmann III","party":"Rep","address":"1869 N 600 W, Mapleton, UT 84664","precinct":"25MA01","hd":"63","v_score":"0","decile":"1","lat":40.147373307301,"lng":-111.585929023036},{"id":"89039","name":"Leonidas Marquardt-Fay","party":"Dem","address":"1443 W 1400 N, Mapleton, UT 84664","precinct":"25MA01","hd":"63","v_score":"1.193887297","decile":"4","lat":40.142951714307,"lng":-111.595806398831},{"id":"89696","name":"Elena Lind-Stokes","party":"Rep","address":"1744 N 800 W, Mapleton, UT 84664","precinct":"25MA01","hd":"63","v_score":"0","decile":"1","lat":40.146152478725,"lng":-111.588239254182},{"id":"90375","name":"Reilly Pagac","party":"Rep","address":"1662 W 1200 N, Mapleton, UT 84664","precinct":"25MA01","hd":"63","v_score":"1.193887297","decile":"4","lat":40.141257306113,"lng":-111.598631462275},{"id":"90739","name":"Mettie Dooley","party":"","address":"652 W 1600 N, Mapleton, UT 84664","precinct":"25MA01","hd":"63","v_score":"1.623113131","decile":"5","lat":40.144904559651,"lng":-111.586542547687},{"id":"91414","name":"Mammie Gorczany","party":"Dem","address":"1733 N 1250 W, Mapleton, UT 84664","precinct":"25MA01","hd":"63","v_score":"0","decile":"1","lat":40.146307623555,"lng":-111.594012918561},{"id":"91826","name":"Terrence Kuphal IV","party":"Rep","address":"1035 W 1600 N, Mapleton, UT 84664","precinct":"25MA01","hd":"63","v_score":"0","decile":"1","lat":40.144767220832,"lng":-111.591446889333},{"id":"91865","name":"Mai Streich","party":"Dem","address":"1010 W 2000 N, Mapleton, UT 84664","precinct":"25MA01","hd":"63","v_score":"0","decile":"1","lat":40.14857842047,"lng":-111.591499331763},{"id":"92525","name":"Hallie Baumbach-Moen","party":"","address":"1631 N 1000 W, Mapleton, UT 84664","precinct":"25MA01","hd":"63","v_score":"0","decile":"1","lat":40.145176919663,"lng":-111.591108844874},{"id":"92889","name":"Myranda Bogan","party":"Rep","address":"1920 N 1250 W, Mapleton, UT 84664","precinct":"25MA01","hd":"63","v_score":"0","decile":"1","lat":40.147782245087,"lng":-111.593873128446},{"id":"93151","name":"Marilyn Heathcote-Howell","party":"","address":"1032 W 1900 N, Mapleton, UT 84664","precinct":"25MA01","hd":"63","v_score":"13.61907049","decile":"9","lat":40.147658775899,"lng":-111.591685297578},{"id":"94246","name":"Alida Collier PhD","party":"","address":"1675 N 1000 W, Mapleton, UT 84664","precinct":"25MA01","hd":"63","v_score":"1.193887297","decile":"4","lat":40.145610389696,"lng":-111.591137202668},{"id":"94998","name":"Dr. Burnice Green DDS","party":"","address":"1618 N 500 W, Mapleton, UT 84664","precinct":"25MA01","hd":"63","v_score":"2.817000428","decile":"6","lat":40.145071672969,"lng":-111.58454595431},{"id":"96115","name":"Mrs. Lura Hickle","party":"","address":"1425 N 1200 W, Mapleton, UT 84664","precinct":"25MA01","hd":"63","v_score":"1.623113131","decile":"5","lat":40.143268209942,"lng":-111.59330924416},{"id":"96189","name":"Dr. Glenda Adams","party":"","address":"1749 N 800 W, Mapleton, UT 84664","precinct":"25MA01","hd":"63","v_score":"0","decile":"1","lat":40.146185043424,"lng":-111.588390101349},{"id":"96227","name":"Dr. Frederick Kling DVM","party":"","address":"1355 N 900 W, Mapleton, UT 84664","precinct":"25MA01","hd":"63","v_score":"0","decile":"1","lat":40.142705793136,"lng":-111.589490989738},{"id":"96444","name":"Karly Blick","party":"Rep","address":"1967 N 700 W, Mapleton, UT 84664","precinct":"25MA01","hd":"63","v_score":"0","decile":"1","lat":40.148189544283,"lng":-111.587394609371},{"id":"96469","name":"Lelia Berge","party":"Rep","address":"1478 N 1000 W, Mapleton, UT 84664","precinct":"25MA01","hd":"63","v_score":"0","decile":"1","lat":40.143724594524,"lng":-111.59092764231},{"id":"96725","name":"Sarrah Klein","party":"Rep","address":"1749 N 800 W, Mapleton, UT 84664","precinct":"25MA01","hd":"63","v_score":"1.193887297","decile":"4","lat":40.146185043424,"lng":-111.588390101349},{"id":"97107","name":"Breanna Beatty","party":"Dem","address":"1410 W 1200 N, Mapleton, UT 84664","precinct":"25MA01","hd":"63","v_score":"1.193887297","decile":"4","lat":40.141282018561,"lng":-111.595398948989},{"id":"97266","name":"Hadassah Kautzer-Raynor","party":"Rep","address":"1067 W 1600 N, Mapleton, UT 84664","precinct":"25MA01","hd":"63","v_score":"2.817000428","decile":"6","lat":40.144765276162,"lng":-111.591787211009},{"id":"97282","name":"Scot Considine","party":"","address":"1538 N 900 W, Mapleton, UT 84664","precinct":"25MA01","hd":"63","v_score":"1.193887297","decile":"4","lat":40.144269257806,"lng":-111.589349064216},{"id":"97297","name":"Simeon Brekke","party":"Rep","address":"873 W Merrill Cir, Mapleton, UT 84664","precinct":"25MA01","hd":"63","v_score":"7.031075439","decile":"8","lat":40.147577713253,"lng":-111.588923722888},{"id":"100617","name":"Brynn Eichmann","party":"","address":"876 W 1300 N, Mapleton, UT 84664","precinct":"25MA01","hd":"63","v_score":"8.284004873","decile":"8","lat":40.142247305277,"lng":-111.589111475292},{"id":"101122","name":"Luanne Wunsch MD","party":"Rep","address":"1511 W Apple Orchard Ln, Mapleton, UT 84664","precinct":"25MA01","hd":"63","v_score":"0","decile":"2","lat":40.147412775476,"lng":-111.597220023997},{"id":"101725","name":"Erykah King","party":"Rep","address":"1130 W 1200 N, Mapleton, UT 84664","precinct":"25MA01","hd":"63","v_score":"1.193887297","decile":"4","lat":40.141313919645,"lng":-111.592342328467},{"id":"101734","name":"True Bartoletti DVM","party":"Dem","address":"1889 N 1100 W, Mapleton, UT 84664","precinct":"25MA01","hd":"63","v_score":"1.193887297","decile":"4","lat":40.147436650891,"lng":-111.592726273392},{"id":"104288","name":"Miss Ciarra Kilback MD","party":"","address":"1869 N 1350 W, Mapleton, UT 84664","precinct":"25MA01","hd":"63","v_score":"1.193887297","decile":"4","lat":40.147313504083,"lng":-111.595214896116},{"id":"105069","name":"Dr. Rhoda Williamson","party":"Dem","address":"873 W Merrill Cir, Mapleton, UT 84664","precinct":"25MA01","hd":"63","v_score":"4.214075011","decile":"7","lat":40.147577713253,"lng":-111.588923722888},{"id":"106611","name":"Luca Vandervort","party":"Dem","address":"1625 N 1650 W, Mapleton, UT 84664","precinct":"25MA01","hd":"63","v_score":"1.193887297","decile":"4","lat":40.144917634563,"lng":-111.599002136435},{"id":"106766","name":"Yolonda Schamberger","party":"","address":"1460 N 1600 W, Mapleton, UT 84664","precinct":"25MA01","hd":"63","v_score":"0","decile":"2","lat":40.143652313073,"lng":-111.59792652141},{"id":"106937","name":"Thompson Purdy","party":"Rep","address":"1511 Apple Orchard Ln, Mapleton, UT 84664","precinct":"25MA01","hd":"63","v_score":"0","decile":"2","lat":40.147412775476,"lng":-111.597220023997},{"id":"107686","name":"Reta Grimes-Roob","party":"Dem","address":"1625 N 1650 W, Mapleton, UT 84664","precinct":"25MA01","hd":"63","v_score":"0","decile":"2","lat":40.144917634563,"lng":-111.599002136435},{"id":"107929","name":"Nicholas Borer-Miller","party":"","address":"909 W 2000 N, Mapleton, UT 84664","precinct":"25MA01","hd":"63","v_score":"0","decile":"2","lat":40.148466535177,"lng":-111.589882209374},{"id":"108154","name":"Dr. Allen Franecki","party":"Dem","address":"1826 N 300 W, Mapleton, UT 84664","precinct":"25MA01","hd":"63","v_score":"0","decile":"2","lat":40.146955139445,"lng":-111.582135499591},{"id":"108767","name":"Grayling Block","party":"Dem","address":"1826 N 300 W, Mapleton, UT 84664","precinct":"25MA01","hd":"63","v_score":"7.090117576","decile":"8","lat":40.146955139445,"lng":-111.582135499591},{"id":"108972","name":"Alyvia Lang","party":"","address":"1675 N 1000 W, Mapleton, UT 84664","precinct":"25MA01","hd":"63","v_score":"0","decile":"2","lat":40.145610389696,"lng":-111.591137202668},{"id":"109132","name":"Sheryl McDermott","party":"Rep","address":"1869 N 600 W, Mapleton, UT 84664","precinct":"25MA01","hd":"63","v_score":"0","decile":"2","lat":40.147373307301,"lng":-111.585929023036},{"id":"109372","name":"Ken Connelly","party":"","address":"1762 N 700 W, Mapleton, UT 84664","precinct":"25MA01","hd":"63","v_score":"0","decile":"2","lat":40.14632201229,"lng":-111.587145971056},{"id":"109505","name":"Erin Gislason","party":"Dem","address":"1357 W 1800 N, Mapleton, UT 84664","precinct":"25MA01","hd":"63","v_score":"8.284004873","decile":"8","lat":40.146604673798,"lng":-111.595317092302},{"id":"109622","name":"Wilmer Moen","party":"","address":"1495 W 1600 N, Mapleton, UT 84664","precinct":"25MA01","hd":"63","v_score":"1.193887297","decile":"4","lat":40.144731973736,"lng":-111.596744812745},{"id":"109684","name":"Dr. Demario Oberbrunner Jr.","party":"Rep","address":"1563 W 2000 N, Mapleton, UT 84664","precinct":"25MA01","hd":"63","v_score":"1.193887297","decile":"4","lat":40.148450713795,"lng":-111.597386344584},{"id":"109877","name":"Dr. Kiana Bruen","party":"","address":"1636 N 400 W, Mapleton, UT 84664","precinct":"25MA01","hd":"63","v_score":"0","decile":"2","lat":40.145193440609,"lng":-111.583461134914},{"id":"109962","name":"Merrill Auer","party":"Rep","address":"1294 W 1400 N, Mapleton, UT 84664","precinct":"25MA01","hd":"63","v_score":"0","decile":"2","lat":40.143035486622,"lng":-111.594162552373},{"id":"110072","name":"Darcie Douglas","party":"Rep","address":"949 W 1800 N, Mapleton, UT 84664","precinct":"25MA01","hd":"63","v_score":"0","decile":"2","lat":40.146656767119,"lng":-111.590388934455},{"id":"111707","name":"Vernie Tremblay-Homenick","party":"","address":"1067 W 1600 N, Mapleton, UT 84664","precinct":"25MA01","hd":"63","v_score":"0","decile":"2","lat":40.144765276162,"lng":-111.591787211009},{"id":"111964","name":"Cathrine Maggio PhD","party":"Dem","address":"1864 N 1350 W, Mapleton, UT 84664","precinct":"25MA01","hd":"63","v_score":"0","decile":"2","lat":40.147280703067,"lng":-111.595064150735},{"id":"112420","name":"Luna Dickinson-Larkin","party":"","address":"1886 N 300 W, Mapleton, UT 84664","precinct":"25MA01","hd":"63","v_score":"1.193887297","decile":"4","lat":40.147495503235,"lng":-111.582128925754},{"id":"112820","name":"Hayley Hand-Muller","party":"","address":"1542 W 1800 N, Mapleton, UT 84664","precinct":"25MA01","hd":"63","v_score":"7.090117576","decile":"8","lat":40.146707099984,"lng":-111.597328174468},{"id":"114369","name":"Lavern Hoppe","party":"","address":"1336 N 1000 W, Mapleton, UT 84664","precinct":"25MA01","hd":"63","v_score":"4.069929862","decile":"7","lat":40.142487478355,"lng":-111.590918317474},{"id":"114985","name":"Aurilla Breitenberg","party":"","address":"1605 W 1600 N, Mapleton, UT 84664","precinct":"25MA01","hd":"63","v_score":"1.193887297","decile":"4","lat":40.144723344622,"lng":-111.59816288043},{"id":"116265","name":"Dr. Kristyn Heathcote","party":"Rep","address":"928 W 1900 N, Mapleton, UT 84664","precinct":"25MA01","hd":"63","v_score":"8.284004873","decile":"8","lat":40.147685564758,"lng":-111.590933095064},{"id":"116336","name":"Crawford Quitzon-Padberg","party":"Dem","address":"1018 W 1700 N, Mapleton, UT 84664","precinct":"25MA01","hd":"63","v_score":"5.407962308","decile":"7","lat":40.145960425762,"lng":-111.591403879197},{"id":"116669","name":"Marlee Champlin","party":"Rep","address":"1619 W 1320 N, Mapleton, UT 84664","precinct":"25MA01","hd":"63","v_score":"1.193887297","decile":"4","lat":40.142275512656,"lng":-111.598163200881},{"id":"117042","name":"Mrs. Jinnie Cormier DVM","party":"Dem","address":"964 W 1600 N, Mapleton, UT 84664","precinct":"25MA01","hd":"63","v_score":"1.193887297","decile":"4","lat":40.14488711765,"lng":-111.590516173473},{"id":"118247","name":"Mrs. Nyla Kunze","party":"","address":"865 W 1800 N, Mapleton, UT 84664","precinct":"25MA01","hd":"63","v_score":"1.193887297","decile":"4","lat":40.146638696746,"lng":-111.589263155651},{"id":"118281","name":"Sandy Wilkinson","party":"Rep","address":"1478 N 1000 W, Mapleton, UT 84664","precinct":"25MA01","hd":"63","v_score":"1.193887297","decile":"4","lat":40.143724594524,"lng":-111.59092764231},{"id":"118622","name":"Dr. Effie O'Kon","party":"Rep","address":"1089 W 1800 N, Mapleton, UT 84664","precinct":"25MA01","hd":"63","v_score":"1.193887297","decile":"4","lat":40.146645552678,"lng":-111.592424681549},{"id":"120399","name":"Mr. Iva Wintheiser","party":"","address":"1625 N 1650 W, Mapleton, UT 84664","precinct":"25MA01","hd":"63","v_score":"1.193887297","decile":"4","lat":40.144917634563,"lng":-111.599002136435},{"id":"121268","name":"Trinity Hayes","party":"Dem","address":"1310 W 1600 N, Mapleton, UT 84664","precinct":"25MA01","hd":"63","v_score":"2.876042565","decile":"6","lat":40.1448586516,"lng":-111.594612080237},{"id":"123212","name":"Azariah Bogan-Boyle","party":"","address":"909 W 2000 N, Mapleton, UT 84664","precinct":"25MA01","hd":"63","v_score":"1.193887297","decile":"4","lat":40.148466535177,"lng":-111.589882209374},{"id":"123403","name":"Dr. Gertha Frami","party":"Rep","address":"1691 N 1600 W, Mapleton, UT 84664","precinct":"25MA01","hd":"63","v_score":"1.193887297","decile":"4","lat":40.145634459755,"lng":-111.598093126222},{"id":"123405","name":"Len Cruickshank-Hudson","party":"Rep","address":"1691 N 1600 W, Mapleton, UT 84664","precinct":"25MA01","hd":"63","v_score":"1.193887297","decile":"4","lat":40.145634459755,"lng":-111.598093126222},{"id":"123761","name":"Jedediah Berge","party":"","address":"1700 N 1650 W, Mapleton, UT 84664","precinct":"25MA01","hd":"63","v_score":"1.193887297","decile":"4","lat":40.145195393983,"lng":-111.598853721723},{"id":"123904","name":"Kerrie Kshlerin","party":"Dem","address":"1825 N Main St, Mapleton, UT 84664","precinct":"25MA01","hd":"63","v_score":"8.284004873","decile":"8","lat":40.147099615592,"lng":-111.578899240758},{"id":"124473","name":"Lenna Stokes","party":"Rep","address":"1605 W 1600 N, Mapleton, UT 84664","precinct":"25MA01","hd":"63","v_score":"0","decile":"2","lat":40.144723344622,"lng":-111.59816288043},{"id":"126189","name":"Izabella Medhurst","party":"","address":"1760 N 1250 W, Mapleton, UT 84664","precinct":"25MA01","hd":"63","v_score":"0","decile":"2","lat":40.146440513956,"lng":-111.593860662703},{"id":"126196","name":"Madisen Pacocha","party":"Rep","address":"1067 W 1600 N, Mapleton, UT 84664","precinct":"25MA01","hd":"63","v_score":"0","decile":"2","lat":40.144765276162,"lng":-111.591787211009},{"id":"127134","name":"Ms. Angel McLaughlin","party":"Dem","address":"766 W 1800 N, Mapleton, UT 84664","precinct":"25MA01","hd":"63","v_score":"4.214075011","decile":"7","lat":40.146743965073,"lng":-111.587953227683},{"id":"127215","name":"Gavyn Ruecker","party":"","address":"120 W 1600 N, Mapleton, UT 84664","precinct":"25MA01","hd":"63","v_score":"0","decile":"2","lat":40.144946492919,"lng":-111.580097238866},{"id":"130135","name":"Margaretta McGlynn","party":"Rep","address":"1310 W 1600 N, Mapleton, UT 84664","precinct":"25MA01","hd":"63","v_score":"2.876042565","decile":"6","lat":40.1448586516,"lng":-111.594612080237},{"id":"131713","name":"Jarett Grant-Hartmann","party":"Dem","address":"1886 N 300 W, Mapleton, UT 84664","precinct":"25MA01","hd":"63","v_score":"0","decile":"2","lat":40.147495503235,"lng":-111.582128925754},{"id":"131812","name":"Dr. Chessie Zboncak DVM","party":"","address":"300 W 2000 N, Mapleton, UT 84664","precinct":"25MA01","hd":"63","v_score":"0","decile":"2","lat":40.148618751255,"lng":-111.582266581593},{"id":"131829","name":"Ms. Aline Becker","party":"Dem","address":"1076 W 1800 N, Mapleton, UT 84664","precinct":"25MA01","hd":"63","v_score":"2.876042565","decile":"6","lat":40.146763090024,"lng":-111.592261952729},{"id":"132266","name":"Micayla Emmerich","party":"Rep","address":"1762 N 700 W, Mapleton, UT 84664","precinct":"25MA01","hd":"63","v_score":"0","decile":"2","lat":40.14632201229,"lng":-111.587145971056},{"id":"132936","name":"Franc Prosacco","party":"Rep","address":"1538 Apple Orchard Ln, Mapleton, UT 84664","precinct":"25MA01","hd":"63","v_score":"0","decile":"2","lat":40.147516074126,"lng":-111.596933377728},{"id":"133028","name":"Teresa Pagac DVM","party":"","address":"1824 N 600 W, Mapleton, UT 84664","precinct":"25MA01","hd":"63","v_score":"0","decile":"2","lat":40.146997796238,"lng":-111.585776368726},{"id":"133968","name":"Wallace Corkery","party":"Rep","address":"885 W 1800 N, Mapleton, UT 84664","precinct":"25MA01","hd":"63","v_score":"0","decile":"2","lat":40.146642999216,"lng":-111.589531198224},{"id":"134288","name":"Dr. Evette Goodwin","party":"","address":"1619 W 1320 N, Mapleton, UT 84664","precinct":"25MA01","hd":"63","v_score":"0","decile":"2","lat":40.142275512656,"lng":-111.598163200881},{"id":"134773","name":"Rayford Wisozk","party":"Dem","address":"1267 W 1400 N, Mapleton, UT 84664","precinct":"25MA01","hd":"63","v_score":"14.18213378","decile":"9","lat":40.142915714167,"lng":-111.593910384154},{"id":"136152","name":"Evangeline Waters","party":"Dem","address":"1675 N 1000 W, Mapleton, UT 84664","precinct":"25MA01","hd":"63","v_score":"2.587603312","decile":"5","lat":40.145610389696,"lng":-111.591137202668},{"id":"136371","name":"Michael Lynch","party":"Rep","address":"730 W 1400 N, Mapleton, UT 84664","precinct":"25MA01","hd":"63","v_score":"1.193887297","decile":"4","lat":40.143015345088,"lng":-111.587464495268},{"id":"138387","name":"Callie Torp","party":"","address":"1512 W 1800 N, Mapleton, UT 84664","precinct":"25MA01","hd":"63","v_score":"26.81820485","decile":"10","lat":40.146709676716,"lng":-111.597003503192},{"id":"139367","name":"Ardith Frami","party":"Rep","address":"1525 W 1600 N, Mapleton, UT 84664","precinct":"25MA01","hd":"63","v_score":"1.193887297","decile":"4","lat":40.144730002605,"lng":-111.597092722019},{"id":"139985","name":"Annabella Luettgen","party":"","address":"1605 W 1600 N, Mapleton, UT 84664","precinct":"25MA01","hd":"63","v_score":"3.781490609","decile":"6","lat":40.144723344622,"lng":-111.59816288043},{"id":"140952","name":"Fulton Pouros","party":"Dem","address":"1618 N 500 W, Mapleton, UT 84664","precinct":"25MA01","hd":"63","v_score":"2.817000428","decile":"6","lat":40.145071672969,"lng":-111.58454595431},{"id":"141133","name":"Louie Volkman","party":"","address":"64 W 2000 N, Mapleton, UT 84664","precinct":"25MA01","hd":"63","v_score":"2.315214949","decile":"5","lat":40.134328554328,"lng":-111.554926646333},{"id":"142220","name":"Teena Cronin MD","party":"","address":"1630 N 1650 W, Mapleton, UT 84664","precinct":"25MA01","hd":"63","v_score":"12.71559837","decile":"9","lat":40.144939996689,"lng":-111.598852348653},{"id":"142494","name":"Mr. Henry Walker III","party":"","address":"1443 W 1400 N, Mapleton, UT 84664","precinct":"25MA01","hd":"63","v_score":"16.73008255","decile":"9","lat":40.142951714307,"lng":-111.595806398831},{"id":"142940","name":"Dr. Garret Stokes II","party":"","address":"1357 W 1800 N, Mapleton, UT 84664","precinct":"25MA01","hd":"63","v_score":"14.74039814","decile":"9","lat":40.146604673798,"lng":-111.595317092302},{"id":"142980","name":"Cale Beatty","party":"","address":"873 W Merrill Cir, Mapleton, UT 84664","precinct":"25MA01","hd":"63","v_score":"26.40153388","decile":"10","lat":40.147577713253,"lng":-111.588923722888},{"id":"143077","name":"Ciji Hoeger-Okuneva","party":"","address":"1357 W 1800 N, Mapleton, UT 84664","precinct":"25MA01","hd":"63","v_score":"11.02844566","decile":"9","lat":40.146604673798,"lng":-111.595317092302},{"id":"143623","name":"Shara Hudson","party":"","address":"1035 W 1600 N, Mapleton, UT 84664","precinct":"25MA01","hd":"63","v_score":"10.15822798","decile":"9","lat":40.144767220832,"lng":-111.591446889333},{"id":"143630","name":"Geneva Casper","party":"Rep","address":"1460 N 1600 W, Mapleton, UT 84664","precinct":"25MA01","hd":"63","v_score":"19.99899426","decile":"10","lat":40.143652313073,"lng":-111.59792652141},{"id":"143698","name":"Mr. Ab Reinger I","party":"Rep","address":"1400 N 1800 W, Mapleton, UT 84664","precinct":"25MA01","hd":"63","v_score":"1.623113131","decile":"5","lat":40.142271492112,"lng":-111.600846708835},{"id":"143726","name":"Mrs. Georgiann Labadie DDS","party":"Rep","address":"1442 W 1800 N, Mapleton, UT 84664","precinct":"25MA01","hd":"63","v_score":"21.15644071","decile":"10","lat":40.146716389143,"lng":-111.595852568686},{"id":"144674","name":"Peyton Hauck","party":"Rep","address":"1502 N 900 W, Mapleton, UT 84664","precinct":"25MA01","hd":"63","v_score":"14.74039814","decile":"9","lat":40.143963449985,"lng":-111.589347504012},{"id":"146835","name":"Connor Lindgren","party":"Rep","address":"1443 W 1400 N, Mapleton, UT 84664","precinct":"25MA01","hd":"63","v_score":"12.51600754","decile":"9","lat":40.142951714307,"lng":-111.595806398831},{"id":"147101","name":"Miss Alina Lowe","party":"","address":"1371 N 700 W, Mapleton, UT 84664","precinct":"25MA01","hd":"63","v_score":"0","decile":"3","lat":40.142680640645,"lng":-111.587140878551},{"id":"147620","name":"Deshawn Stanton","party":"","address":"1265 N 700 W, Mapleton, UT 84664","precinct":"25MA01","hd":"63","v_score":"16.2066738","decile":"9","lat":40.141826531121,"lng":-111.587131888036},{"id":"147754","name":"Rodrigo Ruecker","party":"","address":"1345 W 2000 N, Mapleton, UT 84664","precinct":"25MA01","hd":"63","v_score":"26.33466886","decile":"10","lat":40.148451273614,"lng":-111.595093222175},{"id":"147934","name":"Baxter Johns MD","party":"Dem","address":"1301 N 700 W, Mapleton, UT 84664","precinct":"25MA01","hd":"63","v_score":"26.33466886","decile":"10","lat":40.142116606054,"lng":-111.587134941418},{"id":"148013","name":"Butch Reichert-Hermann","party":"Dem","address":"1301 N 700 W, Mapleton, UT 84664","precinct":"25MA01","hd":"63","v_score":"26.33466886","decile":"10","lat":40.142116606054,"lng":-111.587134941418},{"id":"148204","name":"Miss Natalia Kautzer MD","party":"Dem","address":"740 W 1200 N, Mapleton, UT 84664","precinct":"25MA01","hd":"63","v_score":"12.49472132","decile":"9","lat":40.141307525529,"lng":-111.587553981782},{"id":"148327","name":"Mirna Wisoky","party":"Rep","address":"1629 W 1600 N, Mapleton, UT 84664","precinct":"25MA01","hd":"63","v_score":"5.40460374","decile":"7","lat":40.144719594121,"lng":-111.598537933377},{"id":"148364","name":"Zillah Gaylord","party":"Dem","address":"1302 N 800 W, Mapleton, UT 84664","precinct":"25MA01","hd":"63","v_score":"26.33466886","decile":"10","lat":40.14196424589,"lng":-111.588176382392},{"id":"148448","name":"Birdie Hintz","party":"","address":"1629 N 800 W, Mapleton, UT 84664","precinct":"25MA01","hd":"63","v_score":"29.27757645","decile":"10","lat":40.145110009246,"lng":-111.588358860617},{"id":"148727","name":"Sylvanus Dickinson","party":"","address":"1330 W 1600 N, Mapleton, UT 84664","precinct":"25MA01","hd":"63","v_score":"27.07740306","decile":"10","lat":40.144857337513,"lng":-111.594844019753},{"id":"148728","name":"Ms. Debi Murphy","party":"Rep","address":"1330 W 1600 N, Mapleton, UT 84664","precinct":"25MA01","hd":"63","v_score":"27.07740306","decile":"10","lat":40.144857337513,"lng":-111.594844019753},{"id":"148785","name":"Marcello Cormier","party":"Dem","address":"1431 N 800 W, Mapleton, UT 84664","precinct":"25MA01","hd":"63","v_score":"14.76168437","decile":"9","lat":40.143271888223,"lng":-111.588339464208},{"id":"149232","name":"Timmy Powlowski","party":"Rep","address":"1541 N 900 W, Mapleton, UT 84664","precinct":"25MA01","hd":"63","v_score":"5.191257514","decile":"7","lat":40.144285800211,"lng":-111.589499050794},{"id":"149269","name":"Estes West","party":"","address":"863 W 1700 N, Mapleton, UT 84664","precinct":"25MA01","hd":"63","v_score":"13.78246118","decile":"9","lat":40.145640846513,"lng":-111.589211430723},{"id":"149281","name":"Malachi Medhurst","party":"","address":"863 W 1700 N, Mapleton, UT 84664","precinct":"25MA01","hd":"63","v_score":"25.25205946","decile":"10","lat":40.145640846513,"lng":-111.589211430723},{"id":"149322","name":"Sharee Marquardt","party":"Dem","address":"1042 W 1800 N, Mapleton, UT 84664","precinct":"25MA01","hd":"63","v_score":"9.82542041","decile":"8","lat":40.146771526068,"lng":-111.591790938305},{"id":"149347","name":"Chaka D'Amore","party":"Dem","address":"1402 W 1400 N, Mapleton, UT 84664","precinct":"25MA01","hd":"63","v_score":"23.3180776","decile":"10","lat":40.143066305652,"lng":-111.595296359278},{"id":"149351","name":"Mr. Montel Wolff","party":"","address":"1873 N 700 W, Mapleton, UT 84664","precinct":"25MA01","hd":"63","v_score":"0","decile":"3","lat":40.147371674366,"lng":-111.587380604856},{"id":"149646","name":"Dr. Donell Wisoky","party":"","address":"1741 N 500 W, Mapleton, UT 84664","precinct":"25MA01","hd":"63","v_score":"9.907118004","decile":"8","lat":40.146166263024,"lng":-111.584770110598},{"id":"150142","name":"Asberry Miller","party":"Rep","address":"1669 W 1320 N, Mapleton, UT 84664","precinct":"25MA01","hd":"63","v_score":"3.93832808","decile":"6","lat":40.14227347802,"lng":-111.59848671185},{"id":"150300","name":"Mr. George Heller","party":"Rep","address":"1050 W 2000 N, Mapleton, UT 84664","precinct":"25MA01","hd":"63","v_score":"5.40460374","decile":"7","lat":40.148577571481,"lng":-111.592006625476},{"id":"150461","name":"Lorin Littel","party":"","address":"1642 N 1100 W, Mapleton, UT 84664","precinct":"25MA01","hd":"63","v_score":"8.363183621","decile":"8","lat":40.145078179762,"lng":-111.592510951548},{"id":"150657","name":"Olena Davis","party":"Dem","address":"1016 W 1900 N, Mapleton, UT 84664","precinct":"25MA01","hd":"63","v_score":"6.881235673","decile":"8","lat":40.147665379469,"lng":-111.591468039599},{"id":"150792","name":"Dr. Rashad Barrows DVM","party":"","address":"1840 N 700 W, Mapleton, UT 84664","precinct":"25MA01","hd":"63","v_score":"3.781490609","decile":"6","lat":40.147098165514,"lng":-111.58721761195},{"id":"151013","name":"Noelle Predovic","party":"","address":"1535 Apple Orchard Ln, Mapleton, UT 84664","precinct":"25MA01","hd":"63","v_score":"12.07513611","decile":"9","lat":40.147420780807,"lng":-111.597407805611},{"id":"151142","name":"Peggy Pollich","party":"","address":"1714 N 500 W, Mapleton, UT 84664","precinct":"25MA01","hd":"63","v_score":"16.2066738","decile":"9","lat":40.145917908883,"lng":-111.584626953568},{"id":"151145","name":"Asha Torphy","party":"","address":"1714 N 500 W, Mapleton, UT 84664","precinct":"25MA01","hd":"63","v_score":"16.2066738","decile":"9","lat":40.145917908883,"lng":-111.584626953568},{"id":"151502","name":"Mr. Horton Rutherford","party":"","address":"1226 N 1380 W, Mapleton, UT 84664","precinct":"25MA01","hd":"63","v_score":"1.121327652","decile":"3","lat":40.141429894947,"lng":-111.595116968827},{"id":"151546","name":"Dr. Natalia Russel","party":"","address":"1556 N 800 W, Mapleton, UT 84664","precinct":"25MA01","hd":"63","v_score":"9.405332525","decile":"8","lat":40.144402529735,"lng":-111.588200325395},{"id":"151732","name":"Candice Bins","party":"Rep","address":"768 W 1600 N, Mapleton, UT 84664","precinct":"25MA01","hd":"63","v_score":"19.60612512","decile":"10","lat":40.14489627734,"lng":-111.587887414289},{"id":"152018","name":"Wynona Jerde","party":"","address":"1732 W 1200 N, Mapleton, UT 84664","precinct":"25MA01","hd":"63","v_score":"8.601979876","decile":"8","lat":40.141257306165,"lng":-111.599321422124},{"id":"152102","name":"Mr. Caesar Lindgren","party":"","address":"1294 N 1380 W, Mapleton, UT 84664","precinct":"25MA01","hd":"63","v_score":"34.54628035","decile":"10","lat":40.141810377452,"lng":-111.595117929593},{"id":"152157","name":"Emerson Stokes","party":"Rep","address":"1143 W 2000 N, Mapleton, UT 84664","precinct":"25MA01","hd":"63","v_score":"5.762862305","decile":"7","lat":40.148461728806,"lng":-111.592754146364},{"id":"152484","name":"Domenico Cruickshank","party":"Dem","address":"1175 W 2000 N, Unit B, Mapleton, UT 84664","precinct":"25MA01","hd":"63","v_score":"0","decile":"3","lat":40.148461071524,"lng":-111.593146889884},{"id":"152550","name":"Dian Nicolas","party":"Dem","address":"1955 N 500 W, Mapleton, UT 84664","precinct":"25MA01","hd":"63","v_score":"5.40460374","decile":"7","lat":40.147511876845,"lng":-111.584731662868},{"id":"152573","name":"Mr. Arjun Bechtelar","party":"Rep","address":"938 W 1900 N, Mapleton, UT 84664","precinct":"25MA01","hd":"63","v_score":"6.724398202","decile":"8","lat":40.147684438212,"lng":-111.590957315844},{"id":"153825","name":"Rhonda Hermann","party":"","address":"652 W 1600 N, Mapleton, UT 84664","precinct":"25MA01","hd":"63","v_score":"5.40460374","decile":"7","lat":40.144904559651,"lng":-111.586542547687},{"id":"153846","name":"Dijon Murazik-Swift","party":"Rep","address":"1230 W 1500 N, Mapleton, UT 84664","precinct":"25MA01","hd":"63","v_score":"18.47907717","decile":"10","lat":40.144103083589,"lng":-111.593582342088},{"id":"153911","name":"Maury Okuneva","party":"","address":"833 W 1800 N, Mapleton, UT 84664","precinct":"25MA01","hd":"63","v_score":"15.18126958","decile":"9","lat":40.146631812795,"lng":-111.588834287536},{"id":"153914","name":"Enoch Ankunding","party":"","address":"1351 N 800 W, Mapleton, UT 84664","precinct":"25MA01","hd":"63","v_score":"1.121327652","decile":"3","lat":40.142574033114,"lng":-111.588331932685},{"id":"154347","name":"Kaya Gleason","party":"","address":"1662 W 1200 N, Mapleton, UT 84664","precinct":"25MA01","hd":"63","v_score":"5.40460374","decile":"7","lat":40.141257306113,"lng":-111.598631462275},{"id":"154348","name":"Baldwin Prosacco","party":"Dem","address":"1662 W 1200 N, Mapleton, UT 84664","precinct":"25MA01","hd":"63","v_score":"2.315214949","decile":"5","lat":40.141257306113,"lng":-111.598631462275},{"id":"154396","name":"Senora Zieme","party":"Dem","address":"1225 N 800 W, Mapleton, UT 84664","precinct":"25MA01","hd":"63","v_score":"8.280646305","decile":"8","lat":40.14150546191,"lng":-111.588324097714},{"id":"154569","name":"Sean Waters-Ward","party":"Dem","address":"1823 N 1100 W, Mapleton, UT 84664","precinct":"25MA01","hd":"63","v_score":"35.37373745","decile":"10","lat":40.14692588058,"lng":-111.592718374949},{"id":"154601","name":"Dalton Bailey","party":"","address":"1823 N 1100 W, Mapleton, UT 84664","precinct":"25MA01","hd":"63","v_score":"30.74431755","decile":"10","lat":40.14692588058,"lng":-111.592718374949},{"id":"155294","name":"Tracy Kuphal","party":"","address":"1636 N 400 W, Mapleton, UT 84664","precinct":"25MA01","hd":"63","v_score":"6.814370645","decile":"8","lat":40.145193440609,"lng":-111.583461134914},{"id":"155717","name":"Alyssia Stehr","party":"","address":"965 W 1700 N, Mapleton, UT 84664","precinct":"25MA01","hd":"63","v_score":"2.587603312","decile":"5","lat":40.145777946742,"lng":-111.590581584517},{"id":"156265","name":"Odie Miller","party":"Rep","address":"1613 N 1100 W, Mapleton, UT 84664","precinct":"25MA01","hd":"63","v_score":"16.64754524","decile":"9","lat":40.144992416488,"lng":-111.592660860761},{"id":"156311","name":"Kaydence Haley-Russel","party":"Rep","address":"1478 N 1000 W, Mapleton, UT 84664","precinct":"25MA01","hd":"63","v_score":"14.43660232","decile":"9","lat":40.143724594524,"lng":-111.59092764231},{"id":"156894","name":"Brenton McGlynn-Gutmann","party":"Dem","address":"1705 N 1100 W, Mapleton, UT 84664","precinct":"25MA01","hd":"63","v_score":"12.57725863","decile":"9","lat":40.145971704928,"lng":-111.592666470933},{"id":"156911","name":"Pearley Mills-Quitzon","party":"","address":"1705 N 1100 W, Mapleton, UT 84664","precinct":"25MA01","hd":"63","v_score":"12.57725863","decile":"9","lat":40.145971704928,"lng":-111.592666470933},{"id":"158020","name":"Oswald Hettinger","party":"","address":"1533 N 800 W, Mapleton, UT 84664","precinct":"25MA01","hd":"63","v_score":"5.40460374","decile":"7","lat":40.144186494115,"lng":-111.588348174622},{"id":"158531","name":"Lupe Beer","party":"Rep","address":"1450 W 1600 N, Mapleton, UT 84664","precinct":"25MA01","hd":"63","v_score":"3.781490609","decile":"6","lat":40.144849452988,"lng":-111.596235656847},{"id":"158743","name":"Dr. Shaquana Nienow","party":"","address":"1028 W 1800 N, Mapleton, UT 84664","precinct":"25MA01","hd":"63","v_score":"21.35154895","decile":"10","lat":40.146774999733,"lng":-111.591596991189},{"id":"158825","name":"Kimberlee Labadie","party":"Rep","address":"1245 W 1600 N, Mapleton, UT 84664","precinct":"25MA01","hd":"63","v_score":"12.63270431","decile":"9","lat":40.144748399829,"lng":-111.593845568799},{"id":"158826","name":"Erlene Schuppe","party":"Dem","address":"1833 N 500 W, Mapleton, UT 84664","precinct":"25MA01","hd":"63","v_score":"18.81161828","decile":"10","lat":40.146855693631,"lng":-111.584696423203},{"id":"159154","name":"Cleva Hodkiewicz-Kuhn","party":"Dem","address":"872 W 1200 N, Mapleton, UT 84664","precinct":"25MA01","hd":"63","v_score":"22.18184494","decile":"10","lat":40.141302305397,"lng":-111.589263257172},{"id":"159165","name":"Mrs. Alexina Runte","party":"","address":"1425 N 1200 W, Mapleton, UT 84664","precinct":"25MA01","hd":"63","v_score":"9.116556227","decile":"8","lat":40.143268209942,"lng":-111.59330924416},{"id":"159166","name":"Akeem Hodkiewicz","party":"Rep","address":"1425 N 1200 W, Mapleton, UT 84664","precinct":"25MA01","hd":"63","v_score":"5.40460374","decile":"7","lat":40.143268209942,"lng":-111.59330924416},{"id":"159249","name":"Dr. Orin Windler III","party":"","address":"1521 N 700 W, Mapleton, UT 84664","precinct":"25MA01","hd":"63","v_score":"26.33466886","decile":"10","lat":40.144091332218,"lng":-111.587157348702},{"id":"159399","name":"Brody Mann","party":"Rep","address":"1642 N 1100 W, Mapleton, UT 84664","precinct":"25MA01","hd":"63","v_score":"8.363183621","decile":"8","lat":40.145078179762,"lng":-111.592510951548},{"id":"159473","name":"Waino Wyman-Hand","party":"","address":"1538 Apple Orchard Ln, Mapleton, UT 84664","precinct":"25MA01","hd":"63","v_score":"34.54628035","decile":"10","lat":40.147516074126,"lng":-111.596933377728},{"id":"159474","name":"Aubra Botsford III","party":"Dem","address":"1538 Apple Orchard Ln, Mapleton, UT 84664","precinct":"25MA01","hd":"63","v_score":"34.54628035","decile":"10","lat":40.147516074126,"lng":-111.596933377728},{"id":"159528","name":"Nelda O'Kon","party":"","address":"1396 W 1600 N, Mapleton, UT 84664","precinct":"25MA01","hd":"63","v_score":"26.33466886","decile":"10","lat":40.144853001024,"lng":-111.595609420154},{"id":"159921","name":"Corean Mohr","party":"Dem","address":"740 W 1200 N, Mapleton, UT 84664","precinct":"25MA01","hd":"63","v_score":"10.87160818","decile":"9","lat":40.141307525529,"lng":-111.587553981782},{"id":"160279","name":"Nia Padberg-Balistreri","party":"Dem","address":"1057 W 1700 N, Mapleton, UT 84664","precinct":"25MA01","hd":"63","v_score":"0","decile":"3","lat":40.145839562801,"lng":-111.591927957581},{"id":"160380","name":"Tamiko Wilderman","party":"Dem","address":"1541 N 900 W, Mapleton, UT 84664","precinct":"25MA01","hd":"63","v_score":"8.149837396","decile":"8","lat":40.144285800211,"lng":-111.589499050794},{"id":"160443","name":"Linn Hills","party":"Dem","address":"1660 N 1600 W, Mapleton, UT 84664","precinct":"25MA01","hd":"63","v_score":"1.193887297","decile":"4","lat":40.145368702618,"lng":-111.597945778998},{"id":"160961","name":"Michal Baumbach DDS","party":"Rep","address":"1511 W Apple Orchard Ln, Mapleton, UT 84664","precinct":"25MA01","hd":"63","v_score":"3.93832808","decile":"6","lat":40.147412775476,"lng":-111.597220023997},{"id":"161082","name":"Rylie Powlowski","party":"Dem","address":"1237 N 1200 W, Mapleton, UT 84664","precinct":"25MA01","hd":"63","v_score":"5.40460374","decile":"7","lat":40.141583078961,"lng":-111.593280805995},{"id":"161129","name":"Margarete Watsica-Kohler","party":"","address":"1255 W 2000 N, Mapleton, UT 84664","precinct":"25MA01","hd":"63","v_score":"8.284004873","decile":"8","lat":40.148457844748,"lng":-111.59420939563},{"id":"161277","name":"Joselin Kemmer","party":"Rep","address":"928 W 1900 N, Mapleton, UT 84664","precinct":"25MA01","hd":"63","v_score":"29.27757645","decile":"10","lat":40.147685564758,"lng":-111.590933095064},{"id":"161564","name":"Dr. Mervin Hackett V","party":"","address":"1629 W 1600 N, Mapleton, UT 84664","precinct":"25MA01","hd":"63","v_score":"5.40460374","decile":"7","lat":40.144719594121,"lng":-111.598537933377},{"id":"161636","name":"Marquez Schmidt","party":"","address":"1335 N 700 W, Mapleton, UT 84664","precinct":"25MA01","hd":"63","v_score":"9.116556227","decile":"8","lat":40.142390565713,"lng":-111.587137825169},{"id":"161704","name":"Vikki Torphy","party":"Rep","address":"1499 N 800 W, Mapleton, UT 84664","precinct":"25MA01","hd":"63","v_score":"22.12059385","decile":"10","lat":40.143881625484,"lng":-111.588345271151},{"id":"161794","name":"Oral Fay","party":"","address":"1310 W 1600 N, Mapleton, UT 84664","precinct":"25MA01","hd":"63","v_score":"19.10400259","decile":"10","lat":40.1448586516,"lng":-111.594612080237},{"id":"161991","name":"Magan Sawayn","party":"","address":"1756 N 500 W, Mapleton, UT 84664","precinct":"25MA01","hd":"63","v_score":"36.21050801","decile":"10","lat":40.146268114993,"lng":-111.58457137535},{"id":"162042","name":"Jensen Durgan","party":"","address":"1533 N 800 W, Mapleton, UT 84664","precinct":"25MA01","hd":"63","v_score":"5.40460374","decile":"7","lat":40.144186494115,"lng":-111.588348174622},{"id":"162340","name":"Chadrick Smith","party":"","address":"1665 N Main St, Mapleton, UT 84664","precinct":"25MA01","hd":"63","v_score":"5.191257514","decile":"7","lat":40.145692526093,"lng":-111.57884368488},{"id":"162476","name":"Sol Thompson","party":"Rep","address":"1873 N 700 W, Mapleton, UT 84664","precinct":"25MA01","hd":"63","v_score":"11.29723756","decile":"9","lat":40.147371674366,"lng":-111.587380604856},{"id":"162573","name":"Carey Kling PhD","party":"","address":"1733 N 1250 W, Mapleton, UT 84664","precinct":"25MA01","hd":"63","v_score":"0","decile":"3","lat":40.146307623555,"lng":-111.594012918561},{"id":"162616","name":"Elzie Runolfsson-Stanton","party":"Rep","address":"515 W 2000 N, Mapleton, UT 84664","precinct":"25MA01","hd":"63","v_score":"11.37339366","decile":"9","lat":40.148485047216,"lng":-111.584912245608},{"id":"163076","name":"Djuana Murazik","party":"","address":"1335 N 700 W, Mapleton, UT 84664","precinct":"25MA01","hd":"63","v_score":"7.493443096","decile":"8","lat":40.142390565713,"lng":-111.587137825169},{"id":"163096","name":"Boyce Davis","party":"Dem","address":"1499 N 800 W, Mapleton, UT 84664","precinct":"25MA01","hd":"63","v_score":"25.06350144","decile":"10","lat":40.143881625484,"lng":-111.588345271151},{"id":"163178","name":"Sophronia Weimann","party":"Rep","address":"1306 W 1200 N, Mapleton, UT 84664","precinct":"25MA01","hd":"63","v_score":"9.55742766","decile":"8","lat":40.14130110944,"lng":-111.594211332741},{"id":"164353","name":"Daniella Johns","party":"Dem","address":"1261 N 1380 W, Mapleton, UT 84664","precinct":"25MA01","hd":"63","v_score":"18.08425548","decile":"10","lat":40.141619914999,"lng":-111.595267347846},{"id":"165063","name":"Sarah Senger-Abshire","party":"","address":"1261 N 1380 W, Mapleton, UT 84664","precinct":"25MA01","hd":"63","v_score":"16.2066738","decile":"9","lat":40.141619914999,"lng":-111.595267347846},{"id":"165316","name":"Aleena Becker","party":"","address":"938 W 1900 N, Mapleton, UT 84664","precinct":"25MA01","hd":"63","v_score":"6.724398202","decile":"8","lat":40.147684438212,"lng":-111.590957315844},{"id":"165829","name":"Nakia Gutmann","party":"","address":"1760 N 1250 W, Mapleton, UT 84664","precinct":"25MA01","hd":"63","v_score":"15.02443211","decile":"9","lat":40.146440513956,"lng":-111.593860662703},{"id":"166082","name":"Encarnacion Farrell V","party":"Rep","address":"966 W 1900 N, Mapleton, UT 84664","precinct":"25MA01","hd":"63","v_score":"8.363183621","decile":"8","lat":40.147681283883,"lng":-111.591025134029},{"id":"166317","name":"Latrell Lebsack","party":"Dem","address":"1279 W 1500 N, Mapleton, UT 84664","precinct":"25MA01","hd":"63","v_score":"10.2407653","decile":"9","lat":40.143954896493,"lng":-111.593971460788},{"id":"166918","name":"Mr. Edsel Rosenbaum","party":"Rep","address":"1682 W 1200 N, Mapleton, UT 84664","precinct":"25MA01","hd":"63","v_score":"8.903210001","decile":"8","lat":40.141257306128,"lng":-111.59882859366},{"id":"167023","name":"Dr. Letha Sauer","party":"Rep","address":"130 W 1600 N, Mapleton, UT 84664","precinct":"25MA01","hd":"63","v_score":"9.834558359","decile":"8","lat":40.144945526544,"lng":-111.580207889807},{"id":"167149","name":"Hildur Stark-Senger","party":"","address":"1050 W 2000 N, Mapleton, UT 84664","precinct":"25MA01","hd":"63","v_score":"5.40460374","decile":"7","lat":40.148577571481,"lng":-111.592006625476},{"id":"167608","name":"Santo Rutherford","party":"Rep","address":"1450 W 1600 N, Mapleton, UT 84664","precinct":"25MA01","hd":"63","v_score":"2.315214949","decile":"5","lat":40.144849452988,"lng":-111.596235656847},{"id":"167823","name":"Dejah Douglas","party":"","address":"1648 W 1320 N, Mapleton, UT 84664","precinct":"25MA01","hd":"63","v_score":"5.40460374","decile":"7","lat":40.142388879373,"lng":-111.598358540687},{"id":"168107","name":"Korbin Hane","party":"","address":"1485 W 2000 N, Mapleton, UT 84664","precinct":"25MA01","hd":"63","v_score":"13.61621523","decile":"9","lat":40.148450713695,"lng":-111.59606376862},{"id":"168859","name":"Mr. Korbin Denesik PhD","party":"Rep","address":"1226 N 1380 W, Mapleton, UT 84664","precinct":"25MA01","hd":"63","v_score":"1.121327652","decile":"3","lat":40.141429894947,"lng":-111.595116968827},{"id":"169400","name":"Dr. Eve Hettinger DVM","party":"Dem","address":"1855 N 1000 W, Mapleton, UT 84664","precinct":"25MA01","hd":"63","v_score":"8.280646305","decile":"8","lat":40.147207698141,"lng":-111.591241879686},{"id":"170043","name":"Dr. Carmen Cormier II","party":"Dem","address":"1549 W 1800 N, Mapleton, UT 84664","precinct":"25MA01","hd":"63","v_score":"5.191257514","decile":"7","lat":40.146591999438,"lng":-111.597391552341},{"id":"170209","name":"Darry Connelly","party":"Rep","address":"1869 N 1350 W, Mapleton, UT 84664","precinct":"25MA01","hd":"63","v_score":"4.905839784","decile":"7","lat":40.147313504083,"lng":-111.595214896116},{"id":"170478","name":"Ryland Boehm-Will","party":"Dem","address":"1857 N 1100 W, Mapleton, UT 84664","precinct":"25MA01","hd":"63","v_score":"7.313415791","decile":"8","lat":40.14718900468,"lng":-111.592722443844},{"id":"170542","name":"Perri Eichmann","party":"","address":"1830 N 1600 W, Mapleton, UT 84664","precinct":"25MA01","hd":"63","v_score":"0","decile":"3","lat":40.146916396874,"lng":-111.597940970117},{"id":"170684","name":"Tyler Keebler","party":"Dem","address":"1642 N 1100 W, Mapleton, UT 84664","precinct":"25MA01","hd":"63","v_score":"5.40460374","decile":"7","lat":40.145078179762,"lng":-111.592510951548},{"id":"170755","name":"Dr. Lincoln Hand","party":"","address":"1330 N 800 W, Mapleton, UT 84664","precinct":"25MA01","hd":"63","v_score":"6.52928996","decile":"7","lat":40.142247824235,"lng":-111.588178142041},{"id":"171297","name":"Regan Graham","party":"","address":"1089 W 1800 N, Mapleton, UT 84664","precinct":"25MA01","hd":"63","v_score":"0","decile":"3","lat":40.146645552678,"lng":-111.592424681549},{"id":"171750","name":"Francies Lesch DDS","party":"Dem","address":"1335 N 700 W, Mapleton, UT 84664","precinct":"25MA01","hd":"63","v_score":"7.92266893","decile":"8","lat":40.142390565713,"lng":-111.587137825169},{"id":"171836","name":"Mayme Welch","party":"Dem","address":"1052 W 1700 N, Mapleton, UT 84664","precinct":"25MA01","hd":"63","v_score":"6.587995052","decile":"7","lat":40.145954801832,"lng":-111.591874886318},{"id":"171908","name":"Dr. Gerhardt Cronin","party":"","address":"1824 N 600 W, Mapleton, UT 84664","precinct":"25MA01","hd":"63","v_score":"3.781490609","decile":"6","lat":40.146997796238,"lng":-111.585776368726},{"id":"172495","name":"Nettie Vandervort","party":"Rep","address":"1944 N 300 W, Mapleton, UT 84664","precinct":"25MA01","hd":"63","v_score":"2.315214949","decile":"5","lat":40.148017854899,"lng":-111.582122571044},{"id":"172932","name":"Dr. Sabrina White","party":"Rep","address":"1643 N 1100 W, Mapleton, UT 84664","precinct":"25MA01","hd":"63","v_score":"36.28419167","decile":"10","lat":40.145285194598,"lng":-111.592660860723},{"id":"173208","name":"Mrs. Dulcie Reilly MD","party":"","address":"1630 N 1600 W, Mapleton, UT 84664","precinct":"25MA01","hd":"63","v_score":"0","decile":"3","lat":40.14510379178,"lng":-111.597948338557},{"id":"174241","name":"Egbert Kautzer","party":"Dem","address":"1922 Apple Orchard Ln, Mapleton, UT 84664","precinct":"25MA01","hd":"63","v_score":"2.315214949","decile":"5","lat":40.147744672543,"lng":-111.596133548962},{"id":"174507","name":"Mrs. Gladys Dibbert","party":"Rep","address":"949 W 1800 N, Mapleton, UT 84664","precinct":"25MA01","hd":"63","v_score":"0","decile":"3","lat":40.146656767119,"lng":-111.590388934455},{"id":"175052","name":"Miss Emmy Carroll DDS","party":"","address":"1294 N 1380 W, Mapleton, UT 84664","precinct":"25MA01","hd":"63","v_score":"34.54628035","decile":"10","lat":40.141810377452,"lng":-111.595117929593},{"id":"175599","name":"Codie Brekke","party":"","address":"1675 N 1000 W, Mapleton, UT 84664","precinct":"25MA01","hd":"63","v_score":"3.781490609","decile":"6","lat":40.145610389696,"lng":-111.591137202668},{"id":"176248","name":"Dr. Jaeda Klein PhD","party":"Rep","address":"1643 W 1320 N, Mapleton, UT 84664","precinct":"25MA01","hd":"63","v_score":"2.315214949","decile":"5","lat":40.142274536031,"lng":-111.598318486146},{"id":"176781","name":"Garth Johnston","party":"Dem","address":"1225 W 1600 N, Mapleton, UT 84664","precinct":"25MA01","hd":"63","v_score":"6.724398202","decile":"8","lat":40.144749713916,"lng":-111.593613629283},{"id":"177109","name":"Mr. Aaden Stoltenberg","party":"Rep","address":"1682 W 1200 N, Mapleton, UT 84664","precinct":"25MA01","hd":"63","v_score":"4.069929862","decile":"7","lat":40.141257306128,"lng":-111.59882859366},{"id":"177205","name":"Dr. Grace Emard","party":"","address":"243 W 2000 N, Mapleton, UT 84664","precinct":"25MA01","hd":"63","v_score":"6.814370645","decile":"8","lat":40.148518142722,"lng":-111.581454711742},{"id":"177406","name":"Andre Mohr","party":"Dem","address":"1095 W 2000 N, Mapleton, UT 84664","precinct":"25MA01","hd":"63","v_score":"0","decile":"3","lat":40.148462714728,"lng":-111.592165031084},{"id":"177624","name":"Dr. Unknown Pouros","party":"Rep","address":"1869 N 1350 W, Mapleton, UT 84664","precinct":"25MA01","hd":"63","v_score":"1.193887297","decile":"4","lat":40.147313504083,"lng":-111.595214896116},{"id":"178033","name":"Dr. Theo Rosenbaum V","party":"","address":"1549 W 1800 N, Mapleton, UT 84664","precinct":"25MA01","hd":"63","v_score":"5.191257514","decile":"7","lat":40.146591999438,"lng":-111.597391552341},{"id":"178218","name":"Ethelbert Welch-Farrell","party":"","address":"1487 N 700 W, Mapleton, UT 84664","precinct":"25MA01","hd":"63","v_score":"6.528952915","decile":"7","lat":40.14378800874,"lng":-111.58715372047},{"id":"178752","name":"Nia Durgan","party":"","address":"1682 N 800 W, Mapleton, UT 84664","precinct":"25MA01","hd":"63","v_score":"22.54903271","decile":"10","lat":40.145529234326,"lng":-111.588221485387},{"id":"178885","name":"Shawanda Strosin","party":"Dem","address":"1629 N 800 W, Mapleton, UT 84664","precinct":"25MA01","hd":"63","v_score":"29.27757645","decile":"10","lat":40.145110009246,"lng":-111.588358860617},{"id":"178913","name":"Delmus Ferry","party":"Dem","address":"1477 N 1600 W, Mapleton, UT 84664","precinct":"25MA01","hd":"63","v_score":"1.121327652","decile":"3","lat":40.143669394191,"lng":-111.598076826266},{"id":"178986","name":"Belia Kunde-Hayes","party":"Rep","address":"1736 N 1000 W, Mapleton, UT 84664","precinct":"25MA01","hd":"63","v_score":"29.43736821","decile":"10","lat":40.146225880736,"lng":-111.591023860117},{"id":"179062","name":"Elzy Lind","party":"","address":"1400 N 1800 W, Mapleton, UT 84664","precinct":"25MA01","hd":"63","v_score":"2.315214949","decile":"5","lat":40.142271492112,"lng":-111.600846708835},{"id":"179083","name":"Mrs. Cherri Haag DDS","party":"","address":"909 W 2000 N, Mapleton, UT 84664","precinct":"25MA01","hd":"63","v_score":"3.93832808","decile":"6","lat":40.148466535177,"lng":-111.589882209374},{"id":"179121","name":"Buddie Schumm","party":"","address":"1925 N Apple Orchard Ln, Mapleton, UT 84664","precinct":"25MA01","hd":"63","v_score":"9.830961897","decile":"8","lat":40.147761736395,"lng":-111.596283776787},{"id":"179172","name":"Zoie Welch PhD","party":"","address":"1419 N 1600 W, Mapleton, UT 84664","precinct":"25MA01","hd":"63","v_score":"15.53259879","decile":"9","lat":40.143168140012,"lng":-111.598065769254},{"id":"179600","name":"Emil Dach Sr.","party":"Dem","address":"1445 N 900 W, Mapleton, UT 84664","precinct":"25MA01","hd":"63","v_score":"19.66413649","decile":"10","lat":40.143470312688,"lng":-111.589494890249},{"id":"179977","name":"Dr. Richie Kuhic II","party":"","address":"1524 N 800 W, Mapleton, UT 84664","precinct":"25MA01","hd":"63","v_score":"15.4533012","decile":"9","lat":40.144115594553,"lng":-111.588197592716},{"id":"180280","name":"Adalberto Swift-Harvey","party":"Dem","address":"162 W 1600 N, Mapleton, UT 84664","precinct":"25MA01","hd":"63","v_score":"19.60612512","decile":"10","lat":40.144942434142,"lng":-111.580561972821},{"id":"180752","name":"Daijah Veum","party":"Rep","address":"1911 N 1600 W, Mapleton, UT 84664","precinct":"25MA01","hd":"63","v_score":"19.22326505","decile":"10","lat":40.147610863188,"lng":-111.598114980944},{"id":"181043","name":"Carlie Borer","party":"Dem","address":"1502 N 900 W, Mapleton, UT 84664","precinct":"25MA01","hd":"63","v_score":"29.27757645","decile":"10","lat":40.143963449985,"lng":-111.589347504012},{"id":"181280","name":"Ms. Chelsi Romaguera MD","party":"Dem","address":"1524 N 800 W, Mapleton, UT 84664","precinct":"25MA01","hd":"63","v_score":"15.4533012","decile":"9","lat":40.144115594553,"lng":-111.588197592716}]