[{"id":"117","name":"Lotta Hayes","party":"Rep","address":"1548 W 2400 S, Mapleton, UT 84664","precinct":"25MA10","hd":"63","v_score":"29.5455692","decile":"10","lat":40.108191855427,"lng":-111.597004403195},{"id":"2106","name":"Dr. Troy Block III","party":"","address":"930 W 2620 S, Mapleton, UT 84664","precinct":"25MA10","hd":"63","v_score":"9.699007114","decile":"8","lat":40.106354803114,"lng":-111.58975577744},{"id":"4661","name":"Karon Ortiz","party":"Rep","address":"2030 S Parkview Dr, Mapleton, UT 84664","precinct":"25MA10","hd":"63","v_score":"20.34747412","decile":"10","lat":40.111913845779,"lng":-111.591525326352},{"id":"5677","name":"Leonor Kuphal","party":"","address":"1224 W 2600 S, Mapleton, UT 84664","precinct":"25MA10","hd":"63","v_score":"23.6745059","decile":"10","lat":40.106460011869,"lng":-111.593260676407},{"id":"7708","name":"Iola Kris-Glover","party":"Rep","address":"2044 W 1900 S, Mapleton, UT 84664","precinct":"25MA10","hd":"63","v_score":"10.17950637","decile":"9","lat":40.112844309233,"lng":-111.603156691309},{"id":"13216","name":"Mr. Warner Tromp","party":"","address":"1405 W Elk View Cir, Mapleton, UT 84664","precinct":"25MA10","hd":"63","v_score":"12.76214699","decile":"9","lat":40.112185757253,"lng":-111.595452528772},{"id":"13217","name":"Savannah Botsford","party":"","address":"1405 W Elk View Cir, Mapleton, UT 84664","precinct":"25MA10","hd":"63","v_score":"12.76214699","decile":"9","lat":40.112185757253,"lng":-111.595452528772},{"id":"15147","name":"Luka Walsh","party":"Dem","address":"1806 W 1900 S, Mapleton, UT 84664","precinct":"25MA10","hd":"63","v_score":"23.37608897","decile":"10","lat":40.113005497197,"lng":-111.600272076224},{"id":"18402","name":"Ms. Shanda Hilpert PhD","party":"Rep","address":"850 W 2620 S, Mapleton, UT 84664","precinct":"25MA10","hd":"63","v_score":"19.27943305","decile":"10","lat":40.106364309375,"lng":-111.588779415274},{"id":"22028","name":"Wanita Huels","party":"","address":"1663 S 2100 W, Mapleton, UT 84664","precinct":"25MA10","hd":"63","v_score":"9.913499214","decile":"8","lat":40.114723800192,"lng":-111.603659362324},{"id":"24172","name":"Tristen Rutherford","party":"Rep","address":"1105 W Park Meadows Dr, Mapleton, UT 84664","precinct":"25MA10","hd":"63","v_score":"9.116556227","decile":"8","lat":40.112225322545,"lng":-111.591280044835},{"id":"25470","name":"Lyndia Jast","party":"Rep","address":"1801 S 1600 W, Mapleton, UT 84664","precinct":"25MA10","hd":"63","v_score":"5.40460374","decile":"7","lat":40.113914228782,"lng":-111.597586990724},{"id":"25800","name":"Mr. Gerold O'Reilly","party":"Rep","address":"1721 S 2100 W, Mapleton, UT 84664","precinct":"25MA10","hd":"63","v_score":"20.30750142","decile":"10","lat":40.114282820185,"lng":-111.603664675392},{"id":"25870","name":"Geraldo Walsh","party":"Dem","address":"1918 W 1900 S, Mapleton, UT 84664","precinct":"25MA10","hd":"63","v_score":"2.315214949","decile":"5","lat":40.112883196986,"lng":-111.601603065835},{"id":"26489","name":"Catalina Zieme-Thompson","party":"Dem","address":"1156 W 2200 S, Mapleton, UT 84664","precinct":"25MA10","hd":"63","v_score":"5.40460374","decile":"7","lat":40.110222451442,"lng":-111.592502308533},{"id":"27290","name":"Roxann Lindgren","party":"Rep","address":"930 W 2620 S, Mapleton, UT 84664","precinct":"25MA10","hd":"63","v_score":"12.69956934","decile":"9","lat":40.106354803114,"lng":-111.58975577744},{"id":"28517","name":"Cas O'Hara","party":"","address":"1961 W 1900 S, Mapleton, UT 84664","precinct":"25MA10","hd":"63","v_score":"1.193887297","decile":"3","lat":40.112758446647,"lng":-111.602114153997},{"id":"29526","name":"Wash Maggio","party":"","address":"1654 S 2100 W, Mapleton, UT 84664","precinct":"25MA10","hd":"63","v_score":"0","decile":"1","lat":40.11478568085,"lng":-111.603808459836},{"id":"30688","name":"Isidore Morar","party":"","address":"1331 W 2800 S, Mapleton, UT 84664","precinct":"25MA10","hd":"63","v_score":"2.587603312","decile":"5","lat":40.104091917629,"lng":-111.594881301911},{"id":"33247","name":"Azzie Daugherty","party":"","address":"1330 W Park Meadows Dr, Mapleton, UT 84664","precinct":"25MA10","hd":"63","v_score":"10.87160818","decile":"9","lat":40.11285323525,"lng":-111.594479329358},{"id":"39033","name":"Francesca Keebler","party":"Dem","address":"1654 S 2100 W, Mapleton, UT 84664","precinct":"25MA10","hd":"63","v_score":"14.04503691","decile":"9","lat":40.11478568085,"lng":-111.603808459836},{"id":"43667","name":"Delsie Ankunding","party":"Rep","address":"995 W 1600 S, Mapleton, UT 84664","precinct":"25MA10","hd":"63","v_score":"8.232731454","decile":"8","lat":40.115643210322,"lng":-111.590667472607},{"id":"43875","name":"Celena Satterfield-Simonis","party":"Dem","address":"1548 W 2400 S, Mapleton, UT 84664","precinct":"25MA10","hd":"63","v_score":"10.59606958","decile":"9","lat":40.108191855427,"lng":-111.597004403195},{"id":"50661","name":"Norwood Hermann III","party":"Dem","address":"2030 S Parkview Dr, Mapleton, UT 84664","precinct":"25MA10","hd":"63","v_score":"17.76342521","decile":"10","lat":40.111913845779,"lng":-111.591525326352},{"id":"51129","name":"Susana Ratke","party":"","address":"2420 S 800 W, Mapleton, UT 84664","precinct":"25MA10","hd":"63","v_score":"2.587603312","decile":"5","lat":40.108481180179,"lng":-111.588178652686},{"id":"52217","name":"Dorthea Conroy-Mann","party":"","address":"2062 S Parkview Dr, Mapleton, UT 84664","precinct":"25MA10","hd":"63","v_score":"7.080826497","decile":"8","lat":40.111564465782,"lng":-111.591704829637},{"id":"52778","name":"Kurt Rice","party":"","address":"2602 S 1600 W, Mapleton, UT 84664","precinct":"25MA10","hd":"63","v_score":"0","decile":"1","lat":40.106266603429,"lng":-111.597727818912},{"id":"54342","name":"Coby Corwin","party":"","address":"1825 S 1600 W, Mapleton, UT 84664","precinct":"25MA10","hd":"63","v_score":"10.67330764","decile":"9","lat":40.113718330125,"lng":-111.59758699075},{"id":"55575","name":"Dr. Cleave Boyle Jr.","party":"Dem","address":"1550 W Park Meadows Dr, Mapleton, UT 84664","precinct":"25MA10","hd":"63","v_score":"10.127995050000001","decile":"9","lat":40.11317254128,"lng":-111.597135759559},{"id":"56405","name":"Marius Rice","party":"Rep","address":"1480 W Park Meadows Dr, Mapleton, UT 84664","precinct":"25MA10","hd":"63","v_score":"1.121327652","decile":"3","lat":40.113195309158,"lng":-111.596275792796},{"id":"60880","name":"Dr. Desean Ondricka DVM","party":"","address":"1423 W 2600 S, Mapleton, UT 84664","precinct":"25MA10","hd":"63","v_score":"1.121327652","decile":"3","lat":40.106312640389,"lng":-111.595543402053},{"id":"62639","name":"Ms. Icie Waelchi","party":"Rep","address":"1390 W Park Meadows Dr, Mapleton, UT 84664","precinct":"25MA10","hd":"63","v_score":"0","decile":"1","lat":40.113072187917,"lng":-111.595250948285},{"id":"67295","name":"Galen Considine","party":"Dem","address":"950 W 2400 S, Mapleton, UT 84664","precinct":"25MA10","hd":"63","v_score":"1.193887297","decile":"3","lat":40.108423532074,"lng":-111.591913233339},{"id":"68735","name":"Damarion Runolfsson","party":"","address":"1155 W Park Meadows Dr, Mapleton, UT 84664","precinct":"25MA10","hd":"63","v_score":"1.121327652","decile":"3","lat":40.112735144786,"lng":-111.591943583955},{"id":"70737","name":"Noreen Gerhold","party":"","address":"2062 S Parkview Dr, Mapleton, UT 84664","precinct":"25MA10","hd":"63","v_score":"1.623113131","decile":"5","lat":40.111564465782,"lng":-111.591704829637},{"id":"72175","name":"Mr. Warner Bailey V","party":"","address":"1721 S 2100 W, Mapleton, UT 84664","precinct":"25MA10","hd":"63","v_score":"14.04503691","decile":"9","lat":40.114282820185,"lng":-111.603664675392},{"id":"74146","name":"Isabela Block","party":"","address":"1088 W Park Meadows Dr, Mapleton, UT 84664","precinct":"25MA10","hd":"63","v_score":"8.15240309","decile":"8","lat":40.112769605019,"lng":-111.591693803646},{"id":"75165","name":"Mr. Ryder Towne","party":"Dem","address":"1550 W 2600 S, Mapleton, UT 84664","precinct":"25MA10","hd":"63","v_score":"2.817000428","decile":"6","lat":40.106408337605,"lng":-111.597024707649},{"id":"76037","name":"Abb Kohler V","party":"Dem","address":"1151 W 2620 S, Mapleton, UT 84664","precinct":"25MA10","hd":"63","v_score":"9.834558359","decile":"8","lat":40.106209920301,"lng":-111.592435476737},{"id":"76795","name":"Ms. Leaner Block","party":"","address":"2445 S 1600 W, Mapleton, UT 84664","precinct":"25MA10","hd":"63","v_score":"4.858449944","decile":"7","lat":40.107690294532,"lng":-111.597581418272},{"id":"76906","name":"Rosamond Bergnaum","party":"","address":"1285 W 1600 S, Mapleton, UT 84664","precinct":"25MA10","hd":"63","v_score":"1.193887297","decile":"3","lat":40.115604158888,"lng":-111.59404191702},{"id":"80292","name":"Eugenia Daugherty","party":"Dem","address":"1225 W 2600 S, Mapleton, UT 84664","precinct":"25MA10","hd":"63","v_score":"0","decile":"1","lat":40.10634553878,"lng":-111.593253870082},{"id":"81572","name":"Ms. Luna Grant PhD","party":"Dem","address":"1730 S 2100 W, Mapleton, UT 84664","precinct":"25MA10","hd":"63","v_score":"13.97833814","decile":"9","lat":40.114207844979,"lng":-111.603815421787},{"id":"82699","name":"Ms. Khadijah Ullrich DDS","party":"","address":"1785 S 1600 W, Mapleton, UT 84664","precinct":"25MA10","hd":"63","v_score":"2.817000428","decile":"6","lat":40.114044827887,"lng":-111.597586990708},{"id":"83254","name":"Marla Rogahn","party":"Dem","address":"1961 W 1900 S, Mapleton, UT 84664","precinct":"25MA10","hd":"63","v_score":"1.193887297","decile":"3","lat":40.112758446647,"lng":-111.602114153997},{"id":"84509","name":"Tayler Hintz","party":"Rep","address":"1195 W 1600 S, Mapleton, UT 84664","precinct":"25MA10","hd":"63","v_score":"1.193887297","decile":"3","lat":40.115614956874,"lng":-111.593053324301},{"id":"86367","name":"Barrie Bernier","party":"Rep","address":"1415 W Park Meadows Dr, Mapleton, UT 84664","precinct":"25MA10","hd":"63","v_score":"1.193887297","decile":"4","lat":40.112907587929,"lng":-111.595102992883},{"id":"87391","name":"Mr. Pleasant Marvin Jr.","party":"Rep","address":"1180 W 2400 S, Mapleton, UT 84664","precinct":"25MA10","hd":"63","v_score":"1.623113131","decile":"5","lat":40.108400084519,"lng":-111.592765721706},{"id":"90404","name":"Elihu McCullough-Schroeder","party":"Dem","address":"1550 W 2600 S, Mapleton, UT 84664","precinct":"25MA10","hd":"63","v_score":"1.193887297","decile":"4","lat":40.106408337605,"lng":-111.597024707649},{"id":"93843","name":"Dr. Rosemarie Huel","party":"","address":"2062 S Parkview Dr, Mapleton, UT 84664","precinct":"25MA10","hd":"63","v_score":"5.407962308","decile":"7","lat":40.111564465782,"lng":-111.591704829637},{"id":"93905","name":"Gidget Jaskolski","party":"Rep","address":"1355 W Elk View Cir, Mapleton, UT 84664","precinct":"25MA10","hd":"63","v_score":"9.907118004","decile":"8","lat":40.112366033594,"lng":-111.594932364835},{"id":"94470","name":"Mrs. Evie Hauck MD","party":"Dem","address":"1355 W Elk View Cir, Mapleton, UT 84664","precinct":"25MA10","hd":"63","v_score":"1.193887297","decile":"4","lat":40.112366033594,"lng":-111.594932364835},{"id":"96448","name":"Buddie Wisoky","party":"Rep","address":"1270 W Park Meadows Dr, Mapleton, UT 84664","precinct":"25MA10","hd":"63","v_score":"9.907118004","decile":"8","lat":40.112700309028,"lng":-111.593804212558},{"id":"96451","name":"Mr. Melville Blick DVM","party":"","address":"1270 W Park Meadows Dr, Mapleton, UT 84664","precinct":"25MA10","hd":"63","v_score":"9.907118004","decile":"8","lat":40.112700309028,"lng":-111.593804212558},{"id":"96551","name":"Brittaney Hilpert","party":"","address":"1355 W Elk View Cir, Mapleton, UT 84664","precinct":"25MA10","hd":"63","v_score":"2.817000428","decile":"6","lat":40.112366033594,"lng":-111.594932364835},{"id":"98627","name":"Dr. Loree Medhurst MD","party":"","address":"2030 S Parkview Dr, Mapleton, UT 84664","precinct":"25MA10","hd":"63","v_score":"5.407962308","decile":"7","lat":40.111913845779,"lng":-111.591525326352},{"id":"101665","name":"Brooke Batz","party":"Dem","address":"2030 S Parkview Dr, Mapleton, UT 84664","precinct":"25MA10","hd":"63","v_score":"4.069929862","decile":"6","lat":40.111913845779,"lng":-111.591525326352},{"id":"103784","name":"Chalmer Rempel","party":"Rep","address":"2030 S 2000 W, Mapleton, UT 84664","precinct":"25MA10","hd":"63","v_score":"0","decile":"2","lat":40.111084458243,"lng":-111.602435725148},{"id":"103925","name":"Joan Prosacco DVM","party":"Rep","address":"1195 W Park Meadows Dr, Mapleton, UT 84664","precinct":"25MA10","hd":"63","v_score":"7.090117576","decile":"8","lat":40.112703205794,"lng":-111.59272034174},{"id":"103931","name":"June Dickinson DVM","party":"","address":"1195 W Park Meadows Dr, Mapleton, UT 84664","precinct":"25MA10","hd":"63","v_score":"7.090117576","decile":"8","lat":40.112703205794,"lng":-111.59272034174},{"id":"107463","name":"Amiya Abbott","party":"","address":"1550 W 2600 S, Mapleton, UT 84664","precinct":"25MA10","hd":"63","v_score":"2.876042565","decile":"6","lat":40.106408337605,"lng":-111.597024707649},{"id":"109712","name":"Alexys Stanton DVM","party":"Dem","address":"1240 W Park Meadows Dr, Mapleton, UT 84664","precinct":"25MA10","hd":"63","v_score":"1.193887297","decile":"4","lat":40.112708902288,"lng":-111.593445520477},{"id":"111089","name":"Dillon Lind","party":"Dem","address":"2445 S 1600 W, Mapleton, UT 84664","precinct":"25MA10","hd":"63","v_score":"7.090117576","decile":"8","lat":40.107690294532,"lng":-111.597581418272},{"id":"111786","name":"Arlington Champlin","party":"","address":"1280 W 2800 S, Mapleton, UT 84664","precinct":"25MA10","hd":"63","v_score":"8.284004873","decile":"8","lat":40.104211111085,"lng":-111.594363927328},{"id":"114518","name":"Yvonne Lynch","party":"Dem","address":"2135 S Parkview Dr, Mapleton, UT 84664","precinct":"25MA10","hd":"63","v_score":"0","decile":"2","lat":40.11077821431,"lng":-111.591449057642},{"id":"123069","name":"Mai Waelchi-Kulas","party":"Rep","address":"1331 W 2800 S, Mapleton, UT 84664","precinct":"25MA10","hd":"63","v_score":"0","decile":"2","lat":40.104091917629,"lng":-111.594881301911},{"id":"125225","name":"Marcel Kuvalis","party":"Dem","address":"1423 W 2600 S, Mapleton, UT 84664","precinct":"25MA10","hd":"63","v_score":"0","decile":"2","lat":40.106312640389,"lng":-111.595543402053},{"id":"125310","name":"Miss Karly Schiller MD","party":"","address":"2030 S 2000 W, Mapleton, UT 84664","precinct":"25MA10","hd":"63","v_score":"0","decile":"2","lat":40.111084458243,"lng":-111.602435725148},{"id":"128855","name":"Gardner Haag","party":"","address":"2044 W 1900 S, Mapleton, UT 84664","precinct":"25MA10","hd":"63","v_score":"0","decile":"2","lat":40.112844309233,"lng":-111.603156691309},{"id":"130727","name":"Lakeisha Aufderhar DVM","party":"Dem","address":"1390 W Park Meadows Dr, Mapleton, UT 84664","precinct":"25MA10","hd":"63","v_score":"7.090117576","decile":"8","lat":40.113072187917,"lng":-111.595250948285},{"id":"135902","name":"Giancarlo Thiel","party":"Dem","address":"1195 W 1600 S, Mapleton, UT 84664","precinct":"25MA10","hd":"63","v_score":"15.4533012","decile":"9","lat":40.115614956874,"lng":-111.593053324301},{"id":"141655","name":"Chaya Kautzer DDS","party":"","address":"1555 W 2600 S, Mapleton, UT 84664","precinct":"25MA10","hd":"63","v_score":"6.896907962","decile":"8","lat":40.106293172188,"lng":-111.597068420028},{"id":"144539","name":"Mr. Tatsuo Kohler","party":"Dem","address":"2030 S 2000 W, Mapleton, UT 84664","precinct":"25MA10","hd":"63","v_score":"5.331806201","decile":"7","lat":40.111084458243,"lng":-111.602435725148},{"id":"145569","name":"Marlon Collins","party":"Dem","address":"2078 W 1900 S, Mapleton, UT 84664","precinct":"25MA10","hd":"63","v_score":"10.23840356","decile":"9","lat":40.112843154,"lng":-111.603466978549},{"id":"147862","name":"Lilia Stamm DDS","party":"Dem","address":"1948 S 2000 W, Mapleton, UT 84664","precinct":"25MA10","hd":"63","v_score":"8.280646305","decile":"8","lat":40.112128596493,"lng":-111.602724395956},{"id":"149311","name":"Mauro Crona-Doyle","party":"Dem","address":"2244 S 2000 W, Mapleton, UT 84664","precinct":"25MA10","hd":"63","v_score":"26.33466886","decile":"10","lat":40.111593579241,"lng":-111.602641498166},{"id":"149313","name":"Rhoda Goldner Jr.","party":"","address":"2244 S 2000 W, Mapleton, UT 84664","precinct":"25MA10","hd":"63","v_score":"26.33466886","decile":"10","lat":40.111593579241,"lng":-111.602641498166},{"id":"149770","name":"Gail Predovic","party":"","address":"1440 W Park Meadows Dr, Mapleton, UT 84664","precinct":"25MA10","hd":"63","v_score":"22.62271637","decile":"10","lat":40.113188870117,"lng":-111.595813643419},{"id":"150498","name":"Elisabeth Goldner-Feest","party":"Dem","address":"2160 S 800 W, Mapleton, UT 84664","precinct":"25MA10","hd":"63","v_score":"23.23647382","decile":"10","lat":40.110618324453,"lng":-111.588191899172},{"id":"150574","name":"Litzy Ryan","party":"Rep","address":"1948 S 2000 W, Mapleton, UT 84664","precinct":"25MA10","hd":"63","v_score":"8.280646305","decile":"8","lat":40.112128596493,"lng":-111.602724395956},{"id":"151038","name":"Erick Casper-Reichel","party":"Rep","address":"1440 W Park Meadows Dr, Mapleton, UT 84664","precinct":"25MA10","hd":"63","v_score":"18.46989245","decile":"10","lat":40.113188870117,"lng":-111.595813643419},{"id":"151301","name":"Britany Bergnaum","party":"","address":"1330 W Park Meadows Dr, Mapleton, UT 84664","precinct":"25MA10","hd":"63","v_score":"12.49472132","decile":"9","lat":40.11285323525,"lng":-111.594479329358},{"id":"151547","name":"Mr. Trenton Blanda","party":"Rep","address":"1330 W Park Meadows Dr, Mapleton, UT 84664","precinct":"25MA10","hd":"63","v_score":"15.43762891","decile":"9","lat":40.11285323525,"lng":-111.594479329358},{"id":"152882","name":"Michaele Swaniawski","party":"Dem","address":"2030 S 2000 W, Mapleton, UT 84664","precinct":"25MA10","hd":"63","v_score":"5.331806201","decile":"7","lat":40.111084458243,"lng":-111.602435725148},{"id":"153180","name":"Devin Glover","party":"","address":"1088 W Park Meadows Dr, Mapleton, UT 84664","precinct":"25MA10","hd":"63","v_score":"15.51131257","decile":"9","lat":40.112769605019,"lng":-111.591693803646},{"id":"153366","name":"Morgan Murphy","party":"","address":"1961 W 1900 S, Mapleton, UT 84664","precinct":"25MA10","hd":"63","v_score":"8.280646305","decile":"8","lat":40.112758446647,"lng":-111.602114153997},{"id":"155082","name":"Giada Klein","party":"","address":"930 W 2620 S, Mapleton, UT 84664","precinct":"25MA10","hd":"63","v_score":"36.68386427","decile":"10","lat":40.106354803114,"lng":-111.58975577744},{"id":"155129","name":"Miss Constance Prosacco MD","party":"Dem","address":"2420 S 800 W, Mapleton, UT 84664","precinct":"25MA10","hd":"63","v_score":"16.34722249","decile":"9","lat":40.108481180179,"lng":-111.588178652686},{"id":"155537","name":"Quinton Wintheiser","party":"Dem","address":"1721 S 2100 W, Mapleton, UT 84664","precinct":"25MA10","hd":"63","v_score":"22.62271637","decile":"10","lat":40.114282820185,"lng":-111.603664675392},{"id":"157609","name":"Sherwood Wisoky I","party":"Rep","address":"1455 W Elk View Cir, Mapleton, UT 84664","precinct":"25MA10","hd":"63","v_score":"14.04503691","decile":"9","lat":40.112177593483,"lng":-111.596001545112},{"id":"157633","name":"Miss Chiquita Leuschke MD","party":"Dem","address":"1555 W 2600 S, Mapleton, UT 84664","precinct":"25MA10","hd":"63","v_score":"10.8238813","decile":"9","lat":40.106293172188,"lng":-111.597068420028},{"id":"158842","name":"Vella Schowalter","party":"Dem","address":"1035 W 1600 S, Mapleton, UT 84664","precinct":"25MA10","hd":"63","v_score":"14.59895977","decile":"9","lat":40.115635833958,"lng":-111.591296158622},{"id":"158843","name":"Faith Littel","party":"Rep","address":"2420 S 800 W, Mapleton, UT 84664","precinct":"25MA10","hd":"63","v_score":"33.69839312","decile":"10","lat":40.108481180179,"lng":-111.588178652686},{"id":"162260","name":"Polly Glover","party":"","address":"1390 W Park Meadows Dr, Mapleton, UT 84664","precinct":"25MA10","hd":"63","v_score":"1.46627566","decile":"4","lat":40.113072187917,"lng":-111.595250948285},{"id":"164504","name":"Harriette Bode","party":"Dem","address":"1331 W 2800 S, Mapleton, UT 84664","precinct":"25MA10","hd":"63","v_score":"2.587603312","decile":"5","lat":40.104091917629,"lng":-111.594881301911},{"id":"167365","name":"Angel Koepp DVM","party":"Rep","address":"1224 W 2600 S, Mapleton, UT 84664","precinct":"25MA10","hd":"63","v_score":"22.05139277","decile":"10","lat":40.106460011869,"lng":-111.593260676407},{"id":"167495","name":"Avery Schulist PhD","party":"Dem","address":"1961 W 1900 S, Mapleton, UT 84664","precinct":"25MA10","hd":"63","v_score":"1.121327652","decile":"3","lat":40.112758446647,"lng":-111.602114153997},{"id":"167756","name":"Rella Kemmer-Gutkowski","party":"Dem","address":"2602 S 1600 W, Mapleton, UT 84664","precinct":"25MA10","hd":"63","v_score":"0","decile":"3","lat":40.106266603429,"lng":-111.597727818912},{"id":"169746","name":"Ms. Althea Strosin","party":"Dem","address":"1240 W Park Meadows Dr, Mapleton, UT 84664","precinct":"25MA10","hd":"63","v_score":"11.37977487","decile":"9","lat":40.112708902288,"lng":-111.593445520477},{"id":"169747","name":"Latarsha Williamson DVM","party":"","address":"1240 W Park Meadows Dr, Mapleton, UT 84664","precinct":"25MA10","hd":"63","v_score":"11.37977487","decile":"9","lat":40.112708902288,"lng":-111.593445520477},{"id":"172947","name":"Darian O'Kon","party":"Dem","address":"1745 S 1600 W, Mapleton, UT 84664","precinct":"25MA10","hd":"63","v_score":"0","decile":"3","lat":40.114371325649,"lng":-111.597586990666},{"id":"174145","name":"Daulton Kris","party":"Dem","address":"2135 S Parkview Dr, Mapleton, UT 84664","precinct":"25MA10","hd":"63","v_score":"16.8542869","decile":"9","lat":40.11077821431,"lng":-111.591449057642},{"id":"178175","name":"Madelyn Hackett","party":"","address":"1550 W 2600 S, Mapleton, UT 84664","precinct":"25MA10","hd":"63","v_score":"18.40864136","decile":"10","lat":40.106408337605,"lng":-111.597024707649},{"id":"179133","name":"Jayden Keeling","party":"Rep","address":"2062 S Parkview Dr, Mapleton, UT 84664","precinct":"25MA10","hd":"63","v_score":"25.12475253","decile":"10","lat":40.111564465782,"lng":-111.591704829637}]