[{"vid":"779393","name":"Arlena Kutch-Kutch","party":"","address":"1470 W 1400 N, Mapleton, UT 84664","precinct":"25MA01","hd":"63","v_score":"0","decile":"1","lat":40.14331802115757,"lng":-111.59645227384244},{"vid":"1233734","name":"Minda Torp","party":"Dem","address":"1837 N 1250 W, Mapleton, UT 84664","precinct":"25MA01","hd":"63","v_score":"15.02443211","decile":"9","lat":40.14684720421263,"lng":-111.59418308998465},{"vid":"1261809","name":"Patsy Bauch","party":"Rep","address":"2070 N 700 W, Mapleton, UT 84664","precinct":"25MA01","hd":"63","v_score":"8.903210001","decile":"8","lat":40.14906260677859,"lng":-111.58666851394347},{"vid":"1278865","name":"Mr. Urijah Walter","party":"Dem","address":"1326 N 1380 W, Mapleton, UT 84664","precinct":"25MA01","hd":"63","v_score":"6.897264703","decile":"8","lat":40.14240920537372,"lng":-111.5949026199699},{"vid":"1282076","name":"Louie O'Kon","party":"","address":"1525 W 1600 N, Mapleton, UT 84664","precinct":"25MA01","hd":"63","v_score":"0","decile":"1","lat":40.144566285766004,"lng":-111.59722991555985},{"vid":"1288668","name":"Ms. Lura Skiles","party":"Dem","address":"148 W Carnesecca Ct, Mapleton, UT 84664","precinct":"25MA01","hd":"63","v_score":"9.61867875","decile":"8","lat":40.146398439997405,"lng":-111.58070206943789},{"vid":"d58b18825743ecbb0bc630d84565df8156b9813efce7fd5b939f1cdf732b3e38","name":"Almeda Breitenberg","party":"Rep","address":"1442 W 1800 N, Mapleton, UT 84664","precinct":"25MA01","hd":"63","v_score":"25.72541572","decile":"10","lat":40.146987685560795,"lng":-111.59630110301083},{"vid":"ac605614aadb63d2ea87925b5ae4bee51a7d8d35d4b4cacc1e0da40c939fe2a2","name":"Mellisa Waters","party":"Dem","address":"885 W 1800 N, Mapleton, UT 84664","precinct":"25MA01","hd":"63","v_score":"21.85180194","decile":"10","lat":40.146499311159715,"lng":-111.58946428319989},{"vid":"1343970","name":"Mrs. Makayla Prosacco","party":"","address":"450 W 2000 N, Mapleton, UT 84664","precinct":"25MA01","hd":"63","v_score":"18.11188939","decile":"10","lat":40.14884698264879,"lng":-111.58455546591993},{"vid":"7cc5ee6d5febb535991588fa02c4b9faab7c2e0c157067bd24a7aba802dd8d7d","name":"Carma Ziemann-Kuhic","party":"Dem","address":"1776 N 800 W, Mapleton, UT 84664","precinct":"25MA01","hd":"63","v_score":"3.93832808","decile":"6","lat":40.14656921020878,"lng":-111.58812621430125},{"vid":"9f0a2ce4f9d88bec0c2ca6946c2addc368b68f9448d53a12f2323f577fcf673a","name":"Arvilla Lehner MD","party":"","address":"1385 W 2000 N, Mapleton, UT 84664","precinct":"25MA01","hd":"63","v_score":"8.280646305","decile":"8","lat":40.1483243802828,"lng":-111.59538813216032},{"vid":"1353174","name":"Rosalyn Doyle","party":"Dem","address":"1465 N 1200 W, Mapleton, UT 84664","precinct":"25MA01","hd":"63","v_score":"2.315214949","decile":"5","lat":40.143570691655015,"lng":-111.59356952781378},{"vid":"1353728","name":"Miss Kayli Jerde","party":"","address":"1986 N 1600 W, Mapleton, UT 84664","precinct":"25MA01","hd":"63","v_score":"0","decile":"1","lat":40.14826793458234,"lng":-111.59774664483692},{"vid":"bc4a5fea64ccd7753a75b9998fd56249a0898eece3c43a65688208f1d1850c8b","name":"Patric Kautzer","party":"","address":"1749 N 800 W, Mapleton, UT 84664","precinct":"25MA01","hd":"63","v_score":"18.54373362","decile":"10","lat":40.14623655823449,"lng":-111.58867016997345},{"vid":"1371861","name":"Dr. Lenwood Von","party":"Rep","address":"1385 W 2000 N, Mapleton, UT 84664","precinct":"25MA01","hd":"63","v_score":"8.280646305","decile":"8","lat":40.1483243802828,"lng":-111.59538813216032},{"vid":"1411513","name":"Dr. Lorean Murray","party":"Rep","address":"80 W 1600 N, Mapleton, UT 84664","precinct":"25MA01","hd":"63","v_score":"0","decile":"1","lat":40.145095837429224,"lng":-111.57958432657986},{"vid":"1415810","name":"Miss Kayli Fahey DVM","party":"Dem","address":"965 W 1700 N, Mapleton, UT 84664","precinct":"25MA01","hd":"63","v_score":"25.23294859","decile":"10","lat":40.14559900643859,"lng":-111.59040022141406},{"vid":"1431316","name":"Nicholaus Cormier","party":"","address":"550 W 2000 N, Mapleton, UT 84664","precinct":"25MA01","hd":"63","v_score":"26.33466886","decile":"10","lat":40.14884539649411,"lng":-111.58589607392072},{"vid":"1447505","name":"Suzanne Waelchi","party":"Rep","address":"65 W Carnesecca Ct, Mapleton, UT 84664","precinct":"25MA01","hd":"63","v_score":"38.5136703","decile":"10","lat":40.14606622368499,"lng":-111.57943937119379},{"vid":"1452578","name":"Rene Ward","party":"Rep","address":"1663 N 300 W, Mapleton, UT 84664","precinct":"25MA01","hd":"63","v_score":"4.214075011","decile":"7","lat":40.14544890423257,"lng":-111.5828279359193},{"vid":"b13a80e0191057bef40bb3e48b26976f3ab0419b92e57d3a10afef134358adf8","name":"Consuela Hegmann","party":"","address":"965 W 1700 N, Mapleton, UT 84664","precinct":"25MA01","hd":"63","v_score":"9.757278238","decile":"8","lat":40.14559900643859,"lng":-111.59040022141406},{"vid":"1476865","name":"Vernetta Kemmer DDS","party":"","address":"1560 N 1800 W, Mapleton, UT 84664","precinct":"25MA01","hd":"63","v_score":"0","decile":"1","lat":40.14434949553772,"lng":-111.60171857818274},{"vid":"4662963faa290c879180991245c6fd02ece0c33cffb53a691c775c30a8e60c59","name":"Mr. Kerwin Runolfsson","party":"Dem","address":"1897 N 1250 W, Mapleton, UT 84664","precinct":"25MA01","hd":"63","v_score":"6.881235673","decile":"8","lat":40.14756098000746,"lng":-111.59436116258836},{"vid":"1498093","name":"Llewellyn Zulauf","party":"Dem","address":"1915 N 700 W, Apt B, Mapleton, UT 84664","precinct":"25MA01","hd":"63","v_score":"2.744440783","decile":"5","lat":40.14780835377817,"lng":-111.58764868919599},{"vid":"1504638","name":"Starla Harber","party":"Rep","address":"1736 N 1500 W, Mapleton, UT 84664","precinct":"25MA01","hd":"63","v_score":"15.45891513","decile":"9","lat":40.1460413001499,"lng":-111.59659791038402},{"vid":"1510726","name":"Dr. Mae Towne","party":"","address":"1502 N 900 W, Mapleton, UT 84664","precinct":"25MA01","hd":"63","v_score":"9.405332525","decile":"8","lat":40.143975278513885,"lng":-111.58916764745562},{"vid":"1513766","name":"Isidro Schmeler","party":"","address":"1489 N 1200 W, Mapleton, UT 84664","precinct":"25MA01","hd":"63","v_score":"1.46627566","decile":"4","lat":40.14389622410782,"lng":-111.59374664445892},{"vid":"1528076","name":"Mabelle Corkery MD","party":"Dem","address":"928 W 1700 N, Mapleton, UT 84664","precinct":"25MA01","hd":"63","v_score":"9.40499548","decile":"8","lat":40.14596994743997,"lng":-111.58989434114014},{"vid":"1553230","name":"Dorthea Leuschke","party":"Rep","address":"520 W 1600 N, Mapleton, UT 84664","precinct":"25MA01","hd":"63","v_score":"1.121327652","decile":"3","lat":40.14506612151075,"lng":-111.584846494778},{"vid":"b7be539b9022e6ae58aa18f15511b7142e65292deefdf7c579928da1d83c69f8","name":"Parthenia Mosciski DDS","party":"Dem","address":"1477 N 1600 W, Mapleton, UT 84664","precinct":"25MA01","hd":"63","v_score":"1.121327652","decile":"3","lat":40.143761799275026,"lng":-111.59922410850622},{"vid":"1563523","name":"Winifred Ullrich","party":"","address":"1262 N 1380 W, Mapleton, UT 84664","precinct":"25MA01","hd":"63","v_score":"0","decile":"1","lat":40.141774286382095,"lng":-111.59488144711497},{"vid":"1578415","name":"Dr. Mae Smitham","party":"Dem","address":"1370 W 1600 N, Mapleton, UT 84664","precinct":"25MA01","hd":"63","v_score":"0","decile":"1","lat":40.145197308102254,"lng":-111.59530609989672},{"vid":"1586789","name":"Catalina Friesen-Jacobson","party":"Rep","address":"1714 N 500 W, Mapleton, UT 84664","precinct":"25MA01","hd":"63","v_score":"14.74039814","decile":"9","lat":40.14579941764342,"lng":-111.58436256654672},{"vid":"1598343","name":"Mrs. Sena Ortiz MD","party":"","address":"1256 N 1600 W, Mapleton, UT 84664","precinct":"25MA01","hd":"63","v_score":"19.30359342","decile":"10","lat":40.141733732207356,"lng":-111.59753739055597},{"vid":"1604421","name":"Mr. Shellie Towne","party":"Rep","address":"960 W 1800 N, Mapleton, UT 84664","precinct":"25MA01","hd":"63","v_score":"1.121327652","decile":"3","lat":40.147118838722015,"lng":-111.59042066004434},{"vid":"49fc5aa525736f9f6c7a71ffeb0eb992ff48865c7f740e85d06f6c7206e7c7de","name":"Raoul Marvin","party":"Dem","address":"1052 W 1700 N, Mapleton, UT 84664","precinct":"25MA01","hd":"63","v_score":"12.13417825","decile":"9","lat":40.14619726924194,"lng":-111.59187944139083},{"vid":"1628913","name":"Mr. Clare Stark V","party":"Dem","address":"2438 W Townhouse Dr, Mapleton, UT 84664","precinct":"25MA01","hd":"63","v_score":"20.08347482","decile":"10","lat":40.12117350988816,"lng":-111.60779656234935},{"vid":"1923ea09237ed2af90a77c863d5101275e50f4e86a3c8f67a57028cdad034dca","name":"Andria Kreiger","party":"","address":"1396 W 1600 N, Mapleton, UT 84664","precinct":"25MA01","hd":"63","v_score":"26.33466886","decile":"10","lat":40.145617177342125,"lng":-111.59536568710587},{"vid":"ee0696537a7872c0f65b9e51edecb0d423264c1a5b2daf3340b58eb2c334aef0","name":"Karon Carroll","party":"","address":"1396 W 1600 N, Mapleton, UT 84664","precinct":"25MA01","hd":"63","v_score":"24.8683932","decile":"10","lat":40.145617177342125,"lng":-111.59536568710587},{"vid":"1637386","name":"Sarita Reichert","party":"Dem","address":"863 W 1700 N, Mapleton, UT 84664","precinct":"25MA01","hd":"63","v_score":"5.604194564","decile":"7","lat":40.14547176067036,"lng":-111.58915869505512},{"vid":"1652361","name":"Charlotta Wintheiser-Schinner","party":"","address":"1973 N 600 W, Mapleton, UT 84664","precinct":"25MA01","hd":"63","v_score":"4.069929862","decile":"6","lat":40.14841179816752,"lng":-111.5862030762314},{"vid":"1655432","name":"Alfonso Stark","party":"Dem","address":"1630 N 1650 W, Mapleton, UT 84664","precinct":"25MA01","hd":"63","v_score":"12.71559837","decile":"9","lat":40.144956481485345,"lng":-111.59876925413198},{"vid":"1655958","name":"Sharleen Aufderhar","party":"Rep","address":"374 W 2000 N, Mapleton, UT 84664","precinct":"25MA01","hd":"63","v_score":"1.46627566","decile":"4","lat":40.148999161333414,"lng":-111.58346584846718},{"vid":"1655959","name":"Dr. Tyrique Moore Jr.","party":"Dem","address":"374 W 2000 N, Mapleton, UT 84664","precinct":"25MA01","hd":"63","v_score":"1.46627566","decile":"4","lat":40.148999161333414,"lng":-111.58346584846718},{"vid":"1657924","name":"Ludwig Stokes-Douglas","party":"","address":"1556 N 800 W, Mapleton, UT 84664","precinct":"25MA01","hd":"63","v_score":"9.405332525","decile":"8","lat":40.14437894828928,"lng":-111.58799091713585},{"vid":"43cace1a0fad42b96691cd7300d87f4902e57b85f5492fe23f9f1b5e1142fae2","name":"Elige Becker","party":"Rep","address":"1630 N 1600 W, Mapleton, UT 84664","precinct":"25MA01","hd":"63","v_score":"4.465184987","decile":"7","lat":40.14503173041447,"lng":-111.59782153980763},{"vid":"1671586","name":"Tahj Kub","party":"Rep","address":"1860 N 1250 W, Mapleton, UT 84664","precinct":"25MA01","hd":"63","v_score":"21.84896306","decile":"10","lat":40.147208314343864,"lng":-111.59362147972227},{"vid":"1672281","name":"Antoine Swift","party":"","address":"1041 W 1800 N, Mapleton, UT 84664","precinct":"25MA01","hd":"63","v_score":"1.623113131","decile":"4","lat":40.146545462744015,"lng":-111.59184894092192},{"vid":"1697482","name":"Burley Mann V","party":"","address":"1401 N 800 W, Mapleton, UT 84664","precinct":"25MA01","hd":"63","v_score":"3.93832808","decile":"6","lat":40.14306470957353,"lng":-111.58869236698479},{"vid":"1700190","name":"Ola Streich-Little","party":"","address":"1714 N 500 W, Mapleton, UT 84664","precinct":"25MA01","hd":"63","v_score":"2.587603312","decile":"5","lat":40.14579941764342,"lng":-111.58436256654672},{"vid":"59ce50b7cca55e6ef834ad04e6ed848f6397cb1f2bb65b3a647bf431a6191251","name":"Olie Donnelly","party":"Rep","address":"1478 W 1800 N, Mapleton, UT 84664","precinct":"25MA01","hd":"63","v_score":"4.210716443","decile":"7","lat":40.146960847747984,"lng":-111.59665618530343},{"vid":"1720084","name":"Jennie Rath","party":"Dem","address":"2070 N 700 W, Mapleton, UT 84664","precinct":"25MA01","hd":"63","v_score":"19.03120506","decile":"10","lat":40.14906260677859,"lng":-111.58666851394347},{"vid":"1796637","name":"Tella Becker DDS","party":"Dem","address":"1897 N 1250 W, Mapleton, UT 84664","precinct":"25MA01","hd":"63","v_score":"12.71585812","decile":"9","lat":40.14756098000746,"lng":-111.59436116258836},{"vid":"1803251","name":"Mr. Fidencio Fadel","party":"Dem","address":"1696 N 300 W, Mapleton, UT 84664","precinct":"25MA01","hd":"63","v_score":"5.191257514","decile":"7","lat":40.145839378024604,"lng":-111.58159165268607},{"vid":"1804894","name":"Felicia Sawayn","party":"Dem","address":"1643 N 1100 W, Mapleton, UT 84664","precinct":"25MA01","hd":"63","v_score":"2.660162957","decile":"5","lat":40.14539935450223,"lng":-111.59325605494615},{"vid":"1805447","name":"Miss Vergie Hilll","party":"","address":"1675 N 1000 W, Mapleton, UT 84664","precinct":"25MA01","hd":"63","v_score":"1.46627566","decile":"4","lat":40.14577458586166,"lng":-111.59128819589726},{"vid":"1814407","name":"Ludwig Bednar-Heaney","party":"","address":"1355 N 900 W, Mapleton, UT 84664","precinct":"25MA01","hd":"63","v_score":"1.121327652","decile":"3","lat":40.142782331983454,"lng":-111.58984305568347},{"vid":"5e62f6d3962e683dc7306f330ef47edafc8f5775cb9baae33c147f6d3bb411ce","name":"Colt Thompson","party":"Rep","address":"1791 N 1600 W, Mapleton, UT 84664","precinct":"25MA01","hd":"63","v_score":"6.798081861","decile":"8","lat":40.14653854005414,"lng":-111.59839952457507},{"vid":"1836053","name":"Brant Beahan","party":"Dem","address":"1741 N 500 W, Mapleton, UT 84664","precinct":"25MA01","hd":"63","v_score":"0","decile":"1","lat":40.14618431537207,"lng":-111.58495191617037},{"vid":"1843623","name":"Fleta Boyer-Krajcik","party":"Dem","address":"825 W 2000 N, Mapleton, UT 84664","precinct":"25MA01","hd":"63","v_score":"1.121327652","decile":"3","lat":40.148262524583174,"lng":-111.58865900379226},{"vid":"1843766","name":"Tyra Grimes-Miller","party":"","address":"1579 W Apple Orchard Ln, Mapleton, UT 84664","precinct":"25MA01","hd":"63","v_score":"3.93832808","decile":"6","lat":40.147345455168654,"lng":-111.59785740086079},{"vid":"ea84243256a47a6743ad1e9146a8e9683fede615ee952d5da3dee38438588b3a","name":"Lowell Crona","party":"","address":"1485 W 2000 N, Mapleton, UT 84664","precinct":"25MA01","hd":"63","v_score":"13.61621523","decile":"9","lat":40.148340265575165,"lng":-111.59604983638808},{"vid":"1853795","name":"Mona Schmitt","party":"Rep","address":"1825 N 800 W, Mapleton, UT 84664","precinct":"25MA01","hd":"63","v_score":"1.121327652","decile":"3","lat":40.14690180140997,"lng":-111.58852418907269},{"vid":"1854109","name":"Griffith Harris","party":"Rep","address":"1925 N 1250 W, Mapleton, UT 84664","precinct":"25MA01","hd":"63","v_score":"25.64829348","decile":"10","lat":40.147860309425894,"lng":-111.59436794864166},{"vid":"33e2aefb55959e3b35e2f39ec15c651c27d25a98751acdea143452c71f7e7204","name":"Sophronia Price-Kuhlman","party":"","address":"1288 W 1500 N, Mapleton, UT 84664","precinct":"25MA01","hd":"63","v_score":"1.46627566","decile":"4","lat":40.14406880101354,"lng":-111.59433461019269},{"vid":"1870912","name":"Adrienne Gulgowski","party":"","address":"1384 N 1000 W, Mapleton, UT 84664","precinct":"25MA01","hd":"63","v_score":"3.102699348","decile":"6","lat":40.1430123386463,"lng":-111.59049495589863},{"vid":"1875568","name":"Taj Prosacco","party":"","address":"1555 N 1600 W, Mapleton, UT 84664","precinct":"25MA01","hd":"63","v_score":"2.817000428","decile":"6","lat":40.14420893197567,"lng":-111.59851059261045},{"vid":"1880539","name":"Mr. Luca Volkman","party":"","address":"1533 N 800 W, Mapleton, UT 84664","precinct":"25MA01","hd":"63","v_score":"3.781490609","decile":"6","lat":40.14425374951361,"lng":-111.58864517806371},{"vid":"dc6d0c92e939c2ae86cfcf7c09f0e2d241de1f339ab52d2f12a35594f4b70034","name":"Dr. Chet Kerluke PhD","party":"","address":"430 W 2000 N, Mapleton, UT 84664","precinct":"25MA01","hd":"63","v_score":"19.16525368","decile":"10","lat":40.14890542385893,"lng":-111.58405287941072},{"vid":"1903065","name":"Dr. Arthur Hand I","party":"Rep","address":"1410 N 900 W, Mapleton, UT 84664","precinct":"25MA01","hd":"63","v_score":"2.587603312","decile":"5","lat":40.14306155182696,"lng":-111.58916067976298},{"vid":"1904634","name":"Hildur Schowalter-Reichert","party":"","address":"1663 N 300 W, Mapleton, UT 84664","precinct":"25MA01","hd":"63","v_score":"9.750280533","decile":"8","lat":40.14544890423257,"lng":-111.5828279359193},{"vid":"1906321","name":"Ms. Elna Turner","party":"Dem","address":"1256 N 1600 W, Mapleton, UT 84664","precinct":"25MA01","hd":"63","v_score":"19.30359342","decile":"10","lat":40.141733732207356,"lng":-111.59753739055597},{"vid":"1910352","name":"Yessenia Von","party":"","address":"1563 W 2000 N, Mapleton, UT 84664","precinct":"25MA01","hd":"63","v_score":"2.315214949","decile":"5","lat":40.1482806151873,"lng":-111.5973504344857},{"vid":"1910964","name":"Pandora Veum","party":"","address":"846 W 1800 N, Mapleton, UT 84664","precinct":"25MA01","hd":"63","v_score":"12.51600754","decile":"9","lat":40.147110450839904,"lng":-111.58902624400608},{"vid":"1913070","name":"Dr. Cornie Hane DDS","party":"Rep","address":"1310 W 1600 N, Mapleton, UT 84664","precinct":"25MA01","hd":"63","v_score":"22.12059385","decile":"10","lat":40.14513994350988,"lng":-111.59454816544999},{"vid":"1941476","name":"Mrs. Allisson Thompson MD","party":"Dem","address":"1690 N 700 W, Mapleton, UT 84664","precinct":"25MA01","hd":"63","v_score":"16.64754524","decile":"9","lat":40.14585507107427,"lng":-111.58678740186899},{"vid":"1967037","name":"Levar Ryan","party":"Rep","address":"768 W 1600 N, Mapleton, UT 84664","precinct":"25MA01","hd":"63","v_score":"20.22868881","decile":"10","lat":40.145026021473114,"lng":-111.58803195633668},{"vid":"1969152","name":"Kellie Wehner","party":"","address":"1700 N 1650 W, Mapleton, UT 84664","precinct":"25MA01","hd":"63","v_score":"5.40460374","decile":"7","lat":40.145692656659826,"lng":-111.59885760494197},{"vid":"1971067","name":"Lennie Cremin","party":"Dem","address":"1579 W Apple Orchard Ln, Mapleton, UT 84664","precinct":"25MA01","hd":"63","v_score":"3.93832808","decile":"6","lat":40.147345455168654,"lng":-111.59785740086079},{"vid":"1971739","name":"Nyree Okuneva","party":"Dem","address":"88 W Carnesecca Ct, Mapleton, UT 84664","precinct":"25MA01","hd":"63","v_score":"26.75241069","decile":"10","lat":40.14660596029967,"lng":-111.57972371018033},{"vid":"ee4dba6257b628880d9d8f1eb8297a78c4200f7faeb0e3284095b66c88ad1982","name":"Rodolfo Crist","party":"Rep","address":"1495 W 1600 N, Mapleton, UT 84664","precinct":"25MA01","hd":"63","v_score":"5.40460374","decile":"7","lat":40.144512230307626,"lng":-111.59688939621569},{"vid":"1972407","name":"Juston Gleason","party":"Dem","address":"1662 W 1200 N, Mapleton, UT 84664","precinct":"25MA01","hd":"63","v_score":"1.121327652","decile":"3","lat":40.14158126518703,"lng":-111.59870237342713},{"vid":"1991948","name":"Dianna Carroll MD","party":"Dem","address":"1940 N 700 W, Mapleton, UT 84664","precinct":"25MA01","hd":"63","v_score":"5.191257514","decile":"7","lat":40.147803117602294,"lng":-111.58695356725958},{"vid":"89732f7d316fce29be27e8b56b4403b377c25e86d64b5fbce6a01c43089c19c3","name":"Ms. Merle Douglas DVM","party":"Rep","address":"1764 W 1200 N, Mapleton, UT 84664","precinct":"25MA01","hd":"63","v_score":"1.193887297","decile":"3","lat":40.14152261621131,"lng":-111.59989240923359},{"vid":"1995561","name":"Salome Swaniawski","party":"Rep","address":"1351 N 800 W, Mapleton, UT 84664","precinct":"25MA01","hd":"63","v_score":"0","decile":"1","lat":40.142354543986414,"lng":-111.58852576115589},{"vid":"2001807","name":"Hailee Goodwin","party":"Dem","address":"1225 N 800 W, Mapleton, UT 84664","precinct":"25MA01","hd":"63","v_score":"11.02844566","decile":"9","lat":40.14139488241328,"lng":-111.58846011756455},{"vid":"2001811","name":"Leanne Dietrich","party":"Rep","address":"1384 N 1000 W, Mapleton, UT 84664","precinct":"25MA01","hd":"63","v_score":"5.40460374","decile":"7","lat":40.1430123386463,"lng":-111.59049495589863},{"vid":"2011684","name":"Lesta Toy","party":"","address":"1892 N 1350 W, Mapleton, UT 84664","precinct":"25MA01","hd":"63","v_score":"12.51936611","decile":"9","lat":40.14755346053034,"lng":-111.59485115943986},{"vid":"2021118","name":"Thedore Erdman","party":"Rep","address":"940 W 1800 N, Mapleton, UT 84664","precinct":"25MA01","hd":"63","v_score":"5.258122542","decile":"7","lat":40.14710846431924,"lng":-111.59002748358424},{"vid":"2033636","name":"Cicely O'Conner","party":"","address":"1032 W 1900 N, Mapleton, UT 84664","precinct":"25MA01","hd":"63","v_score":"13.98702554","decile":"9","lat":40.14780716805193,"lng":-111.59170139087834},{"vid":"2033929","name":"Eddy McGlynn DVM","party":"","address":"1390 W 2000 N, Mapleton, UT 84664","precinct":"25MA01","hd":"63","v_score":"2.315214949","decile":"5","lat":40.14881444607729,"lng":-111.595054306704},{"vid":"2034674","name":"Zina Dickens","party":"","address":"966 W 1900 N, Mapleton, UT 84664","precinct":"25MA01","hd":"63","v_score":"2.587603312","decile":"5","lat":40.14781232877335,"lng":-111.59078714158804},{"vid":"2035385","name":"Arlie Homenick II","party":"","address":"1538 N 900 W, Mapleton, UT 84664","precinct":"25MA01","hd":"63","v_score":"5.331806201","decile":"7","lat":40.14428080369711,"lng":-111.58916998774663},{"vid":"2041670","name":"Hilario Lueilwitz","party":"Rep","address":"1237 N 1200 W, Mapleton, UT 84664","precinct":"25MA01","hd":"63","v_score":"10.13721141","decile":"9","lat":40.141537357226866,"lng":-111.59362654460351},{"vid":"2048959","name":"Mr. Ashby Legros Jr.","party":"Rep","address":"1892 N 1350 W, Mapleton, UT 84664","precinct":"25MA01","hd":"63","v_score":"1.46627566","decile":"4","lat":40.14755346053034,"lng":-111.59485115943986},{"vid":"2063259","name":"Nikko Parisian","party":"Rep","address":"1095 W 2000 N, Mapleton, UT 84664","precinct":"25MA01","hd":"63","v_score":"5.40460374","decile":"7","lat":40.14821312833007,"lng":-111.59200706926529},{"vid":"2066659","name":"Luna Batz","party":"Rep","address":"1538 N 900 W, Mapleton, UT 84664","precinct":"25MA01","hd":"63","v_score":"9.545544167","decile":"8","lat":40.14428080369711,"lng":-111.58916998774663},{"vid":"2069489","name":"Daphne Beier-Lehner","party":"Rep","address":"1016 W 1900 N, Mapleton, UT 84664","precinct":"25MA01","hd":"63","v_score":"3.93832808","decile":"6","lat":40.147889924641895,"lng":-111.5912204472312},{"vid":"cea30a9509c6dc91fc90e3168a2dc45dc540ae758445dade5720732908eadd7d","name":"Geneva Runte-Schaden","party":"Rep","address":"1633 N 300 W, Mapleton, UT 84664","precinct":"25MA01","hd":"63","v_score":"3.781490609","decile":"6","lat":40.1450719795985,"lng":-111.58241099041234},{"vid":"df77d51eb6b1f99fac15e39d4a1f146e1cf40bef8b7f8b31c33c817361d4927d","name":"Jovita Morar","party":"Rep","address":"876 W 1300 N, Mapleton, UT 84664","precinct":"25MA01","hd":"63","v_score":"31.5296891","decile":"10","lat":40.1423496714456,"lng":-111.58925690036807},{"vid":"2082342","name":"Kaia Mayert","party":"Dem","address":"865 W 1800 N, Mapleton, UT 84664","precinct":"25MA01","hd":"63","v_score":"9.843102335","decile":"8","lat":40.14649634703084,"lng":-111.58910661447793},{"vid":"2083885","name":"Cleve Pfeffer","party":"Rep","address":"928 W 1900 N, Mapleton, UT 84664","precinct":"25MA01","hd":"63","v_score":"22.62271637","decile":"10","lat":40.14770179668059,"lng":-111.5902497442845},{"vid":"37674119950f1c7e3c19876cdd3391c54e42b5e98ea6a6e9b0336628c0a2d2c4","name":"Weaver Fahey V","party":"Dem","address":"1538 N 900 W, Mapleton, UT 84664","precinct":"25MA01","hd":"63","v_score":"2.315214949","decile":"5","lat":40.14428080369711,"lng":-111.58916998774663},{"vid":"977038de3923917640fd1807c6b58477d8cf89dada9e8229dbc282c33caee844","name":"Juwan Von","party":"Rep","address":"374 W 2000 N, Mapleton, UT 84664","precinct":"25MA01","hd":"63","v_score":"4.210716443","decile":"7","lat":40.148999161333414,"lng":-111.58346584846718},{"vid":"938770ec9d05f57daa6e16762569cbfad059e2b76e8b3bd776a146a91bddd9eb","name":"Lauryn Rowe MD","party":"","address":"1873 N 700 W, Mapleton, UT 84664","precinct":"25MA01","hd":"63","v_score":"15.51131257","decile":"9","lat":40.14744493594194,"lng":-111.58756035800383},{"vid":"2119038","name":"Ami Pagac","party":"Rep","address":"720 W 1800 N, Mapleton, UT 84664","precinct":"25MA01","hd":"63","v_score":"0","decile":"1","lat":40.14690767270867,"lng":-111.5874948680176},{"vid":"2128348","name":"Ms. Winnifred Schroeder MD","party":"Dem","address":"1776 N 800 W, Mapleton, UT 84664","precinct":"25MA01","hd":"63","v_score":"0","decile":"1","lat":40.14656921020878,"lng":-111.58812621430125},{"vid":"2130254","name":"Jon Rippin","party":"Rep","address":"1929 N 600 W, Mapleton, UT 84664","precinct":"25MA01","hd":"63","v_score":"0","decile":"1","lat":40.14808552868328,"lng":-111.58618219272377},{"vid":"1b475b75f918ddcc0359269223b6371b659a7caa7e0d24181593af802448a4d7","name":"Patti Dach DVM","party":"Dem","address":"1016 W 1900 N, Mapleton, UT 84664","precinct":"25MA01","hd":"63","v_score":"5.530510904","decile":"7","lat":40.147889924641895,"lng":-111.5912204472312},{"vid":"2145673","name":"Michael Reichel","party":"","address":"465 W 2000 N, Mapleton, UT 84664","precinct":"25MA01","hd":"63","v_score":"1.121327652","decile":"3","lat":40.14834110358797,"lng":-111.58447212058722},{"vid":"2153339","name":"Ms. Citlali Hartmann","party":"Rep","address":"1032 W 1900 N, Mapleton, UT 84664","precinct":"25MA01","hd":"63","v_score":"14.74039814","decile":"9","lat":40.14780716805193,"lng":-111.59170139087834},{"vid":"2164141","name":"Gaylon Jacobson","party":"","address":"1035 W 1600 N, Mapleton, UT 84664","precinct":"25MA01","hd":"63","v_score":"8.280646305","decile":"8","lat":40.144706044231114,"lng":-111.5912409487048},{"vid":"a2c747fa78a93c3c54bd9599741e18bbd1d807f70cff60714f56d32e42bef349","name":"Elizah Morar","party":"Dem","address":"1729 N 1600 W, Mapleton, UT 84664","precinct":"25MA01","hd":"63","v_score":"17.74888221","decile":"10","lat":40.14605347267947,"lng":-111.59855065141919},{"vid":"bbd6a51ccfcd528d1873aa70b32e0506ecf85d7c3fa3d68f71d2ccf0b65d02b6","name":"Kadeem Luettgen","party":"Rep","address":"949 W 1800 N, Mapleton, UT 84664","precinct":"25MA01","hd":"63","v_score":"2.660162957","decile":"5","lat":40.14644496915802,"lng":-111.59029171976118},{"vid":"1a5a23229fcc28b551e939704a95d889cb24c3ec01d776243a85bdef657eca2b","name":"Harlow Kreiger-Rolfson","party":"Dem","address":"1478 W 1800 N, Mapleton, UT 84664","precinct":"25MA01","hd":"63","v_score":"2.587603312","decile":"5","lat":40.146960847747984,"lng":-111.59665618530343},{"vid":"2168844","name":"Mr. Earlie Monahan I","party":"","address":"1288 W 1500 N, Mapleton, UT 84664","precinct":"25MA01","hd":"63","v_score":"5.40460374","decile":"7","lat":40.14406880101354,"lng":-111.59433461019269},{"vid":"8d027d42e7fe914b4aaf8d6714cc01c293f31136b975cd0f2665155c01e33fc4","name":"Geovanni Roob","party":"Dem","address":"1261 N 1380 W, Mapleton, UT 84664","precinct":"25MA01","hd":"63","v_score":"14.74039814","decile":"9","lat":40.14177355502685,"lng":-111.59560596110614},{"vid":"2179478","name":"Mr. Skylar Lueilwitz DVM","party":"Dem","address":"1986 N 1600 W, Mapleton, UT 84664","precinct":"25MA01","hd":"63","v_score":"1.193887297","decile":"3","lat":40.14826793458234,"lng":-111.59774664483692},{"vid":"2181480","name":"Admiral Hudson DDS","party":"Dem","address":"1390 W 2000 N, Mapleton, UT 84664","precinct":"25MA01","hd":"63","v_score":"2.817000428","decile":"6","lat":40.14881444607729,"lng":-111.595054306704},{"vid":"2186727","name":"Derik Welch","party":"Rep","address":"1510 N 1600 W, Mapleton, UT 84664","precinct":"25MA01","hd":"63","v_score":"1.121327652","decile":"3","lat":40.14400568322094,"lng":-111.59758545042368},{"vid":"d39f9ba40ea7e6e4c5505d3237e9b1ed782a48899a6c779993f3ea48b3e946eb","name":"Darrick Flatley","party":"","address":"1892 N 1350 W, Mapleton, UT 84664","precinct":"25MA01","hd":"63","v_score":"0","decile":"1","lat":40.14755346053034,"lng":-111.59485115943986},{"vid":"2189459","name":"Sylas Beier V","party":"","address":"1477 N 1600 W, Mapleton, UT 84664","precinct":"25MA01","hd":"63","v_score":"0","decile":"1","lat":40.143761799275026,"lng":-111.59922410850622},{"vid":"6031b76262ec148b7b91170d8e35a839ca0bc974406d817f29f8da5948978c65","name":"Makaila Dietrich DDS","party":"Dem","address":"1355 N 900 W, Mapleton, UT 84664","precinct":"25MA01","hd":"63","v_score":"2.315214949","decile":"5","lat":40.142782331983454,"lng":-111.58984305568347},{"vid":"2197280","name":"Ema Torphy","party":"Dem","address":"1210 W 1600 N, Mapleton, UT 84664","precinct":"25MA01","hd":"63","v_score":"15.18126958","decile":"9","lat":40.14514105467983,"lng":-111.59343732613708},{"vid":"541bff63338c777d59ec0bc9aa74a71dc3c554c1515d1a21e238cbd623f8ae88","name":"Mercer West","party":"Rep","address":"2438 W Townhouse Dr, Mapleton, UT 84664","precinct":"25MA01","hd":"63","v_score":"2.315214949","decile":"5","lat":40.12117350988816,"lng":-111.60779656234935},{"vid":"2207990","name":"Jermain Towne MD","party":"Dem","address":"1345 W 2000 N, Mapleton, UT 84664","precinct":"25MA01","hd":"63","v_score":"1.121327652","decile":"3","lat":40.14825178793777,"lng":-111.59487136362856},{"vid":"c1978346ee707cdb29f2d16578f78fa160f91233d8d0ba38087a3500d709f705","name":"Arlis Beier-Kirlin","party":"","address":"515 W 2000 N, Mapleton, UT 84664","precinct":"25MA01","hd":"63","v_score":"0","decile":"1","lat":40.148324647417944,"lng":-111.58503523329598},{"vid":"2214563","name":"Jaiden Donnelly DVM","party":"Rep","address":"1084 W 1900 N, Mapleton, UT 84664","precinct":"25MA01","hd":"63","v_score":"0","decile":"1","lat":40.14773961242688,"lng":-111.59255126170339},{"vid":"2215076","name":"Ms. Charolette Leannon DDS","party":"Rep","address":"1950 N 1250 W, Mapleton, UT 84664","precinct":"25MA01","hd":"63","v_score":"0","decile":"1","lat":40.14803154292811,"lng":-111.5936362641952},{"vid":"d90a6e3b140a638c0fd9bb6a8eebca7b3beb30827f78261aa3a41ca528d51557","name":"Manerva Strosin","party":"Rep","address":"135 W Carnesecca Ct, Mapleton, UT 84664","precinct":"25MA01","hd":"63","v_score":"2.817000428","decile":"6","lat":40.145970797508504,"lng":-111.58057509095865},{"vid":"2223166","name":"Dori Greenfelder","party":"","address":"1210 W 1600 N, Mapleton, UT 84664","precinct":"25MA01","hd":"63","v_score":"2.315214949","decile":"5","lat":40.14514105467983,"lng":-111.59343732613708},{"vid":"2224075","name":"Ryan Bechtelar","party":"","address":"374 W 2000 N, Mapleton, UT 84664","precinct":"25MA01","hd":"63","v_score":"2.744440783","decile":"5","lat":40.148999161333414,"lng":-111.58346584846718},{"vid":"2224528","name":"Jaslene Crooks","party":"Dem","address":"1306 W 1200 N, Mapleton, UT 84664","precinct":"25MA01","hd":"63","v_score":"4.064235245","decile":"6","lat":40.14154304966237,"lng":-111.59442492692362},{"vid":"79f46286bf61542a40b1c0a4e5a3ddb38e18fbb804fee0f796450ecf17bcef1b","name":"Bart Schultz","party":"Dem","address":"1210 W 1600 N, Mapleton, UT 84664","precinct":"25MA01","hd":"63","v_score":"13.97135325","decile":"9","lat":40.14514105467983,"lng":-111.59343732613708},{"vid":"369ccfaa79881c077fb0810b5062a24b4314803b7769544cca26cd5038856764","name":"Dr. Icie Bechtelar DDS","party":"","address":"1872 N 1100 W, Mapleton, UT 84664","precinct":"25MA01","hd":"63","v_score":"3.016591252","decile":"6","lat":40.14744729509864,"lng":-111.59245434178146},{"vid":"d972d8cfcd0dcba7252011e4a09d142ba8c9a37e2a4f941e3f3b038ea5747753","name":"Arminda Douglas","party":"Dem","address":"515 W 2000 N, Mapleton, UT 84664","precinct":"25MA01","hd":"63","v_score":"0","decile":"1","lat":40.148324647417944,"lng":-111.58503523329598},{"vid":"141929c98f0b3c9125776260622c45a8430fc9cf14162e780ebf8c0547301432","name":"Leaner Wehner","party":"Dem","address":"1121 W 1800 N, Mapleton, UT 84664","precinct":"25MA01","hd":"63","v_score":"0","decile":"1","lat":40.146515705788524,"lng":-111.59282872223326},{"vid":"18f1683c2536ba5b2c3eee89a315fd930cc75bd0e4cbe73bee84959a63baf452","name":"Judd Reilly","party":"Rep","address":"1072 W 1900 N, Mapleton, UT 84664","precinct":"25MA01","hd":"63","v_score":"0","decile":"1","lat":40.14792258928605,"lng":-111.59212775285467},{"vid":"779ced1c3d09bdf37fbd7c6d99cee105c8bb4161e3b3e6362014bcc267820c47","name":"Girtha Armstrong","party":"Rep","address":"1869 N 600 W, Mapleton, UT 84664","precinct":"25MA01","hd":"63","v_score":"5.693042993","decile":"7","lat":40.14754916499056,"lng":-111.58631516144679},{"vid":"2241453","name":"Wess Hintz","party":"Dem","address":"1837 N 1250 W, Mapleton, UT 84664","precinct":"25MA01","hd":"63","v_score":"6.52928996","decile":"7","lat":40.14684720421263,"lng":-111.59418308998465},{"vid":"2241485","name":"Melbourne Walker DDS","party":"Dem","address":"1039 W 2000 N, Mapleton, UT 84664","precinct":"25MA01","hd":"63","v_score":"1.121327652","decile":"3","lat":40.148217627283266,"lng":-111.59160592717406},{"vid":"2247565","name":"Anice Terry","party":"Dem","address":"1825 N Main St, Mapleton, UT 84664","precinct":"25MA01","hd":"63","v_score":"0","decile":"1","lat":40.14698166579011,"lng":-111.5791367275747},{"vid":"2249025","name":"Carma Bogisich-Kling","party":"","address":"1401 N 800 W, Mapleton, UT 84664","precinct":"25MA01","hd":"63","v_score":"1.121327652","decile":"3","lat":40.14306470957353,"lng":-111.58869236698479},{"vid":"29c20d70b9fcffa8cf3fa27626db21744f288e41e9c6a5c925941e9ee31241ba","name":"Darryn Nitzsche-Yundt","party":"","address":"1237 N 1200 W, Mapleton, UT 84664","precinct":"25MA01","hd":"63","v_score":"10.7597751","decile":"9","lat":40.141537357226866,"lng":-111.59362654460351},{"vid":"8c731e9dba121cadf3db77e8246d4dad064109271561a894919efde1c20f7a15","name":"Illa Runolfsdottir-Sipes","party":"","address":"1032 W 1900 N, Mapleton, UT 84664","precinct":"25MA01","hd":"63","v_score":"11.02844566","decile":"9","lat":40.14780716805193,"lng":-111.59170139087834},{"vid":"52e65bfb25ad4aab6c62c2503a2066d84e5a2e830624ae6e90d786f996d7574d","name":"Yaritza Reynolds","party":"","address":"2050 N 1600 W, Mapleton, UT 84664","precinct":"25MA01","hd":"63","v_score":"1.121327652","decile":"3","lat":40.14906379824473,"lng":-111.59788149866972},{"vid":"dc1a0119a25d32f2525334b13361f7f1621a06a763946d98f1c74589ce49b555","name":"Doshia Funk","party":"Dem","address":"1512 W 1800 N, Mapleton, UT 84664","precinct":"25MA01","hd":"63","v_score":"2.315214949","decile":"5","lat":40.14695880450434,"lng":-111.5970400798011},{"vid":"2290119","name":"Fernand Schimmel","party":"Rep","address":"1630 N 1600 W, Mapleton, UT 84664","precinct":"25MA01","hd":"63","v_score":"22.06057786","decile":"10","lat":40.14503173041447,"lng":-111.59782153980763},{"vid":"2296143","name":"Florance Little-Reynolds","party":"Dem","address":"938 W 1900 N, Mapleton, UT 84664","precinct":"25MA01","hd":"63","v_score":"5.258122542","decile":"7","lat":40.14789828504796,"lng":-111.59037020062391},{"vid":"2299768","name":"Isla Fahey DDS","party":"Rep","address":"1756 N 500 W, Mapleton, UT 84664","precinct":"25MA01","hd":"63","v_score":"9.405332525","decile":"8","lat":40.146201606779464,"lng":-111.58449329321986},{"vid":"2300305","name":"Chancy Keebler","party":"","address":"31 W Carnesecca Ct, Mapleton, UT 84664","precinct":"25MA01","hd":"63","v_score":"2.315214949","decile":"5","lat":40.146063603324734,"lng":-111.57903903305684},{"vid":"03ae3fe6a627b8134443f6dc07b72c9bf2bc582c29a0b70df433170e72025231","name":"Valentine Schmitt","party":"","address":"1010 W 2000 N, Mapleton, UT 84664","precinct":"25MA01","hd":"63","v_score":"2.426006793","decile":"5","lat":40.148730144572404,"lng":-111.5902054472082},{"vid":"2300729","name":"Veola Crist","party":"Rep","address":"1690 N 700 W, Mapleton, UT 84664","precinct":"25MA01","hd":"63","v_score":"13.57168065","decile":"9","lat":40.14585507107427,"lng":-111.58678740186899},{"vid":"2456f98102bd0c4a8a89571b8542c517294928632bb477bef7d9aaf8d43655b1","name":"Mr. Tollie Klein Sr.","party":"Rep","address":"928 W 1900 N, Mapleton, UT 84664","precinct":"25MA01","hd":"63","v_score":"12.92370926","decile":"9","lat":40.14770179668059,"lng":-111.5902497442845},{"vid":"2312014","name":"Daryl Spinka-Hammes","party":"Dem","address":"1230 W 1500 N, Mapleton, UT 84664","precinct":"25MA01","hd":"63","v_score":"5.191257514","decile":"7","lat":40.14421965640098,"lng":-111.59343047553979},{"vid":"2315740","name":"Damaris VonRueden","party":"Rep","address":"1095 W 2000 N, Mapleton, UT 84664","precinct":"25MA01","hd":"63","v_score":"3.93832808","decile":"6","lat":40.14821312833007,"lng":-111.59200706926529},{"vid":"2320875","name":"Mikal Cremin","party":"","address":"833 W 1800 N, Mapleton, UT 84664","precinct":"25MA01","hd":"63","v_score":"1.121327652","decile":"3","lat":40.146575624800924,"lng":-111.58859887968408},{"vid":"2322298","name":"Montie Eichmann II","party":"Rep","address":"1310 W 1600 N, Mapleton, UT 84664","precinct":"25MA01","hd":"63","v_score":"1.121327652","decile":"3","lat":40.14513994350988,"lng":-111.59454816544999},{"vid":"2334176","name":"Hugo Cormier","party":"","address":"1669 W 1320 N, Mapleton, UT 84664","precinct":"25MA01","hd":"63","v_score":"6.954919332","decile":"8","lat":40.14208562805451,"lng":-111.59903133633446},{"vid":"2336945","name":"Atha Daniel","party":"","address":"1465 N 1200 W, Mapleton, UT 84664","precinct":"25MA01","hd":"63","v_score":"2.315214949","decile":"5","lat":40.143570691655015,"lng":-111.59356952781378},{"vid":"2341162","name":"Johannah Kunze","party":"Dem","address":"1973 N 600 W, Mapleton, UT 84664","precinct":"25MA01","hd":"63","v_score":"0","decile":"1","lat":40.14841179816752,"lng":-111.5862030762314},{"vid":"2341342","name":"Jarett Goyette","party":"Rep","address":"374 W 2000 N, Mapleton, UT 84664","precinct":"25MA01","hd":"63","v_score":"1.121327652","decile":"3","lat":40.148999161333414,"lng":-111.58346584846718},{"vid":"2342610","name":"Zachery Stamm-Hackett","party":"Rep","address":"1549 W 1800 N, Mapleton, UT 84664","precinct":"25MA01","hd":"63","v_score":"3.93832808","decile":"6","lat":40.14631787018423,"lng":-111.59742499035325},{"vid":"2345374","name":"Lenwood Botsford-Dietrich","party":"Rep","address":"31 W Carnesecca Ct, Mapleton, UT 84664","precinct":"25MA01","hd":"63","v_score":"2.315214949","decile":"5","lat":40.146063603324734,"lng":-111.57903903305684},{"vid":"2361713","name":"Tollie Beatty","party":"","address":"1556 N 800 W, Mapleton, UT 84664","precinct":"25MA01","hd":"63","v_score":"9.405332525","decile":"8","lat":40.14437894828928,"lng":-111.58799091713585},{"vid":"2369409","name":"Sharyl Schaefer","party":"","address":"1485 W 2000 N, Mapleton, UT 84664","precinct":"25MA01","hd":"63","v_score":"2.315214949","decile":"5","lat":40.148340265575165,"lng":-111.59604983638808},{"vid":"2370347","name":"Shellie Wilderman","party":"Rep","address":"1728 N 1600 W, Mapleton, UT 84664","precinct":"25MA01","hd":"63","v_score":"1.121327652","decile":"3","lat":40.146104774169714,"lng":-111.59763611166272},{"vid":"2380786","name":"Tyree Botsford","party":"","address":"882 W 1600 N, Mapleton, UT 84664","precinct":"25MA01","hd":"63","v_score":"14.04503691","decile":"9","lat":40.14518586597857,"lng":-111.58944213972813},{"vid":"2381689","name":"Dr. Rickey Klocko DVM","party":"","address":"1400 N 1800 W, Mapleton, UT 84664","precinct":"25MA01","hd":"63","v_score":"0","decile":"1","lat":40.14275916094903,"lng":-111.60052026750316},{"vid":"2383797","name":"Ms. Sherie Kunze MD","party":"Dem","address":"823 W Merrill Cir, Mapleton, UT 84664","precinct":"25MA01","hd":"63","v_score":"5.191257514","decile":"7","lat":40.14751548656425,"lng":-111.58883962991672},{"vid":"2393660","name":"Dr. Alonso Feil","party":"Dem","address":"960 W 1800 N, Mapleton, UT 84664","precinct":"25MA01","hd":"63","v_score":"2.315214949","decile":"5","lat":40.147118838722015,"lng":-111.59042066004434},{"vid":"2395713","name":"Gust Schowalter","party":"Rep","address":"1837 N 1250 W, Mapleton, UT 84664","precinct":"25MA01","hd":"63","v_score":"8.955296752","decile":"8","lat":40.14684720421263,"lng":-111.59418308998465},{"vid":"2396193","name":"Nila Goodwin","party":"","address":"966 W 1900 N, Mapleton, UT 84664","precinct":"25MA01","hd":"63","v_score":"2.315214949","decile":"5","lat":40.14781232877335,"lng":-111.59078714158804},{"vid":"2396889","name":"Marta Lesch","party":"","address":"2050 N 1600 W, Mapleton, UT 84664","precinct":"25MA01","hd":"63","v_score":"2.744440783","decile":"5","lat":40.14906379824473,"lng":-111.59788149866972},{"vid":"2397227","name":"Ms. Akeelah Rolfson","party":"","address":"1412 W 1800 N, Mapleton, UT 84664","precinct":"25MA01","hd":"63","v_score":"1.193887297","decile":"3","lat":40.14696491459654,"lng":-111.59589644036208},{"vid":"2399417","name":"Shelia Osinski","party":"","address":"1035 W 1600 N, Mapleton, UT 84664","precinct":"25MA01","hd":"63","v_score":"2.744440783","decile":"5","lat":40.144706044231114,"lng":-111.5912409487048},{"vid":"2402592","name":"Lennie Barton","party":"Dem","address":"1897 N 1250 W, Mapleton, UT 84664","precinct":"25MA01","hd":"63","v_score":"9.830961897","decile":"8","lat":40.14756098000746,"lng":-111.59436116258836},{"vid":"2403489","name":"Altie Terry","party":"Rep","address":"1662 W 1200 N, Mapleton, UT 84664","precinct":"25MA01","hd":"63","v_score":"2.315214949","decile":"5","lat":40.14158126518703,"lng":-111.59870237342713},{"vid":"2404899","name":"Ms. Gisele Vandervort","party":"","address":"1472 N 900 W, Mapleton, UT 84664","precinct":"25MA01","hd":"63","v_score":"2.817000428","decile":"6","lat":40.14360991404604,"lng":-111.58907141417318},{"vid":"2405637","name":"Dr. Maegan Heaney","party":"Dem","address":"1225 N 1380 W, Mapleton, UT 84664","precinct":"25MA01","hd":"63","v_score":"2.315214949","decile":"5","lat":40.14138841199327,"lng":-111.59535900348679},{"vid":"2409785","name":"Tex Mosciski II","party":"Rep","address":"1889 N 1100 W, Mapleton, UT 84664","precinct":"25MA01","hd":"63","v_score":"1.121327652","decile":"3","lat":40.14756020288078,"lng":-111.59285006297954},{"vid":"2419804","name":"Johny Auer","party":"","address":"1130 W 1200 N, Mapleton, UT 84664","precinct":"25MA01","hd":"63","v_score":"2.315214949","decile":"5","lat":40.14161314554255,"lng":-111.59249182029244},{"vid":"2441628","name":"Miss Samira Lakin PhD","party":"","address":"20 W 2000 N, Mapleton, UT 84664","precinct":"25MA01","hd":"63","v_score":"2.315214949","decile":"5","lat":40.1474248574846,"lng":-111.57911402888422},{"vid":"2456271","name":"Idabelle Eichmann","party":"Dem","address":"960 W 1800 N, Mapleton, UT 84664","precinct":"25MA01","hd":"63","v_score":"1.121327652","decile":"3","lat":40.147118838722015,"lng":-111.59042066004434},{"vid":"2456662","name":"Monserrat Kovacek","party":"","address":"1825 N Main St, Mapleton, UT 84664","precinct":"25MA01","hd":"63","v_score":"2.315214949","decile":"5","lat":40.14698166579011,"lng":-111.5791367275747},{"vid":"2457589","name":"Gilda Rodriguez","party":"","address":"1619 W 1320 N, Mapleton, UT 84664","precinct":"25MA01","hd":"63","v_score":"1.121327652","decile":"3","lat":40.14212514047787,"lng":-111.59817142785752},{"vid":"2458047","name":"Marisol Tromp","party":"","address":"1940 N 700 W, Mapleton, UT 84664","precinct":"25MA01","hd":"63","v_score":"5.191257514","decile":"7","lat":40.147803117602294,"lng":-111.58695356725958},{"vid":"2464330","name":"Dr. Jarrett Jacobson V","party":"Dem","address":"1357 W 1800 N, Mapleton, UT 84664","precinct":"25MA01","hd":"63","v_score":"0","decile":"1","lat":40.14647535714937,"lng":-111.5953626628576},{"vid":"2477633","name":"Dr. Bryanna Ryan PhD","party":"Rep","address":"243 W 2000 N, Mapleton, UT 84664","precinct":"25MA01","hd":"63","v_score":"0","decile":"1","lat":40.14843090633788,"lng":-111.58162199306521},{"vid":"2488060","name":"Denzel Runolfsson","party":"Dem","address":"1355 N 900 W, Mapleton, UT 84664","precinct":"25MA01","hd":"63","v_score":"0","decile":"1","lat":40.142782331983454,"lng":-111.58984305568347},{"vid":"2497871","name":"Bernard Hagenes","party":"","address":"1306 W 1200 N, Mapleton, UT 84664","precinct":"25MA01","hd":"63","v_score":"0","decile":"1","lat":40.14154304966237,"lng":-111.59442492692362},{"vid":"2497952","name":"Mikhail Kshlerin","party":"Dem","address":"1864 N 1350 W, Mapleton, UT 84664","precinct":"25MA01","hd":"63","v_score":"2.817000428","decile":"6","lat":40.147245127468075,"lng":-111.59484249411095},{"vid":"2499812","name":"Mr. Colter Prohaska III","party":"Rep","address":"1412 W 1800 N, Mapleton, UT 84664","precinct":"25MA01","hd":"63","v_score":"0","decile":"1","lat":40.14696491459654,"lng":-111.59589644036208},{"vid":"2504912","name":"Andon Johnston-Hoppe","party":"Dem","address":"450 W 2000 N, Mapleton, UT 84664","precinct":"25MA01","hd":"63","v_score":"0","decile":"1","lat":40.14884698264879,"lng":-111.58455546591993},{"vid":"2505118","name":"Tracee Kub","party":"Rep","address":"1050 W 2000 N, Mapleton, UT 84664","precinct":"25MA01","hd":"63","v_score":"1.193887297","decile":"3","lat":40.14869185627243,"lng":-111.59162294327179},{"vid":"2507030","name":"Citlalli Wilkinson","party":"","address":"1225 N 800 W, Mapleton, UT 84664","precinct":"25MA01","hd":"63","v_score":"1.193887297","decile":"3","lat":40.14139488241328,"lng":-111.58846011756455},{"vid":"2511933","name":"Vicy West","party":"Rep","address":"865 W 1800 N, Mapleton, UT 84664","precinct":"25MA01","hd":"63","v_score":"1.193887297","decile":"4","lat":40.14649634703084,"lng":-111.58910661447793},{"vid":"2512565","name":"Dr. Alphonse Ondricka","party":"Rep","address":"873 W Merrill Cir, Mapleton, UT 84664","precinct":"25MA01","hd":"63","v_score":"3.711952487","decile":"6","lat":40.147480708405965,"lng":-111.58936508505928},{"vid":"2520654","name":"Valentine Mitchell","party":"","address":"876 W 1300 N, Mapleton, UT 84664","precinct":"25MA01","hd":"63","v_score":"18.88777439","decile":"10","lat":40.1423496714456,"lng":-111.58925690036807},{"vid":"2520883","name":"Dr. Ham Lowe V","party":"Dem","address":"1864 N 1350 W, Mapleton, UT 84664","precinct":"25MA01","hd":"63","v_score":"2.817000428","decile":"6","lat":40.147245127468075,"lng":-111.59484249411095},{"vid":"2521281","name":"Lorie Renner-Dach","party":"","address":"1542 W 1800 N, Mapleton, UT 84664","precinct":"25MA01","hd":"63","v_score":"12.92370926","decile":"9","lat":40.14695672006063,"lng":-111.5974268065072},{"vid":"2524685","name":"Deandra Wisoky","party":"Dem","address":"1864 N 1350 W, Mapleton, UT 84664","precinct":"25MA01","hd":"63","v_score":"0","decile":"1","lat":40.147245127468075,"lng":-111.59484249411095},{"vid":"2527035","name":"Rahul Boyle","party":"Rep","address":"435 W 2000 N, Mapleton, UT 84664","precinct":"25MA01","hd":"63","v_score":"1.193887297","decile":"4","lat":40.14784739497584,"lng":-111.58412167983836},{"vid":"2531679","name":"Baron Langosh","party":"Rep","address":"1760 N 1250 W, Mapleton, UT 84664","precinct":"25MA01","hd":"63","v_score":"0","decile":"1","lat":40.146196147767064,"lng":-111.5936831669649},{"vid":"2531962","name":"Dr. Lyric Bauch","party":"Rep","address":"1542 W 1800 N, Mapleton, UT 84664","precinct":"25MA01","hd":"63","v_score":"9.907118004","decile":"8","lat":40.14695672006063,"lng":-111.5974268065072},{"vid":"2535801","name":"Mr. Wilburn Eichmann III","party":"Rep","address":"1869 N 600 W, Mapleton, UT 84664","precinct":"25MA01","hd":"63","v_score":"0","decile":"1","lat":40.14754916499056,"lng":-111.58631516144679},{"vid":"2538498","name":"Leonidas Marquardt-Fay","party":"Dem","address":"1443 W 1400 N, Mapleton, UT 84664","precinct":"25MA01","hd":"63","v_score":"1.193887297","decile":"4","lat":40.14280394488887,"lng":-111.59603024154906},{"vid":"2545099","name":"Elena Lind-Stokes","party":"Rep","address":"1744 N 800 W, Mapleton, UT 84664","precinct":"25MA01","hd":"63","v_score":"0","decile":"1","lat":40.14622777764932,"lng":-111.58795856739512},{"vid":"2551924","name":"Reilly Pagac","party":"Rep","address":"1662 W 1200 N, Mapleton, UT 84664","precinct":"25MA01","hd":"63","v_score":"1.193887297","decile":"4","lat":40.14158126518703,"lng":-111.59870237342713},{"vid":"2555599","name":"Mettie Dooley","party":"","address":"652 W 1600 N, Mapleton, UT 84664","precinct":"25MA01","hd":"63","v_score":"1.623113131","decile":"5","lat":40.145096960021775,"lng":-111.5864578136444},{"vid":"2561675","name":"Mammie Gorczany","party":"Dem","address":"1733 N 1250 W, Mapleton, UT 84664","precinct":"25MA01","hd":"63","v_score":"0","decile":"1","lat":40.14589685014517,"lng":-111.59415214710751},{"vid":"2568202","name":"Terrence Kuphal IV","party":"Rep","address":"1035 W 1600 N, Mapleton, UT 84664","precinct":"25MA01","hd":"63","v_score":"0","decile":"1","lat":40.144706044231114,"lng":-111.5912409487048},{"vid":"2568737","name":"Mai Streich","party":"Dem","address":"1010 W 2000 N, Mapleton, UT 84664","precinct":"25MA01","hd":"63","v_score":"0","decile":"1","lat":40.148730144572404,"lng":-111.5902054472082},{"vid":"2577720","name":"Hallie Baumbach-Moen","party":"","address":"1631 N 1000 W, Mapleton, UT 84664","precinct":"25MA01","hd":"63","v_score":"0","decile":"1","lat":40.14540658029182,"lng":-111.59147736792627},{"vid":"2586045","name":"Myranda Bogan","party":"Rep","address":"1920 N 1250 W, Mapleton, UT 84664","precinct":"25MA01","hd":"63","v_score":"0","decile":"1","lat":40.147757132677484,"lng":-111.59363134825468},{"vid":"2590328","name":"Marilyn Heathcote-Howell","party":"","address":"1032 W 1900 N, Mapleton, UT 84664","precinct":"25MA01","hd":"63","v_score":"13.61907049","decile":"9","lat":40.14780716805193,"lng":-111.59170139087834},{"vid":"2604516","name":"Alida Collier PhD","party":"","address":"1675 N 1000 W, Mapleton, UT 84664","precinct":"25MA01","hd":"63","v_score":"1.193887297","decile":"4","lat":40.14577458586166,"lng":-111.59128819589726},{"vid":"2611941","name":"Dr. Burnice Green DDS","party":"","address":"1618 N 500 W, Mapleton, UT 84664","precinct":"25MA01","hd":"63","v_score":"2.817000428","decile":"6","lat":40.14511472112568,"lng":-111.58447799334087},{"vid":"2625789","name":"Mrs. Lura Hickle","party":"","address":"1425 N 1200 W, Mapleton, UT 84664","precinct":"25MA01","hd":"63","v_score":"1.623113131","decile":"5","lat":40.14317959578491,"lng":-111.59376034823462},{"vid":"2626776","name":"Dr. Glenda Adams","party":"","address":"1749 N 800 W, Mapleton, UT 84664","precinct":"25MA01","hd":"63","v_score":"0","decile":"1","lat":40.14623655823449,"lng":-111.58867016997345},{"vid":"2626940","name":"Dr. Frederick Kling DVM","party":"","address":"1355 N 900 W, Mapleton, UT 84664","precinct":"25MA01","hd":"63","v_score":"0","decile":"1","lat":40.142782331983454,"lng":-111.58984305568347},{"vid":"2629201","name":"Karly Blick","party":"Rep","address":"1967 N 700 W, Mapleton, UT 84664","precinct":"25MA01","hd":"63","v_score":"0","decile":"1","lat":40.14833170558307,"lng":-111.58754231869779},{"vid":"2629532","name":"Lelia Berge","party":"Rep","address":"1478 N 1000 W, Mapleton, UT 84664","precinct":"25MA01","hd":"63","v_score":"0","decile":"1","lat":40.143711014358615,"lng":-111.59066141153488},{"vid":"2631438","name":"Sarrah Klein","party":"Rep","address":"1749 N 800 W, Mapleton, UT 84664","precinct":"25MA01","hd":"63","v_score":"1.193887297","decile":"4","lat":40.14623655823449,"lng":-111.58867016997345},{"vid":"2634694","name":"Breanna Beatty","party":"Dem","address":"1410 W 1200 N, Mapleton, UT 84664","precinct":"25MA01","hd":"63","v_score":"1.193887297","decile":"4","lat":40.141520134126615,"lng":-111.59582447057548},{"vid":"2636987","name":"Hadassah Kautzer-Raynor","party":"Rep","address":"1067 W 1600 N, Mapleton, UT 84664","precinct":"25MA01","hd":"63","v_score":"2.817000428","decile":"6","lat":40.14458509257998,"lng":-111.59178191192925},{"vid":"2637108","name":"Scot Considine","party":"","address":"1538 N 900 W, Mapleton, UT 84664","precinct":"25MA01","hd":"63","v_score":"1.193887297","decile":"4","lat":40.14428080369711,"lng":-111.58916998774663},{"vid":"2637158","name":"Simeon Brekke","party":"Rep","address":"873 W Merrill Cir, Mapleton, UT 84664","precinct":"25MA01","hd":"63","v_score":"7.031075439","decile":"8","lat":40.147480708405965,"lng":-111.58936508505928},{"vid":"2667957","name":"Brynn Eichmann","party":"","address":"876 W 1300 N, Mapleton, UT 84664","precinct":"25MA01","hd":"63","v_score":"8.284004873","decile":"8","lat":40.1423496714456,"lng":-111.58925690036807},{"vid":"2672224","name":"Luanne Wunsch MD","party":"Rep","address":"1511 W Apple Orchard Ln, Mapleton, UT 84664","precinct":"25MA01","hd":"63","v_score":"0","decile":"2","lat":40.14737601510952,"lng":-111.5963825489611},{"vid":"2677885","name":"Erykah King","party":"Rep","address":"1130 W 1200 N, Mapleton, UT 84664","precinct":"25MA01","hd":"63","v_score":"1.193887297","decile":"4","lat":40.14161314554255,"lng":-111.59249182029244},{"vid":"2677927","name":"True Bartoletti DVM","party":"Dem","address":"1889 N 1100 W, Mapleton, UT 84664","precinct":"25MA01","hd":"63","v_score":"1.193887297","decile":"4","lat":40.14756020288078,"lng":-111.59285006297954},{"vid":"2687769","name":"Donita Streich-Mraz","party":"Dem","address":"1761 N 1250 W, Mapleton, UT 84664","precinct":"25MA01","hd":"63","v_score":"7.090117576","decile":"8","lat":40.14619517142654,"lng":-111.59425386857463},{"vid":"2700008","name":"Miss Ciarra Kilback MD","party":"","address":"1869 N 1350 W, Mapleton, UT 84664","precinct":"25MA01","hd":"63","v_score":"1.193887297","decile":"4","lat":40.14724643643128,"lng":-111.5954568101621},{"vid":"2705864","name":"Dr. Rhoda Williamson","party":"Dem","address":"873 W Merrill Cir, Mapleton, UT 84664","precinct":"25MA01","hd":"63","v_score":"4.214075011","decile":"7","lat":40.147480708405965,"lng":-111.58936508505928},{"vid":"2722226","name":"Luca Vandervort","party":"Dem","address":"1625 N 1650 W, Mapleton, UT 84664","precinct":"25MA01","hd":"63","v_score":"1.193887297","decile":"4","lat":40.144994028383195,"lng":-111.59912386342393},{"vid":"2723777","name":"Yolonda Schamberger","party":"","address":"1460 N 1600 W, Mapleton, UT 84664","precinct":"25MA01","hd":"63","v_score":"0","decile":"2","lat":40.14370807677488,"lng":-111.59724060412576},{"vid":"2732158","name":"Reta Grimes-Roob","party":"Dem","address":"1625 N 1650 W, Mapleton, UT 84664","precinct":"25MA01","hd":"63","v_score":"0","decile":"2","lat":40.144994028383195,"lng":-111.59912386342393},{"vid":"2735217","name":"Nicholas Borer-Miller","party":"","address":"909 W 2000 N, Mapleton, UT 84664","precinct":"25MA01","hd":"63","v_score":"0","decile":"2","lat":40.148309137863,"lng":-111.59022672973458},{"vid":"2736223","name":"Dr. Allen Franecki","party":"Dem","address":"1826 N 300 W, Mapleton, UT 84664","precinct":"25MA01","hd":"63","v_score":"0","decile":"2","lat":40.14730146731563,"lng":-111.58183959462153},{"vid":"2741730","name":"Grayling Block","party":"Dem","address":"1826 N 300 W, Mapleton, UT 84664","precinct":"25MA01","hd":"63","v_score":"7.090117576","decile":"8","lat":40.14730146731563,"lng":-111.58183959462153},{"vid":"2743618","name":"Alyvia Lang","party":"","address":"1675 N 1000 W, Mapleton, UT 84664","precinct":"25MA01","hd":"63","v_score":"0","decile":"2","lat":40.14577458586166,"lng":-111.59128819589726},{"vid":"2745066","name":"Sheryl McDermott","party":"Rep","address":"1869 N 600 W, Mapleton, UT 84664","precinct":"25MA01","hd":"63","v_score":"0","decile":"2","lat":40.14754916499056,"lng":-111.58631516144679},{"vid":"2747431","name":"Ken Connelly","party":"","address":"1762 N 700 W, Mapleton, UT 84664","precinct":"25MA01","hd":"63","v_score":"0","decile":"2","lat":40.146346178981084,"lng":-111.58647231588667},{"vid":"2748677","name":"Erin Gislason","party":"Dem","address":"1357 W 1800 N, Mapleton, UT 84664","precinct":"25MA01","hd":"63","v_score":"8.284004873","decile":"8","lat":40.14647535714937,"lng":-111.5953626628576},{"vid":"2749897","name":"Wilmer Moen","party":"","address":"1495 W 1600 N, Mapleton, UT 84664","precinct":"25MA01","hd":"63","v_score":"1.193887297","decile":"4","lat":40.144512230307626,"lng":-111.59688939621569},{"vid":"2750438","name":"Dr. Demario Oberbrunner Jr.","party":"Rep","address":"1563 W 2000 N, Mapleton, UT 84664","precinct":"25MA01","hd":"63","v_score":"1.193887297","decile":"4","lat":40.1482806151873,"lng":-111.5973504344857},{"vid":"2752188","name":"Dr. Kiana Bruen","party":"","address":"1636 N 400 W, Mapleton, UT 84664","precinct":"25MA01","hd":"63","v_score":"0","decile":"2","lat":40.14511804045432,"lng":-111.58335369735322},{"vid":"2752837","name":"Merrill Auer","party":"Rep","address":"1294 W 1400 N, Mapleton, UT 84664","precinct":"25MA01","hd":"63","v_score":"0","decile":"2","lat":40.14324795825442,"lng":-111.59443381904717},{"vid":"2753680","name":"Darcie Douglas","party":"Rep","address":"949 W 1800 N, Mapleton, UT 84664","precinct":"25MA01","hd":"63","v_score":"0","decile":"2","lat":40.14644496915802,"lng":-111.59029171976118},{"vid":"2771801","name":"Vernie Tremblay-Homenick","party":"","address":"1067 W 1600 N, Mapleton, UT 84664","precinct":"25MA01","hd":"63","v_score":"0","decile":"2","lat":40.14458509257998,"lng":-111.59178191192925},{"vid":"2774967","name":"Cathrine Maggio PhD","party":"Dem","address":"1864 N 1350 W, Mapleton, UT 84664","precinct":"25MA01","hd":"63","v_score":"0","decile":"2","lat":40.147245127468075,"lng":-111.59484249411095},{"vid":"2782574","name":"Hayley Hand-Muller","party":"","address":"1542 W 1800 N, Mapleton, UT 84664","precinct":"25MA01","hd":"63","v_score":"7.090117576","decile":"8","lat":40.14695672006063,"lng":-111.5974268065072},{"vid":"2794747","name":"Lavern Hoppe","party":"","address":"1336 N 1000 W, Mapleton, UT 84664","precinct":"25MA01","hd":"63","v_score":"4.069929862","decile":"7","lat":40.14247444961576,"lng":-111.59039512687968},{"vid":"2798916","name":"Aurilla Breitenberg","party":"","address":"1605 W 1600 N, Mapleton, UT 84664","precinct":"25MA01","hd":"63","v_score":"1.193887297","decile":"4","lat":40.14464420484344,"lng":-111.59818323876524},{"vid":"2812370","name":"Dr. Kristyn Heathcote","party":"Rep","address":"928 W 1900 N, Mapleton, UT 84664","precinct":"25MA01","hd":"63","v_score":"8.284004873","decile":"8","lat":40.14770179668059,"lng":-111.5902497442845},{"vid":"2813244","name":"Crawford Quitzon-Padberg","party":"Dem","address":"1018 W 1700 N, Mapleton, UT 84664","precinct":"25MA01","hd":"63","v_score":"5.407962308","decile":"7","lat":40.146076428386344,"lng":-111.5912994187452},{"vid":"2816391","name":"Marlee Champlin","party":"Rep","address":"1619 W 1320 N, Mapleton, UT 84664","precinct":"25MA01","hd":"63","v_score":"1.193887297","decile":"4","lat":40.14212514047787,"lng":-111.59817142785752},{"vid":"2830736","name":"Mrs. Nyla Kunze","party":"","address":"865 W 1800 N, Mapleton, UT 84664","precinct":"25MA01","hd":"63","v_score":"1.193887297","decile":"4","lat":40.14649634703084,"lng":-111.58910661447793},{"vid":"2830926","name":"Sandy Wilkinson","party":"Rep","address":"1478 N 1000 W, Mapleton, UT 84664","precinct":"25MA01","hd":"63","v_score":"1.193887297","decile":"4","lat":40.143711014358615,"lng":-111.59066141153488},{"vid":"2835363","name":"Dr. Effie O'Kon","party":"Rep","address":"1089 W 1800 N, Mapleton, UT 84664","precinct":"25MA01","hd":"63","v_score":"1.193887297","decile":"4","lat":40.14651990793778,"lng":-111.59234448681664},{"vid":"2855686","name":"Mr. Iva Wintheiser","party":"","address":"1625 N 1650 W, Mapleton, UT 84664","precinct":"25MA01","hd":"63","v_score":"1.193887297","decile":"4","lat":40.144994028383195,"lng":-111.59912386342393},{"vid":"2862904","name":"Trinity Hayes","party":"Dem","address":"1310 W 1600 N, Mapleton, UT 84664","precinct":"25MA01","hd":"63","v_score":"2.876042565","decile":"6","lat":40.14513994350988,"lng":-111.59454816544999},{"vid":"2886616","name":"Azariah Bogan-Boyle","party":"","address":"909 W 2000 N, Mapleton, UT 84664","precinct":"25MA01","hd":"63","v_score":"1.193887297","decile":"4","lat":40.148309137863,"lng":-111.59022672973458},{"vid":"2887254","name":"Dr. Gertha Frami","party":"Rep","address":"1691 N 1600 W, Mapleton, UT 84664","precinct":"25MA01","hd":"63","v_score":"1.193887297","decile":"4","lat":40.14570528027204,"lng":-111.5982814417496},{"vid":"2887262","name":"Len Cruickshank-Hudson","party":"Rep","address":"1691 N 1600 W, Mapleton, UT 84664","precinct":"25MA01","hd":"63","v_score":"1.193887297","decile":"4","lat":40.14570528027204,"lng":-111.5982814417496},{"vid":"2888443","name":"Jedediah Berge","party":"","address":"1700 N 1650 W, Mapleton, UT 84664","precinct":"25MA01","hd":"63","v_score":"1.193887297","decile":"4","lat":40.145692656659826,"lng":-111.59885760494197},{"vid":"2888887","name":"Kerrie Kshlerin","party":"Dem","address":"1825 N Main St, Mapleton, UT 84664","precinct":"25MA01","hd":"63","v_score":"8.284004873","decile":"8","lat":40.14698166579011,"lng":-111.5791367275747},{"vid":"2890824","name":"Lenna Stokes","party":"Rep","address":"1605 W 1600 N, Mapleton, UT 84664","precinct":"25MA01","hd":"63","v_score":"0","decile":"2","lat":40.14464420484344,"lng":-111.59818323876524},{"vid":"2907553","name":"Izabella Medhurst","party":"","address":"1760 N 1250 W, Mapleton, UT 84664","precinct":"25MA01","hd":"63","v_score":"0","decile":"2","lat":40.146196147767064,"lng":-111.5936831669649},{"vid":"2907624","name":"Madisen Pacocha","party":"Rep","address":"1067 W 1600 N, Mapleton, UT 84664","precinct":"25MA01","hd":"63","v_score":"0","decile":"2","lat":40.14458509257998,"lng":-111.59178191192925},{"vid":"2916272","name":"Ms. Angel McLaughlin","party":"Dem","address":"766 W 1800 N, Mapleton, UT 84664","precinct":"25MA01","hd":"63","v_score":"4.214075011","decile":"7","lat":40.14688443117756,"lng":-111.58815519144693},{"vid":"2917038","name":"Gavyn Ruecker","party":"","address":"120 W 1600 N, Mapleton, UT 84664","precinct":"25MA01","hd":"63","v_score":"0","decile":"2","lat":40.1450822778721,"lng":-111.58014837425519},{"vid":"2944916","name":"Margaretta McGlynn","party":"Rep","address":"1310 W 1600 N, Mapleton, UT 84664","precinct":"25MA01","hd":"63","v_score":"2.876042565","decile":"6","lat":40.14513994350988,"lng":-111.59454816544999},{"vid":"2959875","name":"Dr. Chessie Zboncak DVM","party":"","address":"300 W 2000 N, Mapleton, UT 84664","precinct":"25MA01","hd":"63","v_score":"0","decile":"2","lat":40.14889600872574,"lng":-111.58240283216617},{"vid":"2960392","name":"Ms. Aline Becker","party":"Dem","address":"1076 W 1800 N, Mapleton, UT 84664","precinct":"25MA01","hd":"63","v_score":"2.876042565","decile":"6","lat":40.14690588693281,"lng":-111.59241767721008},{"vid":"2964763","name":"Micayla Emmerich","party":"Rep","address":"1762 N 700 W, Mapleton, UT 84664","precinct":"25MA01","hd":"63","v_score":"0","decile":"2","lat":40.146346178981084,"lng":-111.58647231588667},{"vid":"2971321","name":"Teresa Pagac DVM","party":"","address":"1824 N 600 W, Mapleton, UT 84664","precinct":"25MA01","hd":"63","v_score":"0","decile":"2","lat":40.14689058497287,"lng":-111.58560508606611},{"vid":"2981010","name":"Wallace Corkery","party":"Rep","address":"885 W 1800 N, Mapleton, UT 84664","precinct":"25MA01","hd":"63","v_score":"0","decile":"2","lat":40.146499311159715,"lng":-111.58946428319989},{"vid":"2984116","name":"Dr. Evette Goodwin","party":"","address":"1619 W 1320 N, Mapleton, UT 84664","precinct":"25MA01","hd":"63","v_score":"0","decile":"2","lat":40.14212514047787,"lng":-111.59817142785752},{"vid":"e514c5c09a028976a6f07a7e53f05dabb67afdafc1e0918c3e801539b0a78437","name":"Rayford Wisozk","party":"Dem","address":"1267 W 1400 N, Mapleton, UT 84664","precinct":"25MA01","hd":"63","v_score":"14.18213378","decile":"9","lat":40.14284094936477,"lng":-111.59408981900839},{"vid":"22a7fe86b0fd64622abded1b6cf2fa6d5aa7f3bad064d5a4cdac180d467e4d83","name":"Evangeline Waters","party":"Dem","address":"1675 N 1000 W, Mapleton, UT 84664","precinct":"25MA01","hd":"63","v_score":"2.587603312","decile":"5","lat":40.14577458586166,"lng":-111.59128819589726},{"vid":"3156013","name":"Michael Lynch","party":"Rep","address":"730 W 1400 N, Mapleton, UT 84664","precinct":"25MA01","hd":"63","v_score":"1.193887297","decile":"4","lat":40.14313337951721,"lng":-111.58732040344188},{"vid":"3335671","name":"Callie Torp","party":"","address":"1512 W 1800 N, Mapleton, UT 84664","precinct":"25MA01","hd":"63","v_score":"26.81820485","decile":"10","lat":40.14695880450434,"lng":-111.5970400798011},{"vid":"3423297","name":"Ardith Frami","party":"Rep","address":"1525 W 1600 N, Mapleton, UT 84664","precinct":"25MA01","hd":"63","v_score":"1.193887297","decile":"4","lat":40.144566285766004,"lng":-111.59722991555985},{"vid":"3480937","name":"Annabella Luettgen","party":"","address":"1605 W 1600 N, Mapleton, UT 84664","precinct":"25MA01","hd":"63","v_score":"3.781490609","decile":"6","lat":40.14464420484344,"lng":-111.59818323876524},{"vid":"3564725","name":"Fulton Pouros","party":"Dem","address":"1618 N 500 W, Mapleton, UT 84664","precinct":"25MA01","hd":"63","v_score":"2.817000428","decile":"6","lat":40.14511472112568,"lng":-111.58447799334087},{"vid":"25b76259ab022de2f4be57aad48428f60112f80be109b52125a21d2e081d0c31","name":"Louie Volkman","party":"","address":"64 W 2000 N, Mapleton, UT 84664","precinct":"25MA01","hd":"63","v_score":"2.315214949","decile":"5","lat":40.147677042679376,"lng":-111.57948959843752},{"vid":"4615630","name":"Teena Cronin MD","party":"","address":"1630 N 1650 W, Mapleton, UT 84664","precinct":"25MA01","hd":"63","v_score":"12.71559837","decile":"9","lat":40.144956481485345,"lng":-111.59876925413198},{"vid":"5216264","name":"Mr. Henry Walker III","party":"","address":"1443 W 1400 N, Mapleton, UT 84664","precinct":"25MA01","hd":"63","v_score":"16.73008255","decile":"9","lat":40.14280394488887,"lng":-111.59603024154906},{"vid":"5522897","name":"Dr. Garret Stokes II","party":"","address":"1357 W 1800 N, Mapleton, UT 84664","precinct":"25MA01","hd":"63","v_score":"14.74039814","decile":"9","lat":40.14647535714937,"lng":-111.5953626628576},{"vid":"b59ae6026fa8ae4f567c62fc3368b2b7caf4a05ab62a72af1b8d775ff2954723","name":"Cale Beatty","party":"","address":"873 W Merrill Cir, Mapleton, UT 84664","precinct":"25MA01","hd":"63","v_score":"26.40153388","decile":"10","lat":40.147480708405965,"lng":-111.58936508505928},{"vid":"5541836","name":"Ciji Hoeger-Okuneva","party":"","address":"1357 W 1800 N, Mapleton, UT 84664","precinct":"25MA01","hd":"63","v_score":"11.02844566","decile":"9","lat":40.14647535714937,"lng":-111.5953626628576},{"vid":"5861355","name":"Shara Hudson","party":"","address":"1035 W 1600 N, Mapleton, UT 84664","precinct":"25MA01","hd":"63","v_score":"10.15822798","decile":"9","lat":40.144706044231114,"lng":-111.5912409487048},{"vid":"e8350a10588831eb11b2462d885a3620d86dec45b73ba7e9f97c039bc78eb9f8","name":"Geneva Casper","party":"Rep","address":"1460 N 1600 W, Mapleton, UT 84664","precinct":"25MA01","hd":"63","v_score":"19.99899426","decile":"10","lat":40.14370807677488,"lng":-111.59724060412576},{"vid":"b0d3a9f801c6c98dcf366041350a0db64d6994ddb4b2f75764faea0ea4a9a897","name":"Mr. Ab Reinger I","party":"Rep","address":"1400 N 1800 W, Mapleton, UT 84664","precinct":"25MA01","hd":"63","v_score":"1.623113131","decile":"5","lat":40.14275916094903,"lng":-111.60052026750316},{"vid":"060ba86a7409058bfeeea810818d154bc98cc2716cf4cd5a58b959e7377e148b","name":"Mrs. Georgiann Labadie DDS","party":"Rep","address":"1442 W 1800 N, Mapleton, UT 84664","precinct":"25MA01","hd":"63","v_score":"21.15644071","decile":"10","lat":40.146987685560795,"lng":-111.59630110301083},{"vid":"6066769","name":"Peyton Hauck","party":"Rep","address":"1502 N 900 W, Mapleton, UT 84664","precinct":"25MA01","hd":"63","v_score":"14.74039814","decile":"9","lat":40.143975278513885,"lng":-111.58916764745562},{"vid":"6181123","name":"Connor Lindgren","party":"Rep","address":"1443 W 1400 N, Mapleton, UT 84664","precinct":"25MA01","hd":"63","v_score":"12.51600754","decile":"9","lat":40.14280394488887,"lng":-111.59603024154906},{"vid":"6187834","name":"Miss Alina Lowe","party":"","address":"1371 N 700 W, Mapleton, UT 84664","precinct":"25MA01","hd":"63","v_score":"0","decile":"3","lat":40.14284307806879,"lng":-111.5872863788065},{"vid":"6203338","name":"Deshawn Stanton","party":"","address":"1265 N 700 W, Mapleton, UT 84664","precinct":"25MA01","hd":"63","v_score":"16.2066738","decile":"9","lat":40.14176582339979,"lng":-111.5873863452004},{"vid":"6204335","name":"Rodrigo Ruecker","party":"","address":"1345 W 2000 N, Mapleton, UT 84664","precinct":"25MA01","hd":"63","v_score":"26.33466886","decile":"10","lat":40.14825178793777,"lng":-111.59487136362856},{"vid":"6205990","name":"Baxter Johns MD","party":"Dem","address":"1301 N 700 W, Mapleton, UT 84664","precinct":"25MA01","hd":"63","v_score":"26.33466886","decile":"10","lat":40.142144273660016,"lng":-111.58748442344279},{"vid":"6206756","name":"Butch Reichert-Hermann","party":"Dem","address":"1301 N 700 W, Mapleton, UT 84664","precinct":"25MA01","hd":"63","v_score":"26.33466886","decile":"10","lat":40.142144273660016,"lng":-111.58748442344279},{"vid":"6208384","name":"Miss Natalia Kautzer MD","party":"Dem","address":"740 W 1200 N, Mapleton, UT 84664","precinct":"25MA01","hd":"63","v_score":"12.49472132","decile":"9","lat":40.14140657106171,"lng":-111.58734796799975},{"vid":"6209540","name":"Mirna Wisoky","party":"Rep","address":"1629 W 1600 N, Mapleton, UT 84664","precinct":"25MA01","hd":"63","v_score":"5.40460374","decile":"7","lat":40.14454165445491,"lng":-111.59866218549627},{"vid":"6209987","name":"Zillah Gaylord","party":"Dem","address":"1302 N 800 W, Mapleton, UT 84664","precinct":"25MA01","hd":"63","v_score":"26.33466886","decile":"10","lat":40.14214231226522,"lng":-111.58797373056785},{"vid":"6210757","name":"Birdie Hintz","party":"","address":"1629 N 800 W, Mapleton, UT 84664","precinct":"25MA01","hd":"63","v_score":"29.27757645","decile":"10","lat":40.14502244461804,"lng":-111.58854412866276},{"vid":"6213748","name":"Sylvanus Dickinson","party":"","address":"1330 W 1600 N, Mapleton, UT 84664","precinct":"25MA01","hd":"63","v_score":"27.07740306","decile":"10","lat":40.14577161776002,"lng":-111.59483202658193},{"vid":"6213750","name":"Ms. Debi Murphy","party":"Rep","address":"1330 W 1600 N, Mapleton, UT 84664","precinct":"25MA01","hd":"63","v_score":"27.07740306","decile":"10","lat":40.14577161776002,"lng":-111.59483202658193},{"vid":"6214384","name":"Marcello Cormier","party":"Dem","address":"1431 N 800 W, Mapleton, UT 84664","precinct":"25MA01","hd":"63","v_score":"14.76168437","decile":"9","lat":40.143368791557855,"lng":-111.58869540311078},{"vid":"0bef6a00e92bae295fb8118bef857f11f56e20dde054e789e191baba3f917fda","name":"Timmy Powlowski","party":"Rep","address":"1541 N 900 W, Mapleton, UT 84664","precinct":"25MA01","hd":"63","v_score":"5.191257514","decile":"7","lat":40.144307299611434,"lng":-111.59002921481746},{"vid":"6219701","name":"Estes West","party":"","address":"863 W 1700 N, Mapleton, UT 84664","precinct":"25MA01","hd":"63","v_score":"13.78246118","decile":"9","lat":40.14547176067036,"lng":-111.58915869505512},{"vid":"6219879","name":"Malachi Medhurst","party":"","address":"863 W 1700 N, Mapleton, UT 84664","precinct":"25MA01","hd":"63","v_score":"25.25205946","decile":"10","lat":40.14547176067036,"lng":-111.58915869505512},{"vid":"6220277","name":"Sharee Marquardt","party":"Dem","address":"1042 W 1800 N, Mapleton, UT 84664","precinct":"25MA01","hd":"63","v_score":"9.82542041","decile":"8","lat":40.14704835131527,"lng":-111.59183383380405},{"vid":"6220546","name":"Chaka D'Amore","party":"Dem","address":"1402 W 1400 N, Mapleton, UT 84664","precinct":"25MA01","hd":"63","v_score":"23.3180776","decile":"10","lat":40.14332008538654,"lng":-111.59564609947569},{"vid":"6220576","name":"Mr. Montel Wolff","party":"","address":"1873 N 700 W, Mapleton, UT 84664","precinct":"25MA01","hd":"63","v_score":"0","decile":"3","lat":40.14744493594194,"lng":-111.58756035800383},{"vid":"6223531","name":"Dr. Donell Wisoky","party":"","address":"1741 N 500 W, Mapleton, UT 84664","precinct":"25MA01","hd":"63","v_score":"9.907118004","decile":"8","lat":40.14618431537207,"lng":-111.58495191617037},{"vid":"31de1f7037e6d94144cb0903460a198d263349039b7ce9fc6c89003316efd91b","name":"Asberry Miller","party":"Rep","address":"1669 W 1320 N, Mapleton, UT 84664","precinct":"25MA01","hd":"63","v_score":"3.93832808","decile":"6","lat":40.14208562805451,"lng":-111.59903133633446},{"vid":"25fe44bb7ec2d04220ab66922c269f6c198c609ef4c20ca57b127bcbd7d20a5c","name":"Mr. George Heller","party":"Rep","address":"1050 W 2000 N, Mapleton, UT 84664","precinct":"25MA01","hd":"63","v_score":"5.40460374","decile":"7","lat":40.14869185627243,"lng":-111.59162294327179},{"vid":"28206c6f361bed757a335a1e2ded5e29fd29e7b67e83877487f603444adaaeb2","name":"Lorin Littel","party":"","address":"1642 N 1100 W, Mapleton, UT 84664","precinct":"25MA01","hd":"63","v_score":"8.363183621","decile":"8","lat":40.145418265211845,"lng":-111.59227052133278},{"vid":"6234886","name":"Olena Davis","party":"Dem","address":"1016 W 1900 N, Mapleton, UT 84664","precinct":"25MA01","hd":"63","v_score":"6.881235673","decile":"8","lat":40.147889924641895,"lng":-111.5912204472312},{"vid":"6236534","name":"Dr. Rashad Barrows DVM","party":"","address":"1840 N 700 W, Mapleton, UT 84664","precinct":"25MA01","hd":"63","v_score":"3.781490609","decile":"6","lat":40.14701007709126,"lng":-111.58703278157445},{"vid":"6237529","name":"Dr. Jarrett Bogisich","party":"Dem","address":"28 W Carnesecca Ct, Mapleton, UT 84664","precinct":"25MA01","hd":"63","v_score":"0","decile":"3","lat":40.14638120631206,"lng":-111.57903276343953},{"vid":"6240345","name":"Peggy Pollich","party":"","address":"1714 N 500 W, Mapleton, UT 84664","precinct":"25MA01","hd":"63","v_score":"16.2066738","decile":"9","lat":40.14579941764342,"lng":-111.58436256654672},{"vid":"6240363","name":"Asha Torphy","party":"","address":"1714 N 500 W, Mapleton, UT 84664","precinct":"25MA01","hd":"63","v_score":"16.2066738","decile":"9","lat":40.14579941764342,"lng":-111.58436256654672},{"vid":"6244878","name":"Mr. Horton Rutherford","party":"","address":"1226 N 1380 W, Mapleton, UT 84664","precinct":"25MA01","hd":"63","v_score":"1.121327652","decile":"3","lat":40.141372737688265,"lng":-111.59502274869513},{"vid":"6245381","name":"Dr. Natalia Russel","party":"","address":"1556 N 800 W, Mapleton, UT 84664","precinct":"25MA01","hd":"63","v_score":"9.405332525","decile":"8","lat":40.14437894828928,"lng":-111.58799091713585},{"vid":"6247606","name":"Candice Bins","party":"Rep","address":"768 W 1600 N, Mapleton, UT 84664","precinct":"25MA01","hd":"63","v_score":"19.60612512","decile":"10","lat":40.145026021473114,"lng":-111.58803195633668},{"vid":"6251141","name":"Wynona Jerde","party":"","address":"1732 W 1200 N, Mapleton, UT 84664","precinct":"25MA01","hd":"63","v_score":"8.601979876","decile":"8","lat":40.14159643154445,"lng":-111.59947837649769},{"vid":"6252188","name":"Mr. Caesar Lindgren","party":"","address":"1294 N 1380 W, Mapleton, UT 84664","precinct":"25MA01","hd":"63","v_score":"34.54628035","decile":"10","lat":40.14207430082071,"lng":-111.59490198791526},{"vid":"6a63869e12d1d0edd6960cab62ff72028ccf16cc6168d293e13ec1ceaaf8a7ad","name":"Emerson Stokes","party":"Rep","address":"1143 W 2000 N, Mapleton, UT 84664","precinct":"25MA01","hd":"63","v_score":"5.762862305","decile":"7","lat":40.14806031322882,"lng":-111.59271247969649},{"vid":"6257376","name":"Domenico Cruickshank","party":"Dem","address":"1175 W 2000 N, Unit B, Mapleton, UT 84664","precinct":"25MA01","hd":"63","v_score":"0","decile":"3","lat":40.14822474027636,"lng":-111.5930504358392},{"vid":"6258366","name":"Dian Nicolas","party":"Dem","address":"1955 N 500 W, Mapleton, UT 84664","precinct":"25MA01","hd":"63","v_score":"5.40460374","decile":"7","lat":40.147948961823246,"lng":-111.58497842844875},{"vid":"6258567","name":"Mr. Arjun Bechtelar","party":"Rep","address":"938 W 1900 N, Mapleton, UT 84664","precinct":"25MA01","hd":"63","v_score":"6.724398202","decile":"8","lat":40.14789828504796,"lng":-111.59037020062391},{"vid":"6271893","name":"Rhonda Hermann","party":"","address":"652 W 1600 N, Mapleton, UT 84664","precinct":"25MA01","hd":"63","v_score":"5.40460374","decile":"7","lat":40.145096960021775,"lng":-111.5864578136444},{"vid":"6272201","name":"Dijon Murazik-Swift","party":"Rep","address":"1230 W 1500 N, Mapleton, UT 84664","precinct":"25MA01","hd":"63","v_score":"18.47907717","decile":"10","lat":40.14421965640098,"lng":-111.59343047553979},{"vid":"6272871","name":"Maury Okuneva","party":"","address":"833 W 1800 N, Mapleton, UT 84664","precinct":"25MA01","hd":"63","v_score":"15.18126958","decile":"9","lat":40.146575624800924,"lng":-111.58859887968408},{"vid":"6272889","name":"Enoch Ankunding","party":"","address":"1351 N 800 W, Mapleton, UT 84664","precinct":"25MA01","hd":"63","v_score":"1.121327652","decile":"3","lat":40.142354543986414,"lng":-111.58852576115589},{"vid":"6277817","name":"Kaya Gleason","party":"","address":"1662 W 1200 N, Mapleton, UT 84664","precinct":"25MA01","hd":"63","v_score":"5.40460374","decile":"7","lat":40.14158126518703,"lng":-111.59870237342713},{"vid":"6277818","name":"Baldwin Prosacco","party":"Dem","address":"1662 W 1200 N, Mapleton, UT 84664","precinct":"25MA01","hd":"63","v_score":"2.315214949","decile":"5","lat":40.14158126518703,"lng":-111.59870237342713},{"vid":"6278429","name":"Senora Zieme","party":"Dem","address":"1225 N 800 W, Mapleton, UT 84664","precinct":"25MA01","hd":"63","v_score":"8.280646305","decile":"8","lat":40.14139488241328,"lng":-111.58846011756455},{"vid":"6280699","name":"Sean Waters-Ward","party":"Dem","address":"1823 N 1100 W, Mapleton, UT 84664","precinct":"25MA01","hd":"63","v_score":"35.37373745","decile":"10","lat":40.146861520967605,"lng":-111.59284631530981},{"vid":"6281184","name":"Dalton Bailey","party":"","address":"1823 N 1100 W, Mapleton, UT 84664","precinct":"25MA01","hd":"63","v_score":"30.74431755","decile":"10","lat":40.146861520967605,"lng":-111.59284631530981},{"vid":"6289962","name":"Tracy Kuphal","party":"","address":"1636 N 400 W, Mapleton, UT 84664","precinct":"25MA01","hd":"63","v_score":"6.814370645","decile":"8","lat":40.14511804045432,"lng":-111.58335369735322},{"vid":"39dabefc66c2fcef3fba39474d0ac8803372c47f1c71e398b9a8f31e04dc6ebc","name":"Alyssia Stehr","party":"","address":"965 W 1700 N, Mapleton, UT 84664","precinct":"25MA01","hd":"63","v_score":"2.587603312","decile":"5","lat":40.14559900643859,"lng":-111.59040022141406},{"vid":"6300898","name":"Odie Miller","party":"Rep","address":"1613 N 1100 W, Mapleton, UT 84664","precinct":"25MA01","hd":"63","v_score":"16.64754524","decile":"9","lat":40.14502442739415,"lng":-111.59282655559925},{"vid":"6944122a75bfcd91c81900283903150a9bea8124947397e72b7459ac80993261","name":"Kaydence Haley-Russel","party":"Rep","address":"1478 N 1000 W, Mapleton, UT 84664","precinct":"25MA01","hd":"63","v_score":"14.43660232","decile":"9","lat":40.143711014358615,"lng":-111.59066141153488},{"vid":"6307937","name":"Brenton McGlynn-Gutmann","party":"Dem","address":"1705 N 1100 W, Mapleton, UT 84664","precinct":"25MA01","hd":"63","v_score":"12.57725863","decile":"9","lat":40.146001858300195,"lng":-111.59291491242543},{"vid":"6308142","name":"Pearley Mills-Quitzon","party":"","address":"1705 N 1100 W, Mapleton, UT 84664","precinct":"25MA01","hd":"63","v_score":"12.57725863","decile":"9","lat":40.146001858300195,"lng":-111.59291491242543},{"vid":"6320148","name":"Oswald Hettinger","party":"","address":"1533 N 800 W, Mapleton, UT 84664","precinct":"25MA01","hd":"63","v_score":"5.40460374","decile":"7","lat":40.14425374951361,"lng":-111.58864517806371},{"vid":"6325989","name":"Lupe Beer","party":"Rep","address":"1450 W 1600 N, Mapleton, UT 84664","precinct":"25MA01","hd":"63","v_score":"3.781490609","decile":"6","lat":40.14516769150958,"lng":-111.596473754118},{"vid":"6328326","name":"Dr. Shaquana Nienow","party":"","address":"1028 W 1800 N, Mapleton, UT 84664","precinct":"25MA01","hd":"63","v_score":"21.35154895","decile":"10","lat":40.146929019392594,"lng":-111.59132605187179},{"vid":"6329314","name":"Kimberlee Labadie","party":"Rep","address":"1245 W 1600 N, Mapleton, UT 84664","precinct":"25MA01","hd":"63","v_score":"12.63270431","decile":"9","lat":40.14469039682248,"lng":-111.59395502652289},{"vid":"6329319","name":"Erlene Schuppe","party":"Dem","address":"1833 N 500 W, Mapleton, UT 84664","precinct":"25MA01","hd":"63","v_score":"18.81161828","decile":"10","lat":40.147002466986976,"lng":-111.58485209623713},{"vid":"6333910","name":"Cleva Hodkiewicz-Kuhn","party":"Dem","address":"872 W 1200 N, Mapleton, UT 84664","precinct":"25MA01","hd":"63","v_score":"22.18184494","decile":"10","lat":40.14166073561285,"lng":-111.58941356727055},{"vid":"6334117","name":"Mrs. Alexina Runte","party":"","address":"1425 N 1200 W, Mapleton, UT 84664","precinct":"25MA01","hd":"63","v_score":"9.116556227","decile":"8","lat":40.14317959578491,"lng":-111.59376034823462},{"vid":"8834e4a858516a508f63f48949f47d5fc348ba95c33dce867fde81fe5cf21ce4","name":"Akeem Hodkiewicz","party":"Rep","address":"1425 N 1200 W, Mapleton, UT 84664","precinct":"25MA01","hd":"63","v_score":"5.40460374","decile":"7","lat":40.14317959578491,"lng":-111.59376034823462},{"vid":"3bd33f3dbb14bdbeff32fa6f0e335c133ff22a541b28b9ceed718f32f6c79236","name":"Dr. Orin Windler III","party":"","address":"1521 N 700 W, Mapleton, UT 84664","precinct":"25MA01","hd":"63","v_score":"26.33466886","decile":"10","lat":40.14409280826596,"lng":-111.58749116529903},{"vid":"6337142","name":"Brody Mann","party":"Rep","address":"1642 N 1100 W, Mapleton, UT 84664","precinct":"25MA01","hd":"63","v_score":"8.363183621","decile":"8","lat":40.145418265211845,"lng":-111.59227052133278},{"vid":"6339510","name":"Nelda O'Kon","party":"","address":"1396 W 1600 N, Mapleton, UT 84664","precinct":"25MA01","hd":"63","v_score":"26.33466886","decile":"10","lat":40.145617177342125,"lng":-111.59536568710587},{"vid":"6346466","name":"Corean Mohr","party":"Dem","address":"740 W 1200 N, Mapleton, UT 84664","precinct":"25MA01","hd":"63","v_score":"10.87160818","decile":"9","lat":40.14140657106171,"lng":-111.58734796799975},{"vid":"a1fefb1475a59d0a9997f52de78b8a457495260c680fc76291218b9e1b2b8f19","name":"Nia Padberg-Balistreri","party":"Dem","address":"1057 W 1700 N, Mapleton, UT 84664","precinct":"25MA01","hd":"63","v_score":"0","decile":"3","lat":40.145623768246004,"lng":-111.59185699190154},{"vid":"d6e7f7514818af0558a8143b6018d9b8ed916a375ab70f228345b70d09637ba4","name":"Tamiko Wilderman","party":"Dem","address":"1541 N 900 W, Mapleton, UT 84664","precinct":"25MA01","hd":"63","v_score":"8.149837396","decile":"8","lat":40.144307299611434,"lng":-111.59002921481746},{"vid":"6352040","name":"Linn Hills","party":"Dem","address":"1660 N 1600 W, Mapleton, UT 84664","precinct":"25MA01","hd":"63","v_score":"1.193887297","decile":"4","lat":40.145444228756205,"lng":-111.59772166197023},{"vid":"6357077","name":"Michal Baumbach DDS","party":"Rep","address":"1511 W Apple Orchard Ln, Mapleton, UT 84664","precinct":"25MA01","hd":"63","v_score":"3.93832808","decile":"6","lat":40.14737601510952,"lng":-111.5963825489611},{"vid":"6358306","name":"Rylie Powlowski","party":"Dem","address":"1237 N 1200 W, Mapleton, UT 84664","precinct":"25MA01","hd":"63","v_score":"5.40460374","decile":"7","lat":40.141537357226866,"lng":-111.59362654460351},{"vid":"6358777","name":"Margarete Watsica-Kohler","party":"","address":"1255 W 2000 N, Mapleton, UT 84664","precinct":"25MA01","hd":"63","v_score":"8.284004873","decile":"8","lat":40.148156024763885,"lng":-111.59427779084514},{"vid":"6360070","name":"Joselin Kemmer","party":"Rep","address":"928 W 1900 N, Mapleton, UT 84664","precinct":"25MA01","hd":"63","v_score":"29.27757645","decile":"10","lat":40.14770179668059,"lng":-111.5902497442845},{"vid":"6362571","name":"Dr. Mervin Hackett V","party":"","address":"1629 W 1600 N, Mapleton, UT 84664","precinct":"25MA01","hd":"63","v_score":"5.40460374","decile":"7","lat":40.14454165445491,"lng":-111.59866218549627},{"vid":"6363187","name":"Marquez Schmidt","party":"","address":"1335 N 700 W, Mapleton, UT 84664","precinct":"25MA01","hd":"63","v_score":"9.116556227","decile":"8","lat":40.14239715494854,"lng":-111.58738779274567},{"vid":"6363834","name":"Vikki Torphy","party":"Rep","address":"1499 N 800 W, Mapleton, UT 84664","precinct":"25MA01","hd":"63","v_score":"22.12059385","decile":"10","lat":40.14397840792611,"lng":-111.58870151506832},{"vid":"72aef9c1be08ffce1ef6ef80c65c7f71faab50987e588ddd912cbb6976f56d67","name":"Oral Fay","party":"","address":"1310 W 1600 N, Mapleton, UT 84664","precinct":"25MA01","hd":"63","v_score":"19.10400259","decile":"10","lat":40.14513994350988,"lng":-111.59454816544999},{"vid":"6366888","name":"Magan Sawayn","party":"","address":"1756 N 500 W, Mapleton, UT 84664","precinct":"25MA01","hd":"63","v_score":"36.21050801","decile":"10","lat":40.146201606779464,"lng":-111.58449329321986},{"vid":"6367513","name":"Jensen Durgan","party":"","address":"1533 N 800 W, Mapleton, UT 84664","precinct":"25MA01","hd":"63","v_score":"5.40460374","decile":"7","lat":40.14425374951361,"lng":-111.58864517806371},{"vid":"c7815b3cf7d8ad9b6f670d0bf1a5ca4750934c8cdb2fd291f399af128d0d77ce","name":"Sol Thompson","party":"Rep","address":"1873 N 700 W, Mapleton, UT 84664","precinct":"25MA01","hd":"63","v_score":"11.29723756","decile":"9","lat":40.14744493594194,"lng":-111.58756035800383},{"vid":"6373239","name":"Carey Kling PhD","party":"","address":"1733 N 1250 W, Mapleton, UT 84664","precinct":"25MA01","hd":"63","v_score":"0","decile":"3","lat":40.14589685014517,"lng":-111.59415214710751},{"vid":"6373740","name":"Elzie Runolfsson-Stanton","party":"Rep","address":"515 W 2000 N, Mapleton, UT 84664","precinct":"25MA01","hd":"63","v_score":"11.37339366","decile":"9","lat":40.148324647417944,"lng":-111.58503523329598},{"vid":"6378239","name":"Djuana Murazik","party":"","address":"1335 N 700 W, Mapleton, UT 84664","precinct":"25MA01","hd":"63","v_score":"7.493443096","decile":"8","lat":40.14239715494854,"lng":-111.58738779274567},{"vid":"6378442","name":"Boyce Davis","party":"Dem","address":"1499 N 800 W, Mapleton, UT 84664","precinct":"25MA01","hd":"63","v_score":"25.06350144","decile":"10","lat":40.14397840792611,"lng":-111.58870151506832},{"vid":"ba5f2e2fee274a8511001711ebc757df76970de032116dc1906ad57d7156ae42","name":"Sophronia Weimann","party":"Rep","address":"1306 W 1200 N, Mapleton, UT 84664","precinct":"25MA01","hd":"63","v_score":"9.55742766","decile":"8","lat":40.14154304966237,"lng":-111.59442492692362},{"vid":"da79d45aa7828c3b4890e4cd4afba4ec540fafb07e2fb38be2d4bb6c51ad9a5b","name":"Daniella Johns","party":"Dem","address":"1261 N 1380 W, Mapleton, UT 84664","precinct":"25MA01","hd":"63","v_score":"18.08425548","decile":"10","lat":40.14177355502685,"lng":-111.59560596110614},{"vid":"6396281","name":"Sarah Senger-Abshire","party":"","address":"1261 N 1380 W, Mapleton, UT 84664","precinct":"25MA01","hd":"63","v_score":"16.2066738","decile":"9","lat":40.14177355502685,"lng":-111.59560596110614},{"vid":"6398719","name":"Aleena Becker","party":"","address":"938 W 1900 N, Mapleton, UT 84664","precinct":"25MA01","hd":"63","v_score":"6.724398202","decile":"8","lat":40.14789828504796,"lng":-111.59037020062391},{"vid":"6403496","name":"Nakia Gutmann","party":"","address":"1760 N 1250 W, Mapleton, UT 84664","precinct":"25MA01","hd":"63","v_score":"15.02443211","decile":"9","lat":40.146196147767064,"lng":-111.5936831669649},{"vid":"6405867","name":"Encarnacion Farrell V","party":"Rep","address":"966 W 1900 N, Mapleton, UT 84664","precinct":"25MA01","hd":"63","v_score":"8.363183621","decile":"8","lat":40.14781232877335,"lng":-111.59078714158804},{"vid":"eae8140758e8ea3897e0ff7ee5f25db475fbfc863e1b9309d4f24cb1b9af0f9c","name":"Latrell Lebsack","party":"Dem","address":"1279 W 1500 N, Mapleton, UT 84664","precinct":"25MA01","hd":"63","v_score":"10.2407653","decile":"9","lat":40.14371804115912,"lng":-111.59417261517407},{"vid":"6412681","name":"Mr. Edsel Rosenbaum","party":"Rep","address":"1682 W 1200 N, Mapleton, UT 84664","precinct":"25MA01","hd":"63","v_score":"8.903210001","decile":"8","lat":40.141580946686084,"lng":-111.59907784819531},{"vid":"6413609","name":"Dr. Letha Sauer","party":"Rep","address":"130 W 1600 N, Mapleton, UT 84664","precinct":"25MA01","hd":"63","v_score":"9.834558359","decile":"8","lat":40.145056822451046,"lng":-111.58044856050076},{"vid":"6414719","name":"Hildur Stark-Senger","party":"","address":"1050 W 2000 N, Mapleton, UT 84664","precinct":"25MA01","hd":"63","v_score":"5.40460374","decile":"7","lat":40.14869185627243,"lng":-111.59162294327179},{"vid":"6419084","name":"Santo Rutherford","party":"Rep","address":"1450 W 1600 N, Mapleton, UT 84664","precinct":"25MA01","hd":"63","v_score":"2.315214949","decile":"5","lat":40.14516769150958,"lng":-111.596473754118},{"vid":"6421044","name":"Dejah Douglas","party":"","address":"1648 W 1320 N, Mapleton, UT 84664","precinct":"25MA01","hd":"63","v_score":"5.40460374","decile":"7","lat":40.1427880123659,"lng":-111.59867506793631},{"vid":"6423499","name":"Korbin Hane","party":"","address":"1485 W 2000 N, Mapleton, UT 84664","precinct":"25MA01","hd":"63","v_score":"13.61621523","decile":"9","lat":40.148340265575165,"lng":-111.59604983638808},{"vid":"3e5ec55d3562d6102321cafe6dfb6a05512ce41ebd16ac787efacb56cfac4589","name":"Gino Mills","party":"Rep","address":"31 W Carnesecca Ct, Mapleton, UT 84664","precinct":"25MA01","hd":"63","v_score":"14.58917461","decile":"9","lat":40.146063603324734,"lng":-111.57903903305684},{"vid":"6429823","name":"Mr. Korbin Denesik PhD","party":"Rep","address":"1226 N 1380 W, Mapleton, UT 84664","precinct":"25MA01","hd":"63","v_score":"1.121327652","decile":"3","lat":40.141372737688265,"lng":-111.59502274869513},{"vid":"6434259","name":"Dr. Eve Hettinger DVM","party":"Dem","address":"1855 N 1000 W, Mapleton, UT 84664","precinct":"25MA01","hd":"63","v_score":"8.280646305","decile":"8","lat":40.14728824302126,"lng":-111.59148979215068},{"vid":"6439722","name":"Dr. Carmen Cormier II","party":"Dem","address":"1549 W 1800 N, Mapleton, UT 84664","precinct":"25MA01","hd":"63","v_score":"5.191257514","decile":"7","lat":40.14631787018423,"lng":-111.59742499035325},{"vid":"6441249","name":"Darry Connelly","party":"Rep","address":"1869 N 1350 W, Mapleton, UT 84664","precinct":"25MA01","hd":"63","v_score":"4.905839784","decile":"7","lat":40.14724643643128,"lng":-111.5954568101621},{"vid":"d51a89151e27d9b821fddbf8f1445ecaf04ab230c1af8e598da3050175dd7351","name":"Ryland Boehm-Will","party":"Dem","address":"1857 N 1100 W, Mapleton, UT 84664","precinct":"25MA01","hd":"63","v_score":"7.313415791","decile":"8","lat":40.14724510700553,"lng":-111.59296412601469},{"vid":"972423a9c503267d7791ec69c91c5942ad6b23837343c0ad5a19b8a8b087a7c8","name":"Mabell Lockman","party":"Rep","address":"31 W Carnesecca Ct, Mapleton, UT 84664","precinct":"25MA01","hd":"63","v_score":"11.64626702","decile":"9","lat":40.146063603324734,"lng":-111.57903903305684},{"vid":"6444796","name":"Tyler Keebler","party":"Dem","address":"1642 N 1100 W, Mapleton, UT 84664","precinct":"25MA01","hd":"63","v_score":"5.40460374","decile":"7","lat":40.145418265211845,"lng":-111.59227052133278},{"vid":"6445294","name":"Dr. Lincoln Hand","party":"","address":"1330 N 800 W, Mapleton, UT 84664","precinct":"25MA01","hd":"63","v_score":"6.52928996","decile":"7","lat":40.14247937234479,"lng":-111.588009359339},{"vid":"6449996","name":"Regan Graham","party":"","address":"1089 W 1800 N, Mapleton, UT 84664","precinct":"25MA01","hd":"63","v_score":"0","decile":"3","lat":40.14651990793778,"lng":-111.59234448681664},{"vid":"6453591","name":"Francies Lesch DDS","party":"Dem","address":"1335 N 700 W, Mapleton, UT 84664","precinct":"25MA01","hd":"63","v_score":"7.92266893","decile":"8","lat":40.14239715494854,"lng":-111.58738779274567},{"vid":"b47113600758ee7714ba8f95035e0faab31640b6bfc5f62dda42b04280b816f6","name":"Mayme Welch","party":"Dem","address":"1052 W 1700 N, Mapleton, UT 84664","precinct":"25MA01","hd":"63","v_score":"6.587995052","decile":"7","lat":40.14619726924194,"lng":-111.59187944139083},{"vid":"6454850","name":"Dr. Gerhardt Cronin","party":"","address":"1824 N 600 W, Mapleton, UT 84664","precinct":"25MA01","hd":"63","v_score":"3.781490609","decile":"6","lat":40.14689058497287,"lng":-111.58560508606611},{"vid":"6459264","name":"Nettie Vandervort","party":"Rep","address":"1944 N 300 W, Mapleton, UT 84664","precinct":"25MA01","hd":"63","v_score":"2.315214949","decile":"5","lat":40.14788566340717,"lng":-111.58178907058516},{"vid":"6462804","name":"Dr. Sabrina White","party":"Rep","address":"1643 N 1100 W, Mapleton, UT 84664","precinct":"25MA01","hd":"63","v_score":"36.28419167","decile":"10","lat":40.14539935450223,"lng":-111.59325605494615},{"vid":"6465761","name":"Mrs. Dulcie Reilly MD","party":"","address":"1630 N 1600 W, Mapleton, UT 84664","precinct":"25MA01","hd":"63","v_score":"0","decile":"3","lat":40.14503173041447,"lng":-111.59782153980763},{"vid":"6475865","name":"Mrs. Gladys Dibbert","party":"Rep","address":"949 W 1800 N, Mapleton, UT 84664","precinct":"25MA01","hd":"63","v_score":"0","decile":"3","lat":40.14644496915802,"lng":-111.59029171976118},{"vid":"6481495","name":"Miss Emmy Carroll DDS","party":"","address":"1294 N 1380 W, Mapleton, UT 84664","precinct":"25MA01","hd":"63","v_score":"34.54628035","decile":"10","lat":40.14207430082071,"lng":-111.59490198791526},{"vid":"6486383","name":"Codie Brekke","party":"","address":"1675 N 1000 W, Mapleton, UT 84664","precinct":"25MA01","hd":"63","v_score":"3.781490609","decile":"6","lat":40.14577458586166,"lng":-111.59128819589726},{"vid":"6497094","name":"Mr. Aaden Stoltenberg","party":"Rep","address":"1682 W 1200 N, Mapleton, UT 84664","precinct":"25MA01","hd":"63","v_score":"4.069929862","decile":"7","lat":40.141580946686084,"lng":-111.59907784819531},{"vid":"6497761","name":"Dr. Grace Emard","party":"","address":"243 W 2000 N, Mapleton, UT 84664","precinct":"25MA01","hd":"63","v_score":"6.814370645","decile":"8","lat":40.14843090633788,"lng":-111.58162199306521},{"vid":"6499050","name":"Andre Mohr","party":"Dem","address":"1095 W 2000 N, Mapleton, UT 84664","precinct":"25MA01","hd":"63","v_score":"0","decile":"3","lat":40.14821312833007,"lng":-111.59200706926529},{"vid":"6500621","name":"Dr. Unknown Pouros","party":"Rep","address":"1869 N 1350 W, Mapleton, UT 84664","precinct":"25MA01","hd":"63","v_score":"1.193887297","decile":"4","lat":40.14724643643128,"lng":-111.5954568101621},{"vid":"6503855","name":"Dr. Theo Rosenbaum V","party":"","address":"1549 W 1800 N, Mapleton, UT 84664","precinct":"25MA01","hd":"63","v_score":"5.191257514","decile":"7","lat":40.14631787018423,"lng":-111.59742499035325},{"vid":"6505601","name":"Ethelbert Welch-Farrell","party":"","address":"1487 N 700 W, Mapleton, UT 84664","precinct":"25MA01","hd":"63","v_score":"6.528952915","decile":"7","lat":40.14374741266654,"lng":-111.58739095194088},{"vid":"6510899","name":"Nia Durgan","party":"","address":"1682 N 800 W, Mapleton, UT 84664","precinct":"25MA01","hd":"63","v_score":"22.54903271","decile":"10","lat":40.14565063023169,"lng":-111.58786164261952},{"vid":"6512236","name":"Shawanda Strosin","party":"Dem","address":"1629 N 800 W, Mapleton, UT 84664","precinct":"25MA01","hd":"63","v_score":"29.27757645","decile":"10","lat":40.14502244461804,"lng":-111.58854412866276},{"vid":"6512594","name":"Delmus Ferry","party":"Dem","address":"1477 N 1600 W, Mapleton, UT 84664","precinct":"25MA01","hd":"63","v_score":"1.121327652","decile":"3","lat":40.143761799275026,"lng":-111.59922410850622},{"vid":"5f7e5db76d0cc248d377e8b69ade7994ba5f57c7ac49905ceec2a1fb03b1abdb","name":"Belia Kunde-Hayes","party":"Rep","address":"1736 N 1000 W, Mapleton, UT 84664","precinct":"25MA01","hd":"63","v_score":"29.43736821","decile":"10","lat":40.14604906886361,"lng":-111.59080525800859},{"vid":"6514119","name":"Elzy Lind","party":"","address":"1400 N 1800 W, Mapleton, UT 84664","precinct":"25MA01","hd":"63","v_score":"2.315214949","decile":"5","lat":40.14275916094903,"lng":-111.60052026750316},{"vid":"6514331","name":"Mrs. Cherri Haag DDS","party":"","address":"909 W 2000 N, Mapleton, UT 84664","precinct":"25MA01","hd":"63","v_score":"3.93832808","decile":"6","lat":40.148309137863,"lng":-111.59022672973458},{"vid":"6514791","name":"Buddie Schumm","party":"","address":"1925 N Apple Orchard Ln, Mapleton, UT 84664","precinct":"25MA01","hd":"63","v_score":"9.830961897","decile":"8","lat":40.14762056799465,"lng":-111.59639933672928},{"vid":"6515506","name":"Zoie Welch PhD","party":"","address":"1419 N 1600 W, Mapleton, UT 84664","precinct":"25MA01","hd":"63","v_score":"15.53259879","decile":"9","lat":40.14315701268511,"lng":-111.59860548024227},{"vid":"6519696","name":"Emil Dach Sr.","party":"Dem","address":"1445 N 900 W, Mapleton, UT 84664","precinct":"25MA01","hd":"63","v_score":"19.66413649","decile":"10","lat":40.14331372912684,"lng":-111.58983806985398},{"vid":"6523084","name":"Dr. Richie Kuhic II","party":"","address":"1524 N 800 W, Mapleton, UT 84664","precinct":"25MA01","hd":"63","v_score":"15.4533012","decile":"9","lat":40.14409119700456,"lng":-111.5878887303587},{"vid":"6525275","name":"Adalberto Swift-Harvey","party":"Dem","address":"162 W 1600 N, Mapleton, UT 84664","precinct":"25MA01","hd":"63","v_score":"19.60612512","decile":"10","lat":40.14525125844342,"lng":-111.5807124004736},{"vid":"6525396","name":"Declan Upton","party":"","address":"148 W Carnesecca Ct, Mapleton, UT 84664","precinct":"25MA01","hd":"63","v_score":"9.61867875","decile":"8","lat":40.146398439997405,"lng":-111.58070206943789},{"vid":"dfcb490014b7ee6e8d3565c8b0e804ea89f917656702abff0b5793222ddfff36","name":"Daijah Veum","party":"Rep","address":"1911 N 1600 W, Mapleton, UT 84664","precinct":"25MA01","hd":"63","v_score":"19.22326505","decile":"10","lat":40.14776937675075,"lng":-111.59830071610216},{"vid":"6530812","name":"Carlie Borer","party":"Dem","address":"1502 N 900 W, Mapleton, UT 84664","precinct":"25MA01","hd":"63","v_score":"29.27757645","decile":"10","lat":40.143975278513885,"lng":-111.58916764745562},{"vid":"6532570","name":"Ms. Chelsi Romaguera MD","party":"Dem","address":"1524 N 800 W, Mapleton, UT 84664","precinct":"25MA01","hd":"63","v_score":"15.4533012","decile":"9","lat":40.14409119700456,"lng":-111.5878887303587}]