[{"vid":"702493","name":"Lotta Hayes","party":"Rep","address":"1548 W 2400 S, Mapleton, UT 84664","precinct":"25MA10","hd":"63","v_score":"29.5455692","decile":"10","lat":40.108916559419356,"lng":-111.59601046783301,"phone":"(223) 834-4901","sd":"26","ssbd":"13","lsbd":"School Board Nebo 2"},{"vid":"1629b5653c0efbe9aa12b732d4b47d5a733ed9e0fefa5940c750298e19bec11c","name":"Mr. French Windler","party":"Dem","address":"3121 S Pinyon Park Ln, Mapleton, UT 84664","precinct":"25MA10","hd":"63","v_score":"10.87160818","decile":"9","lat":40.1017050451923,"lng":-111.59509791434148,"phone":"(449) 126-6678","sd":"26","ssbd":"13","lsbd":"School Board Nebo 2"},{"vid":"1258850","name":"Gerard Satterfield II","party":"Dem","address":"1916 W Charlotte Ct, Mapleton, UT 84664","precinct":"25MA10","hd":"63","v_score":"1.193887297","decile":"3","lat":40.11526934774861,"lng":-111.60109701385382,"phone":"(476) 803-9649","sd":"26","ssbd":"13","lsbd":"School Board Nebo 2"},{"vid":"1274846","name":"Cheryl Balistreri","party":"Dem","address":"3256 S Pinyon Park Ln, Mapleton, UT 84664","precinct":"25MA10","hd":"63","v_score":"39.06209542","decile":"10","lat":40.10040661551995,"lng":-111.59523898953356,"phone":"(724) 095-4440","sd":"26","ssbd":"13","lsbd":"School Board Nebo 2"},{"vid":"1275947","name":"Dr. Troy Block III","party":"","address":"930 W 2620 S, Mapleton, UT 84664","precinct":"25MA10","hd":"63","v_score":"9.699007114","decile":"8","lat":40.107003057755925,"lng":-111.58964746657465,"phone":"(562) 367-0109","sd":"26","ssbd":"13","lsbd":"School Board Nebo 2"},{"vid":"1343515","name":"Karon Ortiz","party":"Rep","address":"2030 S Parkview Dr, Mapleton, UT 84664","precinct":"25MA10","hd":"63","v_score":"20.34747412","decile":"10","lat":40.111785220642616,"lng":-111.59201900953494,"phone":"(544) 821-6833","sd":"26","ssbd":"13","lsbd":"School Board Nebo 2"},{"vid":"1366796","name":"Leonor Kuphal","party":"","address":"1224 W 2600 S, Mapleton, UT 84664","precinct":"25MA10","hd":"63","v_score":"23.6745059","decile":"10","lat":40.107032616181826,"lng":-111.59366674672776,"phone":"(410) 855-8377","sd":"26","ssbd":"13","lsbd":"School Board Nebo 2"},{"vid":"ba1858165645e2a7a2e257728ea6312281849fc1128266d9b08016ecf93ba66e","name":"Iola Kris-Glover","party":"Rep","address":"2044 W 1900 S, Mapleton, UT 84664","precinct":"25MA10","hd":"63","v_score":"10.17950637","decile":"9","lat":40.113370583304814,"lng":-111.60287356121006,"phone":"(687) 273-1633","sd":"26","ssbd":"13","lsbd":"School Board Nebo 2"},{"vid":"5741ab0801d1d6a06f7c5890d62b1dc71e097d1c621cb0f3235e72b25b565cba","name":"Dr. Stefanie Nitzsche DDS","party":"Rep","address":"3106 S Mapleton Heights Dr, Mapleton, UT 84664","precinct":"25MA10","hd":"63","v_score":"16.82876035","decile":"9","lat":40.10181452683033,"lng":-111.59464012200044,"phone":"(960) 232-9684","sd":"26","ssbd":"13","lsbd":"School Board Nebo 2"},{"vid":"1461751","name":"Ardis Harvey","party":"","address":"3462 S Sugar Maple Ct, Mapleton, UT 84664","precinct":"25MA10","hd":"63","v_score":"0","decile":"1","lat":40.09910125604868,"lng":-111.5889493865679,"phone":"(574) 262-4460","sd":"26","ssbd":"13","lsbd":"School Board Nebo 2"},{"vid":"1471280","name":"Rosemarie Donnelly","party":"","address":"3391 S Pinyon Park Ln, Mapleton, UT 84664","precinct":"25MA10","hd":"63","v_score":"3.93832808","decile":"6","lat":40.09893817740185,"lng":-111.5935777116756,"phone":"(884) 024-3918","sd":"26","ssbd":"13","lsbd":"School Board Nebo 2"},{"vid":"1564623","name":"Luka Walsh","party":"Dem","address":"1806 W 1900 S, Mapleton, UT 84664","precinct":"25MA10","hd":"63","v_score":"23.37608897","decile":"10","lat":40.113174968130394,"lng":-111.60030134217048,"phone":"(307) 486-5862","sd":"26","ssbd":"13","lsbd":"School Board Nebo 2"},{"vid":"00486b698b6daa8af168807e66dfbfb598db1f380024edb9507aa2f7736d31ef","name":"Dr. Kalen Jaskolski I","party":"","address":"1894 W 1800 S, Mapleton, UT 84664","precinct":"25MA10","hd":"63","v_score":"3.781490609","decile":"6","lat":40.11439451047151,"lng":-111.60078075444575,"phone":"(962) 776-3524","sd":"26","ssbd":"13","lsbd":"School Board Nebo 2"},{"vid":"1589237","name":"Travis Breitenberg","party":"Rep","address":"1254 W Union Bench Dr, Mapleton, UT 84664","precinct":"25MA10","hd":"63","v_score":"2.315214949","decile":"5","lat":40.10047317054789,"lng":-111.59265324529115,"phone":"(522) 200-1313","sd":"26","ssbd":"13","lsbd":"School Board Nebo 2"},{"vid":"1613829","name":"William Reichel","party":"Dem","address":"1288 W Scrub Oak Cir, Mapleton, UT 84664","precinct":"25MA10","hd":"63","v_score":"12.42192378","decile":"9","lat":40.101825580242526,"lng":-111.59305468867606,"phone":"(366) 863-3386","sd":"26","ssbd":"13","lsbd":"School Board Nebo 2"},{"vid":"1613830","name":"Erasmus Murray Sr.","party":"Rep","address":"1288 W Scrub Oak Cir, Mapleton, UT 84664","precinct":"25MA10","hd":"63","v_score":"12.42192378","decile":"9","lat":40.101825580242526,"lng":-111.59305468867606,"phone":"(397) 758-3369","sd":"26","ssbd":"13","lsbd":"School Board Nebo 2"},{"vid":"1629766","name":"Ms. Shanda Hilpert PhD","party":"Rep","address":"850 W 2620 S, Mapleton, UT 84664","precinct":"25MA10","hd":"63","v_score":"19.27943305","decile":"10","lat":40.106739069774555,"lng":-111.58873692105729,"phone":"(524) 430-3818","sd":"26","ssbd":"13","lsbd":"School Board Nebo 2"},{"vid":"1638085","name":"Texanna Green","party":"","address":"1085 W Union Bench Dr, Mapleton, UT 84664","precinct":"25MA10","hd":"63","v_score":"5.40460374","decile":"7","lat":40.100289320187606,"lng":-111.59160861154973,"phone":"(165) 582-8997","sd":"26","ssbd":"13","lsbd":"School Board Nebo 2"},{"vid":"1647538","name":"Ethie Rippin","party":"Dem","address":"1085 W Union Bench Dr, Mapleton, UT 84664","precinct":"25MA10","hd":"63","v_score":"7.947838735","decile":"8","lat":40.100289320187606,"lng":-111.59160861154973,"phone":"(941) 872-5885","sd":"26","ssbd":"13","lsbd":"School Board Nebo 2"},{"vid":"1647639","name":"Moriah Russel-Schultz","party":"","address":"1387 W Mapleton Heights Ct, Mapleton, UT 84664","precinct":"25MA10","hd":"63","v_score":"3.93832808","decile":"6","lat":40.102182522038916,"lng":-111.5942744797555,"phone":"(788) 567-3389","sd":"26","ssbd":"13","lsbd":"School Board Nebo 2"},{"vid":"1667179","name":"Mr. Kennedy Green DVM","party":"Rep","address":"3488 S Snowberry Dr, Mapleton, UT 84664","precinct":"25MA10","hd":"63","v_score":"2.315214949","decile":"5","lat":40.09874328971361,"lng":-111.59019935716233,"phone":"(960) 027-8265","sd":"26","ssbd":"13","lsbd":"School Board Nebo 2"},{"vid":"1682663","name":"Seymour Ryan","party":"Rep","address":"1386 W Scrub Oak Cir, Mapleton, UT 84664","precinct":"25MA10","hd":"63","v_score":"15.02409506","decile":"9","lat":40.10170434302073,"lng":-111.59402963336724,"phone":"(334) 405-7161","sd":"26","ssbd":"13","lsbd":"School Board Nebo 2"},{"vid":"1693039","name":"Wanita Huels","party":"","address":"1663 S 2100 W, Mapleton, UT 84664","precinct":"25MA10","hd":"63","v_score":"9.913499214","decile":"8","lat":40.11532804336811,"lng":-111.60336051803706,"phone":"(326) 831-4589","sd":"26","ssbd":"13","lsbd":"School Board Nebo 2"},{"vid":"e13a05701521ca9a16eae9a32f1086ad1fbad2959d21f717b88c16af33dcc65e","name":"Deshaun Hermiston-Dicki","party":"Dem","address":"3184 S Mapleton Heights Dr, Mapleton, UT 84664","precinct":"25MA10","hd":"63","v_score":"1.121327652","decile":"3","lat":40.101175590620926,"lng":-111.59440363062306,"phone":"(244) 402-3731","sd":"26","ssbd":"13","lsbd":"School Board Nebo 2"},{"vid":"1735818","name":"Tristen Rutherford","party":"Rep","address":"1105 W Park Meadows Dr, Mapleton, UT 84664","precinct":"25MA10","hd":"63","v_score":"9.116556227","decile":"8","lat":40.11238974978384,"lng":-111.59161709223181,"phone":"(889) 212-6037","sd":"26","ssbd":"13","lsbd":"School Board Nebo 2"},{"vid":"1761020","name":"Lyndia Jast","party":"Rep","address":"1801 S 1600 W, Mapleton, UT 84664","precinct":"25MA10","hd":"63","v_score":"5.40460374","decile":"7","lat":40.11391267277683,"lng":-111.59748576994616,"phone":"(483) 921-8815","sd":"26","ssbd":"13","lsbd":"School Board Nebo 2"},{"vid":"1765719","name":"Mr. Gerold O'Reilly","party":"Rep","address":"1721 S 2100 W, Mapleton, UT 84664","precinct":"25MA10","hd":"63","v_score":"20.30750142","decile":"10","lat":40.114235129918534,"lng":-111.60299003353586,"phone":"(639) 082-2620","sd":"26","ssbd":"13","lsbd":"School Board Nebo 2"},{"vid":"1766819","name":"Geraldo Walsh","party":"Dem","address":"1918 W 1900 S, Mapleton, UT 84664","precinct":"25MA10","hd":"63","v_score":"2.315214949","decile":"5","lat":40.11338147483456,"lng":-111.60181037686422,"phone":"(327) 841-0733","sd":"26","ssbd":"13","lsbd":"School Board Nebo 2"},{"vid":"1775402","name":"Marybeth Will","party":"","address":"1502 W Mapleton Heights Dr, Mapleton, UT 84664","precinct":"25MA10","hd":"63","v_score":"2.315214949","decile":"5","lat":40.10255290037535,"lng":-111.59546136267201,"phone":"(442) 187-0218","sd":"26","ssbd":"13","lsbd":"School Board Nebo 2"},{"vid":"1777764","name":"Leonce Larkin","party":"Dem","address":"3434 S Mapleton Heights Dr, Mapleton, UT 84664","precinct":"25MA10","hd":"63","v_score":"5.536205522","decile":"7","lat":40.09876171190728,"lng":-111.59257676527764,"phone":"(355) 084-9292","sd":"26","ssbd":"13","lsbd":"School Board Nebo 2"},{"vid":"1777869","name":"Catalina Zieme-Thompson","party":"Dem","address":"1156 W 2200 S, Mapleton, UT 84664","precinct":"25MA10","hd":"63","v_score":"5.40460374","decile":"7","lat":40.110449041450174,"lng":-111.59197099064127,"phone":"(538) 349-0258","sd":"26","ssbd":"13","lsbd":"School Board Nebo 2"},{"vid":"e5b48fd9131158e92bb65e071baffa26dd02bc221fe81f06358327c652f5b64f","name":"Roxann Lindgren","party":"Rep","address":"930 W 2620 S, Mapleton, UT 84664","precinct":"25MA10","hd":"63","v_score":"12.69956934","decile":"9","lat":40.107003057755925,"lng":-111.58964746657465,"phone":"(668) 264-9817","sd":"26","ssbd":"13","lsbd":"School Board Nebo 2"},{"vid":"1801859","name":"Alexys Schamberger","party":"Rep","address":"3434 S Mapleton Heights Dr, Mapleton, UT 84664","precinct":"25MA10","hd":"63","v_score":"5.536205522","decile":"7","lat":40.09876171190728,"lng":-111.59257676527764,"phone":"(994) 749-2086","sd":"26","ssbd":"13","lsbd":"School Board Nebo 2"},{"vid":"1814324","name":"Cas O'Hara","party":"","address":"1961 W 1900 S, Mapleton, UT 84664","precinct":"25MA10","hd":"63","v_score":"1.193887297","decile":"3","lat":40.11222535111124,"lng":-111.60223904024657,"phone":"(199) 894-1626","sd":"26","ssbd":"13","lsbd":"School Board Nebo 2"},{"vid":"1817139","name":"Rahul Von","party":"","address":"1386 W Scrub Oak Cir, Mapleton, UT 84664","precinct":"25MA10","hd":"63","v_score":"12.63193704","decile":"9","lat":40.10170434302073,"lng":-111.59402963336724,"phone":"(539) 421-5843","sd":"26","ssbd":"13","lsbd":"School Board Nebo 2"},{"vid":"c2ac75452fbdf43a0b22f14699e5342ff8319e90cd946b110aaa4ea8d5ef9317","name":"Wash Maggio","party":"","address":"1654 S 2100 W, Mapleton, UT 84664","precinct":"25MA10","hd":"63","v_score":"0","decile":"1","lat":40.115261885095784,"lng":-111.60456286713888,"phone":"(764) 461-9159","sd":"26","ssbd":"13","lsbd":"School Board Nebo 2"},{"vid":"d2850c8e6cb92500dbf50cadaac6a24ce3dedc889898c1744d150877f3337431","name":"Isidore Morar","party":"","address":"1331 W 2800 S, Mapleton, UT 84664","precinct":"25MA10","hd":"63","v_score":"2.587603312","decile":"5","lat":40.103544865886946,"lng":-111.59478519447674,"phone":"(306) 372-7067","sd":"26","ssbd":"13","lsbd":"School Board Nebo 2"},{"vid":"c9fbb1cae7d5fbad170092703f69695867de47373edb3e4692e3d8bac19cfbbb","name":"Kathlyn Strosin","party":"Rep","address":"831 W Rock Ridge Dr, Mapleton, UT 84664","precinct":"25MA10","hd":"63","v_score":"1.121327652","decile":"3","lat":40.0995138632786,"lng":-111.58873384657325,"phone":"(629) 750-4857","sd":"26","ssbd":"13","lsbd":"School Board Nebo 2"},{"vid":"1861008","name":"Dr. Nicolas Barton I","party":"","address":"3408 S Pinyon Park Ln, Mapleton, UT 84664","precinct":"25MA10","hd":"63","v_score":"5.834622447","decile":"7","lat":40.09847300567367,"lng":-111.59378376781542,"phone":"(372) 894-1802","sd":"26","ssbd":"13","lsbd":"School Board Nebo 2"},{"vid":"1881848","name":"Azzie Daugherty","party":"","address":"1330 W Park Meadows Dr, Mapleton, UT 84664","precinct":"25MA10","hd":"63","v_score":"10.87160818","decile":"9","lat":40.11346789786409,"lng":-111.59428887482805,"phone":"(397) 649-9947","sd":"26","ssbd":"13","lsbd":"School Board Nebo 2"},{"vid":"1606a53f2c9d38a47c4b299cf86f61fb59d438e6ee317205a12e70bc3d156fb0","name":"Ms. Karina Lehner DDS","party":"Dem","address":"1805 W 2400 S, Mapleton, UT 84664","precinct":"25MA10","hd":"63","v_score":"0","decile":"1","lat":40.10762343103797,"lng":-111.60012751093619,"phone":"(594) 228-8603","sd":"26","ssbd":"13","lsbd":"School Board Nebo 2"},{"vid":"1915252","name":"Lauryn Littel","party":"Dem","address":"1848 W Charlotte Ct, Mapleton, UT 84664","precinct":"25MA10","hd":"63","v_score":"1.121327652","decile":"3","lat":40.115099343242775,"lng":-111.59995716660261,"phone":"(812) 199-9473","sd":"26","ssbd":"13","lsbd":"School Board Nebo 2"},{"vid":"1954464","name":"Jaydin Koelpin","party":"Rep","address":"1488 W Mapleton Heights Dr, Mapleton, UT 84664","precinct":"25MA10","hd":"63","v_score":"26.52540223","decile":"10","lat":40.10254796736117,"lng":-111.59516276493304,"phone":"(363) 272-4110","sd":"26","ssbd":"13","lsbd":"School Board Nebo 2"},{"vid":"1956477","name":"Jerrod Kerluke","party":"Dem","address":"1783 W 1800 S, Mapleton, UT 84664","precinct":"25MA10","hd":"63","v_score":"0","decile":"1","lat":40.114141754618466,"lng":-111.59993941278626,"phone":"(413) 921-6820","sd":"26","ssbd":"13","lsbd":"School Board Nebo 2"},{"vid":"0d13563412e645145d9f916c64d200e95c884bfad6262b52ebc6a287362273d3","name":"Francesca Keebler","party":"Dem","address":"1654 S 2100 W, Mapleton, UT 84664","precinct":"25MA10","hd":"63","v_score":"14.04503691","decile":"9","lat":40.115261885095784,"lng":-111.60456286713888,"phone":"(502) 858-9521","sd":"26","ssbd":"13","lsbd":"School Board Nebo 2"},{"vid":"1970754","name":"Mr. Curt Hane","party":"Rep","address":"3324 S Pinyon Park Ln, Mapleton, UT 84664","precinct":"25MA10","hd":"63","v_score":"2.315214949","decile":"5","lat":40.09982481184963,"lng":-111.59487236434688,"phone":"(644) 135-3508","sd":"26","ssbd":"13","lsbd":"School Board Nebo 2"},{"vid":"1974090","name":"Erasmus Graham","party":"Dem","address":"974 W Rock Ridge Dr, Mapleton, UT 84664","precinct":"25MA10","hd":"63","v_score":"3.93832808","decile":"6","lat":40.09984007415542,"lng":-111.59087876477724,"phone":"(979) 686-2877","sd":"26","ssbd":"13","lsbd":"School Board Nebo 2"},{"vid":"1974168","name":"Linette Conroy","party":"","address":"3364 S Mapleton Heights Dr, Mapleton, UT 84664","precinct":"25MA10","hd":"63","v_score":"4.465184987","decile":"7","lat":40.09976420321921,"lng":-111.59337748763049,"phone":"(746) 280-3748","sd":"26","ssbd":"13","lsbd":"School Board Nebo 2"},{"vid":"1994895","name":"Gussie Cassin-Stoltenberg","party":"Rep","address":"1783 W 1800 S, Mapleton, UT 84664","precinct":"25MA10","hd":"63","v_score":"0","decile":"1","lat":40.114141754618466,"lng":-111.59993941278626,"phone":"(815) 203-4824","sd":"26","ssbd":"13","lsbd":"School Board Nebo 2"},{"vid":"2027335","name":"Delsie Ankunding","party":"Rep","address":"995 W 1600 S, Mapleton, UT 84664","precinct":"25MA10","hd":"63","v_score":"8.232731454","decile":"8","lat":40.11554287223364,"lng":-111.590236314579,"phone":"(913) 256-8288","sd":"26","ssbd":"13","lsbd":"School Board Nebo 2"},{"vid":"2028655","name":"Celena Satterfield-Simonis","party":"Dem","address":"1548 W 2400 S, Mapleton, UT 84664","precinct":"25MA10","hd":"63","v_score":"10.59606958","decile":"9","lat":40.108916559419356,"lng":-111.59601046783301,"phone":"(620) 514-8479","sd":"26","ssbd":"13","lsbd":"School Board Nebo 2"},{"vid":"2076155","name":"Merrilee Jones","party":"Rep","address":"3251 S Pinyon Park Ln, Mapleton, UT 84664","precinct":"25MA10","hd":"63","v_score":"1.121327652","decile":"3","lat":40.100572967775584,"lng":-111.59465015009609,"phone":"(210) 574-2860","sd":"26","ssbd":"13","lsbd":"School Board Nebo 2"},{"vid":"2078793","name":"Greggory Bechtelar","party":"","address":"3121 S Pinyon Park Ln, Mapleton, UT 84664","precinct":"25MA10","hd":"63","v_score":"15.59742066","decile":"9","lat":40.1017050451923,"lng":-111.59509791434148,"phone":"(231) 672-5384","sd":"26","ssbd":"13","lsbd":"School Board Nebo 2"},{"vid":"2090989","name":"Benito Borer","party":"","address":"3206 S Pinyon Park Ln, Mapleton, UT 84664","precinct":"25MA10","hd":"63","v_score":"2.315214949","decile":"5","lat":40.10078418242755,"lng":-111.59537380394339,"phone":"(221) 133-5022","sd":"26","ssbd":"13","lsbd":"School Board Nebo 2"},{"vid":"2117878","name":"Carlisle Kuhn-Russel","party":"Dem","address":"3268 S Mapleton Heights Dr, Mapleton, UT 84664","precinct":"25MA10","hd":"63","v_score":"3.781490609","decile":"6","lat":40.100584384332265,"lng":-111.59411985972554,"phone":"(789) 284-0774","sd":"26","ssbd":"13","lsbd":"School Board Nebo 2"},{"vid":"bc91143a87bea8fc4d50b2fef2f5eb2bb6cc43aa2a1ded636b68634344780096","name":"Norwood Hermann III","party":"Dem","address":"2030 S Parkview Dr, Mapleton, UT 84664","precinct":"25MA10","hd":"63","v_score":"17.76342521","decile":"10","lat":40.111785220642616,"lng":-111.59201900953494,"phone":"(404) 311-1898","sd":"26","ssbd":"13","lsbd":"School Board Nebo 2"},{"vid":"5997e09db42ce4feb0399d1d32f39d78d6da26c7d4c94ec72829cc0422593ae9","name":"Susana Ratke","party":"","address":"2420 S 800 W, Mapleton, UT 84664","precinct":"25MA10","hd":"63","v_score":"2.587603312","decile":"5","lat":40.10807072246483,"lng":-111.58951367873408,"phone":"(114) 115-4292","sd":"26","ssbd":"13","lsbd":"School Board Nebo 2"},{"vid":"c80584b4b36f9f38cbdf00bbc8d30dc5efd7523cccf700b5a9c3551452ee19bc","name":"Morris Schneider","party":"","address":"3417 S 1000 W, Mapleton, UT 84664","precinct":"25MA10","hd":"63","v_score":"9.640097175","decile":"8","lat":40.09923497485884,"lng":-111.59076747259616,"phone":"(452) 442-4483","sd":"26","ssbd":"13","lsbd":"School Board Nebo 2"},{"vid":"8863b50469e5789a0daf4e370ce71b180a531b49a3f951d478a1b6cd8e8ec2b6","name":"Dorthea Conroy-Mann","party":"","address":"2062 S Parkview Dr, Mapleton, UT 84664","precinct":"25MA10","hd":"63","v_score":"7.080826497","decile":"8","lat":40.111368167392605,"lng":-111.59214895656565,"phone":"(240) 760-8551","sd":"26","ssbd":"13","lsbd":"School Board Nebo 2"},{"vid":"1816a3714584016ce6a626cb38e5215890fdd5e512293f7d57638aa3ceb4ec5e","name":"Ruby Ebert","party":"","address":"3437 S Snowberry Dr, Mapleton, UT 84664","precinct":"25MA10","hd":"63","v_score":"4.210716443","decile":"7","lat":40.099270420479066,"lng":-111.58968646860956,"phone":"(105) 695-9269","sd":"26","ssbd":"13","lsbd":"School Board Nebo 2"},{"vid":"2169497","name":"Coby Corwin","party":"","address":"1825 S 1600 W, Mapleton, UT 84664","precinct":"25MA10","hd":"63","v_score":"10.67330764","decile":"9","lat":40.11368626687311,"lng":-111.59702808311987,"phone":"(274) 922-1915","sd":"26","ssbd":"13","lsbd":"School Board Nebo 2"},{"vid":"4715ed51282e343975433bd0c33ed5f00464fc0253e47cfc151203b6feb05887","name":"Roni Funk","party":"","address":"1153 W Rock Ridge Dr, Mapleton, UT 84664","precinct":"25MA10","hd":"63","v_score":"0","decile":"1","lat":40.09945317761039,"lng":-111.59164015535087,"phone":"(898) 049-5176","sd":"26","ssbd":"13","lsbd":"School Board Nebo 2"},{"vid":"7a90933b273aff88e1af3eb6abc23bdb9ac8b8762f89f5978962944075bf8176","name":"Dr. Cleave Boyle Jr.","party":"Dem","address":"1550 W Park Meadows Dr, Mapleton, UT 84664","precinct":"25MA10","hd":"63","v_score":"10.127995050000001","decile":"9","lat":40.11325251448671,"lng":-111.5972966077368,"phone":"(929) 748-9233","sd":"26","ssbd":"13","lsbd":"School Board Nebo 2"},{"vid":"285828a684b361570230832a6fc7df0882c2bb96419d73a2288cfa952c2ded27","name":"Marius Rice","party":"Rep","address":"1480 W Park Meadows Dr, Mapleton, UT 84664","precinct":"25MA10","hd":"63","v_score":"1.121327652","decile":"3","lat":40.113491749087785,"lng":-111.59619606505794,"phone":"(583) 934-2711","sd":"26","ssbd":"13","lsbd":"School Board Nebo 2"},{"vid":"2224986","name":"Elian Hessel","party":"Dem","address":"833 W Union Bench Dr, Mapleton, UT 84664","precinct":"25MA10","hd":"63","v_score":"2.315214949","decile":"5","lat":40.10029173836244,"lng":-111.5887401627478,"phone":"(423) 822-0588","sd":"26","ssbd":"13","lsbd":"School Board Nebo 2"},{"vid":"2240058","name":"Eddie Nitzsche","party":"","address":"1564 W Mapleton Heights Dr, Mapleton, UT 84664","precinct":"25MA10","hd":"63","v_score":"1.193887297","decile":"3","lat":40.10259588802324,"lng":-111.59644812260515,"phone":"(668) 742-7959","sd":"26","ssbd":"13","lsbd":"School Board Nebo 2"},{"vid":"2241073","name":"Dr. Desean Ondricka DVM","party":"","address":"1423 W 2600 S, Mapleton, UT 84664","precinct":"25MA10","hd":"63","v_score":"1.121327652","decile":"3","lat":40.105905508511064,"lng":-111.59586128979407,"phone":"(807) 980-5991","sd":"26","ssbd":"13","lsbd":"School Board Nebo 2"},{"vid":"ed2f134c001ef817112795431c817f1ad7f7317655a053a0864ace495da9f3c0","name":"Carolann Runolfsson","party":"Dem","address":"3431 S Mapleton Heights Dr, Mapleton, UT 84664","precinct":"25MA10","hd":"63","v_score":"4.166348126","decile":"7","lat":40.09910639565986,"lng":-111.59199359738071,"phone":"(778) 972-0553","sd":"26","ssbd":"13","lsbd":"School Board Nebo 2"},{"vid":"340598357dab8d3c8bb375a8297530ed5ebfd149de8ec341568dec7e7e5b09c7","name":"Galen Considine","party":"Dem","address":"950 W 2400 S, Mapleton, UT 84664","precinct":"25MA10","hd":"63","v_score":"1.193887297","decile":"3","lat":40.10873763597363,"lng":-111.5898851661887,"phone":"(648) 458-5604","sd":"26","ssbd":"13","lsbd":"School Board Nebo 2"},{"vid":"2320716","name":"Tavian Rowe","party":"Dem","address":"1502 W Mapleton Heights Dr, Mapleton, UT 84664","precinct":"25MA10","hd":"63","v_score":"2.315214949","decile":"5","lat":40.10255290037535,"lng":-111.59546136267201,"phone":"(760) 016-7877","sd":"26","ssbd":"13","lsbd":"School Board Nebo 2"},{"vid":"2330763","name":"Damarion Runolfsson","party":"","address":"1155 W Park Meadows Dr, Mapleton, UT 84664","precinct":"25MA10","hd":"63","v_score":"1.121327652","decile":"3","lat":40.112566088004286,"lng":-111.59228416183957,"phone":"(276) 220-9192","sd":"26","ssbd":"13","lsbd":"School Board Nebo 2"},{"vid":"2351818","name":"Noreen Gerhold","party":"","address":"2062 S Parkview Dr, Mapleton, UT 84664","precinct":"25MA10","hd":"63","v_score":"1.623113131","decile":"5","lat":40.111368167392605,"lng":-111.59214895656565,"phone":"(913) 711-9904","sd":"26","ssbd":"13","lsbd":"School Board Nebo 2"},{"vid":"2368623","name":"Mr. Warner Bailey V","party":"","address":"1721 S 2100 W, Mapleton, UT 84664","precinct":"25MA10","hd":"63","v_score":"14.04503691","decile":"9","lat":40.114235129918534,"lng":-111.60299003353586,"phone":"(401) 018-5857","sd":"26","ssbd":"13","lsbd":"School Board Nebo 2"},{"vid":"2393489","name":"Isabela Block","party":"","address":"1088 W Park Meadows Dr, Mapleton, UT 84664","precinct":"25MA10","hd":"63","v_score":"8.15240309","decile":"8","lat":40.11298713823218,"lng":-111.59137448144705,"phone":"(797) 123-6582","sd":"26","ssbd":"13","lsbd":"School Board Nebo 2"},{"vid":"2394797","name":"Myra Blick","party":"","address":"1103 W Union Bench Dr, Mapleton, UT 84664","precinct":"25MA10","hd":"63","v_score":"0","decile":"1","lat":40.10028405176551,"lng":-111.59185876917982,"phone":"(298) 055-7380","sd":"26","ssbd":"13","lsbd":"School Board Nebo 2"},{"vid":"2404949","name":"Mr. Ryder Towne","party":"Dem","address":"1550 W 2600 S, Mapleton, UT 84664","precinct":"25MA10","hd":"63","v_score":"2.817000428","decile":"6","lat":40.106807693009095,"lng":-111.59686263702032,"phone":"(472) 158-6969","sd":"26","ssbd":"13","lsbd":"School Board Nebo 2"},{"vid":"2405866","name":"Christine Reilly","party":"","address":"1337 W Union Bench Dr, Mapleton, UT 84664","precinct":"25MA10","hd":"63","v_score":"2.315214949","decile":"5","lat":40.10000798345801,"lng":-111.59257962389653,"phone":"(349) 257-8850","sd":"26","ssbd":"13","lsbd":"School Board Nebo 2"},{"vid":"2414835","name":"Abb Kohler V","party":"Dem","address":"1151 W 2620 S, Mapleton, UT 84664","precinct":"25MA10","hd":"63","v_score":"9.834558359","decile":"8","lat":40.10556563834599,"lng":-111.592506771066,"phone":"(422) 751-3640","sd":"26","ssbd":"13","lsbd":"School Board Nebo 2"},{"vid":"2423653","name":"Ms. Leaner Block","party":"","address":"2445 S 1600 W, Mapleton, UT 84664","precinct":"25MA10","hd":"63","v_score":"4.858449944","decile":"7","lat":40.107787965954586,"lng":-111.59716228867848,"phone":"(523) 175-0453","sd":"26","ssbd":"13","lsbd":"School Board Nebo 2"},{"vid":"2424581","name":"Rosamond Bergnaum","party":"","address":"1285 W 1600 S, Mapleton, UT 84664","precinct":"25MA10","hd":"63","v_score":"1.193887297","decile":"3","lat":40.11484703604408,"lng":-111.59356872687587,"phone":"(750) 107-8592","sd":"26","ssbd":"13","lsbd":"School Board Nebo 2"},{"vid":"2455280","name":"Eugenia Daugherty","party":"Dem","address":"1225 W 2600 S, Mapleton, UT 84664","precinct":"25MA10","hd":"63","v_score":"0","decile":"1","lat":40.10594826660802,"lng":-111.59350416346774,"phone":"(938) 756-1294","sd":"26","ssbd":"13","lsbd":"School Board Nebo 2"},{"vid":"2456494","name":"Vennie Conroy","party":"","address":"3197 S Pinyon Park Ln, Mapleton, UT 84664","precinct":"25MA10","hd":"63","v_score":"2.315214949","decile":"5","lat":40.10099869102769,"lng":-111.59482951507208,"phone":"(566) 454-5997","sd":"26","ssbd":"13","lsbd":"School Board Nebo 2"},{"vid":"2457252","name":"Mr. Harlan Schoen II","party":"Dem","address":"1923 W 1800 S, Mapleton, UT 84664","precinct":"25MA10","hd":"63","v_score":"1.121327652","decile":"3","lat":40.11393482434472,"lng":-111.60154949768256,"phone":"(422) 288-7619","sd":"26","ssbd":"13","lsbd":"School Board Nebo 2"},{"vid":"2465962","name":"Ms. Luna Grant PhD","party":"Dem","address":"1730 S 2100 W, Mapleton, UT 84664","precinct":"25MA10","hd":"63","v_score":"13.97833814","decile":"9","lat":40.1142840909037,"lng":-111.60458093876495,"phone":"(508) 245-4835","sd":"26","ssbd":"13","lsbd":"School Board Nebo 2"},{"vid":"2482717","name":"Marla Rogahn","party":"Dem","address":"1961 W 1900 S, Mapleton, UT 84664","precinct":"25MA10","hd":"63","v_score":"1.193887297","decile":"3","lat":40.11222535111124,"lng":-111.60223904024657,"phone":"(548) 868-6468","sd":"26","ssbd":"13","lsbd":"School Board Nebo 2"},{"vid":"2495102","name":"Tayler Hintz","party":"Rep","address":"1195 W 1600 S, Mapleton, UT 84664","precinct":"25MA10","hd":"63","v_score":"1.193887297","decile":"3","lat":40.114977504346264,"lng":-111.59219426888792,"phone":"(332) 497-9898","sd":"26","ssbd":"13","lsbd":"School Board Nebo 2"},{"vid":"2511971","name":"Barrie Bernier","party":"Rep","address":"1415 W Park Meadows Dr, Mapleton, UT 84664","precinct":"25MA10","hd":"63","v_score":"1.193887297","decile":"4","lat":40.1128588297309,"lng":-111.59519183021236,"phone":"(284) 979-9000","sd":"26","ssbd":"13","lsbd":"School Board Nebo 2"},{"vid":"2522953","name":"Mr. Pleasant Marvin Jr.","party":"Rep","address":"1180 W 2400 S, Mapleton, UT 84664","precinct":"25MA10","hd":"63","v_score":"1.623113131","decile":"5","lat":40.10943379616118,"lng":-111.59238353963633,"phone":"(599) 012-2722","sd":"26","ssbd":"13","lsbd":"School Board Nebo 2"},{"vid":"2541347","name":"Destini Wintheiser","party":"Dem","address":"3348 S Pinyon Park Ln, Mapleton, UT 84664","precinct":"25MA10","hd":"63","v_score":"1.193887297","decile":"4","lat":40.09945510896749,"lng":-111.59455825511216,"phone":"(692) 295-7797","sd":"26","ssbd":"13","lsbd":"School Board Nebo 2"},{"vid":"2552114","name":"Elihu McCullough-Schroeder","party":"Dem","address":"1550 W 2600 S, Mapleton, UT 84664","precinct":"25MA10","hd":"63","v_score":"1.193887297","decile":"4","lat":40.106807693009095,"lng":-111.59686263702032,"phone":"(964) 116-8489","sd":"26","ssbd":"13","lsbd":"School Board Nebo 2"},{"vid":"2575188","name":"Waverly Stark","party":"","address":"3468 S Snowberry Dr, Mapleton, UT 84664","precinct":"25MA10","hd":"63","v_score":"2.817000428","decile":"6","lat":40.09906189558458,"lng":-111.5903204450393,"phone":"(819) 967-9599","sd":"26","ssbd":"13","lsbd":"School Board Nebo 2"},{"vid":"2599036","name":"Dr. Rosemarie Huel","party":"","address":"2062 S Parkview Dr, Mapleton, UT 84664","precinct":"25MA10","hd":"63","v_score":"5.407962308","decile":"7","lat":40.111368167392605,"lng":-111.59214895656565,"phone":"(186) 827-5325","sd":"26","ssbd":"13","lsbd":"School Board Nebo 2"},{"vid":"2629210","name":"Buddie Wisoky","party":"Rep","address":"1270 W Park Meadows Dr, Mapleton, UT 84664","precinct":"25MA10","hd":"63","v_score":"9.907118004","decile":"8","lat":40.113011078194745,"lng":-111.593933244037,"phone":"(471) 383-6987","sd":"26","ssbd":"13","lsbd":"School Board Nebo 2"},{"vid":"2629216","name":"Mr. Melville Blick DVM","party":"","address":"1270 W Park Meadows Dr, Mapleton, UT 84664","precinct":"25MA10","hd":"63","v_score":"9.907118004","decile":"8","lat":40.113011078194745,"lng":-111.593933244037,"phone":"(237) 117-6131","sd":"26","ssbd":"13","lsbd":"School Board Nebo 2"},{"vid":"2644035","name":"Kori Hudson","party":"","address":"3418 S Mapleton Heights Dr, Mapleton, UT 84664","precinct":"25MA10","hd":"63","v_score":"2.817000428","decile":"6","lat":40.09893896982514,"lng":-111.59273943544322,"phone":"(714) 499-6484","sd":"26","ssbd":"13","lsbd":"School Board Nebo 2"},{"vid":"2649169","name":"Dr. Loree Medhurst MD","party":"","address":"2030 S Parkview Dr, Mapleton, UT 84664","precinct":"25MA10","hd":"63","v_score":"5.407962308","decile":"7","lat":40.111785220642616,"lng":-111.59201900953494,"phone":"(161) 786-7333","sd":"26","ssbd":"13","lsbd":"School Board Nebo 2"},{"vid":"2677394","name":"Brooke Batz","party":"Dem","address":"2030 S Parkview Dr, Mapleton, UT 84664","precinct":"25MA10","hd":"63","v_score":"4.069929862","decile":"6","lat":40.111785220642616,"lng":-111.59201900953494,"phone":"(163) 074-1281","sd":"26","ssbd":"13","lsbd":"School Board Nebo 2"},{"vid":"2681608","name":"Dian Haag","party":"Rep","address":"1285 W 1600 S, Mapleton, UT 84664","precinct":"25MA10","hd":"63","v_score":"1.193887297","decile":"4","lat":40.11484703604408,"lng":-111.59356872687587,"phone":"(678) 116-7131","sd":"26","ssbd":"13","lsbd":"School Board Nebo 2"},{"vid":"2695651","name":"Chalmer Rempel","party":"Rep","address":"2030 S 2000 W, Mapleton, UT 84664","precinct":"25MA10","hd":"63","v_score":"0","decile":"2","lat":40.11174906918833,"lng":-111.60296952347652,"phone":"(671) 360-0106","sd":"26","ssbd":"13","lsbd":"School Board Nebo 2"},{"vid":"2696563","name":"Joan Prosacco DVM","party":"Rep","address":"1195 W Park Meadows Dr, Mapleton, UT 84664","precinct":"25MA10","hd":"63","v_score":"7.090117576","decile":"8","lat":40.11229621947885,"lng":-111.59281490698262,"phone":"(703) 133-0992","sd":"26","ssbd":"13","lsbd":"School Board Nebo 2"},{"vid":"2696593","name":"June Dickinson DVM","party":"","address":"1195 W Park Meadows Dr, Mapleton, UT 84664","precinct":"25MA10","hd":"63","v_score":"7.090117576","decile":"8","lat":40.11229621947885,"lng":-111.59281490698262,"phone":"(357) 943-5556","sd":"26","ssbd":"13","lsbd":"School Board Nebo 2"},{"vid":"2698765","name":"Jace Mills","party":"","address":"1907 W Charlotte Ct, Mapleton, UT 84664","precinct":"25MA10","hd":"63","v_score":"8.284004873","decile":"8","lat":40.114823067257596,"lng":-111.60119841520759,"phone":"(190) 516-5675","sd":"26","ssbd":"13","lsbd":"School Board Nebo 2"},{"vid":"2728192","name":"Neta Kassulke-Streich","party":"","address":"1364 W Mapleton Heights Ct, Mapleton, UT 84664","precinct":"25MA10","hd":"63","v_score":"0","decile":"2","lat":40.102613851505225,"lng":-111.59392912485933,"phone":"(365) 501-9076","sd":"26","ssbd":"13","lsbd":"School Board Nebo 2"},{"vid":"2729652","name":"Amiya Abbott","party":"","address":"1550 W 2600 S, Mapleton, UT 84664","precinct":"25MA10","hd":"63","v_score":"2.876042565","decile":"6","lat":40.106807693009095,"lng":-111.59686263702032,"phone":"(479) 600-9872","sd":"26","ssbd":"13","lsbd":"School Board Nebo 2"},{"vid":"2732275","name":"Mrs. Jaclyn Walker","party":"","address":"1908 W 1800 S, Mapleton, UT 84664","precinct":"25MA10","hd":"63","v_score":"1.193887297","decile":"4","lat":40.11439414911203,"lng":-111.60119778309307,"phone":"(274) 288-4276","sd":"26","ssbd":"13","lsbd":"School Board Nebo 2"},{"vid":"2745728","name":"Ms. Lizette Grady DDS","party":"","address":"917 W Union Bench Dr, Mapleton, UT 84664","precinct":"25MA10","hd":"63","v_score":"8.284004873","decile":"8","lat":40.10030049383042,"lng":-111.58987912519808,"phone":"(569) 076-8606","sd":"26","ssbd":"13","lsbd":"School Board Nebo 2"},{"vid":"2748174","name":"Mr. Orley Jenkins II","party":"Rep","address":"917 W Union Bench Dr, Mapleton, UT 84664","precinct":"25MA10","hd":"63","v_score":"8.284004873","decile":"8","lat":40.10030049383042,"lng":-111.58987912519808,"phone":"(196) 691-0463","sd":"26","ssbd":"13","lsbd":"School Board Nebo 2"},{"vid":"2750737","name":"Alexys Stanton DVM","party":"Dem","address":"1240 W Park Meadows Dr, Mapleton, UT 84664","precinct":"25MA10","hd":"63","v_score":"1.193887297","decile":"4","lat":40.1128418028114,"lng":-111.59330203089479,"phone":"(137) 713-6435","sd":"26","ssbd":"13","lsbd":"School Board Nebo 2"},{"vid":"2751359","name":"Denita Blick","party":"","address":"859 W Rock Ridge Dr, Mapleton, UT 84664","precinct":"25MA10","hd":"63","v_score":"0","decile":"2","lat":40.09949074005003,"lng":-111.58902556793402,"phone":"(702) 533-9048","sd":"26","ssbd":"13","lsbd":"School Board Nebo 2"},{"vid":"2751633","name":"Corinna Abshire","party":"Rep","address":"1354 W Scrub Oak Cir, Mapleton, UT 84664","precinct":"25MA10","hd":"63","v_score":"1.193887297","decile":"4","lat":40.10180968035841,"lng":-111.59361709233247,"phone":"(266) 781-6149","sd":"26","ssbd":"13","lsbd":"School Board Nebo 2"},{"vid":"2753678","name":"Burton Buckridge","party":"","address":"1026 W Union Bench Dr, Mapleton, UT 84664","precinct":"25MA10","hd":"63","v_score":"0","decile":"2","lat":40.10066504410601,"lng":-111.5911838374387,"phone":"(665) 100-4457","sd":"26","ssbd":"13","lsbd":"School Board Nebo 2"},{"vid":"2760391","name":"Bynum Williamson","party":"Rep","address":"3410 S Pinyon Park Ln, Mapleton, UT 84664","precinct":"25MA10","hd":"63","v_score":"1.193887297","decile":"4","lat":40.09852190072352,"lng":-111.59355291733868,"phone":"(175) 034-4562","sd":"26","ssbd":"13","lsbd":"School Board Nebo 2"},{"vid":"2760419","name":"Alene Hackett","party":"Rep","address":"3410 S Pinyon Park Ln, Mapleton, UT 84664","precinct":"25MA10","hd":"63","v_score":"1.193887297","decile":"4","lat":40.09852190072352,"lng":-111.59355291733868,"phone":"(169) 437-8841","sd":"26","ssbd":"13","lsbd":"School Board Nebo 2"},{"vid":"2763648","name":"Dillon Lind","party":"Dem","address":"2445 S 1600 W, Mapleton, UT 84664","precinct":"25MA10","hd":"63","v_score":"7.090117576","decile":"8","lat":40.107787965954586,"lng":-111.59716228867848,"phone":"(589) 451-7928","sd":"26","ssbd":"13","lsbd":"School Board Nebo 2"},{"vid":"2772929","name":"Arlington Champlin","party":"","address":"1280 W 2800 S, Mapleton, UT 84664","precinct":"25MA10","hd":"63","v_score":"8.284004873","decile":"8","lat":40.10531412821614,"lng":-111.59420931242825,"phone":"(898) 889-9151","sd":"26","ssbd":"13","lsbd":"School Board Nebo 2"},{"vid":"2775415","name":"Mariah Monahan","party":"Dem","address":"1026 W Union Bench Dr, Mapleton, UT 84664","precinct":"25MA10","hd":"63","v_score":"0","decile":"2","lat":40.10066504410601,"lng":-111.5911838374387,"phone":"(624) 254-8942","sd":"26","ssbd":"13","lsbd":"School Board Nebo 2"},{"vid":"2779958","name":"Nunzio Mitchell","party":"Dem","address":"1026 W Union Bench Dr, Mapleton, UT 84664","precinct":"25MA10","hd":"63","v_score":"0","decile":"2","lat":40.10066504410601,"lng":-111.5911838374387,"phone":"(607) 446-9793","sd":"26","ssbd":"13","lsbd":"School Board Nebo 2"},{"vid":"2793360","name":"Sherwin Abshire-Morissette","party":"Dem","address":"883 W Union Bench Dr, Mapleton, UT 84664","precinct":"25MA10","hd":"63","v_score":"0","decile":"2","lat":40.1003017319541,"lng":-111.58931183011302,"phone":"(613) 380-8451","sd":"26","ssbd":"13","lsbd":"School Board Nebo 2"},{"vid":"2795608","name":"Yvonne Lynch","party":"Dem","address":"2135 S Parkview Dr, Mapleton, UT 84664","precinct":"25MA10","hd":"63","v_score":"0","decile":"2","lat":40.11075598366267,"lng":-111.5910840321886,"phone":"(524) 643-1003","sd":"26","ssbd":"13","lsbd":"School Board Nebo 2"},{"vid":"2803450","name":"Ms. Brianna Volkman DVM","party":"Rep","address":"1926 W 1800 S, Mapleton, UT 84664","precinct":"25MA10","hd":"63","v_score":"0","decile":"2","lat":40.11421049379407,"lng":-111.60168623674869,"phone":"(667) 331-0620","sd":"26","ssbd":"13","lsbd":"School Board Nebo 2"},{"vid":"2808598","name":"Mr. Koda Dach","party":"","address":"1916 W Charlotte Ct, Mapleton, UT 84664","precinct":"25MA10","hd":"63","v_score":"1.193887297","decile":"4","lat":40.11526934774861,"lng":-111.60109701385382,"phone":"(670) 939-5329","sd":"26","ssbd":"13","lsbd":"School Board Nebo 2"},{"vid":"2810878","name":"Dr. Jobe Jacobson","party":"Rep","address":"1322 W Scrub Oak Cir, Mapleton, UT 84664","precinct":"25MA10","hd":"63","v_score":"1.193887297","decile":"4","lat":40.1018428730988,"lng":-111.5933186860922,"phone":"(514) 460-3150","sd":"26","ssbd":"13","lsbd":"School Board Nebo 2"},{"vid":"2813237","name":"Pattie Greenholt","party":"Dem","address":"3152 S Pinyon Park Ln, Mapleton, UT 84664","precinct":"25MA10","hd":"63","v_score":"1.193887297","decile":"4","lat":40.10120759835151,"lng":-111.59580309064175,"phone":"(771) 250-9208","sd":"26","ssbd":"13","lsbd":"School Board Nebo 2"},{"vid":"2823864","name":"Ms. Bula Quitzon MD","party":"Dem","address":"1953 W 1800 S, Mapleton, UT 84664","precinct":"25MA10","hd":"63","v_score":"0","decile":"2","lat":40.113976422053696,"lng":-111.60198840876158,"phone":"(413) 629-1024","sd":"26","ssbd":"13","lsbd":"School Board Nebo 2"},{"vid":"2831154","name":"Ms. Bennie Hartmann MD","party":"Dem","address":"815 W Union Bench Dr, Mapleton, UT 84664","precinct":"25MA10","hd":"63","v_score":"1.193887297","decile":"4","lat":40.10028456629423,"lng":-111.5883553729891,"phone":"(263) 672-2882","sd":"26","ssbd":"13","lsbd":"School Board Nebo 2"},{"vid":"2839248","name":"Mr. Isidore O'Keefe","party":"Dem","address":"3409 S Pinyon Park Ln, Mapleton, UT 84664","precinct":"25MA10","hd":"63","v_score":"8.284004873","decile":"8","lat":40.09862339777355,"lng":-111.5932412685613,"phone":"(211) 665-1158","sd":"26","ssbd":"13","lsbd":"School Board Nebo 2"},{"vid":"2847772","name":"Montana Will Jr.","party":"","address":"1192 W Union Bench Dr, Mapleton, UT 84664","precinct":"25MA10","hd":"63","v_score":"2.876042565","decile":"6","lat":40.10067423286812,"lng":-111.59250645231525,"phone":"(529) 292-7013","sd":"26","ssbd":"13","lsbd":"School Board Nebo 2"},{"vid":"2848535","name":"Mrs. Ireland Mann","party":"Dem","address":"1306 W Mapleton Heights Ct, Mapleton, UT 84664","precinct":"25MA10","hd":"63","v_score":"8.284004873","decile":"8","lat":40.102423891157464,"lng":-111.5932274669052,"phone":"(706) 834-9472","sd":"26","ssbd":"13","lsbd":"School Board Nebo 2"},{"vid":"2857451","name":"Mr. Beryl Grant","party":"Dem","address":"943 W Union Bench Dr, Mapleton, UT 84664","precinct":"25MA10","hd":"63","v_score":"8.284004873","decile":"8","lat":40.100310395795915,"lng":-111.59017911974317,"phone":"(711) 398-4638","sd":"26","ssbd":"13","lsbd":"School Board Nebo 2"},{"vid":"2878058","name":"Arleen Kessler-Collins","party":"","address":"1243 W Union Bench Dr, Mapleton, UT 84664","precinct":"25MA10","hd":"63","v_score":"0","decile":"2","lat":40.100210069978424,"lng":-111.59248280673138,"phone":"(868) 134-5878","sd":"26","ssbd":"13","lsbd":"School Board Nebo 2"},{"vid":"2885696","name":"Mai Waelchi-Kulas","party":"Rep","address":"1331 W 2800 S, Mapleton, UT 84664","precinct":"25MA10","hd":"63","v_score":"0","decile":"2","lat":40.103544865886946,"lng":-111.59478519447674,"phone":"(682) 631-5195","sd":"26","ssbd":"13","lsbd":"School Board Nebo 2"},{"vid":"2897969","name":"Marcel Kuvalis","party":"Dem","address":"1423 W 2600 S, Mapleton, UT 84664","precinct":"25MA10","hd":"63","v_score":"0","decile":"2","lat":40.105905508511064,"lng":-111.59586128979407,"phone":"(596) 666-2533","sd":"26","ssbd":"13","lsbd":"School Board Nebo 2"},{"vid":"2899166","name":"Miss Karly Schiller MD","party":"","address":"2030 S 2000 W, Mapleton, UT 84664","precinct":"25MA10","hd":"63","v_score":"0","decile":"2","lat":40.11174906918833,"lng":-111.60296952347652,"phone":"(849) 272-8350","sd":"26","ssbd":"13","lsbd":"School Board Nebo 2"},{"vid":"2899903","name":"Caroline Lehner","party":"Rep","address":"3372 S Pinyon Park Ln, Mapleton, UT 84664","precinct":"25MA10","hd":"63","v_score":"0","decile":"2","lat":40.09904747381504,"lng":-111.59435260397932,"phone":"(850) 530-9801","sd":"26","ssbd":"13","lsbd":"School Board Nebo 2"},{"vid":"2911462","name":"Leighton Emmerich","party":"","address":"1443 W Mapleton Heights Dr, Mapleton, UT 84664","precinct":"25MA10","hd":"63","v_score":"2.876042565","decile":"6","lat":40.10205938963242,"lng":-111.59482975819819,"phone":"(851) 237-8374","sd":"26","ssbd":"13","lsbd":"School Board Nebo 2"},{"vid":"2932575","name":"Gardner Haag","party":"","address":"2044 W 1900 S, Mapleton, UT 84664","precinct":"25MA10","hd":"63","v_score":"0","decile":"2","lat":40.113370583304814,"lng":-111.60287356121006,"phone":"(632) 142-9825","sd":"26","ssbd":"13","lsbd":"School Board Nebo 2"},{"vid":"2940040","name":"Lawrance Bogan-Renner","party":"","address":"3152 S Pinyon Park Ln, Mapleton, UT 84664","precinct":"25MA10","hd":"63","v_score":"0","decile":"2","lat":40.10120759835151,"lng":-111.59580309064175,"phone":"(987) 613-4765","sd":"26","ssbd":"13","lsbd":"School Board Nebo 2"},{"vid":"2964790","name":"Mr. Gerard Torphy","party":"","address":"1727 S 1850 W, Mapleton, UT 84664","precinct":"25MA10","hd":"63","v_score":"0","decile":"2","lat":40.11487035492608,"lng":-111.5999027590367,"phone":"(956) 330-1057","sd":"26","ssbd":"13","lsbd":"School Board Nebo 2"},{"vid":"2966065","name":"Willian Rolfson-Schaden","party":"Rep","address":"1952 W Charlotte Ct, Mapleton, UT 84664","precinct":"25MA10","hd":"63","v_score":"0","decile":"2","lat":40.115137925045,"lng":-111.60202702622763,"phone":"(297) 609-3924","sd":"26","ssbd":"13","lsbd":"School Board Nebo 2"},{"vid":"2971026","name":"Lenny Toy","party":"","address":"1232 W Rock Ridge Dr, Mapleton, UT 84664","precinct":"25MA10","hd":"63","v_score":"0","decile":"2","lat":40.09979972717056,"lng":-111.59209750790426,"phone":"(811) 640-2647","sd":"26","ssbd":"13","lsbd":"School Board Nebo 2"},{"vid":"2986404","name":"June Lemke-Hodkiewicz","party":"","address":"1443 W Mapleton Heights Dr, Mapleton, UT 84664","precinct":"25MA10","hd":"63","v_score":"0","decile":"2","lat":40.10205938963242,"lng":-111.59482975819819,"phone":"(243) 326-5854","sd":"26","ssbd":"13","lsbd":"School Board Nebo 2"},{"vid":"3115039","name":"Giancarlo Thiel","party":"Dem","address":"1195 W 1600 S, Mapleton, UT 84664","precinct":"25MA10","hd":"63","v_score":"15.4533012","decile":"9","lat":40.114977504346264,"lng":-111.59219426888792,"phone":"(469) 803-4090","sd":"26","ssbd":"13","lsbd":"School Board Nebo 2"},{"vid":"4413510","name":"Chaya Kautzer DDS","party":"","address":"1555 W 2600 S, Mapleton, UT 84664","precinct":"25MA10","hd":"63","v_score":"6.896907962","decile":"8","lat":40.10596854900571,"lng":-111.59709586140731,"phone":"(690) 467-7497","sd":"26","ssbd":"13","lsbd":"School Board Nebo 2"},{"vid":"5915822","name":"Maricela Goldner","party":"Dem","address":"833 W Union Bench Dr, Mapleton, UT 84664","precinct":"25MA10","hd":"63","v_score":"0","decile":"3","lat":40.10029173836244,"lng":-111.5887401627478,"phone":"(879) 311-2282","sd":"26","ssbd":"13","lsbd":"School Board Nebo 2"},{"vid":"6046818","name":"Mr. Tatsuo Kohler","party":"Dem","address":"2030 S 2000 W, Mapleton, UT 84664","precinct":"25MA10","hd":"63","v_score":"5.331806201","decile":"7","lat":40.11174906918833,"lng":-111.60296952347652,"phone":"(590) 041-3514","sd":"26","ssbd":"13","lsbd":"School Board Nebo 2"},{"vid":"6061957","name":"Trae Luettgen","party":"","address":"1387 W Mapleton Heights Ct, Mapleton, UT 84664","precinct":"25MA10","hd":"63","v_score":"3.93832808","decile":"6","lat":40.102182522038916,"lng":-111.5942744797555,"phone":"(381) 970-7574","sd":"26","ssbd":"13","lsbd":"School Board Nebo 2"},{"vid":"6149081","name":"Marlon Collins","party":"Dem","address":"2078 W 1900 S, Mapleton, UT 84664","precinct":"25MA10","hd":"63","v_score":"10.23840356","decile":"9","lat":40.11313492459353,"lng":-111.60347822322986,"phone":"(989) 995-2051","sd":"26","ssbd":"13","lsbd":"School Board Nebo 2"},{"vid":"307a3bdcdd33807d2d0dafe825ae82c1881fa06c82f9089f227656f0d6cd9ef7","name":"Kaye Schneider PhD","party":"Rep","address":"952 W Union Bench Dr, Mapleton, UT 84664","precinct":"25MA10","hd":"63","v_score":"2.315214949","decile":"5","lat":40.10079824569551,"lng":-111.59051233003488,"phone":"(353) 570-2956","sd":"26","ssbd":"13","lsbd":"School Board Nebo 2"},{"vid":"6188254","name":"Alonzo DuBuque","party":"Rep","address":"875 W Rock Ridge Dr, Mapleton, UT 84664","precinct":"25MA10","hd":"63","v_score":"9.616113056","decile":"8","lat":40.09944142354394,"lng":-111.58936399194498,"phone":"(454) 420-8685","sd":"26","ssbd":"13","lsbd":"School Board Nebo 2"},{"vid":"6205427","name":"Lilia Stamm DDS","party":"Dem","address":"1948 S 2000 W, Mapleton, UT 84664","precinct":"25MA10","hd":"63","v_score":"8.280646305","decile":"8","lat":40.112317560151176,"lng":-111.60321705631348,"phone":"(847) 746-4771","sd":"26","ssbd":"13","lsbd":"School Board Nebo 2"},{"vid":"6220189","name":"Mauro Crona-Doyle","party":"Dem","address":"2244 S 2000 W, Mapleton, UT 84664","precinct":"25MA10","hd":"63","v_score":"26.33466886","decile":"10","lat":40.110399486583134,"lng":-111.6024714097119,"phone":"(195) 432-7710","sd":"26","ssbd":"13","lsbd":"School Board Nebo 2"},{"vid":"6220192","name":"Rhoda Goldner Jr.","party":"","address":"2244 S 2000 W, Mapleton, UT 84664","precinct":"25MA10","hd":"63","v_score":"26.33466886","decile":"10","lat":40.110399486583134,"lng":-111.6024714097119,"phone":"(605) 491-4699","sd":"26","ssbd":"13","lsbd":"School Board Nebo 2"},{"vid":"6224727","name":"Gail Predovic","party":"","address":"1440 W Park Meadows Dr, Mapleton, UT 84664","precinct":"25MA10","hd":"63","v_score":"22.62271637","decile":"10","lat":40.1134091722911,"lng":-111.59579328729055,"phone":"(834) 944-4001","sd":"26","ssbd":"13","lsbd":"School Board Nebo 2"},{"vid":"90755fb9369dfcc9da3883ce6beaeaa1e9f3121f02ae05e2e79373b1e947a31c","name":"Elisabeth Goldner-Feest","party":"Dem","address":"2160 S 800 W, Mapleton, UT 84664","precinct":"25MA10","hd":"63","v_score":"23.23647382","decile":"10","lat":40.11062054742387,"lng":-111.58976372462229,"phone":"(471) 247-0841","sd":"26","ssbd":"13","lsbd":"School Board Nebo 2"},{"vid":"6233708","name":"Litzy Ryan","party":"Rep","address":"1948 S 2000 W, Mapleton, UT 84664","precinct":"25MA10","hd":"63","v_score":"8.280646305","decile":"8","lat":40.112317560151176,"lng":-111.60321705631348,"phone":"(594) 985-1351","sd":"26","ssbd":"13","lsbd":"School Board Nebo 2"},{"vid":"6239261","name":"Erick Casper-Reichel","party":"Rep","address":"1440 W Park Meadows Dr, Mapleton, UT 84664","precinct":"25MA10","hd":"63","v_score":"18.46989245","decile":"10","lat":40.1134091722911,"lng":-111.59579328729055,"phone":"(673) 160-3928","sd":"26","ssbd":"13","lsbd":"School Board Nebo 2"},{"vid":"6242289","name":"Britany Bergnaum","party":"","address":"1330 W Park Meadows Dr, Mapleton, UT 84664","precinct":"25MA10","hd":"63","v_score":"12.49472132","decile":"9","lat":40.11346789786409,"lng":-111.59428887482805,"phone":"(152) 412-2138","sd":"26","ssbd":"13","lsbd":"School Board Nebo 2"},{"vid":"6245392","name":"Mr. Trenton Blanda","party":"Rep","address":"1330 W Park Meadows Dr, Mapleton, UT 84664","precinct":"25MA10","hd":"63","v_score":"15.43762891","decile":"9","lat":40.11346789786409,"lng":-111.59428887482805,"phone":"(936) 018-2911","sd":"26","ssbd":"13","lsbd":"School Board Nebo 2"},{"vid":"6259103","name":"Rhianna Kohler","party":"","address":"1386 W Scrub Oak Cir, Mapleton, UT 84664","precinct":"25MA10","hd":"63","v_score":"8.562774445","decile":"8","lat":40.10170434302073,"lng":-111.59402963336724,"phone":"(161) 950-9468","sd":"26","ssbd":"13","lsbd":"School Board Nebo 2"},{"vid":"6262604","name":"Michaele Swaniawski","party":"Dem","address":"2030 S 2000 W, Mapleton, UT 84664","precinct":"25MA10","hd":"63","v_score":"5.331806201","decile":"7","lat":40.11174906918833,"lng":-111.60296952347652,"phone":"(503) 658-2210","sd":"26","ssbd":"13","lsbd":"School Board Nebo 2"},{"vid":"29961bb3609ea73388312b9da364edadd56d1df41b17ab389df87ec0bf622caa","name":"Devin Glover","party":"","address":"1088 W Park Meadows Dr, Mapleton, UT 84664","precinct":"25MA10","hd":"63","v_score":"15.51131257","decile":"9","lat":40.11298713823218,"lng":-111.59137448144705,"phone":"(615) 446-2143","sd":"26","ssbd":"13","lsbd":"School Board Nebo 2"},{"vid":"6267185","name":"Morgan Murphy","party":"","address":"1961 W 1900 S, Mapleton, UT 84664","precinct":"25MA10","hd":"63","v_score":"8.280646305","decile":"8","lat":40.11222535111124,"lng":-111.60223904024657,"phone":"(732) 539-1726","sd":"26","ssbd":"13","lsbd":"School Board Nebo 2"},{"vid":"6273743","name":"Madlyn Greenholt","party":"Dem","address":"3473 S Sugar Maple Ct, Mapleton, UT 84664","precinct":"25MA10","hd":"63","v_score":"8.280646305","decile":"8","lat":40.09896883968714,"lng":-111.58855019690694,"phone":"(831) 190-0427","sd":"26","ssbd":"13","lsbd":"School Board Nebo 2"},{"vid":"6282916","name":"Layton Graham","party":"Rep","address":"883 W Union Bench Dr, Mapleton, UT 84664","precinct":"25MA10","hd":"63","v_score":"4.069929862","decile":"7","lat":40.1003017319541,"lng":-111.58931183011302,"phone":"(688) 253-5446","sd":"26","ssbd":"13","lsbd":"School Board Nebo 2"},{"vid":"6287442","name":"Giada Klein","party":"","address":"930 W 2620 S, Mapleton, UT 84664","precinct":"25MA10","hd":"63","v_score":"36.68386427","decile":"10","lat":40.107003057755925,"lng":-111.58964746657465,"phone":"(513) 743-3021","sd":"26","ssbd":"13","lsbd":"School Board Nebo 2"},{"vid":"6287875","name":"Miss Constance Prosacco MD","party":"Dem","address":"2420 S 800 W, Mapleton, UT 84664","precinct":"25MA10","hd":"63","v_score":"16.34722249","decile":"9","lat":40.10807072246483,"lng":-111.58951367873408,"phone":"(947) 449-7935","sd":"26","ssbd":"13","lsbd":"School Board Nebo 2"},{"vid":"6292119","name":"Mr. Jammie Heidenreich","party":"Dem","address":"875 W Rock Ridge Dr, Mapleton, UT 84664","precinct":"25MA10","hd":"63","v_score":"4.069929862","decile":"7","lat":40.09944142354394,"lng":-111.58936399194498,"phone":"(457) 082-1364","sd":"26","ssbd":"13","lsbd":"School Board Nebo 2"},{"vid":"6292567","name":"Albin Cummings Sr.","party":"","address":"3367 S Pinyon Park Ln, Mapleton, UT 84664","precinct":"25MA10","hd":"63","v_score":"8.721442187","decile":"8","lat":40.09941012464699,"lng":-111.59400713472272,"phone":"(601) 913-7537","sd":"26","ssbd":"13","lsbd":"School Board Nebo 2"},{"vid":"6292711","name":"Quinton Wintheiser","party":"Dem","address":"1721 S 2100 W, Mapleton, UT 84664","precinct":"25MA10","hd":"63","v_score":"22.62271637","decile":"10","lat":40.114235129918534,"lng":-111.60299003353586,"phone":"(441) 624-3266","sd":"26","ssbd":"13","lsbd":"School Board Nebo 2"},{"vid":"6305474","name":"Mr. Byron Lowe Jr.","party":"","address":"3402 S Mapleton Heights Dr, Mapleton, UT 84664","precinct":"25MA10","hd":"63","v_score":"8.284004873","decile":"8","lat":40.09911198949262,"lng":-111.59289809481072,"phone":"(924) 017-1072","sd":"26","ssbd":"13","lsbd":"School Board Nebo 2"},{"vid":"6307357","name":"Haden VonRueden","party":"Rep","address":"3462 S Sugar Maple Ct, Mapleton, UT 84664","precinct":"25MA10","hd":"63","v_score":"0","decile":"3","lat":40.09910125604868,"lng":-111.5889493865679,"phone":"(412) 703-8957","sd":"26","ssbd":"13","lsbd":"School Board Nebo 2"},{"vid":"6316297","name":"Miss Chiquita Leuschke MD","party":"Dem","address":"1555 W 2600 S, Mapleton, UT 84664","precinct":"25MA10","hd":"63","v_score":"10.8238813","decile":"9","lat":40.10596854900571,"lng":-111.59709586140731,"phone":"(942) 786-8459","sd":"26","ssbd":"13","lsbd":"School Board Nebo 2"},{"vid":"6329615","name":"Vella Schowalter","party":"Dem","address":"1035 W 1600 S, Mapleton, UT 84664","precinct":"25MA10","hd":"63","v_score":"14.59895977","decile":"9","lat":40.11505056361594,"lng":-111.5911555985406,"phone":"(387) 472-0423","sd":"26","ssbd":"13","lsbd":"School Board Nebo 2"},{"vid":"6329624","name":"Faith Littel","party":"Rep","address":"2420 S 800 W, Mapleton, UT 84664","precinct":"25MA10","hd":"63","v_score":"33.69839312","decile":"10","lat":40.10807072246483,"lng":-111.58951367873408,"phone":"(546) 261-9379","sd":"26","ssbd":"13","lsbd":"School Board Nebo 2"},{"vid":"6369420","name":"Sherree Kilback","party":"Rep","address":"1337 W Union Bench Dr, Mapleton, UT 84664","precinct":"25MA10","hd":"63","v_score":"9.907118004","decile":"8","lat":40.10000798345801,"lng":-111.59257962389653,"phone":"(645) 441-5380","sd":"26","ssbd":"13","lsbd":"School Board Nebo 2"},{"vid":"6378538","name":"Mr. Vicente Spinka MD","party":"Dem","address":"1153 W Rock Ridge Dr, Mapleton, UT 84664","precinct":"25MA10","hd":"63","v_score":"1.121327652","decile":"3","lat":40.09945317761039,"lng":-111.59164015535087,"phone":"(427) 357-0598","sd":"26","ssbd":"13","lsbd":"School Board Nebo 2"},{"vid":"6382269","name":"Thurman Heaney","party":"Rep","address":"824 W Union Bench Dr, Mapleton, UT 84664","precinct":"25MA10","hd":"63","v_score":"11.30609121","decile":"9","lat":40.10079450865648,"lng":-111.58875977764168,"phone":"(804) 720-7865","sd":"26","ssbd":"13","lsbd":"School Board Nebo 2"},{"vid":"297d7529a901d5b3f4ef5d2083cba2d1f8934992054a06fab2acf19798adc27e","name":"Nikki Mohr DVM","party":"Rep","address":"872 W Union Bench Dr, Mapleton, UT 84664","precinct":"25MA10","hd":"63","v_score":"1.121327652","decile":"3","lat":40.100798540475374,"lng":-111.58930138611987,"phone":"(985) 167-2981","sd":"26","ssbd":"13","lsbd":"School Board Nebo 2"},{"vid":"6391125","name":"Harriette Bode","party":"Dem","address":"1331 W 2800 S, Mapleton, UT 84664","precinct":"25MA10","hd":"63","v_score":"2.587603312","decile":"5","lat":40.103544865886946,"lng":-111.59478519447674,"phone":"(126) 646-1862","sd":"26","ssbd":"13","lsbd":"School Board Nebo 2"},{"vid":"6399704","name":"Dana Leannon","party":"Dem","address":"3256 S Pinyon Park Ln, Mapleton, UT 84664","precinct":"25MA10","hd":"63","v_score":"30.06911015","decile":"10","lat":40.10040661551995,"lng":-111.59523898953356,"phone":"(455) 890-0613","sd":"26","ssbd":"13","lsbd":"School Board Nebo 2"},{"vid":"6416829","name":"Angel Koepp DVM","party":"Rep","address":"1224 W 2600 S, Mapleton, UT 84664","precinct":"25MA10","hd":"63","v_score":"22.05139277","decile":"10","lat":40.107032616181826,"lng":-111.59366674672776,"phone":"(630) 857-0256","sd":"26","ssbd":"13","lsbd":"School Board Nebo 2"},{"vid":"6417991","name":"Avery Schulist PhD","party":"Dem","address":"1961 W 1900 S, Mapleton, UT 84664","precinct":"25MA10","hd":"63","v_score":"1.121327652","decile":"3","lat":40.11222535111124,"lng":-111.60223904024657,"phone":"(829) 482-4963","sd":"26","ssbd":"13","lsbd":"School Board Nebo 2"},{"vid":"6437572","name":"Ms. Althea Strosin","party":"Dem","address":"1240 W Park Meadows Dr, Mapleton, UT 84664","precinct":"25MA10","hd":"63","v_score":"11.37977487","decile":"9","lat":40.1128418028114,"lng":-111.59330203089479,"phone":"(462) 082-9513","sd":"26","ssbd":"13","lsbd":"School Board Nebo 2"},{"vid":"6437573","name":"Latarsha Williamson DVM","party":"","address":"1240 W Park Meadows Dr, Mapleton, UT 84664","precinct":"25MA10","hd":"63","v_score":"11.37977487","decile":"9","lat":40.1128418028114,"lng":-111.59330203089479,"phone":"(709) 273-1597","sd":"26","ssbd":"13","lsbd":"School Board Nebo 2"},{"vid":"6442362","name":"Brittnee Zboncak","party":"Dem","address":"1907 W Charlotte Ct, Mapleton, UT 84664","precinct":"25MA10","hd":"63","v_score":"8.284004873","decile":"8","lat":40.114823067257596,"lng":-111.60119841520759,"phone":"(835) 200-1142","sd":"26","ssbd":"13","lsbd":"School Board Nebo 2"},{"vid":"6462945","name":"Darian O'Kon","party":"Dem","address":"1745 S 1600 W, Mapleton, UT 84664","precinct":"25MA10","hd":"63","v_score":"0","decile":"3","lat":40.11443367033134,"lng":-111.59737625093999,"phone":"(250) 704-6098","sd":"26","ssbd":"13","lsbd":"School Board Nebo 2"},{"vid":"6471306","name":"Moe Crist","party":"","address":"875 W Rock Ridge Dr, Mapleton, UT 84664","precinct":"25MA10","hd":"63","v_score":"9.616113056","decile":"8","lat":40.09944142354394,"lng":-111.58936399194498,"phone":"(651) 344-0737","sd":"26","ssbd":"13","lsbd":"School Board Nebo 2"},{"vid":"f136b10894ffffae2203d2afb4f737d7bde4b0123ce5c3b1cd7aa3a57cf2933b","name":"Jo Legros","party":"","address":"1508 W Mapleton Heights Dr, Mapleton, UT 84664","precinct":"25MA10","hd":"63","v_score":"6.52928996","decile":"7","lat":40.10262978529199,"lng":-111.59578444919227,"phone":"(283) 033-7374","sd":"26","ssbd":"13","lsbd":"School Board Nebo 2"},{"vid":"6472987","name":"Daulton Kris","party":"Dem","address":"2135 S Parkview Dr, Mapleton, UT 84664","precinct":"25MA10","hd":"63","v_score":"16.8542869","decile":"9","lat":40.11075598366267,"lng":-111.5910840321886,"phone":"(117) 501-8585","sd":"26","ssbd":"13","lsbd":"School Board Nebo 2"},{"vid":"6481328","name":"Triston Simonis","party":"","address":"1488 W Mapleton Heights Dr, Mapleton, UT 84664","precinct":"25MA10","hd":"63","v_score":"19.34031477","decile":"10","lat":40.10254796736117,"lng":-111.59516276493304,"phone":"(854) 860-9364","sd":"26","ssbd":"13","lsbd":"School Board Nebo 2"},{"vid":"6487261","name":"Miss Miley O'Conner","party":"Rep","address":"901 W Union Bench Dr, Mapleton, UT 84664","precinct":"25MA10","hd":"63","v_score":"3.93832808","decile":"6","lat":40.10026980581874,"lng":-111.58961270315056,"phone":"(899) 145-0841","sd":"26","ssbd":"13","lsbd":"School Board Nebo 2"},{"vid":"6495827","name":"Burley Breitenberg I","party":"","address":"3410 S Pinyon Park Ln, Mapleton, UT 84664","precinct":"25MA10","hd":"63","v_score":"2.587603312","decile":"5","lat":40.09852190072352,"lng":-111.59355291733868,"phone":"(913) 453-2480","sd":"26","ssbd":"13","lsbd":"School Board Nebo 2"},{"vid":"6497912","name":"Brianda Friesen","party":"Dem","address":"3279 S Pinyon Park Ln, Mapleton, UT 84664","precinct":"25MA10","hd":"63","v_score":"8.284004873","decile":"8","lat":40.10035469902961,"lng":-111.59459900445616,"phone":"(747) 447-7144","sd":"26","ssbd":"13","lsbd":"School Board Nebo 2"},{"vid":"6497937","name":"Woodie Wehner","party":"Rep","address":"1337 W Union Bench Dr, Mapleton, UT 84664","precinct":"25MA10","hd":"63","v_score":"9.907118004","decile":"8","lat":40.10000798345801,"lng":-111.59257962389653,"phone":"(812) 029-2902","sd":"26","ssbd":"13","lsbd":"School Board Nebo 2"},{"vid":"abeb24ca61c50d6d4ddd07e9779ed1b873ab3477d9645d42c7c6f27ef841476b","name":"Madelyn Hackett","party":"","address":"1550 W 2600 S, Mapleton, UT 84664","precinct":"25MA10","hd":"63","v_score":"18.40864136","decile":"10","lat":40.106807693009095,"lng":-111.59686263702032,"phone":"(257) 822-0811","sd":"26","ssbd":"13","lsbd":"School Board Nebo 2"},{"vid":"6514938","name":"Jayden Keeling","party":"Rep","address":"2062 S Parkview Dr, Mapleton, UT 84664","precinct":"25MA10","hd":"63","v_score":"25.12475253","decile":"10","lat":40.111368167392605,"lng":-111.59214895656565,"phone":"(485) 849-1828","sd":"26","ssbd":"13","lsbd":"School Board Nebo 2"},{"vid":"6515592","name":"Deonte Parisian","party":"","address":"3268 S Mapleton Heights Dr, Mapleton, UT 84664","precinct":"25MA10","hd":"63","v_score":"1.121327652","decile":"3","lat":40.100584384332265,"lng":-111.59411985972554,"phone":"(955) 722-3838","sd":"26","ssbd":"13","lsbd":"School Board Nebo 2"},{"vid":"6525240","name":"Grayce Kub","party":"","address":"3184 S Mapleton Heights Dr, Mapleton, UT 84664","precinct":"25MA10","hd":"63","v_score":"1.121327652","decile":"3","lat":40.101175590620926,"lng":-111.59440363062306,"phone":"(746) 563-6689","sd":"26","ssbd":"13","lsbd":"School Board Nebo 2"},{"vid":"6525711","name":"Dr. Bryan Gottlieb","party":"Dem","address":"1923 W 1800 S, Mapleton, UT 84664","precinct":"25MA10","hd":"63","v_score":"0","decile":"3","lat":40.11393482434472,"lng":-111.60154949768256,"phone":"(758) 396-2259","sd":"26","ssbd":"13","lsbd":"School Board Nebo 2"},{"vid":"6527071","name":"Raymon Jaskolski-Hansen","party":"Rep","address":"3279 S Pinyon Park Ln, Mapleton, UT 84664","precinct":"25MA10","hd":"63","v_score":"8.284004873","decile":"8","lat":40.10035469902961,"lng":-111.59459900445616,"phone":"(810) 376-7429","sd":"26","ssbd":"13","lsbd":"School Board Nebo 2"}]