[{"vid":"779393","name":"Arlena Kutch-Kutch","party":"","address":"1470 W 1400 N, Mapleton, UT 84664","precinct":"25MA01","hd":"63","v_score":"0","decile":"1","lat":40.14331802115757,"lng":-111.59645227384244,"phone":"(970) 629-1257","sd":"26","ssbd":"13","lsbd":"School Board Nebo 2"},{"vid":"1233734","name":"Minda Torp","party":"Dem","address":"1837 N 1250 W, Mapleton, UT 84664","precinct":"25MA01","hd":"63","v_score":"15.02443211","decile":"9","lat":40.14684720421263,"lng":-111.59418308998465,"phone":"(987) 758-3066","sd":"26","ssbd":"13","lsbd":"School Board Nebo 2"},{"vid":"1261809","name":"Patsy Bauch","party":"Rep","address":"2070 N 700 W, Mapleton, UT 84664","precinct":"25MA01","hd":"63","v_score":"8.903210001","decile":"8","lat":40.14906260677859,"lng":-111.58666851394347,"phone":"(729) 779-0317","sd":"26","ssbd":"13","lsbd":"School Board Nebo 2"},{"vid":"1278865","name":"Mr. Urijah Walter","party":"Dem","address":"1326 N 1380 W, Mapleton, UT 84664","precinct":"25MA01","hd":"63","v_score":"6.897264703","decile":"8","lat":40.14240920537372,"lng":-111.5949026199699,"phone":"(473) 767-4505","sd":"26","ssbd":"13","lsbd":"School Board Nebo 2"},{"vid":"1282076","name":"Louie O'Kon","party":"","address":"1525 W 1600 N, Mapleton, UT 84664","precinct":"25MA01","hd":"63","v_score":"0","decile":"1","lat":40.144566285766004,"lng":-111.59722991555985,"phone":"(971) 231-9129","sd":"26","ssbd":"13","lsbd":"School Board Nebo 2"},{"vid":"1288668","name":"Ms. Lura Skiles","party":"Dem","address":"148 W Carnesecca Ct, Mapleton, UT 84664","precinct":"25MA01","hd":"63","v_score":"9.61867875","decile":"8","lat":40.146398439997405,"lng":-111.58070206943789,"phone":"(486) 261-2021","sd":"26","ssbd":"13","lsbd":"School Board Nebo 2"},{"vid":"d58b18825743ecbb0bc630d84565df8156b9813efce7fd5b939f1cdf732b3e38","name":"Almeda Breitenberg","party":"Rep","address":"1442 W 1800 N, Mapleton, UT 84664","precinct":"25MA01","hd":"63","v_score":"25.72541572","decile":"10","lat":40.146987685560795,"lng":-111.59630110301083,"phone":"(789) 936-7399","sd":"26","ssbd":"13","lsbd":"School Board Nebo 2"},{"vid":"ac605614aadb63d2ea87925b5ae4bee51a7d8d35d4b4cacc1e0da40c939fe2a2","name":"Mellisa Waters","party":"Dem","address":"885 W 1800 N, Mapleton, UT 84664","precinct":"25MA01","hd":"63","v_score":"21.85180194","decile":"10","lat":40.146499311159715,"lng":-111.58946428319989,"phone":"(477) 093-3310","sd":"26","ssbd":"13","lsbd":"School Board Nebo 2"},{"vid":"1343970","name":"Mrs. Makayla Prosacco","party":"","address":"450 W 2000 N, Mapleton, UT 84664","precinct":"25MA01","hd":"63","v_score":"18.11188939","decile":"10","lat":40.14884698264879,"lng":-111.58455546591993,"phone":"(354) 321-9959","sd":"26","ssbd":"13","lsbd":"School Board Nebo 2"},{"vid":"7cc5ee6d5febb535991588fa02c4b9faab7c2e0c157067bd24a7aba802dd8d7d","name":"Carma Ziemann-Kuhic","party":"Dem","address":"1776 N 800 W, Mapleton, UT 84664","precinct":"25MA01","hd":"63","v_score":"3.93832808","decile":"6","lat":40.14656921020878,"lng":-111.58812621430125,"phone":"(563) 863-3958","sd":"26","ssbd":"13","lsbd":"School Board Nebo 2"},{"vid":"9f0a2ce4f9d88bec0c2ca6946c2addc368b68f9448d53a12f2323f577fcf673a","name":"Arvilla Lehner MD","party":"","address":"1385 W 2000 N, Mapleton, UT 84664","precinct":"25MA01","hd":"63","v_score":"8.280646305","decile":"8","lat":40.1483243802828,"lng":-111.59538813216032,"phone":"(765) 989-3384","sd":"26","ssbd":"13","lsbd":"School Board Nebo 2"},{"vid":"1353174","name":"Rosalyn Doyle","party":"Dem","address":"1465 N 1200 W, Mapleton, UT 84664","precinct":"25MA01","hd":"63","v_score":"2.315214949","decile":"5","lat":40.143570691655015,"lng":-111.59356952781378,"phone":"(638) 545-0278","sd":"26","ssbd":"13","lsbd":"School Board Nebo 2"},{"vid":"1353728","name":"Miss Kayli Jerde","party":"","address":"1986 N 1600 W, Mapleton, UT 84664","precinct":"25MA01","hd":"63","v_score":"0","decile":"1","lat":40.14826793458234,"lng":-111.59774664483692,"phone":"(185) 134-4020","sd":"26","ssbd":"13","lsbd":"School Board Nebo 2"},{"vid":"bc4a5fea64ccd7753a75b9998fd56249a0898eece3c43a65688208f1d1850c8b","name":"Patric Kautzer","party":"","address":"1749 N 800 W, Mapleton, UT 84664","precinct":"25MA01","hd":"63","v_score":"18.54373362","decile":"10","lat":40.14623655823449,"lng":-111.58867016997345,"phone":"(234) 016-9075","sd":"26","ssbd":"13","lsbd":"School Board Nebo 2"},{"vid":"1371861","name":"Dr. Lenwood Von","party":"Rep","address":"1385 W 2000 N, Mapleton, UT 84664","precinct":"25MA01","hd":"63","v_score":"8.280646305","decile":"8","lat":40.1483243802828,"lng":-111.59538813216032,"phone":"(459) 805-7009","sd":"26","ssbd":"13","lsbd":"School Board Nebo 2"},{"vid":"1411513","name":"Dr. Lorean Murray","party":"Rep","address":"80 W 1600 N, Mapleton, UT 84664","precinct":"25MA01","hd":"63","v_score":"0","decile":"1","lat":40.145095837429224,"lng":-111.57958432657986,"phone":"(937) 204-9055","sd":"26","ssbd":"13","lsbd":"School Board Nebo 2"},{"vid":"1415810","name":"Miss Kayli Fahey DVM","party":"Dem","address":"965 W 1700 N, Mapleton, UT 84664","precinct":"25MA01","hd":"63","v_score":"25.23294859","decile":"10","lat":40.14559900643859,"lng":-111.59040022141406,"phone":"(493) 032-4590","sd":"26","ssbd":"13","lsbd":"School Board Nebo 2"},{"vid":"1431316","name":"Nicholaus Cormier","party":"","address":"550 W 2000 N, Mapleton, UT 84664","precinct":"25MA01","hd":"63","v_score":"26.33466886","decile":"10","lat":40.14884539649411,"lng":-111.58589607392072,"phone":"(995) 749-0390","sd":"26","ssbd":"13","lsbd":"School Board Nebo 2"},{"vid":"1447505","name":"Suzanne Waelchi","party":"Rep","address":"65 W Carnesecca Ct, Mapleton, UT 84664","precinct":"25MA01","hd":"63","v_score":"38.5136703","decile":"10","lat":40.14606622368499,"lng":-111.57943937119379,"phone":"(873) 785-4251","sd":"26","ssbd":"13","lsbd":"School Board Nebo 2"},{"vid":"1452578","name":"Rene Ward","party":"Rep","address":"1663 N 300 W, Mapleton, UT 84664","precinct":"25MA01","hd":"63","v_score":"4.214075011","decile":"7","lat":40.14544890423257,"lng":-111.5828279359193,"phone":"(444) 755-8778","sd":"26","ssbd":"13","lsbd":"School Board Nebo 2"},{"vid":"b13a80e0191057bef40bb3e48b26976f3ab0419b92e57d3a10afef134358adf8","name":"Consuela Hegmann","party":"","address":"965 W 1700 N, Mapleton, UT 84664","precinct":"25MA01","hd":"63","v_score":"9.757278238","decile":"8","lat":40.14559900643859,"lng":-111.59040022141406,"phone":"(517) 721-3323","sd":"26","ssbd":"13","lsbd":"School Board Nebo 2"},{"vid":"1476865","name":"Vernetta Kemmer DDS","party":"","address":"1560 N 1800 W, Mapleton, UT 84664","precinct":"25MA01","hd":"63","v_score":"0","decile":"1","lat":40.14434949553772,"lng":-111.60171857818274,"phone":"(972) 978-3399","sd":"26","ssbd":"13","lsbd":"School Board Nebo 2"},{"vid":"4662963faa290c879180991245c6fd02ece0c33cffb53a691c775c30a8e60c59","name":"Mr. Kerwin Runolfsson","party":"Dem","address":"1897 N 1250 W, Mapleton, UT 84664","precinct":"25MA01","hd":"63","v_score":"6.881235673","decile":"8","lat":40.14756098000746,"lng":-111.59436116258836,"phone":"(782) 991-2632","sd":"26","ssbd":"13","lsbd":"School Board Nebo 2"},{"vid":"1498093","name":"Llewellyn Zulauf","party":"Dem","address":"1915 N 700 W, Apt B, Mapleton, UT 84664","precinct":"25MA01","hd":"63","v_score":"2.744440783","decile":"5","lat":40.14780835377817,"lng":-111.58764868919599,"phone":"(761) 565-8281","sd":"26","ssbd":"13","lsbd":"School Board Nebo 2"},{"vid":"1504638","name":"Starla Harber","party":"Rep","address":"1736 N 1500 W, Mapleton, UT 84664","precinct":"25MA01","hd":"63","v_score":"15.45891513","decile":"9","lat":40.1460413001499,"lng":-111.59659791038402,"phone":"(658) 766-5774","sd":"26","ssbd":"13","lsbd":"School Board Nebo 2"},{"vid":"1510726","name":"Dr. Mae Towne","party":"","address":"1502 N 900 W, Mapleton, UT 84664","precinct":"25MA01","hd":"63","v_score":"9.405332525","decile":"8","lat":40.143975278513885,"lng":-111.58916764745562,"phone":"(339) 656-0680","sd":"26","ssbd":"13","lsbd":"School Board Nebo 2"},{"vid":"1513766","name":"Isidro Schmeler","party":"","address":"1489 N 1200 W, Mapleton, UT 84664","precinct":"25MA01","hd":"63","v_score":"1.46627566","decile":"4","lat":40.14389622410782,"lng":-111.59374664445892,"phone":"(119) 104-8024","sd":"26","ssbd":"13","lsbd":"School Board Nebo 2"},{"vid":"1528076","name":"Mabelle Corkery MD","party":"Dem","address":"928 W 1700 N, Mapleton, UT 84664","precinct":"25MA01","hd":"63","v_score":"9.40499548","decile":"8","lat":40.14596994743997,"lng":-111.58989434114014,"phone":"(688) 289-8093","sd":"26","ssbd":"13","lsbd":"School Board Nebo 2"},{"vid":"1553230","name":"Dorthea Leuschke","party":"Rep","address":"520 W 1600 N, Mapleton, UT 84664","precinct":"25MA01","hd":"63","v_score":"1.121327652","decile":"3","lat":40.14506612151075,"lng":-111.584846494778,"phone":"(877) 374-1888","sd":"26","ssbd":"13","lsbd":"School Board Nebo 2"},{"vid":"b7be539b9022e6ae58aa18f15511b7142e65292deefdf7c579928da1d83c69f8","name":"Parthenia Mosciski DDS","party":"Dem","address":"1477 N 1600 W, Mapleton, UT 84664","precinct":"25MA01","hd":"63","v_score":"1.121327652","decile":"3","lat":40.143761799275026,"lng":-111.59922410850622,"phone":"(705) 615-6872","sd":"26","ssbd":"13","lsbd":"School Board Nebo 2"},{"vid":"1563523","name":"Winifred Ullrich","party":"","address":"1262 N 1380 W, Mapleton, UT 84664","precinct":"25MA01","hd":"63","v_score":"0","decile":"1","lat":40.141774286382095,"lng":-111.59488144711497,"phone":"(379) 472-8653","sd":"26","ssbd":"13","lsbd":"School Board Nebo 2"},{"vid":"1578415","name":"Dr. Mae Smitham","party":"Dem","address":"1370 W 1600 N, Mapleton, UT 84664","precinct":"25MA01","hd":"63","v_score":"0","decile":"1","lat":40.145197308102254,"lng":-111.59530609989672,"phone":"(394) 245-0863","sd":"26","ssbd":"13","lsbd":"School Board Nebo 2"},{"vid":"1586789","name":"Catalina Friesen-Jacobson","party":"Rep","address":"1714 N 500 W, Mapleton, UT 84664","precinct":"25MA01","hd":"63","v_score":"14.74039814","decile":"9","lat":40.14579941764342,"lng":-111.58436256654672,"phone":"(725) 078-8059","sd":"26","ssbd":"13","lsbd":"School Board Nebo 2"},{"vid":"1598343","name":"Mrs. Sena Ortiz MD","party":"","address":"1256 N 1600 W, Mapleton, UT 84664","precinct":"25MA01","hd":"63","v_score":"19.30359342","decile":"10","lat":40.141733732207356,"lng":-111.59753739055597,"phone":"(369) 601-8352","sd":"26","ssbd":"13","lsbd":"School Board Nebo 2"},{"vid":"1604421","name":"Mr. Shellie Towne","party":"Rep","address":"960 W 1800 N, Mapleton, UT 84664","precinct":"25MA01","hd":"63","v_score":"1.121327652","decile":"3","lat":40.147118838722015,"lng":-111.59042066004434,"phone":"(652) 394-5249","sd":"26","ssbd":"13","lsbd":"School Board Nebo 2"},{"vid":"49fc5aa525736f9f6c7a71ffeb0eb992ff48865c7f740e85d06f6c7206e7c7de","name":"Raoul Marvin","party":"Dem","address":"1052 W 1700 N, Mapleton, UT 84664","precinct":"25MA01","hd":"63","v_score":"12.13417825","decile":"9","lat":40.14619726924194,"lng":-111.59187944139083,"phone":"(520) 440-8617","sd":"26","ssbd":"13","lsbd":"School Board Nebo 2"},{"vid":"1628913","name":"Mr. Clare Stark V","party":"Dem","address":"2438 W Townhouse Dr, Mapleton, UT 84664","precinct":"25MA01","hd":"63","v_score":"20.08347482","decile":"10","lat":40.12117350988816,"lng":-111.60779656234935,"phone":"(922) 344-6085","sd":"26","ssbd":"13","lsbd":"School Board Nebo 2"},{"vid":"1923ea09237ed2af90a77c863d5101275e50f4e86a3c8f67a57028cdad034dca","name":"Andria Kreiger","party":"","address":"1396 W 1600 N, Mapleton, UT 84664","precinct":"25MA01","hd":"63","v_score":"26.33466886","decile":"10","lat":40.145617177342125,"lng":-111.59536568710587,"phone":"(251) 819-8134","sd":"26","ssbd":"13","lsbd":"School Board Nebo 2"},{"vid":"ee0696537a7872c0f65b9e51edecb0d423264c1a5b2daf3340b58eb2c334aef0","name":"Karon Carroll","party":"","address":"1396 W 1600 N, Mapleton, UT 84664","precinct":"25MA01","hd":"63","v_score":"24.8683932","decile":"10","lat":40.145617177342125,"lng":-111.59536568710587,"phone":"(837) 872-7112","sd":"26","ssbd":"13","lsbd":"School Board Nebo 2"},{"vid":"1637386","name":"Sarita Reichert","party":"Dem","address":"863 W 1700 N, Mapleton, UT 84664","precinct":"25MA01","hd":"63","v_score":"5.604194564","decile":"7","lat":40.14547176067036,"lng":-111.58915869505512,"phone":"(200) 343-2089","sd":"26","ssbd":"13","lsbd":"School Board Nebo 2"},{"vid":"1652361","name":"Charlotta Wintheiser-Schinner","party":"","address":"1973 N 600 W, Mapleton, UT 84664","precinct":"25MA01","hd":"63","v_score":"4.069929862","decile":"6","lat":40.14841179816752,"lng":-111.5862030762314,"phone":"(788) 892-3745","sd":"26","ssbd":"13","lsbd":"School Board Nebo 2"},{"vid":"1655432","name":"Alfonso Stark","party":"Dem","address":"1630 N 1650 W, Mapleton, UT 84664","precinct":"25MA01","hd":"63","v_score":"12.71559837","decile":"9","lat":40.144956481485345,"lng":-111.59876925413198,"phone":"(926) 047-5147","sd":"26","ssbd":"13","lsbd":"School Board Nebo 2"},{"vid":"1655958","name":"Sharleen Aufderhar","party":"Rep","address":"374 W 2000 N, Mapleton, UT 84664","precinct":"25MA01","hd":"63","v_score":"1.46627566","decile":"4","lat":40.148999161333414,"lng":-111.58346584846718,"phone":"(374) 789-9426","sd":"26","ssbd":"13","lsbd":"School Board Nebo 2"},{"vid":"1655959","name":"Dr. Tyrique Moore Jr.","party":"Dem","address":"374 W 2000 N, Mapleton, UT 84664","precinct":"25MA01","hd":"63","v_score":"1.46627566","decile":"4","lat":40.148999161333414,"lng":-111.58346584846718,"phone":"(797) 493-1629","sd":"26","ssbd":"13","lsbd":"School Board Nebo 2"},{"vid":"1657924","name":"Ludwig Stokes-Douglas","party":"","address":"1556 N 800 W, Mapleton, UT 84664","precinct":"25MA01","hd":"63","v_score":"9.405332525","decile":"8","lat":40.14437894828928,"lng":-111.58799091713585,"phone":"(758) 542-3837","sd":"26","ssbd":"13","lsbd":"School Board Nebo 2"},{"vid":"43cace1a0fad42b96691cd7300d87f4902e57b85f5492fe23f9f1b5e1142fae2","name":"Elige Becker","party":"Rep","address":"1630 N 1600 W, Mapleton, UT 84664","precinct":"25MA01","hd":"63","v_score":"4.465184987","decile":"7","lat":40.14503173041447,"lng":-111.59782153980763,"phone":"(746) 610-9603","sd":"26","ssbd":"13","lsbd":"School Board Nebo 2"},{"vid":"1671586","name":"Tahj Kub","party":"Rep","address":"1860 N 1250 W, Mapleton, UT 84664","precinct":"25MA01","hd":"63","v_score":"21.84896306","decile":"10","lat":40.147208314343864,"lng":-111.59362147972227,"phone":"(265) 152-1835","sd":"26","ssbd":"13","lsbd":"School Board Nebo 2"},{"vid":"1672281","name":"Antoine Swift","party":"","address":"1041 W 1800 N, Mapleton, UT 84664","precinct":"25MA01","hd":"63","v_score":"1.623113131","decile":"4","lat":40.146545462744015,"lng":-111.59184894092192,"phone":"(112) 804-8802","sd":"26","ssbd":"13","lsbd":"School Board Nebo 2"},{"vid":"1697482","name":"Burley Mann V","party":"","address":"1401 N 800 W, Mapleton, UT 84664","precinct":"25MA01","hd":"63","v_score":"3.93832808","decile":"6","lat":40.14306470957353,"lng":-111.58869236698479,"phone":"(137) 164-7337","sd":"26","ssbd":"13","lsbd":"School Board Nebo 2"},{"vid":"1700190","name":"Ola Streich-Little","party":"","address":"1714 N 500 W, Mapleton, UT 84664","precinct":"25MA01","hd":"63","v_score":"2.587603312","decile":"5","lat":40.14579941764342,"lng":-111.58436256654672,"phone":"(513) 629-7793","sd":"26","ssbd":"13","lsbd":"School Board Nebo 2"},{"vid":"59ce50b7cca55e6ef834ad04e6ed848f6397cb1f2bb65b3a647bf431a6191251","name":"Olie Donnelly","party":"Rep","address":"1478 W 1800 N, Mapleton, UT 84664","precinct":"25MA01","hd":"63","v_score":"4.210716443","decile":"7","lat":40.146960847747984,"lng":-111.59665618530343,"phone":"(930) 271-4766","sd":"26","ssbd":"13","lsbd":"School Board Nebo 2"},{"vid":"1720084","name":"Jennie Rath","party":"Dem","address":"2070 N 700 W, Mapleton, UT 84664","precinct":"25MA01","hd":"63","v_score":"19.03120506","decile":"10","lat":40.14906260677859,"lng":-111.58666851394347,"phone":"(345) 116-4691","sd":"26","ssbd":"13","lsbd":"School Board Nebo 2"},{"vid":"1796637","name":"Tella Becker DDS","party":"Dem","address":"1897 N 1250 W, Mapleton, UT 84664","precinct":"25MA01","hd":"63","v_score":"12.71585812","decile":"9","lat":40.14756098000746,"lng":-111.59436116258836,"phone":"(307) 240-3209","sd":"26","ssbd":"13","lsbd":"School Board Nebo 2"},{"vid":"1803251","name":"Mr. Fidencio Fadel","party":"Dem","address":"1696 N 300 W, Mapleton, UT 84664","precinct":"25MA01","hd":"63","v_score":"5.191257514","decile":"7","lat":40.145839378024604,"lng":-111.58159165268607,"phone":"(785) 750-4161","sd":"26","ssbd":"13","lsbd":"School Board Nebo 2"},{"vid":"1804894","name":"Felicia Sawayn","party":"Dem","address":"1643 N 1100 W, Mapleton, UT 84664","precinct":"25MA01","hd":"63","v_score":"2.660162957","decile":"5","lat":40.14539935450223,"lng":-111.59325605494615,"phone":"(924) 337-8434","sd":"26","ssbd":"13","lsbd":"School Board Nebo 2"},{"vid":"1805447","name":"Miss Vergie Hilll","party":"","address":"1675 N 1000 W, Mapleton, UT 84664","precinct":"25MA01","hd":"63","v_score":"1.46627566","decile":"4","lat":40.14577458586166,"lng":-111.59128819589726,"phone":"(981) 224-0872","sd":"26","ssbd":"13","lsbd":"School Board Nebo 2"},{"vid":"1814407","name":"Ludwig Bednar-Heaney","party":"","address":"1355 N 900 W, Mapleton, UT 84664","precinct":"25MA01","hd":"63","v_score":"1.121327652","decile":"3","lat":40.142782331983454,"lng":-111.58984305568347,"phone":"(730) 472-5140","sd":"26","ssbd":"13","lsbd":"School Board Nebo 2"},{"vid":"5e62f6d3962e683dc7306f330ef47edafc8f5775cb9baae33c147f6d3bb411ce","name":"Colt Thompson","party":"Rep","address":"1791 N 1600 W, Mapleton, UT 84664","precinct":"25MA01","hd":"63","v_score":"6.798081861","decile":"8","lat":40.14653854005414,"lng":-111.59839952457507,"phone":"(135) 606-3296","sd":"26","ssbd":"13","lsbd":"School Board Nebo 2"},{"vid":"1836053","name":"Brant Beahan","party":"Dem","address":"1741 N 500 W, Mapleton, UT 84664","precinct":"25MA01","hd":"63","v_score":"0","decile":"1","lat":40.14618431537207,"lng":-111.58495191617037,"phone":"(918) 581-6067","sd":"26","ssbd":"13","lsbd":"School Board Nebo 2"},{"vid":"1843623","name":"Fleta Boyer-Krajcik","party":"Dem","address":"825 W 2000 N, Mapleton, UT 84664","precinct":"25MA01","hd":"63","v_score":"1.121327652","decile":"3","lat":40.148262524583174,"lng":-111.58865900379226,"phone":"(405) 942-5346","sd":"26","ssbd":"13","lsbd":"School Board Nebo 2"},{"vid":"1843766","name":"Tyra Grimes-Miller","party":"","address":"1579 W Apple Orchard Ln, Mapleton, UT 84664","precinct":"25MA01","hd":"63","v_score":"3.93832808","decile":"6","lat":40.147345455168654,"lng":-111.59785740086079,"phone":"(161) 849-0086","sd":"26","ssbd":"13","lsbd":"School Board Nebo 2"},{"vid":"ea84243256a47a6743ad1e9146a8e9683fede615ee952d5da3dee38438588b3a","name":"Lowell Crona","party":"","address":"1485 W 2000 N, Mapleton, UT 84664","precinct":"25MA01","hd":"63","v_score":"13.61621523","decile":"9","lat":40.148340265575165,"lng":-111.59604983638808,"phone":"(365) 316-9841","sd":"26","ssbd":"13","lsbd":"School Board Nebo 2"},{"vid":"1853795","name":"Mona Schmitt","party":"Rep","address":"1825 N 800 W, Mapleton, UT 84664","precinct":"25MA01","hd":"63","v_score":"1.121327652","decile":"3","lat":40.14690180140997,"lng":-111.58852418907269,"phone":"(577) 750-3586","sd":"26","ssbd":"13","lsbd":"School Board Nebo 2"},{"vid":"1854109","name":"Griffith Harris","party":"Rep","address":"1925 N 1250 W, Mapleton, UT 84664","precinct":"25MA01","hd":"63","v_score":"25.64829348","decile":"10","lat":40.147860309425894,"lng":-111.59436794864166,"phone":"(933) 896-5336","sd":"26","ssbd":"13","lsbd":"School Board Nebo 2"},{"vid":"33e2aefb55959e3b35e2f39ec15c651c27d25a98751acdea143452c71f7e7204","name":"Sophronia Price-Kuhlman","party":"","address":"1288 W 1500 N, Mapleton, UT 84664","precinct":"25MA01","hd":"63","v_score":"1.46627566","decile":"4","lat":40.14406880101354,"lng":-111.59433461019269,"phone":"(292) 372-9394","sd":"26","ssbd":"13","lsbd":"School Board Nebo 2"},{"vid":"1870912","name":"Adrienne Gulgowski","party":"","address":"1384 N 1000 W, Mapleton, UT 84664","precinct":"25MA01","hd":"63","v_score":"3.102699348","decile":"6","lat":40.1430123386463,"lng":-111.59049495589863,"phone":"(612) 695-8678","sd":"26","ssbd":"13","lsbd":"School Board Nebo 2"},{"vid":"1875568","name":"Taj Prosacco","party":"","address":"1555 N 1600 W, Mapleton, UT 84664","precinct":"25MA01","hd":"63","v_score":"2.817000428","decile":"6","lat":40.14420893197567,"lng":-111.59851059261045,"phone":"(107) 790-2938","sd":"26","ssbd":"13","lsbd":"School Board Nebo 2"},{"vid":"1880539","name":"Mr. Luca Volkman","party":"","address":"1533 N 800 W, Mapleton, UT 84664","precinct":"25MA01","hd":"63","v_score":"3.781490609","decile":"6","lat":40.14425374951361,"lng":-111.58864517806371,"phone":"(879) 336-4750","sd":"26","ssbd":"13","lsbd":"School Board Nebo 2"},{"vid":"dc6d0c92e939c2ae86cfcf7c09f0e2d241de1f339ab52d2f12a35594f4b70034","name":"Dr. Chet Kerluke PhD","party":"","address":"430 W 2000 N, Mapleton, UT 84664","precinct":"25MA01","hd":"63","v_score":"19.16525368","decile":"10","lat":40.14890542385893,"lng":-111.58405287941072,"phone":"(961) 860-2635","sd":"26","ssbd":"13","lsbd":"School Board Nebo 2"},{"vid":"1903065","name":"Dr. Arthur Hand I","party":"Rep","address":"1410 N 900 W, Mapleton, UT 84664","precinct":"25MA01","hd":"63","v_score":"2.587603312","decile":"5","lat":40.14306155182696,"lng":-111.58916067976298,"phone":"(356) 111-1400","sd":"26","ssbd":"13","lsbd":"School Board Nebo 2"},{"vid":"1904634","name":"Hildur Schowalter-Reichert","party":"","address":"1663 N 300 W, Mapleton, UT 84664","precinct":"25MA01","hd":"63","v_score":"9.750280533","decile":"8","lat":40.14544890423257,"lng":-111.5828279359193,"phone":"(919) 538-8141","sd":"26","ssbd":"13","lsbd":"School Board Nebo 2"},{"vid":"1906321","name":"Ms. Elna Turner","party":"Dem","address":"1256 N 1600 W, Mapleton, UT 84664","precinct":"25MA01","hd":"63","v_score":"19.30359342","decile":"10","lat":40.141733732207356,"lng":-111.59753739055597,"phone":"(256) 584-4465","sd":"26","ssbd":"13","lsbd":"School Board Nebo 2"},{"vid":"1910352","name":"Yessenia Von","party":"","address":"1563 W 2000 N, Mapleton, UT 84664","precinct":"25MA01","hd":"63","v_score":"2.315214949","decile":"5","lat":40.1482806151873,"lng":-111.5973504344857,"phone":"(272) 895-2849","sd":"26","ssbd":"13","lsbd":"School Board Nebo 2"},{"vid":"1910964","name":"Pandora Veum","party":"","address":"846 W 1800 N, Mapleton, UT 84664","precinct":"25MA01","hd":"63","v_score":"12.51600754","decile":"9","lat":40.147110450839904,"lng":-111.58902624400608,"phone":"(308) 073-8819","sd":"26","ssbd":"13","lsbd":"School Board Nebo 2"},{"vid":"1913070","name":"Dr. Cornie Hane DDS","party":"Rep","address":"1310 W 1600 N, Mapleton, UT 84664","precinct":"25MA01","hd":"63","v_score":"22.12059385","decile":"10","lat":40.14513994350988,"lng":-111.59454816544999,"phone":"(562) 670-9669","sd":"26","ssbd":"13","lsbd":"School Board Nebo 2"},{"vid":"1941476","name":"Mrs. Allisson Thompson MD","party":"Dem","address":"1690 N 700 W, Mapleton, UT 84664","precinct":"25MA01","hd":"63","v_score":"16.64754524","decile":"9","lat":40.14585507107427,"lng":-111.58678740186899,"phone":"(798) 893-9495","sd":"26","ssbd":"13","lsbd":"School Board Nebo 2"},{"vid":"1967037","name":"Levar Ryan","party":"Rep","address":"768 W 1600 N, Mapleton, UT 84664","precinct":"25MA01","hd":"63","v_score":"20.22868881","decile":"10","lat":40.145026021473114,"lng":-111.58803195633668,"phone":"(331) 414-9822","sd":"26","ssbd":"13","lsbd":"School Board Nebo 2"},{"vid":"1969152","name":"Kellie Wehner","party":"","address":"1700 N 1650 W, Mapleton, UT 84664","precinct":"25MA01","hd":"63","v_score":"5.40460374","decile":"7","lat":40.145692656659826,"lng":-111.59885760494197,"phone":"(937) 290-6138","sd":"26","ssbd":"13","lsbd":"School Board Nebo 2"},{"vid":"1971067","name":"Lennie Cremin","party":"Dem","address":"1579 W Apple Orchard Ln, Mapleton, UT 84664","precinct":"25MA01","hd":"63","v_score":"3.93832808","decile":"6","lat":40.147345455168654,"lng":-111.59785740086079,"phone":"(683) 615-7853","sd":"26","ssbd":"13","lsbd":"School Board Nebo 2"},{"vid":"1971739","name":"Nyree Okuneva","party":"Dem","address":"88 W Carnesecca Ct, Mapleton, UT 84664","precinct":"25MA01","hd":"63","v_score":"26.75241069","decile":"10","lat":40.14660596029967,"lng":-111.57972371018033,"phone":"(816) 350-8074","sd":"26","ssbd":"13","lsbd":"School Board Nebo 2"},{"vid":"ee4dba6257b628880d9d8f1eb8297a78c4200f7faeb0e3284095b66c88ad1982","name":"Rodolfo Crist","party":"Rep","address":"1495 W 1600 N, Mapleton, UT 84664","precinct":"25MA01","hd":"63","v_score":"5.40460374","decile":"7","lat":40.144512230307626,"lng":-111.59688939621569,"phone":"(891) 949-4783","sd":"26","ssbd":"13","lsbd":"School Board Nebo 2"},{"vid":"1972407","name":"Juston Gleason","party":"Dem","address":"1662 W 1200 N, Mapleton, UT 84664","precinct":"25MA01","hd":"63","v_score":"1.121327652","decile":"3","lat":40.14158126518703,"lng":-111.59870237342713,"phone":"(626) 686-4219","sd":"26","ssbd":"13","lsbd":"School Board Nebo 2"},{"vid":"1991948","name":"Dianna Carroll MD","party":"Dem","address":"1940 N 700 W, Mapleton, UT 84664","precinct":"25MA01","hd":"63","v_score":"5.191257514","decile":"7","lat":40.147803117602294,"lng":-111.58695356725958,"phone":"(834) 034-1624","sd":"26","ssbd":"13","lsbd":"School Board Nebo 2"},{"vid":"89732f7d316fce29be27e8b56b4403b377c25e86d64b5fbce6a01c43089c19c3","name":"Ms. Merle Douglas DVM","party":"Rep","address":"1764 W 1200 N, Mapleton, UT 84664","precinct":"25MA01","hd":"63","v_score":"1.193887297","decile":"3","lat":40.14152261621131,"lng":-111.59989240923359,"phone":"(281) 066-9773","sd":"26","ssbd":"13","lsbd":"School Board Nebo 2"},{"vid":"1995561","name":"Salome Swaniawski","party":"Rep","address":"1351 N 800 W, Mapleton, UT 84664","precinct":"25MA01","hd":"63","v_score":"0","decile":"1","lat":40.142354543986414,"lng":-111.58852576115589,"phone":"(931) 540-3056","sd":"26","ssbd":"13","lsbd":"School Board Nebo 2"},{"vid":"2001807","name":"Hailee Goodwin","party":"Dem","address":"1225 N 800 W, Mapleton, UT 84664","precinct":"25MA01","hd":"63","v_score":"11.02844566","decile":"9","lat":40.14139488241328,"lng":-111.58846011756455,"phone":"(284) 182-7321","sd":"26","ssbd":"13","lsbd":"School Board Nebo 2"},{"vid":"2001811","name":"Leanne Dietrich","party":"Rep","address":"1384 N 1000 W, Mapleton, UT 84664","precinct":"25MA01","hd":"63","v_score":"5.40460374","decile":"7","lat":40.1430123386463,"lng":-111.59049495589863,"phone":"(842) 403-7166","sd":"26","ssbd":"13","lsbd":"School Board Nebo 2"},{"vid":"2011684","name":"Lesta Toy","party":"","address":"1892 N 1350 W, Mapleton, UT 84664","precinct":"25MA01","hd":"63","v_score":"12.51936611","decile":"9","lat":40.14755346053034,"lng":-111.59485115943986,"phone":"(466) 069-8152","sd":"26","ssbd":"13","lsbd":"School Board Nebo 2"},{"vid":"2021118","name":"Thedore Erdman","party":"Rep","address":"940 W 1800 N, Mapleton, UT 84664","precinct":"25MA01","hd":"63","v_score":"5.258122542","decile":"7","lat":40.14710846431924,"lng":-111.59002748358424,"phone":"(290) 119-2201","sd":"26","ssbd":"13","lsbd":"School Board Nebo 2"},{"vid":"2033636","name":"Cicely O'Conner","party":"","address":"1032 W 1900 N, Mapleton, UT 84664","precinct":"25MA01","hd":"63","v_score":"13.98702554","decile":"9","lat":40.14780716805193,"lng":-111.59170139087834,"phone":"(447) 987-8300","sd":"26","ssbd":"13","lsbd":"School Board Nebo 2"},{"vid":"2033929","name":"Eddy McGlynn DVM","party":"","address":"1390 W 2000 N, Mapleton, UT 84664","precinct":"25MA01","hd":"63","v_score":"2.315214949","decile":"5","lat":40.14881444607729,"lng":-111.595054306704,"phone":"(165) 828-1271","sd":"26","ssbd":"13","lsbd":"School Board Nebo 2"},{"vid":"2034674","name":"Zina Dickens","party":"","address":"966 W 1900 N, Mapleton, UT 84664","precinct":"25MA01","hd":"63","v_score":"2.587603312","decile":"5","lat":40.14781232877335,"lng":-111.59078714158804,"phone":"(377) 439-3755","sd":"26","ssbd":"13","lsbd":"School Board Nebo 2"},{"vid":"2035385","name":"Arlie Homenick II","party":"","address":"1538 N 900 W, Mapleton, UT 84664","precinct":"25MA01","hd":"63","v_score":"5.331806201","decile":"7","lat":40.14428080369711,"lng":-111.58916998774663,"phone":"(469) 923-7172","sd":"26","ssbd":"13","lsbd":"School Board Nebo 2"},{"vid":"2041670","name":"Hilario Lueilwitz","party":"Rep","address":"1237 N 1200 W, Mapleton, UT 84664","precinct":"25MA01","hd":"63","v_score":"10.13721141","decile":"9","lat":40.141537357226866,"lng":-111.59362654460351,"phone":"(326) 737-5633","sd":"26","ssbd":"13","lsbd":"School Board Nebo 2"},{"vid":"2048959","name":"Mr. Ashby Legros Jr.","party":"Rep","address":"1892 N 1350 W, Mapleton, UT 84664","precinct":"25MA01","hd":"63","v_score":"1.46627566","decile":"4","lat":40.14755346053034,"lng":-111.59485115943986,"phone":"(106) 284-9693","sd":"26","ssbd":"13","lsbd":"School Board Nebo 2"},{"vid":"2063259","name":"Nikko Parisian","party":"Rep","address":"1095 W 2000 N, Mapleton, UT 84664","precinct":"25MA01","hd":"63","v_score":"5.40460374","decile":"7","lat":40.14821312833007,"lng":-111.59200706926529,"phone":"(186) 186-0397","sd":"26","ssbd":"13","lsbd":"School Board Nebo 2"},{"vid":"2066659","name":"Luna Batz","party":"Rep","address":"1538 N 900 W, Mapleton, UT 84664","precinct":"25MA01","hd":"63","v_score":"9.545544167","decile":"8","lat":40.14428080369711,"lng":-111.58916998774663,"phone":"(693) 157-8207","sd":"26","ssbd":"13","lsbd":"School Board Nebo 2"},{"vid":"2069489","name":"Daphne Beier-Lehner","party":"Rep","address":"1016 W 1900 N, Mapleton, UT 84664","precinct":"25MA01","hd":"63","v_score":"3.93832808","decile":"6","lat":40.147889924641895,"lng":-111.5912204472312,"phone":"(171) 461-8882","sd":"26","ssbd":"13","lsbd":"School Board Nebo 2"},{"vid":"cea30a9509c6dc91fc90e3168a2dc45dc540ae758445dade5720732908eadd7d","name":"Geneva Runte-Schaden","party":"Rep","address":"1633 N 300 W, Mapleton, UT 84664","precinct":"25MA01","hd":"63","v_score":"3.781490609","decile":"6","lat":40.1450719795985,"lng":-111.58241099041234,"phone":"(586) 999-3804","sd":"26","ssbd":"13","lsbd":"School Board Nebo 2"},{"vid":"df77d51eb6b1f99fac15e39d4a1f146e1cf40bef8b7f8b31c33c817361d4927d","name":"Jovita Morar","party":"Rep","address":"876 W 1300 N, Mapleton, UT 84664","precinct":"25MA01","hd":"63","v_score":"31.5296891","decile":"10","lat":40.1423496714456,"lng":-111.58925690036807,"phone":"(442) 699-2805","sd":"26","ssbd":"13","lsbd":"School Board Nebo 2"},{"vid":"2082342","name":"Kaia Mayert","party":"Dem","address":"865 W 1800 N, Mapleton, UT 84664","precinct":"25MA01","hd":"63","v_score":"9.843102335","decile":"8","lat":40.14649634703084,"lng":-111.58910661447793,"phone":"(493) 189-3988","sd":"26","ssbd":"13","lsbd":"School Board Nebo 2"},{"vid":"2083885","name":"Cleve Pfeffer","party":"Rep","address":"928 W 1900 N, Mapleton, UT 84664","precinct":"25MA01","hd":"63","v_score":"22.62271637","decile":"10","lat":40.14770179668059,"lng":-111.5902497442845,"phone":"(348) 044-8561","sd":"26","ssbd":"13","lsbd":"School Board Nebo 2"},{"vid":"37674119950f1c7e3c19876cdd3391c54e42b5e98ea6a6e9b0336628c0a2d2c4","name":"Weaver Fahey V","party":"Dem","address":"1538 N 900 W, Mapleton, UT 84664","precinct":"25MA01","hd":"63","v_score":"2.315214949","decile":"5","lat":40.14428080369711,"lng":-111.58916998774663,"phone":"(183) 388-4770","sd":"26","ssbd":"13","lsbd":"School Board Nebo 2"},{"vid":"977038de3923917640fd1807c6b58477d8cf89dada9e8229dbc282c33caee844","name":"Juwan Von","party":"Rep","address":"374 W 2000 N, Mapleton, UT 84664","precinct":"25MA01","hd":"63","v_score":"4.210716443","decile":"7","lat":40.148999161333414,"lng":-111.58346584846718,"phone":"(775) 673-9257","sd":"26","ssbd":"13","lsbd":"School Board Nebo 2"},{"vid":"938770ec9d05f57daa6e16762569cbfad059e2b76e8b3bd776a146a91bddd9eb","name":"Lauryn Rowe MD","party":"","address":"1873 N 700 W, Mapleton, UT 84664","precinct":"25MA01","hd":"63","v_score":"15.51131257","decile":"9","lat":40.14744493594194,"lng":-111.58756035800383,"phone":"(958) 911-6535","sd":"26","ssbd":"13","lsbd":"School Board Nebo 2"},{"vid":"2119038","name":"Ami Pagac","party":"Rep","address":"720 W 1800 N, Mapleton, UT 84664","precinct":"25MA01","hd":"63","v_score":"0","decile":"1","lat":40.14690767270867,"lng":-111.5874948680176,"phone":"(636) 606-5799","sd":"26","ssbd":"13","lsbd":"School Board Nebo 2"},{"vid":"2128348","name":"Ms. Winnifred Schroeder MD","party":"Dem","address":"1776 N 800 W, Mapleton, UT 84664","precinct":"25MA01","hd":"63","v_score":"0","decile":"1","lat":40.14656921020878,"lng":-111.58812621430125,"phone":"(132) 849-3905","sd":"26","ssbd":"13","lsbd":"School Board Nebo 2"},{"vid":"2130254","name":"Jon Rippin","party":"Rep","address":"1929 N 600 W, Mapleton, UT 84664","precinct":"25MA01","hd":"63","v_score":"0","decile":"1","lat":40.14808552868328,"lng":-111.58618219272377,"phone":"(808) 608-6483","sd":"26","ssbd":"13","lsbd":"School Board Nebo 2"},{"vid":"1b475b75f918ddcc0359269223b6371b659a7caa7e0d24181593af802448a4d7","name":"Patti Dach DVM","party":"Dem","address":"1016 W 1900 N, Mapleton, UT 84664","precinct":"25MA01","hd":"63","v_score":"5.530510904","decile":"7","lat":40.147889924641895,"lng":-111.5912204472312,"phone":"(566) 749-4534","sd":"26","ssbd":"13","lsbd":"School Board Nebo 2"},{"vid":"2145673","name":"Michael Reichel","party":"","address":"465 W 2000 N, Mapleton, UT 84664","precinct":"25MA01","hd":"63","v_score":"1.121327652","decile":"3","lat":40.14834110358797,"lng":-111.58447212058722,"phone":"(258) 703-0141","sd":"26","ssbd":"13","lsbd":"School Board Nebo 2"},{"vid":"2153339","name":"Ms. Citlali Hartmann","party":"Rep","address":"1032 W 1900 N, Mapleton, UT 84664","precinct":"25MA01","hd":"63","v_score":"14.74039814","decile":"9","lat":40.14780716805193,"lng":-111.59170139087834,"phone":"(154) 644-0698","sd":"26","ssbd":"13","lsbd":"School Board Nebo 2"},{"vid":"2164141","name":"Gaylon Jacobson","party":"","address":"1035 W 1600 N, Mapleton, UT 84664","precinct":"25MA01","hd":"63","v_score":"8.280646305","decile":"8","lat":40.144706044231114,"lng":-111.5912409487048,"phone":"(555) 126-9388","sd":"26","ssbd":"13","lsbd":"School Board Nebo 2"},{"vid":"a2c747fa78a93c3c54bd9599741e18bbd1d807f70cff60714f56d32e42bef349","name":"Elizah Morar","party":"Dem","address":"1729 N 1600 W, Mapleton, UT 84664","precinct":"25MA01","hd":"63","v_score":"17.74888221","decile":"10","lat":40.14605347267947,"lng":-111.59855065141919,"phone":"(286) 748-3592","sd":"26","ssbd":"13","lsbd":"School Board Nebo 2"},{"vid":"bbd6a51ccfcd528d1873aa70b32e0506ecf85d7c3fa3d68f71d2ccf0b65d02b6","name":"Kadeem Luettgen","party":"Rep","address":"949 W 1800 N, Mapleton, UT 84664","precinct":"25MA01","hd":"63","v_score":"2.660162957","decile":"5","lat":40.14644496915802,"lng":-111.59029171976118,"phone":"(353) 633-6697","sd":"26","ssbd":"13","lsbd":"School Board Nebo 2"},{"vid":"1a5a23229fcc28b551e939704a95d889cb24c3ec01d776243a85bdef657eca2b","name":"Harlow Kreiger-Rolfson","party":"Dem","address":"1478 W 1800 N, Mapleton, UT 84664","precinct":"25MA01","hd":"63","v_score":"2.587603312","decile":"5","lat":40.146960847747984,"lng":-111.59665618530343,"phone":"(103) 556-5272","sd":"26","ssbd":"13","lsbd":"School Board Nebo 2"},{"vid":"2168844","name":"Mr. Earlie Monahan I","party":"","address":"1288 W 1500 N, Mapleton, UT 84664","precinct":"25MA01","hd":"63","v_score":"5.40460374","decile":"7","lat":40.14406880101354,"lng":-111.59433461019269,"phone":"(588) 054-7062","sd":"26","ssbd":"13","lsbd":"School Board Nebo 2"},{"vid":"8d027d42e7fe914b4aaf8d6714cc01c293f31136b975cd0f2665155c01e33fc4","name":"Geovanni Roob","party":"Dem","address":"1261 N 1380 W, Mapleton, UT 84664","precinct":"25MA01","hd":"63","v_score":"14.74039814","decile":"9","lat":40.14177355502685,"lng":-111.59560596110614,"phone":"(554) 781-0141","sd":"26","ssbd":"13","lsbd":"School Board Nebo 2"},{"vid":"2179478","name":"Mr. Skylar Lueilwitz DVM","party":"Dem","address":"1986 N 1600 W, Mapleton, UT 84664","precinct":"25MA01","hd":"63","v_score":"1.193887297","decile":"3","lat":40.14826793458234,"lng":-111.59774664483692,"phone":"(366) 579-8557","sd":"26","ssbd":"13","lsbd":"School Board Nebo 2"},{"vid":"2181480","name":"Admiral Hudson DDS","party":"Dem","address":"1390 W 2000 N, Mapleton, UT 84664","precinct":"25MA01","hd":"63","v_score":"2.817000428","decile":"6","lat":40.14881444607729,"lng":-111.595054306704,"phone":"(999) 511-8706","sd":"26","ssbd":"13","lsbd":"School Board Nebo 2"},{"vid":"2186727","name":"Derik Welch","party":"Rep","address":"1510 N 1600 W, Mapleton, UT 84664","precinct":"25MA01","hd":"63","v_score":"1.121327652","decile":"3","lat":40.14400568322094,"lng":-111.59758545042368,"phone":"(556) 074-0795","sd":"26","ssbd":"13","lsbd":"School Board Nebo 2"},{"vid":"d39f9ba40ea7e6e4c5505d3237e9b1ed782a48899a6c779993f3ea48b3e946eb","name":"Darrick Flatley","party":"","address":"1892 N 1350 W, Mapleton, UT 84664","precinct":"25MA01","hd":"63","v_score":"0","decile":"1","lat":40.14755346053034,"lng":-111.59485115943986,"phone":"(131) 273-9821","sd":"26","ssbd":"13","lsbd":"School Board Nebo 2"},{"vid":"2189459","name":"Sylas Beier V","party":"","address":"1477 N 1600 W, Mapleton, UT 84664","precinct":"25MA01","hd":"63","v_score":"0","decile":"1","lat":40.143761799275026,"lng":-111.59922410850622,"phone":"(721) 978-3951","sd":"26","ssbd":"13","lsbd":"School Board Nebo 2"},{"vid":"6031b76262ec148b7b91170d8e35a839ca0bc974406d817f29f8da5948978c65","name":"Makaila Dietrich DDS","party":"Dem","address":"1355 N 900 W, Mapleton, UT 84664","precinct":"25MA01","hd":"63","v_score":"2.315214949","decile":"5","lat":40.142782331983454,"lng":-111.58984305568347,"phone":"(172) 022-8747","sd":"26","ssbd":"13","lsbd":"School Board Nebo 2"},{"vid":"2197280","name":"Ema Torphy","party":"Dem","address":"1210 W 1600 N, Mapleton, UT 84664","precinct":"25MA01","hd":"63","v_score":"15.18126958","decile":"9","lat":40.14514105467983,"lng":-111.59343732613708,"phone":"(651) 529-3032","sd":"26","ssbd":"13","lsbd":"School Board Nebo 2"},{"vid":"541bff63338c777d59ec0bc9aa74a71dc3c554c1515d1a21e238cbd623f8ae88","name":"Mercer West","party":"Rep","address":"2438 W Townhouse Dr, Mapleton, UT 84664","precinct":"25MA01","hd":"63","v_score":"2.315214949","decile":"5","lat":40.12117350988816,"lng":-111.60779656234935,"phone":"(448) 502-0416","sd":"26","ssbd":"13","lsbd":"School Board Nebo 2"},{"vid":"2207990","name":"Jermain Towne MD","party":"Dem","address":"1345 W 2000 N, Mapleton, UT 84664","precinct":"25MA01","hd":"63","v_score":"1.121327652","decile":"3","lat":40.14825178793777,"lng":-111.59487136362856,"phone":"(187) 664-0897","sd":"26","ssbd":"13","lsbd":"School Board Nebo 2"},{"vid":"c1978346ee707cdb29f2d16578f78fa160f91233d8d0ba38087a3500d709f705","name":"Arlis Beier-Kirlin","party":"","address":"515 W 2000 N, Mapleton, UT 84664","precinct":"25MA01","hd":"63","v_score":"0","decile":"1","lat":40.148324647417944,"lng":-111.58503523329598,"phone":"(148) 174-7031","sd":"26","ssbd":"13","lsbd":"School Board Nebo 2"},{"vid":"2214563","name":"Jaiden Donnelly DVM","party":"Rep","address":"1084 W 1900 N, Mapleton, UT 84664","precinct":"25MA01","hd":"63","v_score":"0","decile":"1","lat":40.14773961242688,"lng":-111.59255126170339,"phone":"(962) 083-4813","sd":"26","ssbd":"13","lsbd":"School Board Nebo 2"},{"vid":"2215076","name":"Ms. Charolette Leannon DDS","party":"Rep","address":"1950 N 1250 W, Mapleton, UT 84664","precinct":"25MA01","hd":"63","v_score":"0","decile":"1","lat":40.14803154292811,"lng":-111.5936362641952,"phone":"(956) 739-7315","sd":"26","ssbd":"13","lsbd":"School Board Nebo 2"},{"vid":"d90a6e3b140a638c0fd9bb6a8eebca7b3beb30827f78261aa3a41ca528d51557","name":"Manerva Strosin","party":"Rep","address":"135 W Carnesecca Ct, Mapleton, UT 84664","precinct":"25MA01","hd":"63","v_score":"2.817000428","decile":"6","lat":40.145970797508504,"lng":-111.58057509095865,"phone":"(268) 264-0779","sd":"26","ssbd":"13","lsbd":"School Board Nebo 2"},{"vid":"2223166","name":"Dori Greenfelder","party":"","address":"1210 W 1600 N, Mapleton, UT 84664","precinct":"25MA01","hd":"63","v_score":"2.315214949","decile":"5","lat":40.14514105467983,"lng":-111.59343732613708,"phone":"(401) 944-5704","sd":"26","ssbd":"13","lsbd":"School Board Nebo 2"},{"vid":"2224075","name":"Ryan Bechtelar","party":"","address":"374 W 2000 N, Mapleton, UT 84664","precinct":"25MA01","hd":"63","v_score":"2.744440783","decile":"5","lat":40.148999161333414,"lng":-111.58346584846718,"phone":"(378) 000-3267","sd":"26","ssbd":"13","lsbd":"School Board Nebo 2"},{"vid":"2224528","name":"Jaslene Crooks","party":"Dem","address":"1306 W 1200 N, Mapleton, UT 84664","precinct":"25MA01","hd":"63","v_score":"4.064235245","decile":"6","lat":40.14154304966237,"lng":-111.59442492692362,"phone":"(610) 571-5541","sd":"26","ssbd":"13","lsbd":"School Board Nebo 2"},{"vid":"79f46286bf61542a40b1c0a4e5a3ddb38e18fbb804fee0f796450ecf17bcef1b","name":"Bart Schultz","party":"Dem","address":"1210 W 1600 N, Mapleton, UT 84664","precinct":"25MA01","hd":"63","v_score":"13.97135325","decile":"9","lat":40.14514105467983,"lng":-111.59343732613708,"phone":"(362) 279-1046","sd":"26","ssbd":"13","lsbd":"School Board Nebo 2"},{"vid":"369ccfaa79881c077fb0810b5062a24b4314803b7769544cca26cd5038856764","name":"Dr. Icie Bechtelar DDS","party":"","address":"1872 N 1100 W, Mapleton, UT 84664","precinct":"25MA01","hd":"63","v_score":"3.016591252","decile":"6","lat":40.14744729509864,"lng":-111.59245434178146,"phone":"(977) 278-5708","sd":"26","ssbd":"13","lsbd":"School Board Nebo 2"},{"vid":"d972d8cfcd0dcba7252011e4a09d142ba8c9a37e2a4f941e3f3b038ea5747753","name":"Arminda Douglas","party":"Dem","address":"515 W 2000 N, Mapleton, UT 84664","precinct":"25MA01","hd":"63","v_score":"0","decile":"1","lat":40.148324647417944,"lng":-111.58503523329598,"phone":"(560) 678-4332","sd":"26","ssbd":"13","lsbd":"School Board Nebo 2"},{"vid":"141929c98f0b3c9125776260622c45a8430fc9cf14162e780ebf8c0547301432","name":"Leaner Wehner","party":"Dem","address":"1121 W 1800 N, Mapleton, UT 84664","precinct":"25MA01","hd":"63","v_score":"0","decile":"1","lat":40.146515705788524,"lng":-111.59282872223326,"phone":"(259) 631-9805","sd":"26","ssbd":"13","lsbd":"School Board Nebo 2"},{"vid":"18f1683c2536ba5b2c3eee89a315fd930cc75bd0e4cbe73bee84959a63baf452","name":"Judd Reilly","party":"Rep","address":"1072 W 1900 N, Mapleton, UT 84664","precinct":"25MA01","hd":"63","v_score":"0","decile":"1","lat":40.14792258928605,"lng":-111.59212775285467,"phone":"(521) 141-0964","sd":"26","ssbd":"13","lsbd":"School Board Nebo 2"},{"vid":"779ced1c3d09bdf37fbd7c6d99cee105c8bb4161e3b3e6362014bcc267820c47","name":"Girtha Armstrong","party":"Rep","address":"1869 N 600 W, Mapleton, UT 84664","precinct":"25MA01","hd":"63","v_score":"5.693042993","decile":"7","lat":40.14754916499056,"lng":-111.58631516144679,"phone":"(539) 249-0026","sd":"26","ssbd":"13","lsbd":"School Board Nebo 2"},{"vid":"2241453","name":"Wess Hintz","party":"Dem","address":"1837 N 1250 W, Mapleton, UT 84664","precinct":"25MA01","hd":"63","v_score":"6.52928996","decile":"7","lat":40.14684720421263,"lng":-111.59418308998465,"phone":"(163) 412-9995","sd":"26","ssbd":"13","lsbd":"School Board Nebo 2"},{"vid":"2241485","name":"Melbourne Walker DDS","party":"Dem","address":"1039 W 2000 N, Mapleton, UT 84664","precinct":"25MA01","hd":"63","v_score":"1.121327652","decile":"3","lat":40.148217627283266,"lng":-111.59160592717406,"phone":"(947) 568-2703","sd":"26","ssbd":"13","lsbd":"School Board Nebo 2"},{"vid":"2247565","name":"Anice Terry","party":"Dem","address":"1825 N Main St, Mapleton, UT 84664","precinct":"25MA01","hd":"63","v_score":"0","decile":"1","lat":40.14698166579011,"lng":-111.5791367275747,"phone":"(413) 260-9353","sd":"26","ssbd":"13","lsbd":"School Board Nebo 2"},{"vid":"2249025","name":"Carma Bogisich-Kling","party":"","address":"1401 N 800 W, Mapleton, UT 84664","precinct":"25MA01","hd":"63","v_score":"1.121327652","decile":"3","lat":40.14306470957353,"lng":-111.58869236698479,"phone":"(455) 254-3937","sd":"26","ssbd":"13","lsbd":"School Board Nebo 2"},{"vid":"29c20d70b9fcffa8cf3fa27626db21744f288e41e9c6a5c925941e9ee31241ba","name":"Darryn Nitzsche-Yundt","party":"","address":"1237 N 1200 W, Mapleton, UT 84664","precinct":"25MA01","hd":"63","v_score":"10.7597751","decile":"9","lat":40.141537357226866,"lng":-111.59362654460351,"phone":"(354) 054-2736","sd":"26","ssbd":"13","lsbd":"School Board Nebo 2"},{"vid":"8c731e9dba121cadf3db77e8246d4dad064109271561a894919efde1c20f7a15","name":"Illa Runolfsdottir-Sipes","party":"","address":"1032 W 1900 N, Mapleton, UT 84664","precinct":"25MA01","hd":"63","v_score":"11.02844566","decile":"9","lat":40.14780716805193,"lng":-111.59170139087834,"phone":"(210) 652-2379","sd":"26","ssbd":"13","lsbd":"School Board Nebo 2"},{"vid":"52e65bfb25ad4aab6c62c2503a2066d84e5a2e830624ae6e90d786f996d7574d","name":"Yaritza Reynolds","party":"","address":"2050 N 1600 W, Mapleton, UT 84664","precinct":"25MA01","hd":"63","v_score":"1.121327652","decile":"3","lat":40.14906379824473,"lng":-111.59788149866972,"phone":"(985) 769-0765","sd":"26","ssbd":"13","lsbd":"School Board Nebo 2"},{"vid":"dc1a0119a25d32f2525334b13361f7f1621a06a763946d98f1c74589ce49b555","name":"Doshia Funk","party":"Dem","address":"1512 W 1800 N, Mapleton, UT 84664","precinct":"25MA01","hd":"63","v_score":"2.315214949","decile":"5","lat":40.14695880450434,"lng":-111.5970400798011,"phone":"(645) 196-2861","sd":"26","ssbd":"13","lsbd":"School Board Nebo 2"},{"vid":"2290119","name":"Fernand Schimmel","party":"Rep","address":"1630 N 1600 W, Mapleton, UT 84664","precinct":"25MA01","hd":"63","v_score":"22.06057786","decile":"10","lat":40.14503173041447,"lng":-111.59782153980763,"phone":"(822) 866-0982","sd":"26","ssbd":"13","lsbd":"School Board Nebo 2"},{"vid":"2296143","name":"Florance Little-Reynolds","party":"Dem","address":"938 W 1900 N, Mapleton, UT 84664","precinct":"25MA01","hd":"63","v_score":"5.258122542","decile":"7","lat":40.14789828504796,"lng":-111.59037020062391,"phone":"(645) 192-8675","sd":"26","ssbd":"13","lsbd":"School Board Nebo 2"},{"vid":"2299768","name":"Isla Fahey DDS","party":"Rep","address":"1756 N 500 W, Mapleton, UT 84664","precinct":"25MA01","hd":"63","v_score":"9.405332525","decile":"8","lat":40.146201606779464,"lng":-111.58449329321986,"phone":"(827) 076-2515","sd":"26","ssbd":"13","lsbd":"School Board Nebo 2"},{"vid":"2300305","name":"Chancy Keebler","party":"","address":"31 W Carnesecca Ct, Mapleton, UT 84664","precinct":"25MA01","hd":"63","v_score":"2.315214949","decile":"5","lat":40.146063603324734,"lng":-111.57903903305684,"phone":"(216) 061-5255","sd":"26","ssbd":"13","lsbd":"School Board Nebo 2"},{"vid":"03ae3fe6a627b8134443f6dc07b72c9bf2bc582c29a0b70df433170e72025231","name":"Valentine Schmitt","party":"","address":"1010 W 2000 N, Mapleton, UT 84664","precinct":"25MA01","hd":"63","v_score":"2.426006793","decile":"5","lat":40.148730144572404,"lng":-111.5902054472082,"phone":"(574) 931-0673","sd":"26","ssbd":"13","lsbd":"School Board Nebo 2"},{"vid":"2300729","name":"Veola Crist","party":"Rep","address":"1690 N 700 W, Mapleton, UT 84664","precinct":"25MA01","hd":"63","v_score":"13.57168065","decile":"9","lat":40.14585507107427,"lng":-111.58678740186899,"phone":"(293) 386-5104","sd":"26","ssbd":"13","lsbd":"School Board Nebo 2"},{"vid":"2456f98102bd0c4a8a89571b8542c517294928632bb477bef7d9aaf8d43655b1","name":"Mr. Tollie Klein Sr.","party":"Rep","address":"928 W 1900 N, Mapleton, UT 84664","precinct":"25MA01","hd":"63","v_score":"12.92370926","decile":"9","lat":40.14770179668059,"lng":-111.5902497442845,"phone":"(983) 034-9901","sd":"26","ssbd":"13","lsbd":"School Board Nebo 2"},{"vid":"2312014","name":"Daryl Spinka-Hammes","party":"Dem","address":"1230 W 1500 N, Mapleton, UT 84664","precinct":"25MA01","hd":"63","v_score":"5.191257514","decile":"7","lat":40.14421965640098,"lng":-111.59343047553979,"phone":"(818) 638-2808","sd":"26","ssbd":"13","lsbd":"School Board Nebo 2"},{"vid":"2315740","name":"Damaris VonRueden","party":"Rep","address":"1095 W 2000 N, Mapleton, UT 84664","precinct":"25MA01","hd":"63","v_score":"3.93832808","decile":"6","lat":40.14821312833007,"lng":-111.59200706926529,"phone":"(358) 993-7723","sd":"26","ssbd":"13","lsbd":"School Board Nebo 2"},{"vid":"2320875","name":"Mikal Cremin","party":"","address":"833 W 1800 N, Mapleton, UT 84664","precinct":"25MA01","hd":"63","v_score":"1.121327652","decile":"3","lat":40.146575624800924,"lng":-111.58859887968408,"phone":"(680) 549-7256","sd":"26","ssbd":"13","lsbd":"School Board Nebo 2"},{"vid":"2322298","name":"Montie Eichmann II","party":"Rep","address":"1310 W 1600 N, Mapleton, UT 84664","precinct":"25MA01","hd":"63","v_score":"1.121327652","decile":"3","lat":40.14513994350988,"lng":-111.59454816544999,"phone":"(524) 922-7712","sd":"26","ssbd":"13","lsbd":"School Board Nebo 2"},{"vid":"2334176","name":"Hugo Cormier","party":"","address":"1669 W 1320 N, Mapleton, UT 84664","precinct":"25MA01","hd":"63","v_score":"6.954919332","decile":"8","lat":40.14208562805451,"lng":-111.59903133633446,"phone":"(628) 757-4000","sd":"26","ssbd":"13","lsbd":"School Board Nebo 2"},{"vid":"2336945","name":"Atha Daniel","party":"","address":"1465 N 1200 W, Mapleton, UT 84664","precinct":"25MA01","hd":"63","v_score":"2.315214949","decile":"5","lat":40.143570691655015,"lng":-111.59356952781378,"phone":"(705) 992-7628","sd":"26","ssbd":"13","lsbd":"School Board Nebo 2"},{"vid":"2341162","name":"Johannah Kunze","party":"Dem","address":"1973 N 600 W, Mapleton, UT 84664","precinct":"25MA01","hd":"63","v_score":"0","decile":"1","lat":40.14841179816752,"lng":-111.5862030762314,"phone":"(533) 882-3699","sd":"26","ssbd":"13","lsbd":"School Board Nebo 2"},{"vid":"2341342","name":"Jarett Goyette","party":"Rep","address":"374 W 2000 N, Mapleton, UT 84664","precinct":"25MA01","hd":"63","v_score":"1.121327652","decile":"3","lat":40.148999161333414,"lng":-111.58346584846718,"phone":"(417) 611-5049","sd":"26","ssbd":"13","lsbd":"School Board Nebo 2"},{"vid":"2342610","name":"Zachery Stamm-Hackett","party":"Rep","address":"1549 W 1800 N, Mapleton, UT 84664","precinct":"25MA01","hd":"63","v_score":"3.93832808","decile":"6","lat":40.14631787018423,"lng":-111.59742499035325,"phone":"(989) 945-2626","sd":"26","ssbd":"13","lsbd":"School Board Nebo 2"},{"vid":"2345374","name":"Lenwood Botsford-Dietrich","party":"Rep","address":"31 W Carnesecca Ct, Mapleton, UT 84664","precinct":"25MA01","hd":"63","v_score":"2.315214949","decile":"5","lat":40.146063603324734,"lng":-111.57903903305684,"phone":"(177) 686-1840","sd":"26","ssbd":"13","lsbd":"School Board Nebo 2"},{"vid":"2361713","name":"Tollie Beatty","party":"","address":"1556 N 800 W, Mapleton, UT 84664","precinct":"25MA01","hd":"63","v_score":"9.405332525","decile":"8","lat":40.14437894828928,"lng":-111.58799091713585,"phone":"(553) 547-6775","sd":"26","ssbd":"13","lsbd":"School Board Nebo 2"},{"vid":"2369409","name":"Sharyl Schaefer","party":"","address":"1485 W 2000 N, Mapleton, UT 84664","precinct":"25MA01","hd":"63","v_score":"2.315214949","decile":"5","lat":40.148340265575165,"lng":-111.59604983638808,"phone":"(239) 220-8468","sd":"26","ssbd":"13","lsbd":"School Board Nebo 2"},{"vid":"2370347","name":"Shellie Wilderman","party":"Rep","address":"1728 N 1600 W, Mapleton, UT 84664","precinct":"25MA01","hd":"63","v_score":"1.121327652","decile":"3","lat":40.146104774169714,"lng":-111.59763611166272,"phone":"(670) 787-6991","sd":"26","ssbd":"13","lsbd":"School Board Nebo 2"},{"vid":"2380786","name":"Tyree Botsford","party":"","address":"882 W 1600 N, Mapleton, UT 84664","precinct":"25MA01","hd":"63","v_score":"14.04503691","decile":"9","lat":40.14518586597857,"lng":-111.58944213972813,"phone":"(522) 542-4793","sd":"26","ssbd":"13","lsbd":"School Board Nebo 2"},{"vid":"2381689","name":"Dr. Rickey Klocko DVM","party":"","address":"1400 N 1800 W, Mapleton, UT 84664","precinct":"25MA01","hd":"63","v_score":"0","decile":"1","lat":40.14275916094903,"lng":-111.60052026750316,"phone":"(754) 657-2424","sd":"26","ssbd":"13","lsbd":"School Board Nebo 2"},{"vid":"2383797","name":"Ms. Sherie Kunze MD","party":"Dem","address":"823 W Merrill Cir, Mapleton, UT 84664","precinct":"25MA01","hd":"63","v_score":"5.191257514","decile":"7","lat":40.14751548656425,"lng":-111.58883962991672,"phone":"(132) 232-4151","sd":"26","ssbd":"13","lsbd":"School Board Nebo 2"},{"vid":"2393660","name":"Dr. Alonso Feil","party":"Dem","address":"960 W 1800 N, Mapleton, UT 84664","precinct":"25MA01","hd":"63","v_score":"2.315214949","decile":"5","lat":40.147118838722015,"lng":-111.59042066004434,"phone":"(992) 249-7785","sd":"26","ssbd":"13","lsbd":"School Board Nebo 2"},{"vid":"2395713","name":"Gust Schowalter","party":"Rep","address":"1837 N 1250 W, Mapleton, UT 84664","precinct":"25MA01","hd":"63","v_score":"8.955296752","decile":"8","lat":40.14684720421263,"lng":-111.59418308998465,"phone":"(573) 330-9646","sd":"26","ssbd":"13","lsbd":"School Board Nebo 2"},{"vid":"2396193","name":"Nila Goodwin","party":"","address":"966 W 1900 N, Mapleton, UT 84664","precinct":"25MA01","hd":"63","v_score":"2.315214949","decile":"5","lat":40.14781232877335,"lng":-111.59078714158804,"phone":"(952) 027-6234","sd":"26","ssbd":"13","lsbd":"School Board Nebo 2"},{"vid":"2396889","name":"Marta Lesch","party":"","address":"2050 N 1600 W, Mapleton, UT 84664","precinct":"25MA01","hd":"63","v_score":"2.744440783","decile":"5","lat":40.14906379824473,"lng":-111.59788149866972,"phone":"(366) 238-2881","sd":"26","ssbd":"13","lsbd":"School Board Nebo 2"},{"vid":"2397227","name":"Ms. Akeelah Rolfson","party":"","address":"1412 W 1800 N, Mapleton, UT 84664","precinct":"25MA01","hd":"63","v_score":"1.193887297","decile":"3","lat":40.14696491459654,"lng":-111.59589644036208,"phone":"(712) 441-9769","sd":"26","ssbd":"13","lsbd":"School Board Nebo 2"},{"vid":"2399417","name":"Shelia Osinski","party":"","address":"1035 W 1600 N, Mapleton, UT 84664","precinct":"25MA01","hd":"63","v_score":"2.744440783","decile":"5","lat":40.144706044231114,"lng":-111.5912409487048,"phone":"(443) 325-0907","sd":"26","ssbd":"13","lsbd":"School Board Nebo 2"},{"vid":"2402592","name":"Lennie Barton","party":"Dem","address":"1897 N 1250 W, Mapleton, UT 84664","precinct":"25MA01","hd":"63","v_score":"9.830961897","decile":"8","lat":40.14756098000746,"lng":-111.59436116258836,"phone":"(298) 242-8050","sd":"26","ssbd":"13","lsbd":"School Board Nebo 2"},{"vid":"2403489","name":"Altie Terry","party":"Rep","address":"1662 W 1200 N, Mapleton, UT 84664","precinct":"25MA01","hd":"63","v_score":"2.315214949","decile":"5","lat":40.14158126518703,"lng":-111.59870237342713,"phone":"(737) 812-2469","sd":"26","ssbd":"13","lsbd":"School Board Nebo 2"},{"vid":"2404899","name":"Ms. Gisele Vandervort","party":"","address":"1472 N 900 W, Mapleton, UT 84664","precinct":"25MA01","hd":"63","v_score":"2.817000428","decile":"6","lat":40.14360991404604,"lng":-111.58907141417318,"phone":"(699) 775-9396","sd":"26","ssbd":"13","lsbd":"School Board Nebo 2"},{"vid":"2405637","name":"Dr. Maegan Heaney","party":"Dem","address":"1225 N 1380 W, Mapleton, UT 84664","precinct":"25MA01","hd":"63","v_score":"2.315214949","decile":"5","lat":40.14138841199327,"lng":-111.59535900348679,"phone":"(123) 580-1336","sd":"26","ssbd":"13","lsbd":"School Board Nebo 2"},{"vid":"2409785","name":"Tex Mosciski II","party":"Rep","address":"1889 N 1100 W, Mapleton, UT 84664","precinct":"25MA01","hd":"63","v_score":"1.121327652","decile":"3","lat":40.14756020288078,"lng":-111.59285006297954,"phone":"(833) 144-6347","sd":"26","ssbd":"13","lsbd":"School Board Nebo 2"},{"vid":"2419804","name":"Johny Auer","party":"","address":"1130 W 1200 N, Mapleton, UT 84664","precinct":"25MA01","hd":"63","v_score":"2.315214949","decile":"5","lat":40.14161314554255,"lng":-111.59249182029244,"phone":"(786) 512-3508","sd":"26","ssbd":"13","lsbd":"School Board Nebo 2"},{"vid":"2441628","name":"Miss Samira Lakin PhD","party":"","address":"20 W 2000 N, Mapleton, UT 84664","precinct":"25MA01","hd":"63","v_score":"2.315214949","decile":"5","lat":40.1474248574846,"lng":-111.57911402888422,"phone":"(837) 542-8633","sd":"26","ssbd":"13","lsbd":"School Board Nebo 2"},{"vid":"2456271","name":"Idabelle Eichmann","party":"Dem","address":"960 W 1800 N, Mapleton, UT 84664","precinct":"25MA01","hd":"63","v_score":"1.121327652","decile":"3","lat":40.147118838722015,"lng":-111.59042066004434,"phone":"(783) 691-9379","sd":"26","ssbd":"13","lsbd":"School Board Nebo 2"},{"vid":"2456662","name":"Monserrat Kovacek","party":"","address":"1825 N Main St, Mapleton, UT 84664","precinct":"25MA01","hd":"63","v_score":"2.315214949","decile":"5","lat":40.14698166579011,"lng":-111.5791367275747,"phone":"(544) 451-9767","sd":"26","ssbd":"13","lsbd":"School Board Nebo 2"},{"vid":"2457589","name":"Gilda Rodriguez","party":"","address":"1619 W 1320 N, Mapleton, UT 84664","precinct":"25MA01","hd":"63","v_score":"1.121327652","decile":"3","lat":40.14212514047787,"lng":-111.59817142785752,"phone":"(729) 248-5080","sd":"26","ssbd":"13","lsbd":"School Board Nebo 2"},{"vid":"2458047","name":"Marisol Tromp","party":"","address":"1940 N 700 W, Mapleton, UT 84664","precinct":"25MA01","hd":"63","v_score":"5.191257514","decile":"7","lat":40.147803117602294,"lng":-111.58695356725958,"phone":"(437) 663-6952","sd":"26","ssbd":"13","lsbd":"School Board Nebo 2"},{"vid":"2464330","name":"Dr. Jarrett Jacobson V","party":"Dem","address":"1357 W 1800 N, Mapleton, UT 84664","precinct":"25MA01","hd":"63","v_score":"0","decile":"1","lat":40.14647535714937,"lng":-111.5953626628576,"phone":"(250) 923-1627","sd":"26","ssbd":"13","lsbd":"School Board Nebo 2"},{"vid":"2477633","name":"Dr. Bryanna Ryan PhD","party":"Rep","address":"243 W 2000 N, Mapleton, UT 84664","precinct":"25MA01","hd":"63","v_score":"0","decile":"1","lat":40.14843090633788,"lng":-111.58162199306521,"phone":"(884) 543-7261","sd":"26","ssbd":"13","lsbd":"School Board Nebo 2"},{"vid":"2488060","name":"Denzel Runolfsson","party":"Dem","address":"1355 N 900 W, Mapleton, UT 84664","precinct":"25MA01","hd":"63","v_score":"0","decile":"1","lat":40.142782331983454,"lng":-111.58984305568347,"phone":"(805) 602-4359","sd":"26","ssbd":"13","lsbd":"School Board Nebo 2"},{"vid":"2497871","name":"Bernard Hagenes","party":"","address":"1306 W 1200 N, Mapleton, UT 84664","precinct":"25MA01","hd":"63","v_score":"0","decile":"1","lat":40.14154304966237,"lng":-111.59442492692362,"phone":"(170) 651-5892","sd":"26","ssbd":"13","lsbd":"School Board Nebo 2"},{"vid":"2497952","name":"Mikhail Kshlerin","party":"Dem","address":"1864 N 1350 W, Mapleton, UT 84664","precinct":"25MA01","hd":"63","v_score":"2.817000428","decile":"6","lat":40.147245127468075,"lng":-111.59484249411095,"phone":"(983) 115-2573","sd":"26","ssbd":"13","lsbd":"School Board Nebo 2"},{"vid":"2499812","name":"Mr. Colter Prohaska III","party":"Rep","address":"1412 W 1800 N, Mapleton, UT 84664","precinct":"25MA01","hd":"63","v_score":"0","decile":"1","lat":40.14696491459654,"lng":-111.59589644036208,"phone":"(168) 232-9506","sd":"26","ssbd":"13","lsbd":"School Board Nebo 2"},{"vid":"2504912","name":"Andon Johnston-Hoppe","party":"Dem","address":"450 W 2000 N, Mapleton, UT 84664","precinct":"25MA01","hd":"63","v_score":"0","decile":"1","lat":40.14884698264879,"lng":-111.58455546591993,"phone":"(807) 483-4836","sd":"26","ssbd":"13","lsbd":"School Board Nebo 2"},{"vid":"2505118","name":"Tracee Kub","party":"Rep","address":"1050 W 2000 N, Mapleton, UT 84664","precinct":"25MA01","hd":"63","v_score":"1.193887297","decile":"3","lat":40.14869185627243,"lng":-111.59162294327179,"phone":"(659) 476-0244","sd":"26","ssbd":"13","lsbd":"School Board Nebo 2"},{"vid":"2507030","name":"Citlalli Wilkinson","party":"","address":"1225 N 800 W, Mapleton, UT 84664","precinct":"25MA01","hd":"63","v_score":"1.193887297","decile":"3","lat":40.14139488241328,"lng":-111.58846011756455,"phone":"(544) 948-6285","sd":"26","ssbd":"13","lsbd":"School Board Nebo 2"},{"vid":"2511933","name":"Vicy West","party":"Rep","address":"865 W 1800 N, Mapleton, UT 84664","precinct":"25MA01","hd":"63","v_score":"1.193887297","decile":"4","lat":40.14649634703084,"lng":-111.58910661447793,"phone":"(378) 137-5266","sd":"26","ssbd":"13","lsbd":"School Board Nebo 2"},{"vid":"2512565","name":"Dr. Alphonse Ondricka","party":"Rep","address":"873 W Merrill Cir, Mapleton, UT 84664","precinct":"25MA01","hd":"63","v_score":"3.711952487","decile":"6","lat":40.147480708405965,"lng":-111.58936508505928,"phone":"(900) 344-3082","sd":"26","ssbd":"13","lsbd":"School Board Nebo 2"},{"vid":"2520654","name":"Valentine Mitchell","party":"","address":"876 W 1300 N, Mapleton, UT 84664","precinct":"25MA01","hd":"63","v_score":"18.88777439","decile":"10","lat":40.1423496714456,"lng":-111.58925690036807,"phone":"(346) 055-9832","sd":"26","ssbd":"13","lsbd":"School Board Nebo 2"},{"vid":"2520883","name":"Dr. Ham Lowe V","party":"Dem","address":"1864 N 1350 W, Mapleton, UT 84664","precinct":"25MA01","hd":"63","v_score":"2.817000428","decile":"6","lat":40.147245127468075,"lng":-111.59484249411095,"phone":"(140) 823-5271","sd":"26","ssbd":"13","lsbd":"School Board Nebo 2"},{"vid":"2521281","name":"Lorie Renner-Dach","party":"","address":"1542 W 1800 N, Mapleton, UT 84664","precinct":"25MA01","hd":"63","v_score":"12.92370926","decile":"9","lat":40.14695672006063,"lng":-111.5974268065072,"phone":"(486) 663-5740","sd":"26","ssbd":"13","lsbd":"School Board Nebo 2"},{"vid":"2524685","name":"Deandra Wisoky","party":"Dem","address":"1864 N 1350 W, Mapleton, UT 84664","precinct":"25MA01","hd":"63","v_score":"0","decile":"1","lat":40.147245127468075,"lng":-111.59484249411095,"phone":"(993) 799-3417","sd":"26","ssbd":"13","lsbd":"School Board Nebo 2"},{"vid":"2527035","name":"Rahul Boyle","party":"Rep","address":"435 W 2000 N, Mapleton, UT 84664","precinct":"25MA01","hd":"63","v_score":"1.193887297","decile":"4","lat":40.14784739497584,"lng":-111.58412167983836,"phone":"(654) 437-4155","sd":"26","ssbd":"13","lsbd":"School Board Nebo 2"},{"vid":"2531679","name":"Baron Langosh","party":"Rep","address":"1760 N 1250 W, Mapleton, UT 84664","precinct":"25MA01","hd":"63","v_score":"0","decile":"1","lat":40.146196147767064,"lng":-111.5936831669649,"phone":"(122) 130-5978","sd":"26","ssbd":"13","lsbd":"School Board Nebo 2"},{"vid":"2531962","name":"Dr. Lyric Bauch","party":"Rep","address":"1542 W 1800 N, Mapleton, UT 84664","precinct":"25MA01","hd":"63","v_score":"9.907118004","decile":"8","lat":40.14695672006063,"lng":-111.5974268065072,"phone":"(154) 584-8458","sd":"26","ssbd":"13","lsbd":"School Board Nebo 2"},{"vid":"2535801","name":"Mr. Wilburn Eichmann III","party":"Rep","address":"1869 N 600 W, Mapleton, UT 84664","precinct":"25MA01","hd":"63","v_score":"0","decile":"1","lat":40.14754916499056,"lng":-111.58631516144679,"phone":"(275) 046-8073","sd":"26","ssbd":"13","lsbd":"School Board Nebo 2"},{"vid":"2538498","name":"Leonidas Marquardt-Fay","party":"Dem","address":"1443 W 1400 N, Mapleton, UT 84664","precinct":"25MA01","hd":"63","v_score":"1.193887297","decile":"4","lat":40.14280394488887,"lng":-111.59603024154906,"phone":"(259) 828-6991","sd":"26","ssbd":"13","lsbd":"School Board Nebo 2"},{"vid":"2545099","name":"Elena Lind-Stokes","party":"Rep","address":"1744 N 800 W, Mapleton, UT 84664","precinct":"25MA01","hd":"63","v_score":"0","decile":"1","lat":40.14622777764932,"lng":-111.58795856739512,"phone":"(861) 307-1140","sd":"26","ssbd":"13","lsbd":"School Board Nebo 2"},{"vid":"2551924","name":"Reilly Pagac","party":"Rep","address":"1662 W 1200 N, Mapleton, UT 84664","precinct":"25MA01","hd":"63","v_score":"1.193887297","decile":"4","lat":40.14158126518703,"lng":-111.59870237342713,"phone":"(881) 949-8799","sd":"26","ssbd":"13","lsbd":"School Board Nebo 2"},{"vid":"2555599","name":"Mettie Dooley","party":"","address":"652 W 1600 N, Mapleton, UT 84664","precinct":"25MA01","hd":"63","v_score":"1.623113131","decile":"5","lat":40.145096960021775,"lng":-111.5864578136444,"phone":"(873) 838-7419","sd":"26","ssbd":"13","lsbd":"School Board Nebo 2"},{"vid":"2561675","name":"Mammie Gorczany","party":"Dem","address":"1733 N 1250 W, Mapleton, UT 84664","precinct":"25MA01","hd":"63","v_score":"0","decile":"1","lat":40.14589685014517,"lng":-111.59415214710751,"phone":"(880) 501-6930","sd":"26","ssbd":"13","lsbd":"School Board Nebo 2"},{"vid":"2568202","name":"Terrence Kuphal IV","party":"Rep","address":"1035 W 1600 N, Mapleton, UT 84664","precinct":"25MA01","hd":"63","v_score":"0","decile":"1","lat":40.144706044231114,"lng":-111.5912409487048,"phone":"(868) 257-2918","sd":"26","ssbd":"13","lsbd":"School Board Nebo 2"},{"vid":"2568737","name":"Mai Streich","party":"Dem","address":"1010 W 2000 N, Mapleton, UT 84664","precinct":"25MA01","hd":"63","v_score":"0","decile":"1","lat":40.148730144572404,"lng":-111.5902054472082,"phone":"(435) 113-5868","sd":"26","ssbd":"13","lsbd":"School Board Nebo 2"},{"vid":"2577720","name":"Hallie Baumbach-Moen","party":"","address":"1631 N 1000 W, Mapleton, UT 84664","precinct":"25MA01","hd":"63","v_score":"0","decile":"1","lat":40.14540658029182,"lng":-111.59147736792627,"phone":"(179) 278-8807","sd":"26","ssbd":"13","lsbd":"School Board Nebo 2"},{"vid":"2586045","name":"Myranda Bogan","party":"Rep","address":"1920 N 1250 W, Mapleton, UT 84664","precinct":"25MA01","hd":"63","v_score":"0","decile":"1","lat":40.147757132677484,"lng":-111.59363134825468,"phone":"(961) 371-1682","sd":"26","ssbd":"13","lsbd":"School Board Nebo 2"},{"vid":"2590328","name":"Marilyn Heathcote-Howell","party":"","address":"1032 W 1900 N, Mapleton, UT 84664","precinct":"25MA01","hd":"63","v_score":"13.61907049","decile":"9","lat":40.14780716805193,"lng":-111.59170139087834,"phone":"(346) 403-8727","sd":"26","ssbd":"13","lsbd":"School Board Nebo 2"},{"vid":"2604516","name":"Alida Collier PhD","party":"","address":"1675 N 1000 W, Mapleton, UT 84664","precinct":"25MA01","hd":"63","v_score":"1.193887297","decile":"4","lat":40.14577458586166,"lng":-111.59128819589726,"phone":"(655) 817-9244","sd":"26","ssbd":"13","lsbd":"School Board Nebo 2"},{"vid":"2611941","name":"Dr. Burnice Green DDS","party":"","address":"1618 N 500 W, Mapleton, UT 84664","precinct":"25MA01","hd":"63","v_score":"2.817000428","decile":"6","lat":40.14511472112568,"lng":-111.58447799334087,"phone":"(462) 187-0717","sd":"26","ssbd":"13","lsbd":"School Board Nebo 2"},{"vid":"2625789","name":"Mrs. Lura Hickle","party":"","address":"1425 N 1200 W, Mapleton, UT 84664","precinct":"25MA01","hd":"63","v_score":"1.623113131","decile":"5","lat":40.14317959578491,"lng":-111.59376034823462,"phone":"(990) 520-5910","sd":"26","ssbd":"13","lsbd":"School Board Nebo 2"},{"vid":"2626776","name":"Dr. Glenda Adams","party":"","address":"1749 N 800 W, Mapleton, UT 84664","precinct":"25MA01","hd":"63","v_score":"0","decile":"1","lat":40.14623655823449,"lng":-111.58867016997345,"phone":"(931) 510-2408","sd":"26","ssbd":"13","lsbd":"School Board Nebo 2"},{"vid":"2626940","name":"Dr. Frederick Kling DVM","party":"","address":"1355 N 900 W, Mapleton, UT 84664","precinct":"25MA01","hd":"63","v_score":"0","decile":"1","lat":40.142782331983454,"lng":-111.58984305568347,"phone":"(708) 305-4742","sd":"26","ssbd":"13","lsbd":"School Board Nebo 2"},{"vid":"2629201","name":"Karly Blick","party":"Rep","address":"1967 N 700 W, Mapleton, UT 84664","precinct":"25MA01","hd":"63","v_score":"0","decile":"1","lat":40.14833170558307,"lng":-111.58754231869779,"phone":"(458) 468-3702","sd":"26","ssbd":"13","lsbd":"School Board Nebo 2"},{"vid":"2629532","name":"Lelia Berge","party":"Rep","address":"1478 N 1000 W, Mapleton, UT 84664","precinct":"25MA01","hd":"63","v_score":"0","decile":"1","lat":40.143711014358615,"lng":-111.59066141153488,"phone":"(455) 198-5038","sd":"26","ssbd":"13","lsbd":"School Board Nebo 2"},{"vid":"2631438","name":"Sarrah Klein","party":"Rep","address":"1749 N 800 W, Mapleton, UT 84664","precinct":"25MA01","hd":"63","v_score":"1.193887297","decile":"4","lat":40.14623655823449,"lng":-111.58867016997345,"phone":"(746) 746-4188","sd":"26","ssbd":"13","lsbd":"School Board Nebo 2"},{"vid":"2634694","name":"Breanna Beatty","party":"Dem","address":"1410 W 1200 N, Mapleton, UT 84664","precinct":"25MA01","hd":"63","v_score":"1.193887297","decile":"4","lat":40.141520134126615,"lng":-111.59582447057548,"phone":"(778) 099-4177","sd":"26","ssbd":"13","lsbd":"School Board Nebo 2"},{"vid":"2636987","name":"Hadassah Kautzer-Raynor","party":"Rep","address":"1067 W 1600 N, Mapleton, UT 84664","precinct":"25MA01","hd":"63","v_score":"2.817000428","decile":"6","lat":40.14458509257998,"lng":-111.59178191192925,"phone":"(177) 937-5938","sd":"26","ssbd":"13","lsbd":"School Board Nebo 2"},{"vid":"2637108","name":"Scot Considine","party":"","address":"1538 N 900 W, Mapleton, UT 84664","precinct":"25MA01","hd":"63","v_score":"1.193887297","decile":"4","lat":40.14428080369711,"lng":-111.58916998774663,"phone":"(648) 733-1860","sd":"26","ssbd":"13","lsbd":"School Board Nebo 2"},{"vid":"2637158","name":"Simeon Brekke","party":"Rep","address":"873 W Merrill Cir, Mapleton, UT 84664","precinct":"25MA01","hd":"63","v_score":"7.031075439","decile":"8","lat":40.147480708405965,"lng":-111.58936508505928,"phone":"(792) 626-6678","sd":"26","ssbd":"13","lsbd":"School Board Nebo 2"},{"vid":"2667957","name":"Brynn Eichmann","party":"","address":"876 W 1300 N, Mapleton, UT 84664","precinct":"25MA01","hd":"63","v_score":"8.284004873","decile":"8","lat":40.1423496714456,"lng":-111.58925690036807,"phone":"(772) 010-3132","sd":"26","ssbd":"13","lsbd":"School Board Nebo 2"},{"vid":"2672224","name":"Luanne Wunsch MD","party":"Rep","address":"1511 W Apple Orchard Ln, Mapleton, UT 84664","precinct":"25MA01","hd":"63","v_score":"0","decile":"2","lat":40.14737601510952,"lng":-111.5963825489611,"phone":"(943) 313-2280","sd":"26","ssbd":"13","lsbd":"School Board Nebo 2"},{"vid":"2677885","name":"Erykah King","party":"Rep","address":"1130 W 1200 N, Mapleton, UT 84664","precinct":"25MA01","hd":"63","v_score":"1.193887297","decile":"4","lat":40.14161314554255,"lng":-111.59249182029244,"phone":"(861) 564-0710","sd":"26","ssbd":"13","lsbd":"School Board Nebo 2"},{"vid":"2677927","name":"True Bartoletti DVM","party":"Dem","address":"1889 N 1100 W, Mapleton, UT 84664","precinct":"25MA01","hd":"63","v_score":"1.193887297","decile":"4","lat":40.14756020288078,"lng":-111.59285006297954,"phone":"(579) 760-2674","sd":"26","ssbd":"13","lsbd":"School Board Nebo 2"},{"vid":"2687769","name":"Donita Streich-Mraz","party":"Dem","address":"1761 N 1250 W, Mapleton, UT 84664","precinct":"25MA01","hd":"63","v_score":"7.090117576","decile":"8","lat":40.14619517142654,"lng":-111.59425386857463,"phone":"(153) 554-5537","sd":"26","ssbd":"13","lsbd":"School Board Nebo 2"},{"vid":"2700008","name":"Miss Ciarra Kilback MD","party":"","address":"1869 N 1350 W, Mapleton, UT 84664","precinct":"25MA01","hd":"63","v_score":"1.193887297","decile":"4","lat":40.14724643643128,"lng":-111.5954568101621,"phone":"(193) 452-6777","sd":"26","ssbd":"13","lsbd":"School Board Nebo 2"},{"vid":"2705864","name":"Dr. Rhoda Williamson","party":"Dem","address":"873 W Merrill Cir, Mapleton, UT 84664","precinct":"25MA01","hd":"63","v_score":"4.214075011","decile":"7","lat":40.147480708405965,"lng":-111.58936508505928,"phone":"(452) 324-2195","sd":"26","ssbd":"13","lsbd":"School Board Nebo 2"},{"vid":"2722226","name":"Luca Vandervort","party":"Dem","address":"1625 N 1650 W, Mapleton, UT 84664","precinct":"25MA01","hd":"63","v_score":"1.193887297","decile":"4","lat":40.144994028383195,"lng":-111.59912386342393,"phone":"(336) 022-1600","sd":"26","ssbd":"13","lsbd":"School Board Nebo 2"},{"vid":"2723777","name":"Yolonda Schamberger","party":"","address":"1460 N 1600 W, Mapleton, UT 84664","precinct":"25MA01","hd":"63","v_score":"0","decile":"2","lat":40.14370807677488,"lng":-111.59724060412576,"phone":"(719) 899-0689","sd":"26","ssbd":"13","lsbd":"School Board Nebo 2"},{"vid":"2732158","name":"Reta Grimes-Roob","party":"Dem","address":"1625 N 1650 W, Mapleton, UT 84664","precinct":"25MA01","hd":"63","v_score":"0","decile":"2","lat":40.144994028383195,"lng":-111.59912386342393,"phone":"(193) 750-9681","sd":"26","ssbd":"13","lsbd":"School Board Nebo 2"},{"vid":"2735217","name":"Nicholas Borer-Miller","party":"","address":"909 W 2000 N, Mapleton, UT 84664","precinct":"25MA01","hd":"63","v_score":"0","decile":"2","lat":40.148309137863,"lng":-111.59022672973458,"phone":"(674) 257-1879","sd":"26","ssbd":"13","lsbd":"School Board Nebo 2"},{"vid":"2736223","name":"Dr. Allen Franecki","party":"Dem","address":"1826 N 300 W, Mapleton, UT 84664","precinct":"25MA01","hd":"63","v_score":"0","decile":"2","lat":40.14730146731563,"lng":-111.58183959462153,"phone":"(258) 864-0489","sd":"26","ssbd":"13","lsbd":"School Board Nebo 2"},{"vid":"2741730","name":"Grayling Block","party":"Dem","address":"1826 N 300 W, Mapleton, UT 84664","precinct":"25MA01","hd":"63","v_score":"7.090117576","decile":"8","lat":40.14730146731563,"lng":-111.58183959462153,"phone":"(334) 435-0483","sd":"26","ssbd":"13","lsbd":"School Board Nebo 2"},{"vid":"2743618","name":"Alyvia Lang","party":"","address":"1675 N 1000 W, Mapleton, UT 84664","precinct":"25MA01","hd":"63","v_score":"0","decile":"2","lat":40.14577458586166,"lng":-111.59128819589726,"phone":"(261) 232-4528","sd":"26","ssbd":"13","lsbd":"School Board Nebo 2"},{"vid":"2745066","name":"Sheryl McDermott","party":"Rep","address":"1869 N 600 W, Mapleton, UT 84664","precinct":"25MA01","hd":"63","v_score":"0","decile":"2","lat":40.14754916499056,"lng":-111.58631516144679,"phone":"(220) 900-3640","sd":"26","ssbd":"13","lsbd":"School Board Nebo 2"},{"vid":"2747431","name":"Ken Connelly","party":"","address":"1762 N 700 W, Mapleton, UT 84664","precinct":"25MA01","hd":"63","v_score":"0","decile":"2","lat":40.146346178981084,"lng":-111.58647231588667,"phone":"(792) 243-7739","sd":"26","ssbd":"13","lsbd":"School Board Nebo 2"},{"vid":"2748677","name":"Erin Gislason","party":"Dem","address":"1357 W 1800 N, Mapleton, UT 84664","precinct":"25MA01","hd":"63","v_score":"8.284004873","decile":"8","lat":40.14647535714937,"lng":-111.5953626628576,"phone":"(126) 288-8889","sd":"26","ssbd":"13","lsbd":"School Board Nebo 2"},{"vid":"2749897","name":"Wilmer Moen","party":"","address":"1495 W 1600 N, Mapleton, UT 84664","precinct":"25MA01","hd":"63","v_score":"1.193887297","decile":"4","lat":40.144512230307626,"lng":-111.59688939621569,"phone":"(534) 590-9052","sd":"26","ssbd":"13","lsbd":"School Board Nebo 2"},{"vid":"2750438","name":"Dr. Demario Oberbrunner Jr.","party":"Rep","address":"1563 W 2000 N, Mapleton, UT 84664","precinct":"25MA01","hd":"63","v_score":"1.193887297","decile":"4","lat":40.1482806151873,"lng":-111.5973504344857,"phone":"(505) 144-9672","sd":"26","ssbd":"13","lsbd":"School Board Nebo 2"},{"vid":"2752188","name":"Dr. Kiana Bruen","party":"","address":"1636 N 400 W, Mapleton, UT 84664","precinct":"25MA01","hd":"63","v_score":"0","decile":"2","lat":40.14511804045432,"lng":-111.58335369735322,"phone":"(720) 793-3409","sd":"26","ssbd":"13","lsbd":"School Board Nebo 2"},{"vid":"2752837","name":"Merrill Auer","party":"Rep","address":"1294 W 1400 N, Mapleton, UT 84664","precinct":"25MA01","hd":"63","v_score":"0","decile":"2","lat":40.14324795825442,"lng":-111.59443381904717,"phone":"(999) 759-6116","sd":"26","ssbd":"13","lsbd":"School Board Nebo 2"},{"vid":"2753680","name":"Darcie Douglas","party":"Rep","address":"949 W 1800 N, Mapleton, UT 84664","precinct":"25MA01","hd":"63","v_score":"0","decile":"2","lat":40.14644496915802,"lng":-111.59029171976118,"phone":"(159) 053-5060","sd":"26","ssbd":"13","lsbd":"School Board Nebo 2"},{"vid":"2771801","name":"Vernie Tremblay-Homenick","party":"","address":"1067 W 1600 N, Mapleton, UT 84664","precinct":"25MA01","hd":"63","v_score":"0","decile":"2","lat":40.14458509257998,"lng":-111.59178191192925,"phone":"(174) 306-3048","sd":"26","ssbd":"13","lsbd":"School Board Nebo 2"},{"vid":"2774967","name":"Cathrine Maggio PhD","party":"Dem","address":"1864 N 1350 W, Mapleton, UT 84664","precinct":"25MA01","hd":"63","v_score":"0","decile":"2","lat":40.147245127468075,"lng":-111.59484249411095,"phone":"(338) 669-6384","sd":"26","ssbd":"13","lsbd":"School Board Nebo 2"},{"vid":"2782574","name":"Hayley Hand-Muller","party":"","address":"1542 W 1800 N, Mapleton, UT 84664","precinct":"25MA01","hd":"63","v_score":"7.090117576","decile":"8","lat":40.14695672006063,"lng":-111.5974268065072,"phone":"(751) 163-7726","sd":"26","ssbd":"13","lsbd":"School Board Nebo 2"},{"vid":"2794747","name":"Lavern Hoppe","party":"","address":"1336 N 1000 W, Mapleton, UT 84664","precinct":"25MA01","hd":"63","v_score":"4.069929862","decile":"7","lat":40.14247444961576,"lng":-111.59039512687968,"phone":"(599) 960-8078","sd":"26","ssbd":"13","lsbd":"School Board Nebo 2"},{"vid":"2798916","name":"Aurilla Breitenberg","party":"","address":"1605 W 1600 N, Mapleton, UT 84664","precinct":"25MA01","hd":"63","v_score":"1.193887297","decile":"4","lat":40.14464420484344,"lng":-111.59818323876524,"phone":"(659) 926-4291","sd":"26","ssbd":"13","lsbd":"School Board Nebo 2"},{"vid":"2812370","name":"Dr. Kristyn Heathcote","party":"Rep","address":"928 W 1900 N, Mapleton, UT 84664","precinct":"25MA01","hd":"63","v_score":"8.284004873","decile":"8","lat":40.14770179668059,"lng":-111.5902497442845,"phone":"(227) 067-3810","sd":"26","ssbd":"13","lsbd":"School Board Nebo 2"},{"vid":"2813244","name":"Crawford Quitzon-Padberg","party":"Dem","address":"1018 W 1700 N, Mapleton, UT 84664","precinct":"25MA01","hd":"63","v_score":"5.407962308","decile":"7","lat":40.146076428386344,"lng":-111.5912994187452,"phone":"(568) 072-8576","sd":"26","ssbd":"13","lsbd":"School Board Nebo 2"},{"vid":"2816391","name":"Marlee Champlin","party":"Rep","address":"1619 W 1320 N, Mapleton, UT 84664","precinct":"25MA01","hd":"63","v_score":"1.193887297","decile":"4","lat":40.14212514047787,"lng":-111.59817142785752,"phone":"(549) 046-4512","sd":"26","ssbd":"13","lsbd":"School Board Nebo 2"},{"vid":"2830736","name":"Mrs. Nyla Kunze","party":"","address":"865 W 1800 N, Mapleton, UT 84664","precinct":"25MA01","hd":"63","v_score":"1.193887297","decile":"4","lat":40.14649634703084,"lng":-111.58910661447793,"phone":"(410) 038-0591","sd":"26","ssbd":"13","lsbd":"School Board Nebo 2"},{"vid":"2830926","name":"Sandy Wilkinson","party":"Rep","address":"1478 N 1000 W, Mapleton, UT 84664","precinct":"25MA01","hd":"63","v_score":"1.193887297","decile":"4","lat":40.143711014358615,"lng":-111.59066141153488,"phone":"(560) 682-8058","sd":"26","ssbd":"13","lsbd":"School Board Nebo 2"},{"vid":"2835363","name":"Dr. Effie O'Kon","party":"Rep","address":"1089 W 1800 N, Mapleton, UT 84664","precinct":"25MA01","hd":"63","v_score":"1.193887297","decile":"4","lat":40.14651990793778,"lng":-111.59234448681664,"phone":"(769) 348-2928","sd":"26","ssbd":"13","lsbd":"School Board Nebo 2"},{"vid":"2855686","name":"Mr. Iva Wintheiser","party":"","address":"1625 N 1650 W, Mapleton, UT 84664","precinct":"25MA01","hd":"63","v_score":"1.193887297","decile":"4","lat":40.144994028383195,"lng":-111.59912386342393,"phone":"(803) 928-0554","sd":"26","ssbd":"13","lsbd":"School Board Nebo 2"},{"vid":"2862904","name":"Trinity Hayes","party":"Dem","address":"1310 W 1600 N, Mapleton, UT 84664","precinct":"25MA01","hd":"63","v_score":"2.876042565","decile":"6","lat":40.14513994350988,"lng":-111.59454816544999,"phone":"(537) 369-2705","sd":"26","ssbd":"13","lsbd":"School Board Nebo 2"},{"vid":"2886616","name":"Azariah Bogan-Boyle","party":"","address":"909 W 2000 N, Mapleton, UT 84664","precinct":"25MA01","hd":"63","v_score":"1.193887297","decile":"4","lat":40.148309137863,"lng":-111.59022672973458,"phone":"(701) 339-5689","sd":"26","ssbd":"13","lsbd":"School Board Nebo 2"},{"vid":"2887254","name":"Dr. Gertha Frami","party":"Rep","address":"1691 N 1600 W, Mapleton, UT 84664","precinct":"25MA01","hd":"63","v_score":"1.193887297","decile":"4","lat":40.14570528027204,"lng":-111.5982814417496,"phone":"(538) 691-0909","sd":"26","ssbd":"13","lsbd":"School Board Nebo 2"},{"vid":"2887262","name":"Len Cruickshank-Hudson","party":"Rep","address":"1691 N 1600 W, Mapleton, UT 84664","precinct":"25MA01","hd":"63","v_score":"1.193887297","decile":"4","lat":40.14570528027204,"lng":-111.5982814417496,"phone":"(574) 954-6001","sd":"26","ssbd":"13","lsbd":"School Board Nebo 2"},{"vid":"2888443","name":"Jedediah Berge","party":"","address":"1700 N 1650 W, Mapleton, UT 84664","precinct":"25MA01","hd":"63","v_score":"1.193887297","decile":"4","lat":40.145692656659826,"lng":-111.59885760494197,"phone":"(614) 537-0097","sd":"26","ssbd":"13","lsbd":"School Board Nebo 2"},{"vid":"2888887","name":"Kerrie Kshlerin","party":"Dem","address":"1825 N Main St, Mapleton, UT 84664","precinct":"25MA01","hd":"63","v_score":"8.284004873","decile":"8","lat":40.14698166579011,"lng":-111.5791367275747,"phone":"(118) 305-3415","sd":"26","ssbd":"13","lsbd":"School Board Nebo 2"},{"vid":"2890824","name":"Lenna Stokes","party":"Rep","address":"1605 W 1600 N, Mapleton, UT 84664","precinct":"25MA01","hd":"63","v_score":"0","decile":"2","lat":40.14464420484344,"lng":-111.59818323876524,"phone":"(541) 118-8556","sd":"26","ssbd":"13","lsbd":"School Board Nebo 2"},{"vid":"2907553","name":"Izabella Medhurst","party":"","address":"1760 N 1250 W, Mapleton, UT 84664","precinct":"25MA01","hd":"63","v_score":"0","decile":"2","lat":40.146196147767064,"lng":-111.5936831669649,"phone":"(498) 318-9264","sd":"26","ssbd":"13","lsbd":"School Board Nebo 2"},{"vid":"2907624","name":"Madisen Pacocha","party":"Rep","address":"1067 W 1600 N, Mapleton, UT 84664","precinct":"25MA01","hd":"63","v_score":"0","decile":"2","lat":40.14458509257998,"lng":-111.59178191192925,"phone":"(670) 079-4299","sd":"26","ssbd":"13","lsbd":"School Board Nebo 2"},{"vid":"2916272","name":"Ms. Angel McLaughlin","party":"Dem","address":"766 W 1800 N, Mapleton, UT 84664","precinct":"25MA01","hd":"63","v_score":"4.214075011","decile":"7","lat":40.14688443117756,"lng":-111.58815519144693,"phone":"(521) 923-9152","sd":"26","ssbd":"13","lsbd":"School Board Nebo 2"},{"vid":"2917038","name":"Gavyn Ruecker","party":"","address":"120 W 1600 N, Mapleton, UT 84664","precinct":"25MA01","hd":"63","v_score":"0","decile":"2","lat":40.1450822778721,"lng":-111.58014837425519,"phone":"(346) 916-0169","sd":"26","ssbd":"13","lsbd":"School Board Nebo 2"},{"vid":"2944916","name":"Margaretta McGlynn","party":"Rep","address":"1310 W 1600 N, Mapleton, UT 84664","precinct":"25MA01","hd":"63","v_score":"2.876042565","decile":"6","lat":40.14513994350988,"lng":-111.59454816544999,"phone":"(978) 154-7088","sd":"26","ssbd":"13","lsbd":"School Board Nebo 2"},{"vid":"2959875","name":"Dr. Chessie Zboncak DVM","party":"","address":"300 W 2000 N, Mapleton, UT 84664","precinct":"25MA01","hd":"63","v_score":"0","decile":"2","lat":40.14889600872574,"lng":-111.58240283216617,"phone":"(397) 053-8213","sd":"26","ssbd":"13","lsbd":"School Board Nebo 2"},{"vid":"2960392","name":"Ms. Aline Becker","party":"Dem","address":"1076 W 1800 N, Mapleton, UT 84664","precinct":"25MA01","hd":"63","v_score":"2.876042565","decile":"6","lat":40.14690588693281,"lng":-111.59241767721008,"phone":"(805) 908-5366","sd":"26","ssbd":"13","lsbd":"School Board Nebo 2"},{"vid":"2964763","name":"Micayla Emmerich","party":"Rep","address":"1762 N 700 W, Mapleton, UT 84664","precinct":"25MA01","hd":"63","v_score":"0","decile":"2","lat":40.146346178981084,"lng":-111.58647231588667,"phone":"(266) 324-3406","sd":"26","ssbd":"13","lsbd":"School Board Nebo 2"},{"vid":"2971321","name":"Teresa Pagac DVM","party":"","address":"1824 N 600 W, Mapleton, UT 84664","precinct":"25MA01","hd":"63","v_score":"0","decile":"2","lat":40.14689058497287,"lng":-111.58560508606611,"phone":"(234) 057-0315","sd":"26","ssbd":"13","lsbd":"School Board Nebo 2"},{"vid":"2981010","name":"Wallace Corkery","party":"Rep","address":"885 W 1800 N, Mapleton, UT 84664","precinct":"25MA01","hd":"63","v_score":"0","decile":"2","lat":40.146499311159715,"lng":-111.58946428319989,"phone":"(177) 571-5746","sd":"26","ssbd":"13","lsbd":"School Board Nebo 2"},{"vid":"2984116","name":"Dr. Evette Goodwin","party":"","address":"1619 W 1320 N, Mapleton, UT 84664","precinct":"25MA01","hd":"63","v_score":"0","decile":"2","lat":40.14212514047787,"lng":-111.59817142785752,"phone":"(526) 737-5568","sd":"26","ssbd":"13","lsbd":"School Board Nebo 2"},{"vid":"e514c5c09a028976a6f07a7e53f05dabb67afdafc1e0918c3e801539b0a78437","name":"Rayford Wisozk","party":"Dem","address":"1267 W 1400 N, Mapleton, UT 84664","precinct":"25MA01","hd":"63","v_score":"14.18213378","decile":"9","lat":40.14284094936477,"lng":-111.59408981900839,"phone":"(521) 262-7736","sd":"26","ssbd":"13","lsbd":"School Board Nebo 2"},{"vid":"22a7fe86b0fd64622abded1b6cf2fa6d5aa7f3bad064d5a4cdac180d467e4d83","name":"Evangeline Waters","party":"Dem","address":"1675 N 1000 W, Mapleton, UT 84664","precinct":"25MA01","hd":"63","v_score":"2.587603312","decile":"5","lat":40.14577458586166,"lng":-111.59128819589726,"phone":"(954) 740-8048","sd":"26","ssbd":"13","lsbd":"School Board Nebo 2"},{"vid":"3156013","name":"Michael Lynch","party":"Rep","address":"730 W 1400 N, Mapleton, UT 84664","precinct":"25MA01","hd":"63","v_score":"1.193887297","decile":"4","lat":40.14313337951721,"lng":-111.58732040344188,"phone":"(449) 659-2076","sd":"26","ssbd":"13","lsbd":"School Board Nebo 2"},{"vid":"3335671","name":"Callie Torp","party":"","address":"1512 W 1800 N, Mapleton, UT 84664","precinct":"25MA01","hd":"63","v_score":"26.81820485","decile":"10","lat":40.14695880450434,"lng":-111.5970400798011,"phone":"(395) 893-7954","sd":"26","ssbd":"13","lsbd":"School Board Nebo 2"},{"vid":"3423297","name":"Ardith Frami","party":"Rep","address":"1525 W 1600 N, Mapleton, UT 84664","precinct":"25MA01","hd":"63","v_score":"1.193887297","decile":"4","lat":40.144566285766004,"lng":-111.59722991555985,"phone":"(496) 454-6891","sd":"26","ssbd":"13","lsbd":"School Board Nebo 2"},{"vid":"3480937","name":"Annabella Luettgen","party":"","address":"1605 W 1600 N, Mapleton, UT 84664","precinct":"25MA01","hd":"63","v_score":"3.781490609","decile":"6","lat":40.14464420484344,"lng":-111.59818323876524,"phone":"(455) 819-3103","sd":"26","ssbd":"13","lsbd":"School Board Nebo 2"},{"vid":"3564725","name":"Fulton Pouros","party":"Dem","address":"1618 N 500 W, Mapleton, UT 84664","precinct":"25MA01","hd":"63","v_score":"2.817000428","decile":"6","lat":40.14511472112568,"lng":-111.58447799334087,"phone":"(195) 633-4208","sd":"26","ssbd":"13","lsbd":"School Board Nebo 2"},{"vid":"25b76259ab022de2f4be57aad48428f60112f80be109b52125a21d2e081d0c31","name":"Louie Volkman","party":"","address":"64 W 2000 N, Mapleton, UT 84664","precinct":"25MA01","hd":"63","v_score":"2.315214949","decile":"5","lat":40.147677042679376,"lng":-111.57948959843752,"phone":"(136) 872-6376","sd":"26","ssbd":"13","lsbd":"School Board Nebo 2"},{"vid":"4615630","name":"Teena Cronin MD","party":"","address":"1630 N 1650 W, Mapleton, UT 84664","precinct":"25MA01","hd":"63","v_score":"12.71559837","decile":"9","lat":40.144956481485345,"lng":-111.59876925413198,"phone":"(846) 758-0646","sd":"26","ssbd":"13","lsbd":"School Board Nebo 2"},{"vid":"5216264","name":"Mr. Henry Walker III","party":"","address":"1443 W 1400 N, Mapleton, UT 84664","precinct":"25MA01","hd":"63","v_score":"16.73008255","decile":"9","lat":40.14280394488887,"lng":-111.59603024154906,"phone":"(805) 977-3430","sd":"26","ssbd":"13","lsbd":"School Board Nebo 2"},{"vid":"5522897","name":"Dr. Garret Stokes II","party":"","address":"1357 W 1800 N, Mapleton, UT 84664","precinct":"25MA01","hd":"63","v_score":"14.74039814","decile":"9","lat":40.14647535714937,"lng":-111.5953626628576,"phone":"(228) 201-2382","sd":"26","ssbd":"13","lsbd":"School Board Nebo 2"},{"vid":"b59ae6026fa8ae4f567c62fc3368b2b7caf4a05ab62a72af1b8d775ff2954723","name":"Cale Beatty","party":"","address":"873 W Merrill Cir, Mapleton, UT 84664","precinct":"25MA01","hd":"63","v_score":"26.40153388","decile":"10","lat":40.147480708405965,"lng":-111.58936508505928,"phone":"(525) 203-2940","sd":"26","ssbd":"13","lsbd":"School Board Nebo 2"},{"vid":"5541836","name":"Ciji Hoeger-Okuneva","party":"","address":"1357 W 1800 N, Mapleton, UT 84664","precinct":"25MA01","hd":"63","v_score":"11.02844566","decile":"9","lat":40.14647535714937,"lng":-111.5953626628576,"phone":"(147) 701-0595","sd":"26","ssbd":"13","lsbd":"School Board Nebo 2"},{"vid":"5861355","name":"Shara Hudson","party":"","address":"1035 W 1600 N, Mapleton, UT 84664","precinct":"25MA01","hd":"63","v_score":"10.15822798","decile":"9","lat":40.144706044231114,"lng":-111.5912409487048,"phone":"(262) 174-4657","sd":"26","ssbd":"13","lsbd":"School Board Nebo 2"},{"vid":"e8350a10588831eb11b2462d885a3620d86dec45b73ba7e9f97c039bc78eb9f8","name":"Geneva Casper","party":"Rep","address":"1460 N 1600 W, Mapleton, UT 84664","precinct":"25MA01","hd":"63","v_score":"19.99899426","decile":"10","lat":40.14370807677488,"lng":-111.59724060412576,"phone":"(372) 573-0718","sd":"26","ssbd":"13","lsbd":"School Board Nebo 2"},{"vid":"b0d3a9f801c6c98dcf366041350a0db64d6994ddb4b2f75764faea0ea4a9a897","name":"Mr. Ab Reinger I","party":"Rep","address":"1400 N 1800 W, Mapleton, UT 84664","precinct":"25MA01","hd":"63","v_score":"1.623113131","decile":"5","lat":40.14275916094903,"lng":-111.60052026750316,"phone":"(786) 321-2905","sd":"26","ssbd":"13","lsbd":"School Board Nebo 2"},{"vid":"060ba86a7409058bfeeea810818d154bc98cc2716cf4cd5a58b959e7377e148b","name":"Mrs. Georgiann Labadie DDS","party":"Rep","address":"1442 W 1800 N, Mapleton, UT 84664","precinct":"25MA01","hd":"63","v_score":"21.15644071","decile":"10","lat":40.146987685560795,"lng":-111.59630110301083,"phone":"(263) 772-4949","sd":"26","ssbd":"13","lsbd":"School Board Nebo 2"},{"vid":"6066769","name":"Peyton Hauck","party":"Rep","address":"1502 N 900 W, Mapleton, UT 84664","precinct":"25MA01","hd":"63","v_score":"14.74039814","decile":"9","lat":40.143975278513885,"lng":-111.58916764745562,"phone":"(949) 881-6087","sd":"26","ssbd":"13","lsbd":"School Board Nebo 2"},{"vid":"6181123","name":"Connor Lindgren","party":"Rep","address":"1443 W 1400 N, Mapleton, UT 84664","precinct":"25MA01","hd":"63","v_score":"12.51600754","decile":"9","lat":40.14280394488887,"lng":-111.59603024154906,"phone":"(387) 088-2826","sd":"26","ssbd":"13","lsbd":"School Board Nebo 2"},{"vid":"6187834","name":"Miss Alina Lowe","party":"","address":"1371 N 700 W, Mapleton, UT 84664","precinct":"25MA01","hd":"63","v_score":"0","decile":"3","lat":40.14284307806879,"lng":-111.5872863788065,"phone":"(590) 806-5544","sd":"26","ssbd":"13","lsbd":"School Board Nebo 2"},{"vid":"6203338","name":"Deshawn Stanton","party":"","address":"1265 N 700 W, Mapleton, UT 84664","precinct":"25MA01","hd":"63","v_score":"16.2066738","decile":"9","lat":40.14176582339979,"lng":-111.5873863452004,"phone":"(849) 817-0675","sd":"26","ssbd":"13","lsbd":"School Board Nebo 2"},{"vid":"6204335","name":"Rodrigo Ruecker","party":"","address":"1345 W 2000 N, Mapleton, UT 84664","precinct":"25MA01","hd":"63","v_score":"26.33466886","decile":"10","lat":40.14825178793777,"lng":-111.59487136362856,"phone":"(873) 226-1227","sd":"26","ssbd":"13","lsbd":"School Board Nebo 2"},{"vid":"6205990","name":"Baxter Johns MD","party":"Dem","address":"1301 N 700 W, Mapleton, UT 84664","precinct":"25MA01","hd":"63","v_score":"26.33466886","decile":"10","lat":40.142144273660016,"lng":-111.58748442344279,"phone":"(392) 701-7020","sd":"26","ssbd":"13","lsbd":"School Board Nebo 2"},{"vid":"6206756","name":"Butch Reichert-Hermann","party":"Dem","address":"1301 N 700 W, Mapleton, UT 84664","precinct":"25MA01","hd":"63","v_score":"26.33466886","decile":"10","lat":40.142144273660016,"lng":-111.58748442344279,"phone":"(860) 892-3623","sd":"26","ssbd":"13","lsbd":"School Board Nebo 2"},{"vid":"6208384","name":"Miss Natalia Kautzer MD","party":"Dem","address":"740 W 1200 N, Mapleton, UT 84664","precinct":"25MA01","hd":"63","v_score":"12.49472132","decile":"9","lat":40.14140657106171,"lng":-111.58734796799975,"phone":"(101) 167-3288","sd":"26","ssbd":"13","lsbd":"School Board Nebo 2"},{"vid":"6209540","name":"Mirna Wisoky","party":"Rep","address":"1629 W 1600 N, Mapleton, UT 84664","precinct":"25MA01","hd":"63","v_score":"5.40460374","decile":"7","lat":40.14454165445491,"lng":-111.59866218549627,"phone":"(905) 331-3132","sd":"26","ssbd":"13","lsbd":"School Board Nebo 2"},{"vid":"6209987","name":"Zillah Gaylord","party":"Dem","address":"1302 N 800 W, Mapleton, UT 84664","precinct":"25MA01","hd":"63","v_score":"26.33466886","decile":"10","lat":40.14214231226522,"lng":-111.58797373056785,"phone":"(215) 338-4784","sd":"26","ssbd":"13","lsbd":"School Board Nebo 2"},{"vid":"6210757","name":"Birdie Hintz","party":"","address":"1629 N 800 W, Mapleton, UT 84664","precinct":"25MA01","hd":"63","v_score":"29.27757645","decile":"10","lat":40.14502244461804,"lng":-111.58854412866276,"phone":"(233) 163-3025","sd":"26","ssbd":"13","lsbd":"School Board Nebo 2"},{"vid":"6213748","name":"Sylvanus Dickinson","party":"","address":"1330 W 1600 N, Mapleton, UT 84664","precinct":"25MA01","hd":"63","v_score":"27.07740306","decile":"10","lat":40.14577161776002,"lng":-111.59483202658193,"phone":"(365) 287-0808","sd":"26","ssbd":"13","lsbd":"School Board Nebo 2"},{"vid":"6213750","name":"Ms. Debi Murphy","party":"Rep","address":"1330 W 1600 N, Mapleton, UT 84664","precinct":"25MA01","hd":"63","v_score":"27.07740306","decile":"10","lat":40.14577161776002,"lng":-111.59483202658193,"phone":"(743) 205-9208","sd":"26","ssbd":"13","lsbd":"School Board Nebo 2"},{"vid":"6214384","name":"Marcello Cormier","party":"Dem","address":"1431 N 800 W, Mapleton, UT 84664","precinct":"25MA01","hd":"63","v_score":"14.76168437","decile":"9","lat":40.143368791557855,"lng":-111.58869540311078,"phone":"(329) 383-3824","sd":"26","ssbd":"13","lsbd":"School Board Nebo 2"},{"vid":"0bef6a00e92bae295fb8118bef857f11f56e20dde054e789e191baba3f917fda","name":"Timmy Powlowski","party":"Rep","address":"1541 N 900 W, Mapleton, UT 84664","precinct":"25MA01","hd":"63","v_score":"5.191257514","decile":"7","lat":40.144307299611434,"lng":-111.59002921481746,"phone":"(926) 743-6984","sd":"26","ssbd":"13","lsbd":"School Board Nebo 2"},{"vid":"6219701","name":"Estes West","party":"","address":"863 W 1700 N, Mapleton, UT 84664","precinct":"25MA01","hd":"63","v_score":"13.78246118","decile":"9","lat":40.14547176067036,"lng":-111.58915869505512,"phone":"(384) 937-4755","sd":"26","ssbd":"13","lsbd":"School Board Nebo 2"},{"vid":"6219879","name":"Malachi Medhurst","party":"","address":"863 W 1700 N, Mapleton, UT 84664","precinct":"25MA01","hd":"63","v_score":"25.25205946","decile":"10","lat":40.14547176067036,"lng":-111.58915869505512,"phone":"(814) 956-6239","sd":"26","ssbd":"13","lsbd":"School Board Nebo 2"},{"vid":"6220277","name":"Sharee Marquardt","party":"Dem","address":"1042 W 1800 N, Mapleton, UT 84664","precinct":"25MA01","hd":"63","v_score":"9.82542041","decile":"8","lat":40.14704835131527,"lng":-111.59183383380405,"phone":"(253) 669-8983","sd":"26","ssbd":"13","lsbd":"School Board Nebo 2"},{"vid":"6220546","name":"Chaka D'Amore","party":"Dem","address":"1402 W 1400 N, Mapleton, UT 84664","precinct":"25MA01","hd":"63","v_score":"23.3180776","decile":"10","lat":40.14332008538654,"lng":-111.59564609947569,"phone":"(252) 712-4183","sd":"26","ssbd":"13","lsbd":"School Board Nebo 2"},{"vid":"6220576","name":"Mr. Montel Wolff","party":"","address":"1873 N 700 W, Mapleton, UT 84664","precinct":"25MA01","hd":"63","v_score":"0","decile":"3","lat":40.14744493594194,"lng":-111.58756035800383,"phone":"(873) 857-7700","sd":"26","ssbd":"13","lsbd":"School Board Nebo 2"},{"vid":"6223531","name":"Dr. Donell Wisoky","party":"","address":"1741 N 500 W, Mapleton, UT 84664","precinct":"25MA01","hd":"63","v_score":"9.907118004","decile":"8","lat":40.14618431537207,"lng":-111.58495191617037,"phone":"(506) 357-1377","sd":"26","ssbd":"13","lsbd":"School Board Nebo 2"},{"vid":"31de1f7037e6d94144cb0903460a198d263349039b7ce9fc6c89003316efd91b","name":"Asberry Miller","party":"Rep","address":"1669 W 1320 N, Mapleton, UT 84664","precinct":"25MA01","hd":"63","v_score":"3.93832808","decile":"6","lat":40.14208562805451,"lng":-111.59903133633446,"phone":"(568) 969-8765","sd":"26","ssbd":"13","lsbd":"School Board Nebo 2"},{"vid":"25fe44bb7ec2d04220ab66922c269f6c198c609ef4c20ca57b127bcbd7d20a5c","name":"Mr. George Heller","party":"Rep","address":"1050 W 2000 N, Mapleton, UT 84664","precinct":"25MA01","hd":"63","v_score":"5.40460374","decile":"7","lat":40.14869185627243,"lng":-111.59162294327179,"phone":"(132) 596-9722","sd":"26","ssbd":"13","lsbd":"School Board Nebo 2"},{"vid":"28206c6f361bed757a335a1e2ded5e29fd29e7b67e83877487f603444adaaeb2","name":"Lorin Littel","party":"","address":"1642 N 1100 W, Mapleton, UT 84664","precinct":"25MA01","hd":"63","v_score":"8.363183621","decile":"8","lat":40.145418265211845,"lng":-111.59227052133278,"phone":"(502) 320-0334","sd":"26","ssbd":"13","lsbd":"School Board Nebo 2"},{"vid":"6234886","name":"Olena Davis","party":"Dem","address":"1016 W 1900 N, Mapleton, UT 84664","precinct":"25MA01","hd":"63","v_score":"6.881235673","decile":"8","lat":40.147889924641895,"lng":-111.5912204472312,"phone":"(165) 531-1188","sd":"26","ssbd":"13","lsbd":"School Board Nebo 2"},{"vid":"6236534","name":"Dr. Rashad Barrows DVM","party":"","address":"1840 N 700 W, Mapleton, UT 84664","precinct":"25MA01","hd":"63","v_score":"3.781490609","decile":"6","lat":40.14701007709126,"lng":-111.58703278157445,"phone":"(489) 957-8342","sd":"26","ssbd":"13","lsbd":"School Board Nebo 2"},{"vid":"6237529","name":"Dr. Jarrett Bogisich","party":"Dem","address":"28 W Carnesecca Ct, Mapleton, UT 84664","precinct":"25MA01","hd":"63","v_score":"0","decile":"3","lat":40.14638120631206,"lng":-111.57903276343953,"phone":"(351) 831-1994","sd":"26","ssbd":"13","lsbd":"School Board Nebo 2"},{"vid":"6240345","name":"Peggy Pollich","party":"","address":"1714 N 500 W, Mapleton, UT 84664","precinct":"25MA01","hd":"63","v_score":"16.2066738","decile":"9","lat":40.14579941764342,"lng":-111.58436256654672,"phone":"(866) 316-6272","sd":"26","ssbd":"13","lsbd":"School Board Nebo 2"},{"vid":"6240363","name":"Asha Torphy","party":"","address":"1714 N 500 W, Mapleton, UT 84664","precinct":"25MA01","hd":"63","v_score":"16.2066738","decile":"9","lat":40.14579941764342,"lng":-111.58436256654672,"phone":"(315) 026-0899","sd":"26","ssbd":"13","lsbd":"School Board Nebo 2"},{"vid":"6244878","name":"Mr. Horton Rutherford","party":"","address":"1226 N 1380 W, Mapleton, UT 84664","precinct":"25MA01","hd":"63","v_score":"1.121327652","decile":"3","lat":40.141372737688265,"lng":-111.59502274869513,"phone":"(369) 425-0560","sd":"26","ssbd":"13","lsbd":"School Board Nebo 2"},{"vid":"6245381","name":"Dr. Natalia Russel","party":"","address":"1556 N 800 W, Mapleton, UT 84664","precinct":"25MA01","hd":"63","v_score":"9.405332525","decile":"8","lat":40.14437894828928,"lng":-111.58799091713585,"phone":"(599) 438-0626","sd":"26","ssbd":"13","lsbd":"School Board Nebo 2"},{"vid":"6247606","name":"Candice Bins","party":"Rep","address":"768 W 1600 N, Mapleton, UT 84664","precinct":"25MA01","hd":"63","v_score":"19.60612512","decile":"10","lat":40.145026021473114,"lng":-111.58803195633668,"phone":"(919) 000-2369","sd":"26","ssbd":"13","lsbd":"School Board Nebo 2"},