[{"vid":"1277835","name":"Virgel Dibbert","party":"Dem","address":"1919 W 180 S, Orem, UT 84059","precinct":"25OR34","hd":"57","v_score":"1.121327652","decile":"3","lat":40.29359729743803,"lng":-111.74134101170016,"phone":"(584) 531-1967","sd":"23","ssbd":"12","lsbd":"School Board Timpanogos 3"},{"vid":"1291654","name":"Gunda Waters","party":"Dem","address":"1396 W 800 S, Orem, UT 84058","precinct":"25OR34","hd":"57","v_score":"0","decile":"1","lat":40.28277032805165,"lng":-111.72866634871036,"phone":"(953) 695-2127","sd":"23","ssbd":"12","lsbd":"School Board Timpanogos 3"},{"vid":"1318436","name":"Kinley Effertz","party":"Rep","address":"793 S 1370 W, Orem, UT 84058","precinct":"25OR34","hd":"57","v_score":"2.315214949","decile":"5","lat":40.28267359889694,"lng":-111.72801128813099,"phone":"(359) 517-4960","sd":"23","ssbd":"12","lsbd":"School Board Timpanogos 3"},{"vid":"1344378","name":"Waymon Satterfield III","party":"","address":"1539 W 700 S, Orem, UT 84058","precinct":"25OR34","hd":"57","v_score":"19.33530648","decile":"10","lat":40.284098562719976,"lng":-111.7323150234133,"phone":"(326) 965-8903","sd":"23","ssbd":"12","lsbd":"School Board Timpanogos 3"},{"vid":"1344873","name":"Crete Bechtelar","party":"Rep","address":"692 S 1525 W, Orem, UT 84058","precinct":"25OR34","hd":"57","v_score":"2.315214949","decile":"5","lat":40.28440656946466,"lng":-111.73200879222453,"phone":"(298) 816-5886","sd":"23","ssbd":"12","lsbd":"School Board Timpanogos 3"},{"vid":"1345239","name":"Tyree Wintheiser-Hoeger","party":"Dem","address":"1542 W 740 S, Orem, UT 84058","precinct":"25OR34","hd":"57","v_score":"9.82542041","decile":"8","lat":40.28376213610136,"lng":-111.73214856505217,"phone":"(849) 120-7414","sd":"23","ssbd":"12","lsbd":"School Board Timpanogos 3"},{"vid":"8282d0ae122b5a7e1df3b50a482896fcbc42817113fcc5ecc6c3fa9c730ba5ef","name":"Kian Feil","party":"Rep","address":"1442 W 730 S, Orem, UT 84058","precinct":"25OR34","hd":"57","v_score":"1.121327652","decile":"3","lat":40.283977554182734,"lng":-111.73015619769025,"phone":"(647) 707-1528","sd":"23","ssbd":"12","lsbd":"School Board Timpanogos 3"},{"vid":"1383427","name":"Katy Krajcik PhD","party":"","address":"674 S 1545 W, Orem, UT 84058","precinct":"25OR34","hd":"57","v_score":"18.35167816","decile":"10","lat":40.284591728658896,"lng":-111.73303870405023,"phone":"(239) 604-8430","sd":"23","ssbd":"12","lsbd":"School Board Timpanogos 3"},{"vid":"1383435","name":"Alwin Stamm","party":"Dem","address":"702 S 1420 W, Orem, UT 84058","precinct":"25OR34","hd":"57","v_score":"25.56562396","decile":"10","lat":40.28451584965913,"lng":-111.7302497568119,"phone":"(511) 324-0872","sd":"23","ssbd":"12","lsbd":"School Board Timpanogos 3"},{"vid":"1387014","name":"Harve Gottlieb","party":"Dem","address":"710 S 1525 W, Orem, UT 84058","precinct":"25OR34","hd":"57","v_score":"3.93832808","decile":"6","lat":40.28417014872433,"lng":-111.73198147355842,"phone":"(135) 451-0365","sd":"23","ssbd":"12","lsbd":"School Board Timpanogos 3"},{"vid":"1392138","name":"Dr. Antwain Kessler","party":"Rep","address":"596 S 1580 W, Orem, UT 84058","precinct":"25OR34","hd":"57","v_score":"1.623113131","decile":"4","lat":40.286038664131084,"lng":-111.73330643421585,"phone":"(733) 325-7090","sd":"23","ssbd":"12","lsbd":"School Board Timpanogos 3"},{"vid":"1441341","name":"Alani Champlin","party":"","address":"1945 W 180 S, Orem, UT 84059","precinct":"25OR34","hd":"57","v_score":"1.121327652","decile":"3","lat":40.2935925948999,"lng":-111.74194288958805,"phone":"(535) 597-2838","sd":"23","ssbd":"12","lsbd":"School Board Timpanogos 3"},{"vid":"1453761","name":"Jaron Harber","party":"","address":"1565 W 525 S, Orem, UT 84058","precinct":"25OR34","hd":"57","v_score":"2.315214949","decile":"5","lat":40.287335307950045,"lng":-111.73287230336095,"phone":"(971) 057-8609","sd":"23","ssbd":"12","lsbd":"School Board Timpanogos 3"},{"vid":"1455556","name":"Skylar Goldner DDS","party":"Rep","address":"1831 W 180 S, Orem, UT 84059","precinct":"25OR34","hd":"57","v_score":"1.121327652","decile":"3","lat":40.29361320200715,"lng":-111.73931375844568,"phone":"(892) 915-2772","sd":"23","ssbd":"12","lsbd":"School Board Timpanogos 3"},{"vid":"1467337","name":"Wally Mayert","party":"Rep","address":"695 S 1490 W, Orem, UT 84058","precinct":"25OR34","hd":"57","v_score":"0","decile":"1","lat":40.28464494788636,"lng":-111.73070016909877,"phone":"(339) 122-6565","sd":"23","ssbd":"12","lsbd":"School Board Timpanogos 3"},{"vid":"1500638","name":"Dr. Joe Pagac","party":"Rep","address":"1394 W 690 S, Orem, UT 84058","precinct":"25OR34","hd":"57","v_score":"2.315214949","decile":"5","lat":40.28460260491508,"lng":-111.72976926065836,"phone":"(895) 887-9078","sd":"23","ssbd":"12","lsbd":"School Board Timpanogos 3"},{"vid":"1505982","name":"Mr. Dorsey Considine","party":"Dem","address":"769 S 1370 W, Orem, UT 84058","precinct":"25OR34","hd":"57","v_score":"3.781490609","decile":"6","lat":40.28318553998049,"lng":-111.72807641800703,"phone":"(672) 011-5624","sd":"23","ssbd":"12","lsbd":"School Board Timpanogos 3"},{"vid":"1513291","name":"Rick Rempel","party":"Dem","address":"1900 W 140 S, Orem, UT 84059","precinct":"25OR34","hd":"57","v_score":"8.280646305","decile":"8","lat":40.29482366356149,"lng":-111.74089176404692,"phone":"(325) 036-0531","sd":"23","ssbd":"12","lsbd":"School Board Timpanogos 3"},{"vid":"1553377","name":"Mr. Frederic Zboncak II","party":"","address":"701 S 1545 W, Orem, UT 84058","precinct":"25OR34","hd":"57","v_score":"3.781490609","decile":"6","lat":40.28437161989664,"lng":-111.73239708900606,"phone":"(406) 274-7271","sd":"23","ssbd":"12","lsbd":"School Board Timpanogos 3"},{"vid":"1563274","name":"Nichol McLaughlin MD","party":"Dem","address":"1976 W 140 S, Orem, UT 84059","precinct":"25OR34","hd":"57","v_score":"3.781490609","decile":"6","lat":40.29470051548311,"lng":-111.74278751486794,"phone":"(597) 672-8240","sd":"23","ssbd":"12","lsbd":"School Board Timpanogos 3"},{"vid":"1578293","name":"Fielding Abernathy","party":"Rep","address":"1811 W 140 S, Orem, UT 84059","precinct":"25OR34","hd":"57","v_score":"1.193887297","decile":"3","lat":40.29439061775839,"lng":-111.73880754951855,"phone":"(288) 434-6225","sd":"23","ssbd":"12","lsbd":"School Board Timpanogos 3"},{"vid":"1893bb1251cde9b358a030b9acd845a1c9fdd7e739cab21eac31be2e10d19d7d","name":"Jimmy Morissette","party":"","address":"1532 W 650 S, Orem, UT 84058","precinct":"25OR34","hd":"57","v_score":"1.121327652","decile":"3","lat":40.2852218963915,"lng":-111.73210712957108,"phone":"(713) 092-2225","sd":"23","ssbd":"12","lsbd":"School Board Timpanogos 3"},{"vid":"1586745","name":"Dan Nikolaus","party":"Rep","address":"754 S 1370 W, Orem, UT 84058","precinct":"25OR34","hd":"57","v_score":"9.830961897","decile":"8","lat":40.28338160095428,"lng":-111.72884983364958,"phone":"(424) 142-6434","sd":"23","ssbd":"12","lsbd":"School Board Timpanogos 3"},{"vid":"38b5d9b01173afdf8fb25976546e2a165a77126b686c5eedcbeb8bde425cf80f","name":"Mr. Monte Greenholt","party":"","address":"1510 W 690 S, Orem, UT 84058","precinct":"25OR34","hd":"57","v_score":"6.724398202","decile":"8","lat":40.28458571785641,"lng":-111.73149080656371,"phone":"(416) 307-2194","sd":"23","ssbd":"12","lsbd":"School Board Timpanogos 3"},{"vid":"1620958","name":"Cleveland Strosin","party":"Rep","address":"1519 W 610 S, Orem, UT 84058","precinct":"25OR34","hd":"57","v_score":"0","decile":"1","lat":40.28562483262111,"lng":-111.73174640322337,"phone":"(639) 688-6918","sd":"23","ssbd":"12","lsbd":"School Board Timpanogos 3"},{"vid":"1622941","name":"Miss Alisha Batz","party":"Rep","address":"695 S 1490 W, Orem, UT 84058","precinct":"25OR34","hd":"57","v_score":"1.121327652","decile":"3","lat":40.28464494788636,"lng":-111.73070016909877,"phone":"(612) 604-7063","sd":"23","ssbd":"12","lsbd":"School Board Timpanogos 3"},{"vid":"1637465","name":"Alyse Watsica DDS","party":"Rep","address":"1900 W 140 S, Orem, UT 84059","precinct":"25OR34","hd":"57","v_score":"8.280646305","decile":"8","lat":40.29482366356149,"lng":-111.74089176404692,"phone":"(133) 992-4938","sd":"23","ssbd":"12","lsbd":"School Board Timpanogos 3"},{"vid":"4e764cab815f5b579d06961b98da5001ae810b6e586133274a3b117443553f56","name":"Ota Stehr-Mraz","party":"Dem","address":"1518 W 575 S, Orem, UT 84058","precinct":"25OR34","hd":"57","v_score":"5.40460374","decile":"7","lat":40.28670846070645,"lng":-111.7317981937046,"phone":"(904) 612-4962","sd":"23","ssbd":"12","lsbd":"School Board Timpanogos 3"},{"vid":"1656462","name":"Ermine Thompson","party":"","address":"1538 W 740 S, Orem, UT 84058","precinct":"25OR34","hd":"57","v_score":"3.93832808","decile":"6","lat":40.283763000241045,"lng":-111.73207274257095,"phone":"(225) 630-3428","sd":"23","ssbd":"12","lsbd":"School Board Timpanogos 3"},{"vid":"1669963","name":"Magdalena Rippin","party":"Rep","address":"707 S 1545 W, Orem, UT 84058","precinct":"25OR34","hd":"57","v_score":"2.587603312","decile":"5","lat":40.284319406849725,"lng":-111.73236387272048,"phone":"(835) 563-4882","sd":"23","ssbd":"12","lsbd":"School Board Timpanogos 3"},{"vid":"1680704","name":"Judah Considine V","party":"","address":"1848 W 140 S, Orem, UT 84059","precinct":"25OR34","hd":"57","v_score":"8.280646305","decile":"8","lat":40.29483304681472,"lng":-111.73969189330506,"phone":"(774) 627-5730","sd":"23","ssbd":"12","lsbd":"School Board Timpanogos 3"},{"vid":"1719748","name":"Mrs. Markita Haag MD","party":"Rep","address":"742 S 1370 W, Orem, UT 84058","precinct":"25OR34","hd":"57","v_score":"0","decile":"1","lat":40.28357150292288,"lng":-111.72899369884233,"phone":"(578) 518-6560","sd":"23","ssbd":"12","lsbd":"School Board Timpanogos 3"},{"vid":"1751146","name":"Obie Jones","party":"","address":"723 S 1370 W, Orem, UT 84058","precinct":"25OR34","hd":"57","v_score":"6.814370645","decile":"8","lat":40.283996756807554,"lng":-111.72869940123309,"phone":"(732) 475-6616","sd":"23","ssbd":"12","lsbd":"School Board Timpanogos 3"},{"vid":"42f5a551c2ac6900d37093b29e5c66bb065c4dd03b8158040a916ead396e9a11","name":"Shannon Spinka DDS","party":"","address":"759 S 1370 W, Orem, UT 84058","precinct":"25OR34","hd":"57","v_score":"2.817000428","decile":"6","lat":40.28342073414922,"lng":-111.72826270933258,"phone":"(348) 253-0318","sd":"23","ssbd":"12","lsbd":"School Board Timpanogos 3"},{"vid":"1772064","name":"Hassie Thiel MD","party":"","address":"677 S 1545 W, Orem, UT 84058","precinct":"25OR34","hd":"57","v_score":"5.40460374","decile":"7","lat":40.284694355042035,"lng":-111.73260217600243,"phone":"(409) 586-0332","sd":"23","ssbd":"12","lsbd":"School Board Timpanogos 3"},{"vid":"3bb9b4d7b47f2e412e3f43fea6c0c990c09f482a21e7e6cbd638ebb8cd0fbcee","name":"Jimmie Jacobs-Bernier","party":"Rep","address":"1802 W 140 S, Orem, UT 84059","precinct":"25OR34","hd":"57","v_score":"2.587603312","decile":"5","lat":40.29484241924097,"lng":-111.73849202310222,"phone":"(927) 744-9224","sd":"23","ssbd":"12","lsbd":"School Board Timpanogos 3"},{"vid":"1781276","name":"Braeden Wuckert-Leannon","party":"Rep","address":"1516 W 610 S, Orem, UT 84058","precinct":"25OR34","hd":"57","v_score":"10.89074633","decile":"9","lat":40.28599645018256,"lng":-111.7317598396245,"phone":"(576) 086-9123","sd":"23","ssbd":"12","lsbd":"School Board Timpanogos 3"},{"vid":"1792892","name":"Dr. Haylie Champlin","party":"Rep","address":"1548 W 740 S, Orem, UT 84058","precinct":"25OR34","hd":"57","v_score":"6.324725604","decile":"7","lat":40.283760342720285,"lng":-111.732304337953,"phone":"(439) 870-4913","sd":"23","ssbd":"12","lsbd":"School Board Timpanogos 3"},{"vid":"1795176","name":"Kylan Kuhn","party":"","address":"169 S 1990 W, Orem, UT 84059","precinct":"25OR34","hd":"57","v_score":"18.35167816","decile":"10","lat":40.293926897754524,"lng":-111.74279228239989,"phone":"(200) 996-3183","sd":"23","ssbd":"12","lsbd":"School Board Timpanogos 3"},{"vid":"1817897","name":"Mr. Abraham Dibbert","party":"","address":"1725 W 140 S, Orem, UT 84059","precinct":"25OR34","hd":"57","v_score":"12.49472132","decile":"9","lat":40.294534907629014,"lng":-111.73672742977023,"phone":"(767) 982-6423","sd":"23","ssbd":"12","lsbd":"School Board Timpanogos 3"},{"vid":"1819200","name":"Azul Hoppe-Bartoletti","party":"Rep","address":"1574 W 525 S, Orem, UT 84058","precinct":"25OR34","hd":"57","v_score":"2.315214949","decile":"5","lat":40.28774199334747,"lng":-111.73312524990067,"phone":"(334) 215-8314","sd":"23","ssbd":"12","lsbd":"School Board Timpanogos 3"},{"vid":"1819432","name":"Jacky Koelpin","party":"Dem","address":"1501 W 550 S, Orem, UT 84058","precinct":"25OR34","hd":"57","v_score":"0","decile":"1","lat":40.287057000036924,"lng":-111.73097805722105,"phone":"(892) 529-0054","sd":"23","ssbd":"12","lsbd":"School Board Timpanogos 3"},{"vid":"1821983","name":"Lovell Mills","party":"","address":"697 S 1545 W, Orem, UT 84058","precinct":"25OR34","hd":"57","v_score":"17.83029024","decile":"10","lat":40.28442668063006,"lng":-111.73243205592851,"phone":"(465) 300-1823","sd":"23","ssbd":"12","lsbd":"School Board Timpanogos 3"},{"vid":"1826837","name":"Christi Casper","party":"","address":"779 S 1370 W, Orem, UT 84058","precinct":"25OR34","hd":"57","v_score":"2.315214949","decile":"5","lat":40.282987794202285,"lng":-111.7280073979071,"phone":"(794) 795-6420","sd":"23","ssbd":"12","lsbd":"School Board Timpanogos 3"},{"vid":"4836c4ba76fb1d4f8eb92f4944e50c6b73c648c24eb9ed2dc21975a86d1189b9","name":"Jeraldine Mayert-Wunsch","party":"","address":"1496 W 650 S, Orem, UT 84058","precinct":"25OR34","hd":"57","v_score":"6.881235673","decile":"8","lat":40.285320133447684,"lng":-111.73119537366364,"phone":"(938) 569-0766","sd":"23","ssbd":"12","lsbd":"School Board Timpanogos 3"},{"vid":"1835512","name":"Jamir Ankunding DVM","party":"Dem","address":"1903 W 140 S, Orem, UT 84059","precinct":"25OR34","hd":"57","v_score":"1.121327652","decile":"3","lat":40.29437391048576,"lng":-111.7409417488246,"phone":"(582) 815-9191","sd":"23","ssbd":"12","lsbd":"School Board Timpanogos 3"},{"vid":"1836549","name":"Kerry Muller","party":"Rep","address":"1555 W 700 S, Orem, UT 84058","precinct":"25OR34","hd":"57","v_score":"14.93550638","decile":"9","lat":40.283994874757624,"lng":-111.73259410913117,"phone":"(627) 173-6110","sd":"23","ssbd":"12","lsbd":"School Board Timpanogos 3"},{"vid":"a5b316fcd1abf5bedc75837ff777522202b19d5da3423f1045659ed77f7225da","name":"Nathanial Schinner","party":"Dem","address":"1416 W 690 S, Orem, UT 84058","precinct":"25OR34","hd":"57","v_score":"2.315214949","decile":"5","lat":40.284558431506206,"lng":-111.72997681653888,"phone":"(840) 563-8854","sd":"23","ssbd":"12","lsbd":"School Board Timpanogos 3"},{"vid":"1851032","name":"Berta Mosciski","party":"Rep","address":"540 S 1500 W, Orem, UT 84058","precinct":"25OR34","hd":"57","v_score":"0","decile":"1","lat":40.28723806927834,"lng":-111.73146964923798,"phone":"(129) 273-0551","sd":"23","ssbd":"12","lsbd":"School Board Timpanogos 3"},{"vid":"1877679","name":"Charline Spencer-Bahringer","party":"Rep","address":"1811 W 140 S, Orem, UT 84059","precinct":"25OR34","hd":"57","v_score":"2.587603312","decile":"5","lat":40.29439061775839,"lng":-111.73880754951855,"phone":"(763) 809-9647","sd":"23","ssbd":"12","lsbd":"School Board Timpanogos 3"},{"vid":"1893668","name":"Andrew Heaney","party":"","address":"1516 W 610 S, Orem, UT 84058","precinct":"25OR34","hd":"57","v_score":"10.89074633","decile":"9","lat":40.28599645018256,"lng":-111.7317598396245,"phone":"(273) 601-8480","sd":"23","ssbd":"12","lsbd":"School Board Timpanogos 3"},{"vid":"91d02fb8b6282a78cd88b41833f2dbe6e28b1b3131570aa8759a80459e310bdf","name":"Octavia Spencer-Purdy","party":"Dem","address":"719 S 1525 W, Orem, UT 84058","precinct":"25OR34","hd":"57","v_score":"19.47300581","decile":"10","lat":40.284032798218085,"lng":-111.73155808768354,"phone":"(562) 140-1205","sd":"23","ssbd":"12","lsbd":"School Board Timpanogos 3"},{"vid":"11266d29d48d21766dd378e72ecb6247dc5ee86e9b6996fcbca3a848ef5f49f5","name":"Brittaney Berge DDS","party":"","address":"1919 W 180 S, Orem, UT 84059","precinct":"25OR34","hd":"57","v_score":"2.315214949","decile":"5","lat":40.29359729743803,"lng":-111.74134101170016,"phone":"(305) 811-4884","sd":"23","ssbd":"12","lsbd":"School Board Timpanogos 3"},{"vid":"1925524","name":"Deidra Shields-Lockman","party":"","address":"1555 W 700 S, Orem, UT 84058","precinct":"25OR34","hd":"57","v_score":"11.99259879","decile":"9","lat":40.283994874757624,"lng":-111.73259410913117,"phone":"(278) 972-1029","sd":"23","ssbd":"12","lsbd":"School Board Timpanogos 3"},{"vid":"1930510","name":"Izora Marks MD","party":"","address":"712 S 1525 W, Orem, UT 84058","precinct":"25OR34","hd":"57","v_score":"12.38288823","decile":"9","lat":40.284108864638064,"lng":-111.73200778377579,"phone":"(481) 026-0284","sd":"23","ssbd":"12","lsbd":"School Board Timpanogos 3"},{"vid":"3c4a01bf9179a50db6239c0eb104755bc4c683691dfdada519a75321ae313f9b","name":"Wellington Collier III","party":"Dem","address":"1945 W 180 S, Orem, UT 84059","precinct":"25OR34","hd":"57","v_score":"1.121327652","decile":"3","lat":40.2935925948999,"lng":-111.74194288958805,"phone":"(264) 774-4380","sd":"23","ssbd":"12","lsbd":"School Board Timpanogos 3"},{"vid":"1932582","name":"Jessee Schaefer","party":"Dem","address":"1945 W 180 S, Orem, UT 84059","precinct":"25OR34","hd":"57","v_score":"1.121327652","decile":"3","lat":40.2935925948999,"lng":-111.74194288958805,"phone":"(317) 929-6446","sd":"23","ssbd":"12","lsbd":"School Board Timpanogos 3"},{"vid":"1933099","name":"Terance Stehr","party":"","address":"712 S 1525 W, Orem, UT 84058","precinct":"25OR34","hd":"57","v_score":"12.38288823","decile":"9","lat":40.284108864638064,"lng":-111.73200778377579,"phone":"(518) 711-0277","sd":"23","ssbd":"12","lsbd":"School Board Timpanogos 3"},{"vid":"1953686","name":"Mr. Bruno Boyle Sr.","party":"Rep","address":"731 S 1525 W, Orem, UT 84058","precinct":"25OR34","hd":"57","v_score":"3.781490609","decile":"6","lat":40.28379925085536,"lng":-111.73156509639927,"phone":"(491) 521-3445","sd":"23","ssbd":"12","lsbd":"School Board Timpanogos 3"},{"vid":"6cfd8aa44e146b07762f16934ee06062cfd2afcab24c19fdb1753faea16d1d67","name":"Pam Tillman","party":"Rep","address":"1529 W 740 S, Orem, UT 84058","precinct":"25OR34","hd":"57","v_score":"15.05937474","decile":"9","lat":40.283414512586056,"lng":-111.7318560996468,"phone":"(524) 126-9783","sd":"23","ssbd":"12","lsbd":"School Board Timpanogos 3"},{"vid":"1963884","name":"Cristofer Bergnaum","party":"","address":"1532 W 650 S, Orem, UT 84058","precinct":"25OR34","hd":"57","v_score":"0","decile":"1","lat":40.2852218963915,"lng":-111.73210712957108,"phone":"(122) 213-6426","sd":"23","ssbd":"12","lsbd":"School Board Timpanogos 3"},{"vid":"1973565","name":"Dontae Langworth","party":"","address":"1497 W 610 S, Orem, UT 84058","precinct":"25OR34","hd":"57","v_score":"15.97183385","decile":"9","lat":40.28569216658598,"lng":-111.73114980786463,"phone":"(276) 732-7225","sd":"23","ssbd":"12","lsbd":"School Board Timpanogos 3"},{"vid":"1989695","name":"Veola Smitham","party":"Rep","address":"703 S 1490 W, Orem, UT 84058","precinct":"25OR34","hd":"57","v_score":"5.191257514","decile":"7","lat":40.284371953191574,"lng":-111.73066184038109,"phone":"(608) 119-0651","sd":"23","ssbd":"12","lsbd":"School Board Timpanogos 3"},{"vid":"f4594a3c3ee8cab60e2362fa5a0bcb47a584951d2a288fc094d39c481a61b209","name":"Noble Hamill","party":"","address":"599 S 1540 W, Orem, UT 84058","precinct":"25OR34","hd":"57","v_score":"4.079907534","decile":"7","lat":40.28592672381235,"lng":-111.73213097840507,"phone":"(966) 615-8446","sd":"23","ssbd":"12","lsbd":"School Board Timpanogos 3"},{"vid":"2012861","name":"Tenisha Goyette","party":"Dem","address":"722 S 1525 W, Orem, UT 84058","precinct":"25OR34","hd":"57","v_score":"5.941816919","decile":"7","lat":40.28393254724292,"lng":-111.73200718621645,"phone":"(931) 817-3048","sd":"23","ssbd":"12","lsbd":"School Board Timpanogos 3"},{"vid":"da5e9f6152d93db8d5008c037152c2a12dbd8733e75092905b5587d086766951","name":"Jerod Rosenbaum","party":"","address":"1555 W 700 S, Orem, UT 84058","precinct":"25OR34","hd":"57","v_score":"7.995228575","decile":"8","lat":40.283994874757624,"lng":-111.73259410913117,"phone":"(407) 740-1369","sd":"23","ssbd":"12","lsbd":"School Board Timpanogos 3"},{"vid":"29ba2ec1276ba5cfb6e7147a06b1782fba133456263af92458f80a691b09446e","name":"Mr. Beckham Wunsch MD","party":"Dem","address":"1509 W 550 S, Orem, UT 84058","precinct":"25OR34","hd":"57","v_score":"5.632623786","decile":"7","lat":40.287027178215446,"lng":-111.73119004268577,"phone":"(715) 207-0545","sd":"23","ssbd":"12","lsbd":"School Board Timpanogos 3"},{"vid":"2047043","name":"Donnell Cartwright","party":"Rep","address":"1396 W 800 S, Orem, UT 84058","precinct":"25OR34","hd":"57","v_score":"2.315214949","decile":"5","lat":40.28277032805165,"lng":-111.72866634871036,"phone":"(121) 471-0860","sd":"23","ssbd":"12","lsbd":"School Board Timpanogos 3"},{"vid":"2061023","name":"Treasure Beer","party":"Rep","address":"723 S 1525 W, Orem, UT 84058","precinct":"25OR34","hd":"57","v_score":"1.46627566","decile":"4","lat":40.283918694521454,"lng":-111.73156617108377,"phone":"(519) 811-0423","sd":"23","ssbd":"12","lsbd":"School Board Timpanogos 3"},{"vid":"0fe921f4fefedfffc4cbbd22a1db1e8765c9b1c25e5b900a46ddc306d6c15b07","name":"Geri Wilkinson MD","party":"","address":"1939 W 140 S, Orem, UT 84059","precinct":"25OR34","hd":"57","v_score":"14.24014515","decile":"9","lat":40.29436665202964,"lng":-111.74187301018111,"phone":"(196) 316-8650","sd":"23","ssbd":"12","lsbd":"School Board Timpanogos 3"},{"vid":"87c6af9ee3682c4ef1bff262cc7ac78212d5e821bbee5991675deda75ec47ff9","name":"Bree Erdman-Sawayn","party":"","address":"1511 W 650 S, Orem, UT 84058","precinct":"25OR34","hd":"57","v_score":"3.93832808","decile":"6","lat":40.2849087156518,"lng":-111.73139435468265,"phone":"(799) 278-3601","sd":"23","ssbd":"12","lsbd":"School Board Timpanogos 3"},{"vid":"2073145","name":"Blair Eichmann","party":"Rep","address":"1945 W 180 S, Orem, UT 84059","precinct":"25OR34","hd":"57","v_score":"1.121327652","decile":"3","lat":40.2935925948999,"lng":-111.74194288958805,"phone":"(604) 854-7941","sd":"23","ssbd":"12","lsbd":"School Board Timpanogos 3"},{"vid":"2084119","name":"Mr. Toby Wiza MD","party":"Rep","address":"1501 W 550 S, Orem, UT 84058","precinct":"25OR34","hd":"57","v_score":"2.315214949","decile":"5","lat":40.287057000036924,"lng":-111.73097805722105,"phone":"(845) 260-5664","sd":"23","ssbd":"12","lsbd":"School Board Timpanogos 3"},{"vid":"2092500","name":"Margy Schaefer","party":"Rep","address":"1511 W 740 S, Orem, UT 84058","precinct":"25OR34","hd":"57","v_score":"19.47829776","decile":"10","lat":40.28341621743751,"lng":-111.73146733987353,"phone":"(811) 588-5467","sd":"23","ssbd":"12","lsbd":"School Board Timpanogos 3"},{"vid":"84a4ddf9c4738dea1d062705bcc73f2ba6402af896ea4599ef703df64bae88ee","name":"Dr. Tanner Yost","party":"","address":"1536 W 525 S, Orem, UT 84058","precinct":"25OR34","hd":"57","v_score":"5.530510904","decile":"7","lat":40.287671725473544,"lng":-111.73222164083782,"phone":"(660) 706-8505","sd":"23","ssbd":"12","lsbd":"School Board Timpanogos 3"},{"vid":"2100153","name":"Webster Glover","party":"Rep","address":"529 S 1500 W, Orem, UT 84058","precinct":"25OR34","hd":"57","v_score":"2.587603312","decile":"5","lat":40.287545730200215,"lng":-111.73134736060229,"phone":"(851) 246-2343","sd":"23","ssbd":"12","lsbd":"School Board Timpanogos 3"},{"vid":"6d802fdec5aa2b5d118a0b1eb52596465c052738f55ec4149cf5e5c26a984bda","name":"Mr. Tilman Kuvalis MD","party":"","address":"1511 W 740 S, Orem, UT 84058","precinct":"25OR34","hd":"57","v_score":"16.51971788","decile":"9","lat":40.28341621743751,"lng":-111.73146733987353,"phone":"(634) 766-4316","sd":"23","ssbd":"12","lsbd":"School Board Timpanogos 3"},{"vid":"9196859a86ae054232d108c1dbaad9f940c600c1b8fb455442e8bbc9f681162c","name":"Nolie Dicki-Towne","party":"Dem","address":"540 S 1500 W, Orem, UT 84058","precinct":"25OR34","hd":"57","v_score":"4.342318225","decile":"7","lat":40.28723806927834,"lng":-111.73146964923798,"phone":"(991) 800-9346","sd":"23","ssbd":"12","lsbd":"School Board Timpanogos 3"},{"vid":"2135678","name":"Hannah Vandervort-Kerluke","party":"","address":"1451 W 650 S, Orem, UT 84058","precinct":"25OR34","hd":"57","v_score":"0","decile":"1","lat":40.28492208062068,"lng":-111.73002965076034,"phone":"(952) 103-7687","sd":"23","ssbd":"12","lsbd":"School Board Timpanogos 3"},{"vid":"2136276","name":"Mrs. Neoma Bins","party":"Dem","address":"1835 W 140 S, Orem, UT 84059","precinct":"25OR34","hd":"57","v_score":"0","decile":"1","lat":40.294386120690525,"lng":-111.73938248243951,"phone":"(806) 065-0455","sd":"23","ssbd":"12","lsbd":"School Board Timpanogos 3"},{"vid":"01529fd6eefcb219a9df6918947ca09012c931cd3b9e1ce08f688efe447335d0","name":"Miss Cordie Bradtke PhD","party":"Rep","address":"1558 W 525 S, Orem, UT 84058","precinct":"25OR34","hd":"57","v_score":"6.814370645","decile":"8","lat":40.287745095570024,"lng":-111.7327669324154,"phone":"(778) 622-2073","sd":"23","ssbd":"12","lsbd":"School Board Timpanogos 3"},{"vid":"c2bb9fc3d91822019f147ae8e839e957e70ad4a7333f0b390bae6f1c41d061a3","name":"Mr. Burnice Smitham","party":"","address":"701 S 1545 W, Orem, UT 84058","precinct":"25OR34","hd":"57","v_score":"3.781490609","decile":"6","lat":40.28437161989664,"lng":-111.73239708900606,"phone":"(434) 203-8860","sd":"23","ssbd":"12","lsbd":"School Board Timpanogos 3"},{"vid":"2165430","name":"Dr. Evelynn Rogahn DVM","party":"","address":"1759 W 180 S, Orem, UT 84059","precinct":"25OR34","hd":"57","v_score":"6.74007049","decile":"8","lat":40.29362668980127,"lng":-111.73758643200327,"phone":"(400) 965-8536","sd":"23","ssbd":"12","lsbd":"School Board Timpanogos 3"},{"vid":"42ed22f3e8508f636b49ca5f04966b396c2115eb0eefac789cf11686c2e2d652","name":"Sherrie Parker","party":"","address":"1738 W 180 S, Orem, UT 84059","precinct":"25OR34","hd":"57","v_score":"9.116556227","decile":"8","lat":40.29402617347092,"lng":-111.73704712151654,"phone":"(140) 142-3571","sd":"23","ssbd":"12","lsbd":"School Board Timpanogos 3"},{"vid":"2173121","name":"Doyle Thiel-Zieme","party":"Rep","address":"710 S 1525 W, Orem, UT 84058","precinct":"25OR34","hd":"57","v_score":"3.93832808","decile":"6","lat":40.28417014872433,"lng":-111.73198147355842,"phone":"(600) 933-3815","sd":"23","ssbd":"12","lsbd":"School Board Timpanogos 3"},{"vid":"18434d7f439bcb9af01f4342d91ab181c107633b4c191a35b6fd9f32612ee67c","name":"Hartley Hayes-Cassin","party":"Dem","address":"1484 W 650 S, Orem, UT 84058","precinct":"25OR34","hd":"57","v_score":"1.623113131","decile":"5","lat":40.28532078335345,"lng":-111.73090869664264,"phone":"(604) 821-1728","sd":"23","ssbd":"12","lsbd":"School Board Timpanogos 3"},{"vid":"dcfaacb441b2849f202aa6ef7f55537ff789d1da45c757b7a0bbdfcbb514d460","name":"Mr. Lemmie Renner","party":"Rep","address":"547 S 1540 W, Orem, UT 84058","precinct":"25OR34","hd":"57","v_score":"4.079907534","decile":"7","lat":40.28723468362353,"lng":-111.73209793933958,"phone":"(501) 274-9028","sd":"23","ssbd":"12","lsbd":"School Board Timpanogos 3"},{"vid":"f0051331441b674dcf3f1543985c29dd1ca1d954657b7cbb55dabe6746f43b00","name":"Tanja Hermann","party":"Dem","address":"1568 W 575 S, Orem, UT 84058","precinct":"25OR34","hd":"57","v_score":"5.273794831","decile":"7","lat":40.28670716859644,"lng":-111.73284249043262,"phone":"(630) 620-1407","sd":"23","ssbd":"12","lsbd":"School Board Timpanogos 3"},{"vid":"67f0d06f90ad53b19ddcb358ec0e0120fb7d5fd2cedfc9fc4efeb0ec87fd1123","name":"Jameel DuBuque-Jast","party":"","address":"1893 W 180 S, Orem, UT 84059","precinct":"25OR34","hd":"57","v_score":"6.954919332","decile":"8","lat":40.29360202505347,"lng":-111.74073913399192,"phone":"(136) 712-2439","sd":"23","ssbd":"12","lsbd":"School Board Timpanogos 3"},{"vid":"2196469","name":"Harlon Ziemann","party":"","address":"535 S 1540 W, Orem, UT 84058","precinct":"25OR34","hd":"57","v_score":"0","decile":"1","lat":40.287446415683014,"lng":-111.7321659157341,"phone":"(236) 671-9881","sd":"23","ssbd":"12","lsbd":"School Board Timpanogos 3"},{"vid":"2199973","name":"Kendal Schowalter MD","party":"","address":"695 S 1490 W, Orem, UT 84058","precinct":"25OR34","hd":"57","v_score":"0","decile":"1","lat":40.28464494788636,"lng":-111.73070016909877,"phone":"(619) 250-6690","sd":"23","ssbd":"12","lsbd":"School Board Timpanogos 3"},{"vid":"117912d05af76bf69d288feeb49cebcf1460127077f7d2a5cc74629eafc317d9","name":"Salma Johnson-Klocko","party":"Dem","address":"1545 W 740 S, Orem, UT 84058","precinct":"25OR34","hd":"57","v_score":"0","decile":"1","lat":40.28341009071735,"lng":-111.73224482330777,"phone":"(800) 508-4495","sd":"23","ssbd":"12","lsbd":"School Board Timpanogos 3"},{"vid":"2211271","name":"Cas Stamm","party":"Rep","address":"547 S 1540 W, Orem, UT 84058","precinct":"25OR34","hd":"57","v_score":"1.121327652","decile":"3","lat":40.28723468362353,"lng":-111.73209793933958,"phone":"(626) 837-7734","sd":"23","ssbd":"12","lsbd":"School Board Timpanogos 3"},{"vid":"fe0c2440e633a7f25c47cffb24ab18037582c008f4df84bc162034218825b011","name":"Oswaldo Bins","party":"Rep","address":"549 S 1500 W, Orem, UT 84058","precinct":"25OR34","hd":"57","v_score":"0","decile":"1","lat":40.28721115707337,"lng":-111.73105652627082,"phone":"(435) 602-9345","sd":"23","ssbd":"12","lsbd":"School Board Timpanogos 3"},{"vid":"2216212","name":"Rosanna Spinka","party":"Dem","address":"1891 W 140 S, Orem, UT 84059","precinct":"25OR34","hd":"57","v_score":"1.121327652","decile":"3","lat":40.29437618485118,"lng":-111.7406507343781,"phone":"(629) 104-1748","sd":"23","ssbd":"12","lsbd":"School Board Timpanogos 3"},{"vid":"2216322","name":"Mr. Camron Schneider IV","party":"","address":"701 S 1370 W, Orem, UT 84058","precinct":"25OR34","hd":"57","v_score":"0","decile":"1","lat":40.284600130563256,"lng":-111.72917341820789,"phone":"(360) 168-3391","sd":"23","ssbd":"12","lsbd":"School Board Timpanogos 3"},{"vid":"2216379","name":"Ms. Ressie Mraz MD","party":"","address":"588 S 1470 W, Orem, UT 84058","precinct":"25OR34","hd":"57","v_score":"0","decile":"1","lat":40.2862344857602,"lng":-111.73089973627705,"phone":"(473) 393-7682","sd":"23","ssbd":"12","lsbd":"School Board Timpanogos 3"},{"vid":"2216556","name":"Irving Rippin","party":"","address":"1788 W 140 S, Orem, UT 84059","precinct":"25OR34","hd":"57","v_score":"0","decile":"1","lat":40.29484476018904,"lng":-111.7381920826357,"phone":"(836) 693-5932","sd":"23","ssbd":"12","lsbd":"School Board Timpanogos 3"},{"vid":"2227961","name":"Ciji Grimes","party":"","address":"1515 W 740 S, Orem, UT 84058","precinct":"25OR34","hd":"57","v_score":"2.543234995","decile":"5","lat":40.28341532135915,"lng":-111.73154591353513,"phone":"(818) 125-9782","sd":"23","ssbd":"12","lsbd":"School Board Timpanogos 3"},{"vid":"4432725c819f18b7954317a2833e3e0f33dac6dd27cbf337ca131e9fc6c78c1b","name":"Jenelle Kertzmann PhD","party":"","address":"1964 W 180 S, Orem, UT 84059","precinct":"25OR34","hd":"57","v_score":"3.93832808","decile":"6","lat":40.29403822840998,"lng":-111.74244647579387,"phone":"(925) 070-5973","sd":"23","ssbd":"12","lsbd":"School Board Timpanogos 3"},{"vid":"c232999d59093b5eee9f138ad7b0b4a04404166c92972e6e252e4e51af68cbef","name":"Dr. Orene Ferry DVM","party":"","address":"775 S 1420 W, Orem, UT 84058","precinct":"25OR34","hd":"57","v_score":"0","decile":"1","lat":40.28297545233581,"lng":-111.72903684327437,"phone":"(104) 503-9227","sd":"23","ssbd":"12","lsbd":"School Board Timpanogos 3"},{"vid":"c5f3fa86cae296aa0bf14cf3a34e6bcbbcdaef5e11b53cc027a50638d3fba527","name":"Burt Steuber-Stroman","party":"Dem","address":"1750 W 180 S, Orem, UT 84059","precinct":"25OR34","hd":"57","v_score":"0","decile":"1","lat":40.29407795318341,"lng":-111.73737069116734,"phone":"(451) 671-7066","sd":"23","ssbd":"12","lsbd":"School Board Timpanogos 3"},{"vid":"48d23367e0944fefbe826501a18f9ba2b1856a47273284e1b0c6ae7e53921d84","name":"Fredericka Wunsch","party":"Dem","address":"1565 W 525 S, Orem, UT 84058","precinct":"25OR34","hd":"57","v_score":"2.315214949","decile":"5","lat":40.287335307950045,"lng":-111.73287230336095,"phone":"(368) 180-0223","sd":"23","ssbd":"12","lsbd":"School Board Timpanogos 3"},{"vid":"2262160","name":"Caryl Heller-Weber","party":"Dem","address":"695 S 1490 W, Orem, UT 84058","precinct":"25OR34","hd":"57","v_score":"0","decile":"1","lat":40.28464494788636,"lng":-111.73070016909877,"phone":"(498) 451-7215","sd":"23","ssbd":"12","lsbd":"School Board Timpanogos 3"},{"vid":"ded913c170904410de692790444494fcb5f810f33ff3b4d4d7ba3f38c2c34603","name":"Donny Pagac-Luettgen","party":"Dem","address":"169 S 1990 W, Orem, UT 84059","precinct":"25OR34","hd":"57","v_score":"19.47300581","decile":"10","lat":40.293926897754524,"lng":-111.74279228239989,"phone":"(558) 190-1797","sd":"23","ssbd":"12","lsbd":"School Board Timpanogos 3"},{"vid":"b55e910cecd7a2cb96ec306628a30e671c18c3969bdfbf3f5fa620c4748912f2","name":"Fran Doyle","party":"Rep","address":"1520 W 690 S, Orem, UT 84058","precinct":"25OR34","hd":"57","v_score":"1.121327652","decile":"3","lat":40.28458430989467,"lng":-111.73172240895262,"phone":"(234) 579-8615","sd":"23","ssbd":"12","lsbd":"School Board Timpanogos 3"},{"vid":"2293699","name":"Maurice Morissette","party":"","address":"535 S 1500 W, Orem, UT 84058","precinct":"25OR34","hd":"57","v_score":"13.61907049","decile":"9","lat":40.28748429677528,"lng":-111.73118508274341,"phone":"(382) 184-2588","sd":"23","ssbd":"12","lsbd":"School Board Timpanogos 3"},{"vid":"5c131b092fcf888605a34f5e9f7da19d31b5ee81783b6a86132ac0282a789d69","name":"Tommie Bahringer","party":"Rep","address":"1523 W 650 S, Orem, UT 84058","precinct":"25OR34","hd":"57","v_score":"0","decile":"1","lat":40.2849157248829,"lng":-111.73170311385897,"phone":"(103) 946-4534","sd":"23","ssbd":"12","lsbd":"School Board Timpanogos 3"},{"vid":"2320430","name":"Chelsy Fritsch","party":"","address":"716 S 1525 W, Orem, UT 84058","precinct":"25OR34","hd":"57","v_score":"1.121327652","decile":"3","lat":40.284050794451666,"lng":-111.73200758704473,"phone":"(857) 785-5405","sd":"23","ssbd":"12","lsbd":"School Board Timpanogos 3"},{"vid":"2347474","name":"Tomie Daugherty","party":"Dem","address":"1891 W 140 S, Orem, UT 84059","precinct":"25OR34","hd":"57","v_score":"1.121327652","decile":"3","lat":40.29437618485118,"lng":-111.7406507343781,"phone":"(240) 303-5119","sd":"23","ssbd":"12","lsbd":"School Board Timpanogos 3"},{"vid":"2353621","name":"Mackenzie Johns","party":"","address":"1432 W 650 S, Orem, UT 84058","precinct":"25OR34","hd":"57","v_score":"1.193887297","decile":"3","lat":40.28523851068532,"lng":-111.72964767470273,"phone":"(621) 403-6865","sd":"23","ssbd":"12","lsbd":"School Board Timpanogos 3"},{"vid":"2369073","name":"Sara Koss","party":"Dem","address":"1528 W 575 S, Orem, UT 84058","precinct":"25OR34","hd":"57","v_score":"1.121327652","decile":"3","lat":40.28661692586444,"lng":-111.73214457350593,"phone":"(688) 477-7426","sd":"23","ssbd":"12","lsbd":"School Board Timpanogos 3"},{"vid":"2376332","name":"Merrily Kertzmann DVM","party":"","address":"1511 W 740 S, Orem, UT 84058","precinct":"25OR34","hd":"57","v_score":"2.315214949","decile":"5","lat":40.28341621743751,"lng":-111.73146733987353,"phone":"(203) 744-7419","sd":"23","ssbd":"12","lsbd":"School Board Timpanogos 3"},{"vid":"2387561","name":"Ms. Infant Stokes","party":"Dem","address":"793 S 1370 W, Orem, UT 84058","precinct":"25OR34","hd":"57","v_score":"2.315214949","decile":"5","lat":40.28267359889694,"lng":-111.72801128813099,"phone":"(979) 357-6068","sd":"23","ssbd":"12","lsbd":"School Board Timpanogos 3"},{"vid":"2393739","name":"Rome Corkery","party":"Dem","address":"600 S Geneva Rd, Orem, UT 84059","precinct":"25OR34","hd":"57","v_score":"1.121327652","decile":"3","lat":40.285811236341665,"lng":-111.73477999570011,"phone":"(502) 403-1475","sd":"23","ssbd":"12","lsbd":"School Board Timpanogos 3"},{"vid":"2408938","name":"Shavonne Price","party":"","address":"1999 W 180 S, Orem, UT 84059","precinct":"25OR34","hd":"57","v_score":"3.93832808","decile":"6","lat":40.29358237747131,"lng":-111.7432442063563,"phone":"(782) 079-0328","sd":"23","ssbd":"12","lsbd":"School Board Timpanogos 3"},{"vid":"2411831","name":"Rudolf Oberbrunner MD","party":"","address":"1578 W 575 S, Orem, UT 84058","precinct":"25OR34","hd":"57","v_score":"2.315214949","decile":"5","lat":40.28670553016031,"lng":-111.73314114307432,"phone":"(248) 591-9623","sd":"23","ssbd":"12","lsbd":"School Board Timpanogos 3"},{"vid":"2413962","name":"Miss Kasandra Lowe DVM","party":"","address":"568 S 1540 W, Orem, UT 84058","precinct":"25OR34","hd":"57","v_score":"1.121327652","decile":"3","lat":40.28690166637302,"lng":-111.73250780043597,"phone":"(345) 647-6588","sd":"23","ssbd":"12","lsbd":"School Board Timpanogos 3"},{"vid":"2413967","name":"Eula Gottlieb","party":"Rep","address":"568 S 1540 W, Orem, UT 84058","precinct":"25OR34","hd":"57","v_score":"1.121327652","decile":"3","lat":40.28690166637302,"lng":-111.73250780043597,"phone":"(857) 260-2252","sd":"23","ssbd":"12","lsbd":"School Board Timpanogos 3"},{"vid":"2418898","name":"Cleola Blanda","party":"","address":"636 S 1580 W, Orem, UT 84058","precinct":"25OR34","hd":"57","v_score":"1.121327652","decile":"3","lat":40.28530292626514,"lng":-111.73332265267113,"phone":"(827) 169-6785","sd":"23","ssbd":"12","lsbd":"School Board Timpanogos 3"},{"vid":"2421067","name":"Archibald Keeling","party":"Rep","address":"1555 W 650 S, Orem, UT 84058","precinct":"25OR34","hd":"57","v_score":"0","decile":"1","lat":40.28498922840153,"lng":-111.73254598234398,"phone":"(226) 508-9060","sd":"23","ssbd":"12","lsbd":"School Board Timpanogos 3"},{"vid":"2421814","name":"Alvira Morissette","party":"","address":"549 S 1500 W, Orem, UT 84058","precinct":"25OR34","hd":"57","v_score":"2.315214949","decile":"5","lat":40.28721115707337,"lng":-111.73105652627082,"phone":"(384) 031-7349","sd":"23","ssbd":"12","lsbd":"School Board Timpanogos 3"},{"vid":"2439816","name":"Dr. Tina Wunsch","party":"","address":"1834 W 180 S, Orem, UT 84059","precinct":"25OR34","hd":"57","v_score":"0","decile":"1","lat":40.29406227647645,"lng":-111.73937760889942,"phone":"(219) 835-0831","sd":"23","ssbd":"12","lsbd":"School Board Timpanogos 3"},{"vid":"2441934","name":"Gorden Zieme","party":"","address":"709 S 1545 W, Orem, UT 84058","precinct":"25OR34","hd":"57","v_score":"34.53702939","decile":"10","lat":40.28426529815164,"lng":-111.73232948700802,"phone":"(289) 536-5354","sd":"23","ssbd":"12","lsbd":"School Board Timpanogos 3"},{"vid":"2443223","name":"Mr. Ewell Zulauf","party":"","address":"670 S 1545 W, Orem, UT 84058","precinct":"25OR34","hd":"57","v_score":"2.315214949","decile":"5","lat":40.2846439416325,"lng":-111.73307188691851,"phone":"(920) 668-0442","sd":"23","ssbd":"12","lsbd":"School Board Timpanogos 3"},{"vid":"2459173","name":"Molly Swift","party":"Dem","address":"1522 W 650 S, Orem, UT 84058","precinct":"25OR34","hd":"57","v_score":"1.193887297","decile":"3","lat":40.2853188319915,"lng":-111.73176872968195,"phone":"(996) 367-1480","sd":"23","ssbd":"12","lsbd":"School Board Timpanogos 3"},{"vid":"2459843","name":"Mimi Christiansen DDS","party":"","address":"622 S 1540 W, Orem, UT 84058","precinct":"25OR34","hd":"57","v_score":"1.193887297","decile":"3","lat":40.2855740579725,"lng":-111.73251821475479,"phone":"(741) 714-7432","sd":"23","ssbd":"12","lsbd":"School Board Timpanogos 3"},{"vid":"2466509","name":"Saint Beer","party":"Rep","address":"1945 W 180 S, Orem, UT 84059","precinct":"25OR34","hd":"57","v_score":"0","decile":"1","lat":40.2935925948999,"lng":-111.74194288958805,"phone":"(341) 576-0668","sd":"23","ssbd":"12","lsbd":"School Board Timpanogos 3"},{"vid":"2466567","name":"Jeramiah Jacobson","party":"Rep","address":"1724 W 180 S, Orem, UT 84059","precinct":"25OR34","hd":"57","v_score":"1.121327652","decile":"3","lat":40.29404383944087,"lng":-111.7368198082405,"phone":"(626) 104-3504","sd":"23","ssbd":"12","lsbd":"School Board Timpanogos 3"},{"vid":"2483196","name":"Miss Mable Smitham DVM","party":"Rep","address":"793 S 1370 W, Orem, UT 84058","precinct":"25OR34","hd":"57","v_score":"22.25436402","decile":"10","lat":40.28267359889694,"lng":-111.72801128813099,"phone":"(552) 019-2790","sd":"23","ssbd":"12","lsbd":"School Board Timpanogos 3"},{"vid":"2483988","name":"Kerrie Skiles","party":"","address":"153 S 1990 W, Orem, UT 84059","precinct":"25OR34","hd":"57","v_score":"0","decile":"1","lat":40.294428323397824,"lng":-111.74278277103306,"phone":"(553) 354-0967","sd":"23","ssbd":"12","lsbd":"School Board Timpanogos 3"},{"vid":"2484126","name":"Debby Stiedemann","party":"Rep","address":"1999 W 180 S, Orem, UT 84059","precinct":"25OR34","hd":"57","v_score":"0","decile":"1","lat":40.29358237747131,"lng":-111.7432442063563,"phone":"(305) 195-2135","sd":"23","ssbd":"12","lsbd":"School Board Timpanogos 3"},{"vid":"2496262","name":"Dr. Sullivan Runolfsdottir I","party":"Dem","address":"1502 W 610 S, Orem, UT 84058","precinct":"25OR34","hd":"57","v_score":"0","decile":"1","lat":40.285871205369126,"lng":-111.73122103444113,"phone":"(371) 855-5928","sd":"23","ssbd":"12","lsbd":"School Board Timpanogos 3"},{"vid":"2502084","name":"Lewis Rippin","party":"","address":"742 S 1370 W, Orem, UT 84058","precinct":"25OR34","hd":"57","v_score":"0","decile":"1","lat":40.28357150292288,"lng":-111.72899369884233,"phone":"(205) 356-9990","sd":"23","ssbd":"12","lsbd":"School Board Timpanogos 3"},{"vid":"2505621","name":"Jeryl Okuneva","party":"","address":"600 S Geneva Rd, Orem, UT 84059","precinct":"25OR34","hd":"57","v_score":"0","decile":"1","lat":40.285811236341665,"lng":-111.73477999570011,"phone":"(372) 054-8845","sd":"23","ssbd":"12","lsbd":"School Board Timpanogos 3"},{"vid":"2507249","name":"Dr. Weston Jast PhD","party":"","address":"1511 W 650 S, Orem, UT 84058","precinct":"25OR34","hd":"57","v_score":"2.817000428","decile":"6","lat":40.2849087156518,"lng":-111.73139435468265,"phone":"(710) 803-9166","sd":"23","ssbd":"12","lsbd":"School Board Timpanogos 3"},{"vid":"2509514","name":"Ronny Mertz","party":"Dem","address":"689 S 1545 W, Orem, UT 84058","precinct":"25OR34","hd":"57","v_score":"0","decile":"1","lat":40.28453297251741,"lng":-111.73249960690228,"phone":"(310) 974-7898","sd":"23","ssbd":"12","lsbd":"School Board Timpanogos 3"},{"vid":"2509983","name":"Thursa Mraz","party":"","address":"1451 W 650 S, Orem, UT 84058","precinct":"25OR34","hd":"57","v_score":"0","decile":"1","lat":40.28492208062068,"lng":-111.73002965076034,"phone":"(679) 772-2392","sd":"23","ssbd":"12","lsbd":"School Board Timpanogos 3"},{"vid":"2510057","name":"Mr. Cheyenne Mraz","party":"Rep","address":"1555 W 650 S, Orem, UT 84058","precinct":"25OR34","hd":"57","v_score":"0","decile":"1","lat":40.28498922840153,"lng":-111.73254598234398,"phone":"(656) 965-6607","sd":"23","ssbd":"12","lsbd":"School Board Timpanogos 3"},{"vid":"2513161","name":"Ashlyn Oberbrunner","party":"","address":"1529 W 740 S, Orem, UT 84058","precinct":"25OR34","hd":"57","v_score":"0","decile":"1","lat":40.283414512586056,"lng":-111.7318560996468,"phone":"(628) 963-4900","sd":"23","ssbd":"12","lsbd":"School Board Timpanogos 3"},{"vid":"2525561","name":"Aloys Goldner-Bradtke","party":"","address":"711 S 1525 W, Orem, UT 84058","precinct":"25OR34","hd":"57","v_score":"2.817000428","decile":"6","lat":40.284151044154996,"lng":-111.73155914464131,"phone":"(565) 891-5188","sd":"23","ssbd":"12","lsbd":"School Board Timpanogos 3"},{"vid":"2535430","name":"Amari Stoltenberg DDS","party":"Rep","address":"1449 W 730 S, Orem, UT 84058","precinct":"25OR34","hd":"57","v_score":"1.193887297","decile":"4","lat":40.28368636175195,"lng":-111.73026032759208,"phone":"(985) 645-7679","sd":"23","ssbd":"12","lsbd":"School Board Timpanogos 3"},{"vid":"2539669","name":"Reginal Hyatt-Schaefer","party":"","address":"1874 W 140 S, Orem, UT 84059","precinct":"25OR34","hd":"57","v_score":"0","decile":"1","lat":40.2948283569697,"lng":-111.74029184700163,"phone":"(659) 070-4263","sd":"23","ssbd":"12","lsbd":"School Board Timpanogos 3"},{"vid":"2549590","name":"Dr. Wilda Gibson DDS","party":"Rep","address":"1590 W 525 S, Orem, UT 84058","precinct":"25OR34","hd":"57","v_score":"1.193887297","decile":"4","lat":40.287650549033415,"lng":-111.73353971658541,"phone":"(451) 393-2597","sd":"23","ssbd":"12","lsbd":"School Board Timpanogos 3"},{"vid":"2566438","name":"Kenley Walker","party":"Dem","address":"1536 W 525 S, Orem, UT 84058","precinct":"25OR34","hd":"57","v_score":"0","decile":"1","lat":40.287671725473544,"lng":-111.73222164083782,"phone":"(602) 794-4058","sd":"23","ssbd":"12","lsbd":"School Board Timpanogos 3"},{"vid":"2575232","name":"Miss Jeannie Ledner","party":"","address":"1536 W 525 S, Orem, UT 84058","precinct":"25OR34","hd":"57","v_score":"8.380423136","decile":"8","lat":40.287671725473544,"lng":-111.73222164083782,"phone":"(937) 342-3980","sd":"23","ssbd":"12","lsbd":"School Board Timpanogos 3"},{"vid":"2586402","name":"Britni Gusikowski PhD","party":"Rep","address":"1434 W 800 S, Orem, UT 84058","precinct":"25OR34","hd":"57","v_score":"1.193887297","decile":"4","lat":40.28267438343386,"lng":-111.72937606583785,"phone":"(887) 812-2384","sd":"23","ssbd":"12","lsbd":"School Board Timpanogos 3"},{"vid":"2588548","name":"Mr. Sandy Ruecker I","party":"Dem","address":"1502 W 525 S, Orem, UT 84058","precinct":"25OR34","hd":"57","v_score":"1.193887297","decile":"4","lat":40.28768749438672,"lng":-111.73149165000174,"phone":"(947) 634-9864","sd":"23","ssbd":"12","lsbd":"School Board Timpanogos 3"},{"vid":"2594582","name":"Chaka Bayer PhD","party":"Dem","address":"742 S 1370 W, Orem, UT 84058","precinct":"25OR34","hd":"57","v_score":"0","decile":"1","lat":40.28357150292288,"lng":-111.72899369884233,"phone":"(699) 600-3315","sd":"23","ssbd":"12","lsbd":"School Board Timpanogos 3"},{"vid":"2600631","name":"Evalena Eichmann","party":"","address":"600 S Geneva Rd, Orem, UT 84059","precinct":"25OR34","hd":"57","v_score":"0","decile":"1","lat":40.285811236341665,"lng":-111.73477999570011,"phone":"(368) 381-7216","sd":"23","ssbd":"12","lsbd":"School Board Timpanogos 3"},{"vid":"2601869","name":"Shandra Kovacek","party":"","address":"1537 W 740 S, Orem, UT 84058","precinct":"25OR34","hd":"57","v_score":"1.193887297","decile":"4","lat":40.28341275332294,"lng":-111.73201045841971,"phone":"(425) 548-8504","sd":"23","ssbd":"12","lsbd":"School Board Timpanogos 3"},{"vid":"2615897","name":"Haylie Barrows","party":"Rep","address":"547 S 1540 W, Orem, UT 84058","precinct":"25OR34","hd":"57","v_score":"1.193887297","decile":"4","lat":40.28723468362353,"lng":-111.73209793933958,"phone":"(204) 801-2281","sd":"23","ssbd":"12","lsbd":"School Board Timpanogos 3"},{"vid":"2623911","name":"Miss Florance Mueller","party":"Rep","address":"731 S 1525 W, Orem, UT 84058","precinct":"25OR34","hd":"57","v_score":"8.284004873","decile":"8","lat":40.28379925085536,"lng":-111.73156509639927,"phone":"(705) 134-1164","sd":"23","ssbd":"12","lsbd":"School Board Timpanogos 3"},{"vid":"2624023","name":"Suzie Reynolds-Farrell","party":"Dem","address":"713 S 1370 W, Orem, UT 84058","precinct":"25OR34","hd":"57","v_score":"1.193887297","decile":"4","lat":40.28414877876523,"lng":-111.72881420574676,"phone":"(342) 503-7635","sd":"23","ssbd":"12","lsbd":"School Board Timpanogos 3"},{"vid":"2627247","name":"Wayde Lynch Sr.","party":"Dem","address":"1484 W 650 S, Orem, UT 84058","precinct":"25OR34","hd":"57","v_score":"1.193887297","decile":"4","lat":40.28532078335345,"lng":-111.73090869664264,"phone":"(177) 848-2166","sd":"23","ssbd":"12","lsbd":"School Board Timpanogos 3"},{"vid":"2627760","name":"Dr. Kolby Kreiger MD","party":"Rep","address":"709 S 1545 W, Orem, UT 84058","precinct":"25OR34","hd":"57","v_score":"23.62038206","decile":"10","lat":40.28426529815164,"lng":-111.73232948700802,"phone":"(511) 871-5098","sd":"23","ssbd":"12","lsbd":"School Board Timpanogos 3"},{"vid":"2630347","name":"Cordella Schulist","party":"","address":"620 S 1580 W, Orem, UT 84058","precinct":"25OR34","hd":"57","v_score":"7.549608095","decile":"8","lat":40.285590843050805,"lng":-111.73338768193115,"phone":"(425) 787-8026","sd":"23","ssbd":"12","lsbd":"School Board Timpanogos 3"},{"vid":"2632700","name":"Noel Pagac-Ebert","party":"","address":"596 S 1580 W, Orem, UT 84058","precinct":"25OR34","hd":"57","v_score":"1.623113131","decile":"5","lat":40.286038664131084,"lng":-111.73330643421585,"phone":"(271) 396-7310","sd":"23","ssbd":"12","lsbd":"School Board Timpanogos 3"},{"vid":"2639312","name":"Terance Berge","party":"Dem","address":"682 S 1545 W, Orem, UT 84058","precinct":"25OR34","hd":"57","v_score":"1.193887297","decile":"4","lat":40.28448540602657,"lng":-111.73297113780514,"phone":"(179) 059-7662","sd":"23","ssbd":"12","lsbd":"School Board Timpanogos 3"},{"vid":"2646633","name":"Patience Schuppe","party":"Rep","address":"607 S 1580 W, Orem, UT 84058","precinct":"25OR34","hd":"57","v_score":"1.193887297","decile":"4","lat":40.285835105035105,"lng":-111.73297625296762,"phone":"(734) 231-0335","sd":"23","ssbd":"12","lsbd":"School Board Timpanogos 3"},{"vid":"2652484","name":"Manervia Denesik","party":"Rep","address":"1534 W 740 S, Orem, UT 84058","precinct":"25OR34","hd":"57","v_score":"1.193887297","decile":"4","lat":40.28376389590361,"lng":-111.73199420412331,"phone":"(606) 656-5724","sd":"23","ssbd":"12","lsbd":"School Board Timpanogos 3"},{"vid":"2653903","name":"June Bogisich","party":"Dem","address":"529 S 1500 W, Orem, UT 84058","precinct":"25OR34","hd":"57","v_score":"1.193887297","decile":"4","lat":40.287545730200215,"lng":-111.73134736060229,"phone":"(830) 636-9114","sd":"23","ssbd":"12","lsbd":"School Board Timpanogos 3"},{"vid":"2655190","name":"Marshal Moore-Greenfelder","party":"Dem","address":"600 S Geneva Rd, Orem, UT 84059","precinct":"25OR34","hd":"57","v_score":"0","decile":"1","lat":40.285811236341665,"lng":-111.73477999570011,"phone":"(850) 762-6812","sd":"23","ssbd":"12","lsbd":"School Board Timpanogos 3"},{"vid":"2655195","name":"Mr. Deon Padberg V","party":"Dem","address":"705 S 1525 W, Orem, UT 84058","precinct":"25OR34","hd":"57","v_score":"1.193887297","decile":"4","lat":40.284209113570014,"lng":-111.73155969890185,"phone":"(600) 526-9429","sd":"23","ssbd":"12","lsbd":"School Board Timpanogos 3"},{"vid":"2655408","name":"Darrick Blick III","party":"Dem","address":"1851 W 180 S, Orem, UT 84059","precinct":"25OR34","hd":"57","v_score":"1.193887297","decile":"4","lat":40.29360910544458,"lng":-111.73983578760324,"phone":"(813) 713-7233","sd":"23","ssbd":"12","lsbd":"School Board Timpanogos 3"},{"vid":"2659353","name":"Keaton Turcotte","party":"Dem","address":"1860 W 140 S, Orem, UT 84059","precinct":"25OR34","hd":"57","v_score":"0","decile":"1","lat":40.294830702577435,"lng":-111.73999187096183,"phone":"(403) 364-6776","sd":"23","ssbd":"12","lsbd":"School Board Timpanogos 3"},{"vid":"2662110","name":"Darren Pollich","party":"Dem","address":"167 S 1850 W, Orem, UT 84059","precinct":"25OR34","hd":"57","v_score":"1.193887297","decile":"4","lat":40.29392631037508,"lng":-111.73969526704397,"phone":"(881) 143-3594","sd":"23","ssbd":"12","lsbd":"School Board Timpanogos 3"},{"vid":"2667312","name":"Harmony Treutel","party":"","address":"600 S Geneva Rd, Orem, UT 84059","precinct":"25OR34","hd":"57","v_score":"0","decile":"1","lat":40.285811236341665,"lng":-111.73477999570011,"phone":"(507) 963-6308","sd":"23","ssbd":"12","lsbd":"School Board Timpanogos 3"},{"vid":"2667828","name":"Warren Leuschke DVM","party":"Rep","address":"600 S Geneva Rd, Orem, UT 84059","precinct":"25OR34","hd":"57","v_score":"0","decile":"1","lat":40.285811236341665,"lng":-111.73477999570011,"phone":"(138) 935-2641","sd":"23","ssbd":"12","lsbd":"School Board Timpanogos 3"},{"vid":"2669644","name":"Immanuel Renner","party":"Rep","address":"1517 W 575 S, Orem, UT 84058","precinct":"25OR34","hd":"57","v_score":"0","decile":"2","lat":40.286307829626914,"lng":-111.73178927720674,"phone":"(969) 641-8334","sd":"23","ssbd":"12","lsbd":"School Board Timpanogos 3"},{"vid":"2670455","name":"Imo Cruickshank","party":"Rep","address":"547 S 1540 W, Orem, UT 84058","precinct":"25OR34","hd":"57","v_score":"0","decile":"2","lat":40.28723468362353,"lng":-111.73209793933958,"phone":"(282) 847-4576","sd":"23","ssbd":"12","lsbd":"School Board Timpanogos 3"},{"vid":"2677980","name":"Lolita Erdman","party":"","address":"540 S 1500 W, Orem, UT 84058","precinct":"25OR34","hd":"57","v_score":"0","decile":"2","lat":40.28723806927834,"lng":-111.73146964923798,"phone":"(613) 942-9922","sd":"23","ssbd":"12","lsbd":"School Board Timpanogos 3"},{"vid":"2679052","name":"Esperanza Huel-Aufderhar","party":"Rep","address":"598 S 1470 W, Orem, UT 84058","precinct":"25OR34","hd":"57","v_score":"0","decile":"2","lat":40.28598806291369,"lng":-111.73074097309426,"phone":"(437) 431-9812","sd":"23","ssbd":"12","lsbd":"School Board Timpanogos 3"},{"vid":"2696004","name":"Kiyoshi Berge","party":"Dem","address":"620 S 1580 W, Orem, UT 84058","precinct":"25OR34","hd":"57","v_score":"5.926494964","decile":"7","lat":40.285590843050805,"lng":-111.73338768193115,"phone":"(304) 987-2211","sd":"23","ssbd":"12","lsbd":"School Board Timpanogos 3"},{"vid":"2699437","name":"Mr. Charlton Steuber Sr.","party":"","address":"600 S Geneva Rd, Orem, UT 84059","precinct":"25OR34","hd":"57","v_score":"0","decile":"2","lat":40.285811236341665,"lng":-111.73477999570011,"phone":"(195) 725-4309","sd":"23","ssbd":"12","lsbd":"School Board Timpanogos 3"},{"vid":"2711795","name":"Mearl Jast","party":"Rep","address":"600 S Geneva Rd, Orem, UT 84059","precinct":"25OR34","hd":"57","v_score":"0","decile":"2","lat":40.285811236341665,"lng":-111.73477999570011,"phone":"(116) 394-9665","sd":"23","ssbd":"12","lsbd":"School Board Timpanogos 3"},{"vid":"2712499","name":"Paula King","party":"Rep","address":"681 S 1545 W, Orem, UT 84058","precinct":"25OR34","hd":"57","v_score":"0","decile":"2","lat":40.28463929452668,"lng":-111.7325672089003,"phone":"(413) 458-4256","sd":"23","ssbd":"12","lsbd":"School Board Timpanogos 3"},{"vid":"2722632","name":"Pamella Shields-Ward","party":"Rep","address":"1502 W 525 S, Orem, UT 84058","precinct":"25OR34","hd":"57","v_score":"1.193887297","decile":"4","lat":40.28768749438672,"lng":-111.73149165000174,"phone":"(304) 600-3866","sd":"23","ssbd":"12","lsbd":"School Board Timpanogos 3"},{"vid":"2730306","name":"Jelani Cremin-Hegmann","party":"Rep","address":"723 S 1525 W, Orem, UT 84058","precinct":"25OR34","hd":"57","v_score":"0","decile":"2","lat":40.283918694521454,"lng":-111.73156617108377,"phone":"(149) 473-8961","sd":"23","ssbd":"12","lsbd":"School Board Timpanogos 3"},{"vid":"2732471","name":"Sadye Flatley","party":"","address":"600 S Geneva Rd, Orem, UT 84059","precinct":"25OR34","hd":"57","v_score":"0","decile":"2","lat":40.285811236341665,"lng":-111.73477999570011,"phone":"(832) 967-1968","sd":"23","ssbd":"12","lsbd":"School Board Timpanogos 3"},{"vid":"2735099","name":"Cleva Bradtke","party":"","address":"723 S 1370 W, Orem, UT 84058","precinct":"25OR34","hd":"57","v_score":"0","decile":"2","lat":40.283996756807554,"lng":-111.72869940123309,"phone":"(246) 743-6451","sd":"23","ssbd":"12","lsbd":"School Board Timpanogos 3"},{"vid":"2735232","name":"Tanesha Tromp","party":"Dem","address":"579 S 1470 W, Orem, UT 84058","precinct":"25OR34","hd":"57","v_score":"0","decile":"2","lat":40.28639158187051,"lng":-111.73058394504281,"phone":"(270) 315-0871","sd":"23","ssbd":"12","lsbd":"School Board Timpanogos 3"},{"vid":"2735726","name":"Myla Von DDS","party":"","address":"1950 W 140 S, Orem, UT 84059","precinct":"25OR34","hd":"57","v_score":"4.069929862","decile":"7","lat":40.29481423933385,"lng":-111.74209163442943,"phone":"(818) 910-4794","sd":"23","ssbd":"12","lsbd":"School Board Timpanogos 3"},{"vid":"2743801","name":"Ms. Keisha Corwin MD","party":"","address":"793 S 1370 W, Orem, UT 84058","precinct":"25OR34","hd":"57","v_score":"1.193887297","decile":"4","lat":40.28267359889694,"lng":-111.72801128813099,"phone":"(349) 634-3195","sd":"23","ssbd":"12","lsbd":"School Board Timpanogos 3"},{"vid":"2772918","name":"Odie Wilkinson","party":"Dem","address":"636 S 1470 W, Orem, UT 84058","precinct":"25OR34","hd":"57","v_score":"0","decile":"2","lat":40.28523190978656,"lng":-111.73051711854976,"phone":"(390) 543-9339","sd":"23","ssbd":"12","lsbd":"School Board Timpanogos 3"},{"vid":"2780799","name":"Rossie Block","party":"Dem","address":"1394 W 690 S, Orem, UT 84058","precinct":"25OR34","hd":"57","v_score":"1.193887297","decile":"4","lat":40.28460260491508,"lng":-111.72976926065836,"phone":"(188) 726-0553","sd":"23","ssbd":"12","lsbd":"School Board Timpanogos 3"},{"vid":"2792235","name":"Ms. Carin Hirthe","party":"Dem","address":"1571 W 525 S, Orem, UT 84058","precinct":"25OR34","hd":"57","v_score":"0","decile":"2","lat":40.28735352041282,"lng":-111.73303982586636,"phone":"(694) 044-9928","sd":"23","ssbd":"12","lsbd":"School Board Timpanogos 3"},{"vid":"2794259","name":"Alina Sipes","party":"","address":"1902 W 180 S, Orem, UT 84059","precinct":"25OR34","hd":"57","v_score":"0","decile":"2","lat":40.29404963688131,"lng":-111.74099148081639,"phone":"(217) 122-7358","sd":"23","ssbd":"12","lsbd":"School Board Timpanogos 3"},{"vid":"2797816","name":"Gaylene Koch","party":"","address":"1578 W 575 S, Orem, UT 84058","precinct":"25OR34","hd":"57","v_score":"1.193887297","decile":"4","lat":40.28670553016031,"lng":-111.73314114307432,"phone":"(639) 114-1215","sd":"23","ssbd":"12","lsbd":"School Board Timpanogos 3"},{"vid":"2800355","name":"Ms. Liana Kunde","party":"","address":"612 S 1580 W, Orem, UT 84058","precinct":"25OR34","hd":"57","v_score":"0","decile":"2","lat":40.28582576511247,"lng":-111.73329048371097,"phone":"(540) 074-8229","sd":"23","ssbd":"12","lsbd":"School Board Timpanogos 3"},{"vid":"2801704","name":"Hector Boehm-Davis","party":"","address":"600 S Geneva Rd, Orem, UT 84059","precinct":"25OR34","hd":"57","v_score":"0","decile":"2","lat":40.285811236341665,"lng":-111.73477999570011,"phone":"(622) 102-8339","sd":"23","ssbd":"12","lsbd":"School Board Timpanogos 3"},{"vid":"2825048","name":"Marcello Rodriguez","party":"","address":"1549 W 740 S, Orem, UT 84058","precinct":"25OR34","hd":"57","v_score":"1.193887297","decile":"4","lat":40.28340919436477,"lng":-111.73232339463378,"phone":"(759) 710-3275","sd":"23","ssbd":"12","lsbd":"School Board Timpanogos 3"},{"vid":"2829591","name":"Dr. Daquan Bernhard PhD","party":"","address":"540 S 1500 W, Orem, UT 84058","precinct":"25OR34","hd":"57","v_score":"4.069929862","decile":"7","lat":40.28723806927834,"lng":-111.73146964923798,"phone":"(856) 209-1722","sd":"23","ssbd":"12","lsbd":"School Board Timpanogos 3"},{"vid":"2835976","name":"Olaf Klein","party":"Rep","address":"711 S 1420 W, Orem, UT 84058","precinct":"25OR34","hd":"57","v_score":"1.193887297","decile":"4","lat":40.2842497130242,"lng":-111.72989380482849,"phone":"(640) 948-9292","sd":"23","ssbd":"12","lsbd":"School Board Timpanogos 3"},{"vid":"2876134","name":"Dr. Cyndi Walsh DVM","party":"","address":"1907 W 180 S, Orem, UT 84059","precinct":"25OR34","hd":"57","v_score":"1.193887297","decile":"4","lat":40.29359967529203,"lng":-111.7410400726664,"phone":"(271) 841-1229","sd":"23","ssbd":"12","lsbd":"School Board Timpanogos 3"},{"vid":"2877957","name":"Ethan Wuckert PhD","party":"Rep","address":"598 S 1470 W, Orem, UT 84058","precinct":"25OR34","hd":"57","v_score":"1.193887297","decile":"4","lat":40.28598806291369,"lng":-111.73074097309426,"phone":"(883) 924-5297","sd":"23","ssbd":"12","lsbd":"School Board Timpanogos 3"},{"vid":"2888747","name":"Dr. Moses Huel MD","party":"Rep","address":"556 S 1540 W, Orem, UT 84058","precinct":"25OR34","hd":"57","v_score":"1.193887297","decile":"4","lat":40.28704488712022,"lng":-111.73274711198698,"phone":"(211) 532-3660","sd":"23","ssbd":"12","lsbd":"School Board Timpanogos 3"},{"vid":"2889901","name":"Stanley Rippin","party":"","address":"1434 W 800 S, Orem, UT 84058","precinct":"25OR34","hd":"57","v_score":"1.193887297","decile":"4","lat":40.28267438343386,"lng":-111.72937606583785,"phone":"(315) 018-1105","sd":"23","ssbd":"12","lsbd":"School Board Timpanogos 3"},{"vid":"2896419","name":"Ruffus Schmidt","party":"Dem","address":"1798 W 180 S, Orem, UT 84059","precinct":"25OR34","hd":"57","v_score":"0","decile":"2","lat":40.29406900258294,"lng":-111.7385175065102,"phone":"(658) 852-0776","sd":"23","ssbd":"12","lsbd":"School Board Timpanogos 3"},{"vid":"2902755","name":"Theodocia Stracke","party":"Rep","address":"1555 W 650 S, Orem, UT 84058","precinct":"25OR34","hd":"57","v_score":"0","decile":"2","lat":40.28498922840153,"lng":-111.73254598234398,"phone":"(108) 629-3015","sd":"23","ssbd":"12","lsbd":"School Board Timpanogos 3"},{"vid":"2907217","name":"Laureen Gerlach","party":"Rep","address":"1396 W 800 S, Orem, UT 84058","precinct":"25OR34","hd":"57","v_score":"0","decile":"2","lat":40.28277032805165,"lng":-111.72866634871036,"phone":"(805) 596-2710","sd":"23","ssbd":"12","lsbd":"School Board Timpanogos 3"},{"vid":"2915060","name":"Mrs. Kaiya Ullrich","party":"Dem","address":"1535 W 650 S, Orem, UT 84058","precinct":"25OR34","hd":"57","v_score":"0","decile":"2","lat":40.28493477574231,"lng":-111.73199622358075,"phone":"(704) 046-4411","sd":"23","ssbd":"12","lsbd":"School Board Timpanogos 3"},{"vid":"2929585","name":"Kassidy Crist","party":"Rep","address":"1812 W 140 S, Orem, UT 84059","precinct":"25OR34","hd":"57","v_score":"0","decile":"2","lat":40.29484007760764,"lng":-111.73879200039964,"phone":"(344) 686-6475","sd":"23","ssbd":"12","lsbd":"School Board Timpanogos 3"},{"vid":"2942526","name":"Wess Kunze","party":"Dem","address":"1484 W 650 S, Orem, UT 84058","precinct":"25OR34","hd":"57","v_score":"0","decile":"2","lat":40.28532078335345,"lng":-111.73090869664264,"phone":"(661) 285-0975","sd":"23","ssbd":"12","lsbd":"School Board Timpanogos 3"},{"vid":"2942611","name":"Len Harris","party":"","address":"1484 W 650 S, Orem, UT 84058","precinct":"25OR34","hd":"57","v_score":"0","decile":"2","lat":40.28532078335345,"lng":-111.73090869664264,"phone":"(572) 800-8917","sd":"23","ssbd":"12","lsbd":"School Board Timpanogos 3"},{"vid":"2944700","name":"Ayana Schaden","party":"","address":"688 S 1525 W, Orem, UT 84058","precinct":"25OR34","hd":"57","v_score":"0","decile":"2","lat":40.2844646390713,"lng":-111.73200898895557,"phone":"(515) 041-5090","sd":"23","ssbd":"12","lsbd":"School Board Timpanogos 3"},{"vid":"2948039","name":"Dr. Shellie Brakus PhD","party":"Rep","address":"763 S 1420 W, Orem, UT 84058","precinct":"25OR34","hd":"57","v_score":"0","decile":"2","lat":40.28320497790681,"lng":-111.72918002167548,"phone":"(700) 471-8832","sd":"23","ssbd":"12","lsbd":"School Board Timpanogos 3"},{"vid":"2958726","name":"Lenon Spencer","party":"","address":"1519 W 740 S, Orem, UT 84058","precinct":"25OR34","hd":"57","v_score":"2.876042565","decile":"6","lat":40.28341445762622,"lng":-111.73162173583671,"phone":"(640) 461-8747","sd":"23","ssbd":"12","lsbd":"School Board Timpanogos 3"},{"vid":"2961278","name":"Vivian Carroll","party":"","address":"600 S Geneva Rd, Vineyard, UT 84059","precinct":"25OR34","hd":"57","v_score":"0","decile":"2","lat":40.28636721908286,"lng":-111.7352868287025,"phone":"(962) 098-6002","sd":"23","ssbd":"12","lsbd":"School Board Timpanogos 3"},{"vid":"2970781","name":"Elodie Koepp","party":"Rep","address":"535 S 1500 W, Orem, UT 84058","precinct":"25OR34","hd":"57","v_score":"0","decile":"2","lat":40.28748429677528,"lng":-111.73118508274341,"phone":"(927) 613-6362","sd":"23","ssbd":"12","lsbd":"School Board Timpanogos 3"},{"vid":"2971237","name":"Tory Stoltenberg-Mante","party":"","address":"552 S 1540 W, Orem, UT 84058","precinct":"25OR34","hd":"57","v_score":"0","decile":"2","lat":40.28703577757007,"lng":-111.73305501413202,"phone":"(235) 353-6337","sd":"23","ssbd":"12","lsbd":"School Board Timpanogos 3"},{"vid":"2976677","name":"Marin Willms","party":"Rep","address":"1498 W 575 S, Orem, UT 84058","precinct":"25OR34","hd":"57","v_score":"0","decile":"2","lat":40.28668431155251,"lng":-111.73119754665836,"phone":"(133) 631-5990","sd":"23","ssbd":"12","lsbd":"School Board Timpanogos 3"},{"vid":"2980708","name":"Mrs. Juliet Johnson DVM","party":"","address":"1508 W 610 S, Orem, UT 84058","precinct":"25OR34","hd":"57","v_score":"0","decile":"2","lat":40.285937930040575,"lng":-111.73145944569806,"phone":"(183) 716-8849","sd":"23","ssbd":"12","lsbd":"School Board Timpanogos 3"},{"vid":"2983235","name":"Dr. Devin Corwin","party":"Rep","address":"577 S Geneva Rd, Orem, UT 84058","precinct":"25OR34","hd":"57","v_score":"0","decile":"2","lat":40.28633971230551,"lng":-111.73347335991032,"phone":"(273) 108-1481","sd":"23","ssbd":"12","lsbd":"School Board Timpanogos 3"},{"vid":"1b01aa0fa82d2b89bfe98956d716be2877a31e727bed5e1c017bf5a9142ec04c","name":"Warner Renner","party":"Rep","address":"1553 W 575 S, Orem, UT 84058","precinct":"25OR34","hd":"57","v_score":"5.40460374","decile":"7","lat":40.28637349934143,"lng":-111.73246128247234,"phone":"(837) 672-3402","sd":"23","ssbd":"12","lsbd":"School Board Timpanogos 3"},{"vid":"3372445","name":"Kaitlyn Jast","party":"","address":"1798 W 180 S, Orem, UT 84059","precinct":"25OR34","hd":"57","v_score":"1.121327652","decile":"3","lat":40.29406900258294,"lng":-111.7385175065102,"phone":"(472) 275-4621","sd":"23","ssbd":"12","lsbd":"School Board Timpanogos 3"},{"vid":"3538141","name":"Davion Lemke","party":"Dem","address":"742 S 1370 W, Orem, UT 84058","precinct":"25OR34","hd":"57","v_score":"1.193887297","decile":"4","lat":40.28357150292288,"lng":-111.72899369884233,"phone":"(570) 388-9741","sd":"23","ssbd":"12","lsbd":"School Board Timpanogos 3"},{"vid":"4706795","name":"Zina Reilly","party":"","address":"535 S 1500 W, Orem, UT 84058","precinct":"25OR34","hd":"57","v_score":"23.95587272","decile":"10","lat":40.28748429677528,"lng":-111.73118508274341,"phone":"(220) 485-3475","sd":"23","ssbd":"12","lsbd":"School Board Timpanogos 3"},{"vid":"e16e3aa73dc41238531462ba883c1cec14398f5420bf7f33fd3db4100c16e973","name":"Arlington Howell","party":"","address":"1553 W 575 S, Orem, UT 84058","precinct":"25OR34","hd":"57","v_score":"5.40460374","decile":"7","lat":40.28637349934143,"lng":-111.73246128247234,"phone":"(462) 345-4305","sd":"23","ssbd":"12","lsbd":"School Board Timpanogos 3"},{"vid":"6180254","name":"Miss Ruthe Hermann","party":"Dem","address":"1539 W 700 S, Orem, UT 84058","precinct":"25OR34","hd":"57","v_score":"19.33530648","decile":"10","lat":40.284098562719976,"lng":-111.7323150234133,"phone":"(472) 915-2513","sd":"23","ssbd":"12","lsbd":"School Board Timpanogos 3"},{"vid":"6200489","name":"China Lueilwitz","party":"Rep","address":"154 S 1850 W, Orem, UT 84059","precinct":"25OR34","hd":"57","v_score":"13.61621523","decile":"9","lat":40.29445025980572,"lng":-111.74001697538462,"phone":"(189) 200-5665","sd":"23","ssbd":"12","lsbd":"School Board Timpanogos 3"},{"vid":"6917dac82f86dc6a41c9fffc3b13f63136146302e7e7b7e2fa462ceec5e4d01d","name":"Shante Gorczany","party":"Dem","address":"1775 W 140 S, Orem, UT 84059","precinct":"25OR34","hd":"57","v_score":"26.49117954","decile":"10","lat":40.29439734506552,"lng":-111.73794518481212,"phone":"(911) 353-0854","sd":"23","ssbd":"12","lsbd":"School Board Timpanogos 3"},{"vid":"6223625","name":"Lacey Bahringer","party":"Rep","address":"1907 W 180 S, Orem, UT 84059","precinct":"25OR34","hd":"57","v_score":"3.93832808","decile":"6","lat":40.29359967529203,"lng":-111.7410400726664,"phone":"(116) 121-8443","sd":"23","ssbd":"12","lsbd":"School Board Timpanogos 3"},{"vid":"6231585","name":"Deion Johnston","party":"Dem","address":"702 S 1420 W, Orem, UT 84058","precinct":"25OR34","hd":"57","v_score":"25.56562396","decile":"10","lat":40.28451584965913,"lng":-111.7302497568119,"phone":"(443) 316-0894","sd":"23","ssbd":"12","lsbd":"School Board Timpanogos 3"},{"vid":"01124bf04db7d56bae464d092d49366fd54672c86f472b275079c9295976a0dc","name":"Odile Bruen","party":"","address":"759 S 1370 W, Orem, UT 84058","precinct":"25OR34","hd":"57","v_score":"23.37569167","decile":"10","lat":40.28342073414922,"lng":-111.72826270933258,"phone":"(474) 688-8519","sd":"23","ssbd":"12","lsbd":"School Board Timpanogos 3"},{"vid":"6261557","name":"Miss Tatyana Luettgen","party":"Dem","address":"702 S 1420 W, Orem, UT 84058","precinct":"25OR34","hd":"57","v_score":"25.56562396","decile":"10","lat":40.28451584965913,"lng":-111.7302497568119,"phone":"(183) 843-1496","sd":"23","ssbd":"12","lsbd":"School Board Timpanogos 3"},{"vid":"6276756","name":"Griffin Wiza","party":"","address":"556 S 1540 W, Orem, UT 84058","precinct":"25OR34","hd":"57","v_score":"39.63298886","decile":"10","lat":40.28704488712022,"lng":-111.73274711198698,"phone":"(812) 184-4774","sd":"23","ssbd":"12","lsbd":"School Board Timpanogos 3"},{"vid":"6278838","name":"Rondal Kirlin II","party":"","address":"1714 W 180 S, Orem, UT 84059","precinct":"25OR34","hd":"57","v_score":"5.815909755","decile":"7","lat":40.29416305794623,"lng":-111.73645007149233,"phone":"(790) 662-5572","sd":"23","ssbd":"12","lsbd":"School Board Timpanogos 3"},{"vid":"079277774c3b9dfb6f3f77930f84b5e846b5e97a4af6fe694c5244d363995071","name":"Hugh White V","party":"","address":"1714 W 180 S, Orem, UT 84059","precinct":"25OR34","hd":"57","v_score":"0","decile":"3","lat":40.29416305794623,"lng":-111.73645007149233,"phone":"(465) 977-2939","sd":"23","ssbd":"12","lsbd":"School Board Timpanogos 3"},{"vid":"6298348","name":"Mr. Gaylord Franecki DVM","party":"","address":"1835 W 140 S, Orem, UT 84059","precinct":"25OR34","hd":"57","v_score":"3.93832808","decile":"6","lat":40.294386120690525,"lng":-111.73938248243951,"phone":"(578) 098-1516","sd":"23","ssbd":"12","lsbd":"School Board Timpanogos 3"},{"vid":"6299759","name":"Alannah Beahan","party":"","address":"1497 W 610 S, Orem, UT 84058","precinct":"25OR34","hd":"57","v_score":"6.814370645","decile":"8","lat":40.28569216658598,"lng":-111.73114980786463,"phone":"(903) 395-6144","sd":"23","ssbd":"12","lsbd":"School Board Timpanogos 3"},{"vid":"6301182","name":"Miss Maryellen Sawayn","party":"","address":"1950 W 140 S, Orem, UT 84059","precinct":"25OR34","hd":"57","v_score":"31.14994604","decile":"10","lat":40.29481423933385,"lng":-111.74209163442943,"phone":"(624) 673-8091","sd":"23","ssbd":"12","lsbd":"School Board Timpanogos 3"},{"vid":"6306181","name":"Deshaun Jaskolski","party":"Dem","address":"1999 W 180 S, Orem, UT 84059","precinct":"25OR34","hd":"57","v_score":"3.93832808","decile":"6","lat":40.29358237747131,"lng":-111.7432442063563,"phone":"(840) 925-2990","sd":"23","ssbd":"12","lsbd":"School Board Timpanogos 3"},{"vid":"05807bf90201f451964554460ea8f8e7ff08b44e040192ea01f6dbae1c5ea809","name":"Korbin Harris","party":"Dem","address":"1738 W 180 S, Orem, UT 84059","precinct":"25OR34","hd":"57","v_score":"9.116556227","decile":"8","lat":40.29402617347092,"lng":-111.73704712151654,"phone":"(211) 698-4030","sd":"23","ssbd":"12","lsbd":"School Board Timpanogos 3"},{"vid":"2851d778aee700fa90d86bcf47dbfb34a67bc48479bed3c0d51a5bba5ee73b0f","name":"Miss Johannah Runolfsson DVM","party":"Rep","address":"759 S 1370 W, Orem, UT 84058","precinct":"25OR34","hd":"57","v_score":"4.166348126","decile":"7","lat":40.28342073414922,"lng":-111.72826270933258,"phone":"(818) 882-7876","sd":"23","ssbd":"12","lsbd":"School Board Timpanogos 3"},{"vid":"6361006","name":"Salome Hoeger","party":"Dem","address":"611 S 1470 W, Orem, UT 84058","precinct":"25OR34","hd":"57","v_score":"2.817000428","decile":"6","lat":40.28578454225201,"lng":-111.73012952642264,"phone":"(161) 480-2064","sd":"23","ssbd":"12","lsbd":"School Board Timpanogos 3"},{"vid":"fd71f1c71274c3914d67f28b097ef82518bc6319c765a9c23f627f4f8b964534","name":"Angelic Cruickshank","party":"Dem","address":"1577 W 575 S, Orem, UT 84058","precinct":"25OR34","hd":"57","v_score":"0","decile":"3","lat":40.2863181864399,"lng":-111.73306631987901,"phone":"(819) 191-1930","sd":"23","ssbd":"12","lsbd":"School Board Timpanogos 3"},{"vid":"fcd0e6d3e792c53587224d539fce772fd2a3a26ec3b4adc5a823e717d718f6b9","name":"Vernal Yost","party":"","address":"169 S 1990 W, Orem, UT 84059","precinct":"25OR34","hd":"57","v_score":"20.93928147","decile":"10","lat":40.293926897754524,"lng":-111.74279228239989,"phone":"(179) 313-0433","sd":"23","ssbd":"12","lsbd":"School Board Timpanogos 3"},{"vid":"6381703","name":"Katelyn Fay PhD","party":"","address":"1926 W 180 S, Orem, UT 84059","precinct":"25OR34","hd":"57","v_score":"8.280646305","decile":"8","lat":40.294045086758054,"lng":-111.74157347251918,"phone":"(492) 185-8270","sd":"23","ssbd":"12","lsbd":"School Board Timpanogos 3"},{"vid":"9af22548d8ee701d716f524b513d80e0392daa6e02a64db2563b4837a3af7712","name":"Vera Ritchie-Von","party":"","address":"769 S 1370 W, Orem, UT 84058","precinct":"25OR34","hd":"57","v_score":"6.657533174","decile":"7","lat":40.28318553998049,"lng":-111.72807641800703,"phone":"(707) 683-2688","sd":"23","ssbd":"12","lsbd":"School Board Timpanogos 3"},{"vid":"6389941","name":"Mrs. Minda Leannon DVM","party":"","address":"1835 W 140 S, Orem, UT 84059","precinct":"25OR34","hd":"57","v_score":"2.315214949","decile":"5","lat":40.294386120690525,"lng":-111.73938248243951,"phone":"(574) 882-4979","sd":"23","ssbd":"12","lsbd":"School Board Timpanogos 3"},{"vid":"6390586","name":"Ezell Ondricka DVM","party":"Dem","address":"1881 W 180 S, Orem, UT 84059","precinct":"25OR34","hd":"57","v_score":"26.35608728","decile":"10","lat":40.29360439989248,"lng":-111.74043743570209,"phone":"(360) 853-7403","sd":"23","ssbd":"12","lsbd":"School Board Timpanogos 3"},{"vid":"6393341","name":"Lorenza Quitzon II","party":"Rep","address":"1957 W 180 S, Orem, UT 84059","precinct":"25OR34","hd":"57","v_score":"1.46627566","decile":"4","lat":40.29359021430497,"lng":-111.74224382844217,"phone":"(190) 628-0410","sd":"23","ssbd":"12","lsbd":"School Board Timpanogos 3"},{"vid":"6411487","name":"Cruz Grimes","party":"Rep","address":"1497 W 610 S, Orem, UT 84058","precinct":"25OR34","hd":"57","v_score":"15.97183385","decile":"9","lat":40.28569216658598,"lng":-111.73114980786463,"phone":"(657) 290-3578","sd":"23","ssbd":"12","lsbd":"School Board Timpanogos 3"},{"vid":"6416592","name":"Arletta Schulist","party":"Dem","address":"1851 W 180 S, Orem, UT 84059","precinct":"25OR34","hd":"57","v_score":"22.98540223","decile":"10","lat":40.29360910544458,"lng":-111.73983578760324,"phone":"(713) 511-6565","sd":"23","ssbd":"12","lsbd":"School Board Timpanogos 3"},{"vid":"6420773","name":"Henri Schmidt-McLaughlin","party":"Dem","address":"540 S 1500 W, Orem, UT 84058","precinct":"25OR34","hd":"57","v_score":"6.657533174","decile":"7","lat":40.28723806927834,"lng":-111.73146964923798,"phone":"(833) 741-0939","sd":"23","ssbd":"12","lsbd":"School Board Timpanogos 3"},{"vid":"6422022","name":"Mr. Ivey Osinski Sr.","party":"Dem","address":"1527 W 550 S, Orem, UT 84058","precinct":"25OR34","hd":"57","v_score":"5.40460374","decile":"7","lat":40.286982291813054,"lng":-111.7319100061097,"phone":"(323) 357-0416","sd":"23","ssbd":"12","lsbd":"School Board Timpanogos 3"},{"vid":"6440529","name":"Ms. Melissa Ullrich DDS","party":"","address":"552 S 1540 W, Orem, UT 84058","precinct":"25OR34","hd":"57","v_score":"16.22796003","decile":"9","lat":40.28703577757007,"lng":-111.73305501413202,"phone":"(696) 347-6930","sd":"23","ssbd":"12","lsbd":"School Board Timpanogos 3"},{"vid":"6448781","name":"Iva Wiegand","party":"Rep","address":"1493 W 575 S, Orem, UT 84058","precinct":"25OR34","hd":"57","v_score":"1.121327652","decile":"3","lat":40.286352797571276,"lng":-111.73107473846598,"phone":"(549) 735-4870","sd":"23","ssbd":"12","lsbd":"School Board Timpanogos 3"},{"vid":"6452927","name":"Charlize Eichmann","party":"Dem","address":"144 S 1990 W, Orem, UT 84059","precinct":"25OR34","hd":"57","v_score":"1.121327652","decile":"3","lat":40.29451480561468,"lng":-111.74319927711734,"phone":"(901) 011-6511","sd":"23","ssbd":"12","lsbd":"School Board Timpanogos 3"},{"vid":"6467578","name":"Ashlyn Zulauf","party":"","address":"1936 W 140 S, Orem, UT 84059","precinct":"25OR34","hd":"57","v_score":"27.53969292","decile":"10","lat":40.2948165900123,"lng":-111.74179169324427,"phone":"(551) 770-2630","sd":"23","ssbd":"12","lsbd":"School Board Timpanogos 3"},{"vid":"6469353","name":"Manuel Walter","party":"Rep","address":"715 S 1525 W, Orem, UT 84058","precinct":"25OR34","hd":"57","v_score":"23.22080154","decile":"10","lat":40.28409297537537,"lng":-111.73155862541509,"phone":"(100) 011-9014","sd":"23","ssbd":"12","lsbd":"School Board Timpanogos 3"},{"vid":"6489976","name":"Parrish Cormier-Wisozk","party":"Rep","address":"1919 W 180 S, Orem, UT 84059","precinct":"25OR34","hd":"57","v_score":"1.121327652","decile":"3","lat":40.29359729743803,"lng":-111.74134101170016,"phone":"(579) 046-3625","sd":"23","ssbd":"12","lsbd":"School Board Timpanogos 3"},{"vid":"6490959","name":"Beyonce Dibbert MD","party":"","address":"1396 W 800 S, Orem, UT 84058","precinct":"25OR34","hd":"57","v_score":"0","decile":"3","lat":40.28277032805165,"lng":-111.72866634871036,"phone":"(187) 539-4842","sd":"23","ssbd":"12","lsbd":"School Board Timpanogos 3"},{"vid":"94a43e7df37261042122a94fb85498e319602007b188c0e8a21a1b888a0dba47","name":"Kiel Greenholt","party":"Rep","address":"1498 W 575 S, Orem, UT 84058","precinct":"25OR34","hd":"57","v_score":"1.121327652","decile":"3","lat":40.28668431155251,"lng":-111.73119754665836,"phone":"(643) 417-6993","sd":"23","ssbd":"12","lsbd":"School Board Timpanogos 3"},{"vid":"6496175","name":"Cecily Fay","party":"Rep","address":"1527 W 550 S, Orem, UT 84058","precinct":"25OR34","hd":"57","v_score":"3.93832808","decile":"6","lat":40.286982291813054,"lng":-111.7319100061097,"phone":"(778) 144-4649","sd":"23","ssbd":"12","lsbd":"School Board Timpanogos 3"},{"vid":"6498497","name":"Leonie Connelly DVM","party":"","address":"715 S 1525 W, Orem, UT 84058","precinct":"25OR34","hd":"57","v_score":"23.22080154","decile":"10","lat":40.28409297537537,"lng":-111.73155862541509,"phone":"(709) 111-7513","sd":"23","ssbd":"12","lsbd":"School Board Timpanogos 3"},{"vid":"6503771","name":"Pinkie Padberg","party":"","address":"1536 W 525 S, Orem, UT 84058","precinct":"25OR34","hd":"57","v_score":"29.98684248","decile":"10","lat":40.287671725473544,"lng":-111.73222164083782,"phone":"(845) 530-8446","sd":"23","ssbd":"12","lsbd":"School Board Timpanogos 3"},{"vid":"6520475","name":"Jahir Lindgren-Parker","party":"Rep","address":"703 S 1490 W, Orem, UT 84058","precinct":"25OR34","hd":"57","v_score":"2.315214949","decile":"5","lat":40.284371953191574,"lng":-111.73066184038109,"phone":"(600) 676-0974","sd":"23","ssbd":"12","lsbd":"School Board Timpanogos 3"},{"vid":"6530370","name":"Judah Beier","party":"","address":"571 S 1470 W, Orem, UT 84058","precinct":"25OR34","hd":"57","v_score":"0","decile":"3","lat":40.28655570413557,"lng":-111.73069869905076,"phone":"(455) 800-6116","sd":"23","ssbd":"12","lsbd":"School Board Timpanogos 3"}]