[{"vid":"613770","name":"Gabriel Rippin","party":"","address":"73 W 2000 N, Orem, UT 84057","precinct":"25OR03","hd":"58","v_score":"5.693042993","decile":"7","lat":40.333647634326546,"lng":-111.69799176169235},{"vid":"1335331","name":"Albina Mohr","party":"","address":"1914 N 50 W, Orem, UT 84057","precinct":"25OR03","hd":"58","v_score":"2.817000428","decile":"6","lat":40.331932445856125,"lng":-111.69710439872622},{"vid":"d8c55c1ae60d04e7c5238f45bb2aa73a4d1c78de8a073790540d69df6322f5e1","name":"Aden Jacobi","party":"Rep","address":"1935 N 90 W, Orem, UT 84057","precinct":"25OR03","hd":"58","v_score":"26.24972019","decile":"10","lat":40.33267254275315,"lng":-111.69766933305422},{"vid":"a680bf14b9d22f4179346513d2c9d8282f8044ec48d0ea3646f53f509f2ce8c6","name":"Tyshawn Morissette","party":"","address":"1909 N 50 W, Orem, UT 84057","precinct":"25OR03","hd":"58","v_score":"19.9314597","decile":"10","lat":40.331955736123994,"lng":-111.69743285819354},{"vid":"1431054","name":"Dr. Jadon Bednar Jr.","party":"Dem","address":"140 W 1960 N, Orem, UT 84057","precinct":"25OR03","hd":"58","v_score":"7.947838735","decile":"8","lat":40.333309449866526,"lng":-111.69972507262558},{"vid":"1544439","name":"Dr. Dickie Bruen PhD","party":"Rep","address":"89 W 2000 N, Orem, UT 84057","precinct":"25OR03","hd":"58","v_score":"11.2235539","decile":"9","lat":40.333642014365786,"lng":-111.69870563063456},{"vid":"1576615","name":"Ms. Roxie Deckow","party":"Rep","address":"1898 N 50 W, Orem, UT 84057","precinct":"25OR03","hd":"58","v_score":"4.283276088","decile":"7","lat":40.33168573172872,"lng":-111.69703751394294},{"vid":"1608893","name":"Francine Zboncak PhD","party":"Dem","address":"1902 N 180 W, Orem, UT 84057","precinct":"25OR03","hd":"58","v_score":"10.22509301","decile":"9","lat":40.332119246654855,"lng":-111.70032244152203},{"vid":"1629714","name":"Abram Barton","party":"","address":"1922 N 135 W, Orem, UT 84057","precinct":"25OR03","hd":"58","v_score":"2.315214949","decile":"5","lat":40.332499945074616,"lng":-111.69911080201284},{"vid":"1652083","name":"Lavonia Zieme-Medhurst","party":"Rep","address":"105 W 2000 N, Orem, UT 84057","precinct":"25OR03","hd":"58","v_score":"5.815909755","decile":"7","lat":40.33357702011526,"lng":-111.6989265186973},{"vid":"07d8697bd2d805de48b88b00907bb404cb6ddc694f9d299e06b9aea5d9862d26","name":"Ingram Kris","party":"Dem","address":"153 W 1960 N, Orem, UT 84057","precinct":"25OR03","hd":"58","v_score":"3.93832808","decile":"6","lat":40.332802769690005,"lng":-111.69996870276744},{"vid":"1812037","name":"Deryl Hane-Prohaska","party":"","address":"89 W 2000 N, Orem, UT 84057","precinct":"25OR03","hd":"58","v_score":"11.2235539","decile":"9","lat":40.333642014365786,"lng":-111.69870563063456},{"vid":"1817847","name":"Edwardo Corkery","party":"Rep","address":"140 W 1960 N, Orem, UT 84057","precinct":"25OR03","hd":"58","v_score":"1.193887297","decile":"3","lat":40.333309449866526,"lng":-111.69972507262558},{"vid":"1858814","name":"Patti Morar","party":"Dem","address":"1974 N 45 W, Orem, UT 84057","precinct":"25OR03","hd":"58","v_score":"2.315214949","decile":"5","lat":40.333410310988256,"lng":-111.6971595890248},{"vid":"c068d84bd75ef9a037362892a182065d3027e1808f53141192e9bcf6eae70753","name":"Melody Herzog PhD","party":"Rep","address":"1927 N 90 W, Orem, UT 84057","precinct":"25OR03","hd":"58","v_score":"4.069929862","decile":"6","lat":40.33258877728862,"lng":-111.69791555701336},{"vid":"1985598","name":"Achsah Corwin","party":"Rep","address":"1898 N 50 W, Orem, UT 84057","precinct":"25OR03","hd":"58","v_score":"3.781490609","decile":"6","lat":40.33168573172872,"lng":-111.69703751394294},{"vid":"2021217","name":"Chestina Spencer","party":"","address":"1970 N 45 W, Orem, UT 84057","precinct":"25OR03","hd":"58","v_score":"6.884189957","decile":"8","lat":40.33327092348429,"lng":-111.697372895783},{"vid":"2055675","name":"Nyasia Goyette","party":"Rep","address":"12 W 1880 N, Orem, UT 84057","precinct":"25OR03","hd":"58","v_score":"34.03160254","decile":"10","lat":40.33110353013114,"lng":-111.69661021805697},{"vid":"7307f99c5d227e83379a698a3a7f1922c1e52e223c805de391f4dfcddaf35f22","name":"Leopoldo Dicki DVM","party":"Rep","address":"24 W 1880 N, Orem, UT 84057","precinct":"25OR03","hd":"58","v_score":"1.193887297","decile":"3","lat":40.331357365263685,"lng":-111.69697860968523},{"vid":"2242783","name":"Love Swaniawski","party":"","address":"1939 N 90 W, Orem, UT 84057","precinct":"25OR03","hd":"58","v_score":"0","decile":"1","lat":40.3327477174479,"lng":-111.69733603219946},{"vid":"7b66881e6fb5b37247323d98324d4e2db0d8d3b5c4625549a6bf02c2a154d10a","name":"Makhi Pollich","party":"Dem","address":"122 W 1880 N, Orem, UT 84057","precinct":"25OR03","hd":"58","v_score":"1.121327652","decile":"3","lat":40.33189072684995,"lng":-111.69902197681625},{"vid":"2332665","name":"Jordi Gutkowski-Fahey","party":"","address":"1976 N 85 W, Orem, UT 84057","precinct":"25OR03","hd":"58","v_score":"0","decile":"1","lat":40.333348168708035,"lng":-111.6981119074849},{"vid":"2345908","name":"Ms. Almyra Towne PhD","party":"Rep","address":"1909 N 90 W, Orem, UT 84057","precinct":"25OR03","hd":"58","v_score":"6.814370645","decile":"8","lat":40.332156568778196,"lng":-111.69867729976421},{"vid":"2374530","name":"Dr. Nayeli Jakubowski","party":"","address":"105 W 2000 N, Orem, UT 84057","precinct":"25OR03","hd":"58","v_score":"0","decile":"1","lat":40.33357702011526,"lng":-111.6989265186973},{"vid":"2405974","name":"Lucinda Little MD","party":"","address":"111 W 1960 N, Orem, UT 84057","precinct":"25OR03","hd":"58","v_score":"2.315214949","decile":"5","lat":40.33288800353943,"lng":-111.69915629683342},{"vid":"2416749","name":"Fleta Watsica","party":"Rep","address":"147 W 2000 N, Orem, UT 84057","precinct":"25OR03","hd":"58","v_score":"9.907118004","decile":"8","lat":40.33356358047179,"lng":-111.6998618264551},{"vid":"2426041","name":"Ragna Sporer","party":"Dem","address":"1892 N 50 W, Orem, UT 84057","precinct":"25OR03","hd":"58","v_score":"1.121327652","decile":"3","lat":40.33160217778531,"lng":-111.69735021910996},{"vid":"2496430","name":"Halsey Fisher","party":"Rep","address":"140 W 1960 N, Orem, UT 84057","precinct":"25OR03","hd":"58","v_score":"1.193887297","decile":"3","lat":40.333309449866526,"lng":-111.69972507262558},{"vid":"2507588","name":"Dr. Ardella Crona DDS","party":"Dem","address":"61 W 2000 N, Orem, UT 84057","precinct":"25OR03","hd":"58","v_score":"5.83359168","decile":"7","lat":40.33361707363751,"lng":-111.69750702419108},{"vid":"2525217","name":"Miss Teela Herzog DVM","party":"Dem","address":"1914 N 50 W, Orem, UT 84057","precinct":"25OR03","hd":"58","v_score":"2.817000428","decile":"6","lat":40.331932445856125,"lng":-111.69710439872622},{"vid":"2644879","name":"Ell Kerluke","party":"","address":"1910 N 135 W, Orem, UT 84057","precinct":"25OR03","hd":"58","v_score":"2.817000428","decile":"6","lat":40.33236299210547,"lng":-111.69906565097281},{"vid":"2730750","name":"Laurie Zulauf","party":"Rep","address":"1923 N 135 W, Orem, UT 84057","precinct":"25OR03","hd":"58","v_score":"2.876042565","decile":"6","lat":40.33249682332539,"lng":-111.69949990028022},{"vid":"2739036","name":"Niki Daniel","party":"Rep","address":"89 W 2000 N, Orem, UT 84057","precinct":"25OR03","hd":"58","v_score":"4.069929862","decile":"7","lat":40.333642014365786,"lng":-111.69870563063456},{"vid":"2786191","name":"Leisha Turner","party":"Dem","address":"133 W 2000 N, Orem, UT 84057","precinct":"25OR03","hd":"58","v_score":"1.193887297","decile":"4","lat":40.333565101930226,"lng":-111.69956000449716},{"vid":"2798674","name":"Mr. Fritz Kerluke","party":"","address":"1896 N 135 W, Orem, UT 84057","precinct":"25OR03","hd":"58","v_score":"1.193887297","decile":"4","lat":40.33211876663455,"lng":-111.69911410880128},{"vid":"2808753","name":"Dr. Ezekiel Walsh Sr.","party":"","address":"1934 N 90 W, Orem, UT 84057","precinct":"25OR03","hd":"58","v_score":"4.069929862","decile":"7","lat":40.332303938866595,"lng":-111.6973542861096},{"vid":"2825566","name":"Dr. Vincenza McGlynn","party":"","address":"141 W 1960 N, Orem, UT 84057","precinct":"25OR03","hd":"58","v_score":"1.193887297","decile":"4","lat":40.3326057448736,"lng":-111.69985948873929},{"vid":"2839272","name":"Jaylyn Jacobson","party":"","address":"24 W 1880 N, Orem, UT 84057","precinct":"25OR03","hd":"58","v_score":"1.193887297","decile":"4","lat":40.331357365263685,"lng":-111.69697860968523},{"vid":"2861409","name":"Peggie Keeling","party":"","address":"1976 N 85 W, Orem, UT 84057","precinct":"25OR03","hd":"58","v_score":"0","decile":"2","lat":40.333348168708035,"lng":-111.6981119074849},{"vid":"2894301","name":"Ximena Hessel DVM","party":"","address":"147 W 2000 N, Orem, UT 84057","precinct":"25OR03","hd":"58","v_score":"7.090117576","decile":"8","lat":40.33356358047179,"lng":-111.6998618264551},{"vid":"2900760","name":"Alfred Connelly","party":"Dem","address":"1976 N 85 W, Orem, UT 84057","precinct":"25OR03","hd":"58","v_score":"0","decile":"2","lat":40.333348168708035,"lng":-111.6981119074849},{"vid":"2978295","name":"Lamont Kautzer-Zieme","party":"Rep","address":"61 W 2000 N, Orem, UT 84057","precinct":"25OR03","hd":"58","v_score":"0","decile":"2","lat":40.33361707363751,"lng":-111.69750702419108},{"vid":"5c1788b63200b571918ad816e2068b6f587c98c885915a3cdb20df59450c0297","name":"Corbin Heaney-Green","party":"Dem","address":"1914 N 50 W, Orem, UT 84057","precinct":"25OR03","hd":"58","v_score":"38.24567755","decile":"10","lat":40.331932445856125,"lng":-111.69710439872622},{"vid":"3458455","name":"Lucian Johns DVM","party":"Dem","address":"1976 N 85 W, Orem, UT 84057","precinct":"25OR03","hd":"58","v_score":"3.93832808","decile":"6","lat":40.333348168708035,"lng":-111.6981119074849},{"vid":"4307152","name":"Guido Windler","party":"Rep","address":"106 W 1960 N, Orem, UT 84057","precinct":"25OR03","hd":"58","v_score":"0","decile":"2","lat":40.33304310345971,"lng":-111.6991016980931},{"vid":"5311190","name":"Cortney Brakus","party":"Dem","address":"140 W 1960 N, Orem, UT 84057","precinct":"25OR03","hd":"58","v_score":"6.027167436","decile":"7","lat":40.333309449866526,"lng":-111.69972507262558},{"vid":"6170698","name":"Beau Hegmann","party":"Dem","address":"1988 N 180 W, Orem, UT 84057","precinct":"25OR03","hd":"58","v_score":"17.75698939","decile":"10","lat":40.333579116785145,"lng":-111.70024823146834},{"vid":"6170735","name":"Ruth Conn","party":"Dem","address":"1896 N 135 W, Orem, UT 84057","precinct":"25OR03","hd":"58","v_score":"2.315214949","decile":"5","lat":40.33211876663455,"lng":-111.69911410880128},{"vid":"6170849","name":"Consuelo Hahn-Ledner","party":"Rep","address":"1988 N 180 W, Orem, UT 84057","precinct":"25OR03","hd":"58","v_score":"17.75698939","decile":"10","lat":40.333579116785145,"lng":-111.70024823146834},{"vid":"6207379","name":"Mr. Reese Dickinson","party":"","address":"1948 N 85 W, Orem, UT 84057","precinct":"25OR03","hd":"58","v_score":"1.193887297","decile":"4","lat":40.33293414509511,"lng":-111.69821515165913},{"vid":"6220012","name":"Evalyn Ruecker MD","party":"","address":"105 W 2000 N, Orem, UT 84057","precinct":"25OR03","hd":"58","v_score":"5.815909755","decile":"7","lat":40.33357702011526,"lng":-111.6989265186973},{"vid":"6229510","name":"Kenyatta Renner","party":"Rep","address":"153 W 1960 N, Orem, UT 84057","precinct":"25OR03","hd":"58","v_score":"18.74706992","decile":"10","lat":40.332802769690005,"lng":-111.69996870276744},{"vid":"6237521","name":"Tanesha Nolan MD","party":"Dem","address":"133 W 2000 N, Orem, UT 84057","precinct":"25OR03","hd":"58","v_score":"5.40460374","decile":"7","lat":40.333565101930226,"lng":-111.69956000449716},{"vid":"6237840","name":"Therman Will","party":"Rep","address":"1935 N 90 W, Orem, UT 84057","precinct":"25OR03","hd":"58","v_score":"43.51438145","decile":"10","lat":40.33267254275315,"lng":-111.69766933305422},{"vid":"6256698","name":"Shiela Koss","party":"Dem","address":"105 W 2000 N, Orem, UT 84057","precinct":"25OR03","hd":"58","v_score":"7.282185415","decile":"8","lat":40.33357702011526,"lng":-111.6989265186973},{"vid":"6288259","name":"Shelvia Beahan","party":"Rep","address":"1918 N 180 W, Orem, UT 84057","precinct":"25OR03","hd":"58","v_score":"0","decile":"3","lat":40.332333878624894,"lng":-111.70030416433181},{"vid":"6343171","name":"Gretchen Smith","party":"","address":"152 W 1960 N, Orem, UT 84057","precinct":"25OR03","hd":"58","v_score":"23.48004472","decile":"10","lat":40.333307973826,"lng":-111.70001792730092},{"vid":"6408447","name":"Royce Friesen","party":"Rep","address":"141 W 1960 N, Orem, UT 84057","precinct":"25OR03","hd":"58","v_score":"32.28617871","decile":"10","lat":40.3326057448736,"lng":-111.69985948873929},{"vid":"6458349","name":"Dr. Pablo Goyette III","party":"Dem","address":"1922 N 135 W, Orem, UT 84057","precinct":"25OR03","hd":"58","v_score":"2.315214949","decile":"5","lat":40.332499945074616,"lng":-111.69911080201284},{"vid":"6466065","name":"Maximo Breitenberg-Lebsack","party":"Dem","address":"152 W 1960 N, Orem, UT 84057","precinct":"25OR03","hd":"58","v_score":"23.48004472","decile":"10","lat":40.333307973826,"lng":-111.70001792730092},{"vid":"94f23a7228ec964a8aaa34ca92ecfee15171d5ed33591e91d90f5f6a96509a4e","name":"Barney O'Kon-Bogan","party":"","address":"153 W 1960 N, Orem, UT 84057","precinct":"25OR03","hd":"58","v_score":"2.315214949","decile":"5","lat":40.332802769690005,"lng":-111.69996870276744},{"vid":"6481948","name":"Miss Elfie Koch","party":"Rep","address":"152 W 1960 N, Orem, UT 84057","precinct":"25OR03","hd":"58","v_score":"23.48004472","decile":"10","lat":40.333307973826,"lng":-111.70001792730092},{"vid":"e8c4ebce48adec7b7625423b2ede0e7cb784aff85cc5bb22d7743d2c6ec45a8e","name":"Herschel Russel-Mills","party":"Rep","address":"1909 N 90 W, Orem, UT 84057","precinct":"25OR03","hd":"58","v_score":"5.191257514","decile":"7","lat":40.332156568778196,"lng":-111.69867729976421},{"vid":"eaa77982de77f2a9d30ba2e154a77458c7e470ff39d01e196257861234e7daf8","name":"Pattie Howell DVM","party":"","address":"1918 N 90 W, Orem, UT 84057","precinct":"25OR03","hd":"58","v_score":"11.1324014","decile":"9","lat":40.33217370842543,"lng":-111.69795326991274},{"vid":"6531144","name":"Joette Macejkovic-Beatty","party":"Rep","address":"122 W 1880 N, Orem, UT 84057","precinct":"25OR03","hd":"58","v_score":"2.587603312","decile":"5","lat":40.33189072684995,"lng":-111.69902197681625}]