[{"vid":"d4c837dfef7ab73a74ce2911d8e806b45d358fe25dfc82edc6c9e7835c7ff93b","name":"Esco Wehner-Kirlin","party":"Rep","address":"380 E 1200 N, Orem, UT 84057","precinct":"25OR13","hd":"58","v_score":"3.93832808","decile":"6","lat":40.31901795250439,"lng":-111.68704812536974,"phone":"(603) 836-4101","sd":"24","ssbd":"12","lsbd":"School Board Timpanogos 5"},{"vid":"811017","name":"Joselyn Runolfsdottir","party":"","address":"160 E 1200 N, Orem, UT 84057","precinct":"25OR13","hd":"58","v_score":"36.49741484","decile":"10","lat":40.31898900501892,"lng":-111.6923985030597,"phone":"(585) 770-7746","sd":"24","ssbd":"12","lsbd":"School Board Timpanogos 5"},{"vid":"1023919","name":"Patric Yost","party":"Rep","address":"883 N 235 E, Orem, UT 84057","precinct":"25OR13","hd":"58","v_score":"3.781490609","decile":"6","lat":40.313579728168975,"lng":-111.69012404540292,"phone":"(752) 080-7860","sd":"24","ssbd":"12","lsbd":"School Board Timpanogos 5"},{"vid":"1221979","name":"Marchello Gutmann","party":"","address":"1036 N 250 E, Orem, UT 84057","precinct":"25OR13","hd":"58","v_score":"3.781490609","decile":"6","lat":40.316416549622126,"lng":-111.68964263723772,"phone":"(275) 506-2767","sd":"24","ssbd":"12","lsbd":"School Board Timpanogos 5"},{"vid":"1231863","name":"Hope Bernier","party":"","address":"836 N 235 E, Orem, UT 84057","precinct":"25OR13","hd":"58","v_score":"1.193887297","decile":"3","lat":40.31239009855953,"lng":-111.68990133173763,"phone":"(838) 863-4226","sd":"24","ssbd":"12","lsbd":"School Board Timpanogos 5"},{"vid":"1250621","name":"Corrine Harvey","party":"Dem","address":"259 E 1090 N, Orem, UT 84057","precinct":"25OR13","hd":"58","v_score":"13.75326469","decile":"9","lat":40.31731034031496,"lng":-111.68979745828366,"phone":"(171) 529-8592","sd":"24","ssbd":"12","lsbd":"School Board Timpanogos 5"},{"vid":"1256960","name":"Bjorn Trantow","party":"Dem","address":"358 E 1200 N, Orem, UT 84057","precinct":"25OR13","hd":"58","v_score":"0","decile":"1","lat":40.31907512429625,"lng":-111.6874523376032,"phone":"(206) 484-4939","sd":"24","ssbd":"12","lsbd":"School Board Timpanogos 5"},{"vid":"1320873","name":"Dillon Roberts-Murray","party":"Rep","address":"965 N 350 E, Orem, UT 84057","precinct":"25OR13","hd":"58","v_score":"14.95117867","decile":"9","lat":40.314997078837045,"lng":-111.68784732440817,"phone":"(547) 280-6908","sd":"24","ssbd":"12","lsbd":"School Board Timpanogos 5"},{"vid":"1343944","name":"Mr. Landan Franecki I","party":"Rep","address":"883 N 350 E, Orem, UT 84057","precinct":"25OR13","hd":"58","v_score":"4.465184987","decile":"7","lat":40.31336941275435,"lng":-111.68795293726998,"phone":"(966) 080-5924","sd":"24","ssbd":"12","lsbd":"School Board Timpanogos 5"},{"vid":"1346522","name":"Admiral Ondricka","party":"Rep","address":"349 E 1040 N, Orem, UT 84057","precinct":"25OR13","hd":"58","v_score":"20.05083686","decile":"10","lat":40.316592325812074,"lng":-111.68757998407281,"phone":"(762) 018-5915","sd":"24","ssbd":"12","lsbd":"School Board Timpanogos 5"},{"vid":"1ceb42a844abb4eae20e786be134712e442bf6fcc251086da355f2109abb92cf","name":"Dr. Izora Russel DVM","party":"Rep","address":"997 N 400 E, Orem, UT 84097","precinct":"25OR13","hd":"58","v_score":"3.93832808","decile":"6","lat":40.31545953088368,"lng":-111.68649870339942,"phone":"(314) 642-0544","sd":"24","ssbd":"12","lsbd":"School Board Timpanogos 5"},{"vid":"1373991","name":"Cayla Schuppe","party":"Rep","address":"856 N 350 E, Orem, UT 84057","precinct":"25OR13","hd":"58","v_score":"8.280646305","decile":"8","lat":40.31267168446589,"lng":-111.68716685210758,"phone":"(147) 323-7677","sd":"24","ssbd":"12","lsbd":"School Board Timpanogos 5"},{"vid":"1375747","name":"Mr. Madden Koepp","party":"Dem","address":"967 N 250 E, Orem, UT 84057","precinct":"25OR13","hd":"58","v_score":"12.05946382","decile":"9","lat":40.31510148561373,"lng":-111.69020828440192,"phone":"(173) 520-6896","sd":"24","ssbd":"12","lsbd":"School Board Timpanogos 5"},{"vid":"1378618","name":"Marlene Kutch","party":"Dem","address":"891 N 235 E, Orem, UT 84057","precinct":"25OR13","hd":"58","v_score":"0","decile":"1","lat":40.31318724637212,"lng":-111.68973230638066,"phone":"(544) 283-3679","sd":"24","ssbd":"12","lsbd":"School Board Timpanogos 5"},{"vid":"1379072","name":"Taraji McKenzie","party":"","address":"1050 N 200 E, Orem, UT 84057","precinct":"25OR13","hd":"58","v_score":"3.93832808","decile":"6","lat":40.31644710619873,"lng":-111.69084318926186,"phone":"(719) 435-5889","sd":"24","ssbd":"12","lsbd":"School Board Timpanogos 5"},{"vid":"c830674dfd91b559a98aab8cdcc77783d241aaf45b5ee08086c6e3c07e3d1afa","name":"Samual Rodriguez","party":"","address":"151 E 1060 N, Orem, UT 84057","precinct":"25OR13","hd":"58","v_score":"14.63972567","decile":"9","lat":40.31683327735491,"lng":-111.69246694311694,"phone":"(811) 542-7306","sd":"24","ssbd":"12","lsbd":"School Board Timpanogos 5"},{"vid":"1393832","name":"Jenniffer McCullough","party":"Dem","address":"1118 N 520 E, Orem, UT 84097","precinct":"25OR13","hd":"58","v_score":"5.40460374","decile":"7","lat":40.3177875322349,"lng":-111.68333942540704,"phone":"(934) 492-6003","sd":"24","ssbd":"12","lsbd":"School Board Timpanogos 5"},{"vid":"1393936","name":"Adele Kling","party":"","address":"1118 N 520 E, Orem, UT 84097","precinct":"25OR13","hd":"58","v_score":"5.40460374","decile":"7","lat":40.3177875322349,"lng":-111.68333942540704,"phone":"(879) 893-7644","sd":"24","ssbd":"12","lsbd":"School Board Timpanogos 5"},{"vid":"1394204","name":"Roby Trantow-Durgan","party":"Rep","address":"957 N 200 E, Orem, UT 84057","precinct":"25OR13","hd":"58","v_score":"26.9144526","decile":"10","lat":40.31483653415223,"lng":-111.69142840079611,"phone":"(942) 664-3638","sd":"24","ssbd":"12","lsbd":"School Board Timpanogos 5"},{"vid":"1394486","name":"Winfred Rau","party":"","address":"146 E 1020 N, Orem, UT 84057","precinct":"25OR13","hd":"58","v_score":"5.40460374","decile":"7","lat":40.31581002224845,"lng":-111.69232258472825,"phone":"(272) 568-1585","sd":"24","ssbd":"12","lsbd":"School Board Timpanogos 5"},{"vid":"1395447","name":"Hannah O'Conner","party":"","address":"491 E 1090 N, Orem, UT 84097","precinct":"25OR13","hd":"58","v_score":"18.27911851","decile":"10","lat":40.31744468201869,"lng":-111.68438009733612,"phone":"(243) 372-4060","sd":"24","ssbd":"12","lsbd":"School Board Timpanogos 5"},{"vid":"1398640","name":"Keyshawn Littel","party":"Dem","address":"867 N 235 E, Orem, UT 84057","precinct":"25OR13","hd":"58","v_score":"9.207031979","decile":"8","lat":40.31317080673556,"lng":-111.69046712052763,"phone":"(387) 277-4871","sd":"24","ssbd":"12","lsbd":"School Board Timpanogos 5"},{"vid":"1413060","name":"Glynis Gleason","party":"Rep","address":"376 E 1090 N, Orem, UT 84057","precinct":"25OR13","hd":"58","v_score":"1.121327652","decile":"3","lat":40.31689022534854,"lng":-111.68696030480993,"phone":"(261) 246-1309","sd":"24","ssbd":"12","lsbd":"School Board Timpanogos 5"},{"vid":"1413999","name":"Brittny Emmerich","party":"Dem","address":"1114 N 140 E, Orem, UT 84057","precinct":"25OR13","hd":"58","v_score":"21.24900695","decile":"10","lat":40.317559114474044,"lng":-111.69228244684504,"phone":"(456) 472-7480","sd":"24","ssbd":"12","lsbd":"School Board Timpanogos 5"},{"vid":"1425513","name":"Gilmore Moore-Reichel","party":"Rep","address":"587 E 950 N, Orem, UT 84097","precinct":"25OR13","hd":"58","v_score":"1.193887297","decile":"3","lat":40.3148998748184,"lng":-111.68168268156201,"phone":"(543) 801-9294","sd":"24","ssbd":"12","lsbd":"School Board Timpanogos 5"},{"vid":"1429653","name":"Irvine Streich","party":"Rep","address":"1169 N 200 E, Orem, UT 84057","precinct":"25OR13","hd":"58","v_score":"28.6662113","decile":"10","lat":40.31855460127322,"lng":-111.69154678662333,"phone":"(526) 527-6080","sd":"24","ssbd":"12","lsbd":"School Board Timpanogos 5"},{"vid":"1430864","name":"Ritchie Wilkinson-Fahey","party":"","address":"872 N 200 E, Orem, UT 84057","precinct":"25OR13","hd":"58","v_score":"0","decile":"1","lat":40.313332739271395,"lng":-111.69082772494392,"phone":"(146) 854-7642","sd":"24","ssbd":"12","lsbd":"School Board Timpanogos 5"},{"vid":"1439319","name":"Dr. Eduardo Lakin DVM","party":"Rep","address":"1192 N 475 E, Orem, UT 84097","precinct":"25OR13","hd":"58","v_score":"2.817000428","decile":"6","lat":40.31912923058849,"lng":-111.68447878737244,"phone":"(890) 980-4618","sd":"24","ssbd":"12","lsbd":"School Board Timpanogos 5"},{"vid":"1443508","name":"Andon Labadie","party":"","address":"291 E 1090 N, Orem, UT 84057","precinct":"25OR13","hd":"58","v_score":"2.315214949","decile":"5","lat":40.31731002181737,"lng":-111.68894060150755,"phone":"(290) 974-5421","sd":"24","ssbd":"12","lsbd":"School Board Timpanogos 5"},{"vid":"1453379","name":"Shawnte Bosco","party":"Dem","address":"1007 N 475 E, Orem, UT 84097","precinct":"25OR13","hd":"58","v_score":"6.528952915","decile":"7","lat":40.31580165189969,"lng":-111.68473887531687,"phone":"(355) 293-8721","sd":"24","ssbd":"12","lsbd":"School Board Timpanogos 5"},{"vid":"1461543","name":"Roena Davis","party":"Dem","address":"305 E 1090 N, Orem, UT 84057","precinct":"25OR13","hd":"58","v_score":"2.587603312","decile":"5","lat":40.31728252323229,"lng":-111.68863573396138,"phone":"(550) 303-2308","sd":"24","ssbd":"12","lsbd":"School Board Timpanogos 5"},{"vid":"1469949","name":"Robbin Rau","party":"Rep","address":"957 N Garden Dr, Orem, UT 84057","precinct":"25OR13","hd":"58","v_score":"7.47704845","decile":"8","lat":40.314716700269805,"lng":-111.6925187254925,"phone":"(452) 667-1241","sd":"24","ssbd":"12","lsbd":"School Board Timpanogos 5"},{"vid":"1484833","name":"Dr. Calhoun Becker DDS","party":"Rep","address":"142 E 1020 N, Orem, UT 84057","precinct":"25OR13","hd":"58","v_score":"1.121327652","decile":"3","lat":40.315852279859904,"lng":-111.69261674820405,"phone":"(233) 278-2618","sd":"24","ssbd":"12","lsbd":"School Board Timpanogos 5"},{"vid":"1484980","name":"Denzell Purdy","party":"Dem","address":"326 E 1000 N, Orem, UT 84057","precinct":"25OR13","hd":"58","v_score":"8.280646305","decile":"8","lat":40.31537871509788,"lng":-111.68822105060563,"phone":"(323) 894-4129","sd":"24","ssbd":"12","lsbd":"School Board Timpanogos 5"},{"vid":"1489447","name":"Lesly Sauer","party":"Rep","address":"835 N 235 E, Orem, UT 84057","precinct":"25OR13","hd":"58","v_score":"17.26130269","decile":"9","lat":40.312385920457054,"lng":-111.69046299902715,"phone":"(413) 500-1282","sd":"24","ssbd":"12","lsbd":"School Board Timpanogos 5"},{"vid":"1495900","name":"Eli Larkin PhD","party":"Rep","address":"1170 N 520 E, Orem, UT 84097","precinct":"25OR13","hd":"58","v_score":"9.405332525","decile":"8","lat":40.3187433105462,"lng":-111.68333906115235,"phone":"(596) 075-4024","sd":"24","ssbd":"12","lsbd":"School Board Timpanogos 5"},{"vid":"1508268","name":"Katelyn Hills","party":"Dem","address":"199 E 865 N, Orem, UT 84057","precinct":"25OR13","hd":"58","v_score":"19.49429204","decile":"10","lat":40.31320522530643,"lng":-111.69129350841101,"phone":"(881) 202-0843","sd":"24","ssbd":"12","lsbd":"School Board Timpanogos 5"},{"vid":"7c39e8902de6463a27278c189facce6d29182f735c1fdc7af63aec2ba27043bd","name":"Mozelle Howell","party":"","address":"1162 N 140 E, Orem, UT 84057","precinct":"25OR13","hd":"58","v_score":"26.58953925","decile":"10","lat":40.31843303448062,"lng":-111.6921032613785,"phone":"(148) 564-1299","sd":"24","ssbd":"12","lsbd":"School Board Timpanogos 5"},{"vid":"1545790","name":"Stephany Aufderhar DDS","party":"Rep","address":"1035 N 250 E, Orem, UT 84057","precinct":"25OR13","hd":"58","v_score":"14.45484031","decile":"9","lat":40.31641342405771,"lng":-111.69031473355676,"phone":"(532) 847-5672","sd":"24","ssbd":"12","lsbd":"School Board Timpanogos 5"},{"vid":"1548843","name":"Hoyt Hackett","party":"Rep","address":"1046 N 200 E, Orem, UT 84057","precinct":"25OR13","hd":"58","v_score":"3.93832808","decile":"6","lat":40.316271240587,"lng":-111.6908400158733,"phone":"(512) 132-1308","sd":"24","ssbd":"12","lsbd":"School Board Timpanogos 5"},{"vid":"1553418","name":"Clemence Sanford","party":"","address":"334 E 1040 N, Orem, UT 84057","precinct":"25OR13","hd":"58","v_score":"6.52928996","decile":"7","lat":40.31615537996766,"lng":-111.68788423609338,"phone":"(886) 996-8992","sd":"24","ssbd":"12","lsbd":"School Board Timpanogos 5"},{"vid":"1554272","name":"Devonta Leannon","party":"Dem","address":"980 N 200 E, Orem, UT 84057","precinct":"25OR13","hd":"58","v_score":"19.30937315","decile":"10","lat":40.31524836365141,"lng":-111.69078170931243,"phone":"(329) 001-0264","sd":"24","ssbd":"12","lsbd":"School Board Timpanogos 5"},{"vid":"1557763","name":"Jimmy Wehner IV","party":"","address":"1021 N 560 E, Orem, UT 84097","precinct":"25OR13","hd":"58","v_score":"0","decile":"1","lat":40.31604984414439,"lng":-111.68273804636578,"phone":"(794) 981-8158","sd":"24","ssbd":"12","lsbd":"School Board Timpanogos 5"},{"vid":"1558337","name":"Bryana Hartmann-Jacobs","party":"","address":"1000 N 560 E, Orem, UT 84097","precinct":"25OR13","hd":"58","v_score":"14.58356067","decile":"9","lat":40.31561179584242,"lng":-111.68214074683156,"phone":"(486) 648-6438","sd":"24","ssbd":"12","lsbd":"School Board Timpanogos 5"},{"vid":"1560522","name":"Belinda Hand","party":"","address":"274 E 1165 N, Orem, UT 84057","precinct":"25OR13","hd":"58","v_score":"2.315214949","decile":"5","lat":40.318317729296176,"lng":-111.68923068925204,"phone":"(462) 550-5215","sd":"24","ssbd":"12","lsbd":"School Board Timpanogos 5"},{"vid":"1565951","name":"Maximiliano Runolfsson","party":"Dem","address":"1128 N 475 E, Orem, UT 84097","precinct":"25OR13","hd":"58","v_score":"2.315214949","decile":"5","lat":40.31796077939178,"lng":-111.68428521064737,"phone":"(920) 765-6820","sd":"24","ssbd":"12","lsbd":"School Board Timpanogos 5"},{"vid":"1577816","name":"Noelia Haag","party":"Rep","address":"853 N 235 E, Orem, UT 84057","precinct":"25OR13","hd":"58","v_score":"0","decile":"1","lat":40.31284697776217,"lng":-111.69046294138528,"phone":"(530) 853-4452","sd":"24","ssbd":"12","lsbd":"School Board Timpanogos 5"},{"vid":"1584850","name":"Edie Homenick DDS","party":"Dem","address":"1170 N 520 E, Orem, UT 84097","precinct":"25OR13","hd":"58","v_score":"12.49472132","decile":"9","lat":40.3187433105462,"lng":-111.68333906115235,"phone":"(958) 029-8325","sd":"24","ssbd":"12","lsbd":"School Board Timpanogos 5"},{"vid":"1589518","name":"Verlie Schaden","party":"Rep","address":"1065 N 250 E, Orem, UT 84057","precinct":"25OR13","hd":"58","v_score":"8.280646305","decile":"8","lat":40.31663045484547,"lng":-111.69011153178798,"phone":"(318) 497-7156","sd":"24","ssbd":"12","lsbd":"School Board Timpanogos 5"},{"vid":"1593692","name":"Margret Will-Hegmann","party":"","address":"893 N 235 E, Orem, UT 84057","precinct":"25OR13","hd":"58","v_score":"2.315214949","decile":"5","lat":40.31327424240326,"lng":-111.68943375142929,"phone":"(398) 397-1128","sd":"24","ssbd":"12","lsbd":"School Board Timpanogos 5"},{"vid":"15a771454bd5927870b0981e689d6cda17a1124940424921f40074c42facd143","name":"Hurley Gaylord","party":"Dem","address":"334 E 1040 N, Orem, UT 84057","precinct":"25OR13","hd":"58","v_score":"6.52928996","decile":"7","lat":40.31615537996766,"lng":-111.68788423609338,"phone":"(679) 386-0987","sd":"24","ssbd":"12","lsbd":"School Board Timpanogos 5"},{"vid":"1607439","name":"Dr. Kelan Orn","party":"Rep","address":"589 E 1050 N, Orem, UT 84097","precinct":"25OR13","hd":"58","v_score":"4.064235245","decile":"6","lat":40.316815527445875,"lng":-111.68172622278296,"phone":"(816) 680-4443","sd":"24","ssbd":"12","lsbd":"School Board Timpanogos 5"},{"vid":"1613279","name":"Kaeden Purdy","party":"","address":"264 E 1090 N, Orem, UT 84057","precinct":"25OR13","hd":"58","v_score":"5.40460374","decile":"7","lat":40.31689822386539,"lng":-111.68952248217856,"phone":"(771) 685-7287","sd":"24","ssbd":"12","lsbd":"School Board Timpanogos 5"},{"vid":"1613294","name":"Karyme Simonis-Bartoletti","party":"Dem","address":"1049 N 140 E, Orem, UT 84057","precinct":"25OR13","hd":"58","v_score":"2.958579882","decile":"6","lat":40.31618501421412,"lng":-111.69299432648228,"phone":"(391) 471-1018","sd":"24","ssbd":"12","lsbd":"School Board Timpanogos 5"},{"vid":"1614451","name":"Anona Parisian","party":"","address":"999 N 600 E, Orem, UT 84097","precinct":"25OR13","hd":"58","v_score":"18.35167816","decile":"10","lat":40.315612460114956,"lng":-111.68175079750921,"phone":"(122) 224-9563","sd":"24","ssbd":"12","lsbd":"School Board Timpanogos 5"},{"vid":"1626203","name":"Joselyn Bartell","party":"Rep","address":"1029 N 520 E, Orem, UT 84097","precinct":"25OR13","hd":"58","v_score":"6.814370645","decile":"8","lat":40.31618458654625,"lng":-111.68367939019686,"phone":"(203) 294-2267","sd":"24","ssbd":"12","lsbd":"School Board Timpanogos 5"},{"vid":"1628050","name":"Adelaide Marquardt","party":"","address":"305 E 1090 N, Orem, UT 84057","precinct":"25OR13","hd":"58","v_score":"2.587603312","decile":"5","lat":40.31728252323229,"lng":-111.68863573396138,"phone":"(712) 591-0418","sd":"24","ssbd":"12","lsbd":"School Board Timpanogos 5"},{"vid":"1628250","name":"Leandro Will","party":"Dem","address":"587 E 950 N, Orem, UT 84097","precinct":"25OR13","hd":"58","v_score":"2.315214949","decile":"5","lat":40.3148998748184,"lng":-111.68168268156201,"phone":"(452) 349-2435","sd":"24","ssbd":"12","lsbd":"School Board Timpanogos 5"},{"vid":"1629586","name":"Salvatore Welch","party":"","address":"1152 N 475 E, Orem, UT 84097","precinct":"25OR13","hd":"58","v_score":"16.95363675","decile":"9","lat":40.31825200798688,"lng":-111.68447953006063,"phone":"(291) 622-6455","sd":"24","ssbd":"12","lsbd":"School Board Timpanogos 5"},{"vid":"1629963","name":"Geraldine Anderson","party":"Dem","address":"936 N Garden Dr, Orem, UT 84057","precinct":"25OR13","hd":"58","v_score":"0","decile":"1","lat":40.31445847626122,"lng":-111.69179252472189,"phone":"(557) 386-4835","sd":"24","ssbd":"12","lsbd":"School Board Timpanogos 5"},{"vid":"1631467","name":"Christophe Heidenreich Sr.","party":"","address":"933 N Garden Dr, Orem, UT 84057","precinct":"25OR13","hd":"58","v_score":"14.24189593","decile":"9","lat":40.31434158973247,"lng":-111.69239691268234,"phone":"(288) 408-9477","sd":"24","ssbd":"12","lsbd":"School Board Timpanogos 5"},{"vid":"1637454","name":"Ilona Jakubowski","party":"Rep","address":"957 N Garden Dr, Orem, UT 84057","precinct":"25OR13","hd":"58","v_score":"2.744440783","decile":"5","lat":40.314716700269805,"lng":-111.6925187254925,"phone":"(194) 477-2737","sd":"24","ssbd":"12","lsbd":"School Board Timpanogos 5"},{"vid":"1651927","name":"Ms. Savilla Ratke","party":"Rep","address":"882 N 350 E, Orem, UT 84057","precinct":"25OR13","hd":"58","v_score":"11.50568204","decile":"9","lat":40.313308684364465,"lng":-111.68719476273351,"phone":"(671) 520-5236","sd":"24","ssbd":"12","lsbd":"School Board Timpanogos 5"},{"vid":"1661713","name":"Presley Emard","party":"Dem","address":"1022 N 560 E, Orem, UT 84097","precinct":"25OR13","hd":"58","v_score":"2.315214949","decile":"5","lat":40.3160508496566,"lng":-111.6821465397075,"phone":"(304) 874-8055","sd":"24","ssbd":"12","lsbd":"School Board Timpanogos 5"},{"vid":"1671975","name":"Imani Kuhn","party":"Dem","address":"375 E 900 N, Orem, UT 84057","precinct":"25OR13","hd":"58","v_score":"0","decile":"1","lat":40.314006888293456,"lng":-111.68702014177066,"phone":"(467) 789-0903","sd":"24","ssbd":"12","lsbd":"School Board Timpanogos 5"},{"vid":"1678154","name":"Kit Wolff","party":"","address":"347 E 1090 N, Orem, UT 84057","precinct":"25OR13","hd":"58","v_score":"15.53273099","decile":"9","lat":40.317309514823975,"lng":-111.68759550588295,"phone":"(347) 328-8870","sd":"24","ssbd":"12","lsbd":"School Board Timpanogos 5"},{"vid":"aa0c5d52d8108518a09f25ce0871635bd0b3946ecb80557e9ce14ff2042397b2","name":"Lorri Willms PhD","party":"","address":"258 E 1140 N, Orem, UT 84057","precinct":"25OR13","hd":"58","v_score":"11.04986408","decile":"9","lat":40.31761674991467,"lng":-111.68960976662383,"phone":"(714) 562-7254","sd":"24","ssbd":"12","lsbd":"School Board Timpanogos 5"},{"vid":"54372e4e6da1dcbd12f7aa9acec868a5d55d998b1b4b942cf068e1717000b8a6","name":"Miss Latifah Oberbrunner","party":"Rep","address":"366 E 1040 N, Orem, UT 84057","precinct":"25OR13","hd":"58","v_score":"27.37702365","decile":"10","lat":40.3161570304298,"lng":-111.68728250427152,"phone":"(175) 722-4374","sd":"24","ssbd":"12","lsbd":"School Board Timpanogos 5"},{"vid":"1687069","name":"Mr. Matteo Prohaska","party":"Dem","address":"1023 N 250 E, Orem, UT 84057","precinct":"25OR13","hd":"58","v_score":"1.193887297","decile":"3","lat":40.316161743315526,"lng":-111.69020989117996,"phone":"(404) 478-1132","sd":"24","ssbd":"12","lsbd":"School Board Timpanogos 5"},{"vid":"1688295","name":"Anders Koss","party":"","address":"344 E 1165 N, Orem, UT 84057","precinct":"25OR13","hd":"58","v_score":"2.315214949","decile":"5","lat":40.31838404536217,"lng":-111.68768304850401,"phone":"(951) 657-7196","sd":"24","ssbd":"12","lsbd":"School Board Timpanogos 5"},{"vid":"1691521","name":"Charleen Dietrich-Wisozk","party":"Dem","address":"347 E 1090 N, Orem, UT 84057","precinct":"25OR13","hd":"58","v_score":"18.21927925","decile":"10","lat":40.317309514823975,"lng":-111.68759550588295,"phone":"(466) 145-1555","sd":"24","ssbd":"12","lsbd":"School Board Timpanogos 5"},{"vid":"1691820","name":"Cordaro Hoppe-Mills","party":"Dem","address":"142 E 1020 N, Orem, UT 84057","precinct":"25OR13","hd":"58","v_score":"6.45639327","decile":"7","lat":40.315852279859904,"lng":-111.69261674820405,"phone":"(855) 441-4964","sd":"24","ssbd":"12","lsbd":"School Board Timpanogos 5"},{"vid":"1691830","name":"Mr. Ewell Adams","party":"Rep","address":"882 N 300 E, Orem, UT 84057","precinct":"25OR13","hd":"58","v_score":"0","decile":"1","lat":40.31317669287282,"lng":-111.68822617072045,"phone":"(263) 081-3029","sd":"24","ssbd":"12","lsbd":"School Board Timpanogos 5"},{"vid":"1692202","name":"Vernelle Reynolds-Cummerata","party":"","address":"276 E 1200 N, Orem, UT 84057","precinct":"25OR13","hd":"58","v_score":"35.30276996","decile":"10","lat":40.31902349997537,"lng":-111.68924407450909,"phone":"(740) 478-9621","sd":"24","ssbd":"12","lsbd":"School Board Timpanogos 5"},{"vid":"58baa5b421e848c70ed8e75e199f75409aa7f0acb884e4d5375c6c5622c013d0","name":"Almus Huels","party":"Dem","address":"1162 N 140 E, Orem, UT 84057","precinct":"25OR13","hd":"58","v_score":"9.509645007","decile":"8","lat":40.31843303448062,"lng":-111.6921032613785,"phone":"(788) 814-8609","sd":"24","ssbd":"12","lsbd":"School Board Timpanogos 5"},{"vid":"1700030","name":"Azzie Hilpert-Mohr","party":"Dem","address":"1114 N 200 E, Orem, UT 84057","precinct":"25OR13","hd":"58","v_score":"1.193887297","decile":"3","lat":40.317328882214476,"lng":-111.69072523076328,"phone":"(888) 849-2057","sd":"24","ssbd":"12","lsbd":"School Board Timpanogos 5"},{"vid":"0c083aaa10a9e49247c67688be0998c665a79944cde0c3a6d41276386fdce619","name":"Dr. Makenzie Crona DDS","party":"","address":"920 N 275 E, Orem, UT 84057","precinct":"25OR13","hd":"58","v_score":"0","decile":"1","lat":40.31387986114938,"lng":-111.68902596589372,"phone":"(389) 183-7976","sd":"24","ssbd":"12","lsbd":"School Board Timpanogos 5"},{"vid":"a1b51354e2969b4bf24b1da6008e2e2d39e246f7b067548dbb240fe2bb0ecc42","name":"Harlow Strosin-Becker","party":"Rep","address":"1092 N 140 E, Orem, UT 84057","precinct":"25OR13","hd":"58","v_score":"14.52230958","decile":"9","lat":40.31729685599951,"lng":-111.69232501885102,"phone":"(547) 059-8257","sd":"24","ssbd":"12","lsbd":"School Board Timpanogos 5"},{"vid":"1710654","name":"Byron Klein V","party":"Rep","address":"325 E 900 N, Orem, UT 84057","precinct":"25OR13","hd":"58","v_score":"3.93832808","decile":"6","lat":40.31400383234789,"lng":-111.6881888328873,"phone":"(337) 448-1348","sd":"24","ssbd":"12","lsbd":"School Board Timpanogos 5"},{"vid":"1714620","name":"Mavis Ruecker","party":"","address":"887 N 275 E, Orem, UT 84057","precinct":"25OR13","hd":"58","v_score":"3.93832808","decile":"6","lat":40.313714489557505,"lng":-111.68960354273621,"phone":"(700) 696-0283","sd":"24","ssbd":"12","lsbd":"School Board Timpanogos 5"},{"vid":"1715746","name":"Aryanna Macejkovic","party":"","address":"169 E 1130 N, Orem, UT 84057","precinct":"25OR13","hd":"58","v_score":"6.881235673","decile":"8","lat":40.318043503372174,"lng":-111.69178402615024,"phone":"(856) 492-0844","sd":"24","ssbd":"12","lsbd":"School Board Timpanogos 5"},{"vid":"1731601","name":"Mrs. Bird Ratke","party":"Dem","address":"916 N 350 E, Orem, UT 84057","precinct":"25OR13","hd":"58","v_score":"3.93832808","decile":"6","lat":40.31400625647291,"lng":-111.68726604012868,"phone":"(339) 306-3883","sd":"24","ssbd":"12","lsbd":"School Board Timpanogos 5"},{"vid":"92e4100243d1d1af7cd88eb33b05fe33d3ee86fc55623e70549836754134f5c2","name":"Demarion Hickle Jr.","party":"Dem","address":"156 E 1020 N, Orem, UT 84057","precinct":"25OR13","hd":"58","v_score":"45.09250101","decile":"10","lat":40.3157906436913,"lng":-111.69199002885922,"phone":"(803) 464-1675","sd":"24","ssbd":"12","lsbd":"School Board Timpanogos 5"},{"vid":"1739214","name":"Georgine Spinka","party":"Rep","address":"1143 N 200 E, Orem, UT 84057","precinct":"25OR13","hd":"58","v_score":"0","decile":"1","lat":40.318044319470545,"lng":-111.69156992672598,"phone":"(684) 097-2661","sd":"24","ssbd":"12","lsbd":"School Board Timpanogos 5"},{"vid":"1739933","name":"Alvia Bins","party":"Dem","address":"291 E 1090 N, Orem, UT 84057","precinct":"25OR13","hd":"58","v_score":"2.744440783","decile":"5","lat":40.31731002181737,"lng":-111.68894060150755,"phone":"(938) 022-0398","sd":"24","ssbd":"12","lsbd":"School Board Timpanogos 5"},{"vid":"dadf2ae475e72698fccb258b6259d4731ef8c73f350b55c208d07d3a8a5c9b8e","name":"Arjun Hilll","party":"","address":"298 E 1165 N, Orem, UT 84057","precinct":"25OR13","hd":"58","v_score":"13.91847152","decile":"9","lat":40.3183813076963,"lng":-111.68865107556945,"phone":"(123) 532-9000","sd":"24","ssbd":"12","lsbd":"School Board Timpanogos 5"},{"vid":"1753626","name":"Emil Rempel-Ward","party":"","address":"1051 N 140 E, Orem, UT 84057","precinct":"25OR13","hd":"58","v_score":"18.35167816","decile":"10","lat":40.316400317124454,"lng":-111.69298146961427,"phone":"(665) 607-6168","sd":"24","ssbd":"12","lsbd":"School Board Timpanogos 5"},{"vid":"1753637","name":"Rowena Welch MD","party":"Rep","address":"1051 N 140 E, Orem, UT 84057","precinct":"25OR13","hd":"58","v_score":"18.35167816","decile":"10","lat":40.316400317124454,"lng":-111.69298146961427,"phone":"(402) 106-1407","sd":"24","ssbd":"12","lsbd":"School Board Timpanogos 5"},{"vid":"1755642","name":"Felice Rolfson","party":"","address":"856 N 275 E, Orem, UT 84057","precinct":"25OR13","hd":"58","v_score":"3.93832808","decile":"6","lat":40.31290638358581,"lng":-111.68896823152974,"phone":"(512) 467-1392","sd":"24","ssbd":"12","lsbd":"School Board Timpanogos 5"},{"vid":"1759658","name":"Alferd Hackett","party":"","address":"848 N 200 E, Orem, UT 84057","precinct":"25OR13","hd":"58","v_score":"18.1905579","decile":"10","lat":40.312693344197136,"lng":-111.69081947248073,"phone":"(709) 578-8608","sd":"24","ssbd":"12","lsbd":"School Board Timpanogos 5"},{"vid":"1760363","name":"Jessi Trantow","party":"Dem","address":"990 N 350 E, Orem, UT 84057","precinct":"25OR13","hd":"58","v_score":"3.93832808","decile":"6","lat":40.31550979631213,"lng":-111.68734811131745,"phone":"(650) 966-0423","sd":"24","ssbd":"12","lsbd":"School Board Timpanogos 5"},{"vid":"eb0034c0d3fca835c9c664f13def566b27af4bcebf1362ee2dc975b4d479db0a","name":"Lawyer Larkin","party":"Rep","address":"225 E 905 N, Orem, UT 84057","precinct":"25OR13","hd":"58","v_score":"1.121327652","decile":"3","lat":40.313981538476305,"lng":-111.69050390114863,"phone":"(444) 140-1365","sd":"24","ssbd":"12","lsbd":"School Board Timpanogos 5"},{"vid":"1764825","name":"Johnna Stokes MD","party":"Rep","address":"1169 N 200 E, Orem, UT 84057","precinct":"25OR13","hd":"58","v_score":"10.36948566","decile":"9","lat":40.31855460127322,"lng":-111.69154678662333,"phone":"(840) 774-4234","sd":"24","ssbd":"12","lsbd":"School Board Timpanogos 5"},{"vid":"1771769","name":"Ruth Predovic","party":"","address":"385 E 1000 N, Orem, UT 84057","precinct":"25OR13","hd":"58","v_score":"3.343857335","decile":"6","lat":40.31575165692047,"lng":-111.68651971198334,"phone":"(722) 975-4999","sd":"24","ssbd":"12","lsbd":"School Board Timpanogos 5"},{"vid":"a4aa12d2b7c3cb4757e6c00b68c9d367cf7e54058dced7595deb207d53b0e132","name":"Davonta Goodwin","party":"Rep","address":"450 E 1200 N, Orem, UT 84097","precinct":"25OR13","hd":"58","v_score":"2.587603312","decile":"5","lat":40.31846285725448,"lng":-111.68553918714977,"phone":"(183) 753-3312","sd":"24","ssbd":"12","lsbd":"School Board Timpanogos 5"},{"vid":"1781273","name":"Young Kuhn","party":"Rep","address":"587 E 950 N, Orem, UT 84097","precinct":"25OR13","hd":"58","v_score":"2.958579882","decile":"6","lat":40.3148998748184,"lng":-111.68168268156201,"phone":"(295) 628-0038","sd":"24","ssbd":"12","lsbd":"School Board Timpanogos 5"},{"vid":"1781432","name":"Kylene Brown","party":"Rep","address":"1165 N 475 E, Orem, UT 84097","precinct":"25OR13","hd":"58","v_score":"2.587603312","decile":"5","lat":40.318383182099026,"lng":-111.68484655295636,"phone":"(731) 801-5428","sd":"24","ssbd":"12","lsbd":"School Board Timpanogos 5"},{"vid":"1787610","name":"Dr. Oley Swaniawski Jr.","party":"Rep","address":"1163 N 600 E, Orem, UT 84097","precinct":"25OR13","hd":"58","v_score":"22.57788051","decile":"10","lat":40.31858302289522,"lng":-111.68176947258564,"phone":"(849) 873-7781","sd":"24","ssbd":"12","lsbd":"School Board Timpanogos 5"},{"vid":"1795216","name":"Sharon Farrell I","party":"Rep","address":"835 N 350 E, Orem, UT 84057","precinct":"25OR13","hd":"58","v_score":"4.210716443","decile":"7","lat":40.31277691636581,"lng":-111.68784273787983,"phone":"(774) 136-6609","sd":"24","ssbd":"12","lsbd":"School Board Timpanogos 5"},{"vid":"1795435","name":"Dr. Florian Jaskolski PhD","party":"Dem","address":"889 N 235 E, Orem, UT 84057","precinct":"25OR13","hd":"58","v_score":"13.76678889","decile":"9","lat":40.3136437073681,"lng":-111.689861850182,"phone":"(996) 115-0467","sd":"24","ssbd":"12","lsbd":"School Board Timpanogos 5"},{"vid":"1795636","name":"Deeann Williamson","party":"Rep","address":"891 N 235 E, Orem, UT 84057","precinct":"25OR13","hd":"58","v_score":"2.587603312","decile":"5","lat":40.31318724637212,"lng":-111.68973230638066,"phone":"(730) 964-5584","sd":"24","ssbd":"12","lsbd":"School Board Timpanogos 5"},{"vid":"1799273","name":"Nikia Effertz","party":"","address":"870 N 235 E, Orem, UT 84057","precinct":"25OR13","hd":"58","v_score":"12.56158634","decile":"9","lat":40.313269913389284,"lng":-111.6900109779743,"phone":"(923) 441-0102","sd":"24","ssbd":"12","lsbd":"School Board Timpanogos 5"},{"vid":"20fb9780aa6306aeec772ba0eeb238d521ed6d78573748fdfc534d0ba51c9499","name":"Ima Brown","party":"","address":"879 N 275 E, Orem, UT 84057","precinct":"25OR13","hd":"58","v_score":"0","decile":"1","lat":40.313515364044726,"lng":-111.6894715925711,"phone":"(701) 772-5593","sd":"24","ssbd":"12","lsbd":"School Board Timpanogos 5"},{"vid":"1805775","name":"Dr. Robin Ryan","party":"","address":"1065 N 250 E, Orem, UT 84057","precinct":"25OR13","hd":"58","v_score":"16.72856503","decile":"9","lat":40.31663045484547,"lng":-111.69011153178798,"phone":"(156) 214-7066","sd":"24","ssbd":"12","lsbd":"School Board Timpanogos 5"},{"vid":"1812333","name":"Camilo Ledner","party":"Dem","address":"458 E 1200 N, Orem, UT 84097","precinct":"25OR13","hd":"58","v_score":"2.315214949","decile":"5","lat":40.31870334851999,"lng":-111.68512291126923,"phone":"(453) 945-6770","sd":"24","ssbd":"12","lsbd":"School Board Timpanogos 5"},{"vid":"1815018","name":"Arnav McGlynn","party":"","address":"1046 N 200 E, Orem, UT 84057","precinct":"25OR13","hd":"58","v_score":"5.604194564","decile":"7","lat":40.316271240587,"lng":-111.6908400158733,"phone":"(541) 592-9929","sd":"24","ssbd":"12","lsbd":"School Board Timpanogos 5"},{"vid":"1817856","name":"Minerva Hegmann PhD","party":"Dem","address":"847 N 350 E, Orem, UT 84057","precinct":"25OR13","hd":"58","v_score":"8.363183621","decile":"8","lat":40.3129967917537,"lng":-111.68779262419389,"phone":"(371) 033-8402","sd":"24","ssbd":"12","lsbd":"School Board Timpanogos 5"},{"vid":"1819094","name":"Geovanni Rempel","party":"","address":"182 E 910 N, Orem, UT 84057","precinct":"25OR13","hd":"58","v_score":"0","decile":"1","lat":40.31367457099644,"lng":-111.69162489244232,"phone":"(978) 206-5108","sd":"24","ssbd":"12","lsbd":"School Board Timpanogos 5"},{"vid":"1819244","name":"Ingram Emard","party":"","address":"1162 N 140 E, Orem, UT 84057","precinct":"25OR13","hd":"58","v_score":"21.68369947","decile":"10","lat":40.31843303448062,"lng":-111.6921032613785,"phone":"(451) 058-8250","sd":"24","ssbd":"12","lsbd":"School Board Timpanogos 5"},{"vid":"1833359","name":"Vara Mayert-Crooks","party":"Rep","address":"856 N 275 E, Orem, UT 84057","precinct":"25OR13","hd":"58","v_score":"3.93832808","decile":"6","lat":40.31290638358581,"lng":-111.68896823152974,"phone":"(571) 320-5726","sd":"24","ssbd":"12","lsbd":"School Board Timpanogos 5"},{"vid":"1836570","name":"Miss Cher Rempel","party":"","address":"841 N 235 E, Orem, UT 84057","precinct":"25OR13","hd":"58","v_score":"0","decile":"1","lat":40.31254513183679,"lng":-111.69045909030764,"phone":"(593) 711-1563","sd":"24","ssbd":"12","lsbd":"School Board Timpanogos 5"},{"vid":"1841378","name":"Dr. Karim Mueller","party":"Dem","address":"386 E 900 N, Orem, UT 84057","precinct":"25OR13","hd":"58","v_score":"3.781490609","decile":"6","lat":40.31349047386292,"lng":-111.68678478675947,"phone":"(806) 785-8209","sd":"24","ssbd":"12","lsbd":"School Board Timpanogos 5"},{"vid":"1844374","name":"Fleming Okuneva","party":"Rep","address":"972 N 475 E, Orem, UT 84097","precinct":"25OR13","hd":"58","v_score":"2.744440783","decile":"5","lat":40.31513845445111,"lng":-111.68413102930458,"phone":"(955) 998-1012","sd":"24","ssbd":"12","lsbd":"School Board Timpanogos 5"},{"vid":"1846334","name":"Renea Erdman","party":"Rep","address":"1165 N 140 E, Orem, UT 84057","precinct":"25OR13","hd":"58","v_score":"2.587603312","decile":"5","lat":40.318549911728034,"lng":-111.6926840346339,"phone":"(850) 810-9187","sd":"24","ssbd":"12","lsbd":"School Board Timpanogos 5"},{"vid":"1847031","name":"Dr. Aletha Ward DDS","party":"","address":"198 E 910 N, Orem, UT 84057","precinct":"25OR13","hd":"58","v_score":"2.315214949","decile":"5","lat":40.31376275111936,"lng":-111.69122069478742,"phone":"(922) 866-0932","sd":"24","ssbd":"12","lsbd":"School Board Timpanogos 5"},{"vid":"1853947","name":"Benjiman Nader","party":"","address":"1145 N 140 E, Orem, UT 84057","precinct":"25OR13","hd":"58","v_score":"18.36165583","decile":"10","lat":40.31805296287542,"lng":-111.69270162317306,"phone":"(684) 474-5113","sd":"24","ssbd":"12","lsbd":"School Board Timpanogos 5"},{"vid":"aa124286f274760993852c57c8dc68fb485ec3f53e2f6d83578d7ad849b07619","name":"Brenda Okuneva MD","party":"Rep","address":"197 E 980 N, Orem, UT 84057","precinct":"25OR13","hd":"58","v_score":"6.724398202","decile":"8","lat":40.3154501695453,"lng":-111.69131259393231,"phone":"(995) 302-1451","sd":"24","ssbd":"12","lsbd":"School Board Timpanogos 5"},{"vid":"1858731","name":"Mr. Mickey Jacobs Sr.","party":"Rep","address":"198 E 865 N, Orem, UT 84057","precinct":"25OR13","hd":"58","v_score":"6.724398202","decile":"8","lat":40.31273161243847,"lng":-111.69139618339221,"phone":"(692) 921-4414","sd":"24","ssbd":"12","lsbd":"School Board Timpanogos 5"},{"vid":"1858794","name":"Carlton Cummings-Gibson","party":"Dem","address":"872 N 350 E, Orem, UT 84057","precinct":"25OR13","hd":"58","v_score":"9.600440767","decile":"8","lat":40.31302925813041,"lng":-111.68716836882311,"phone":"(602) 279-0833","sd":"24","ssbd":"12","lsbd":"School Board Timpanogos 5"},{"vid":"1859087","name":"Jaimee VonRueden","party":"Dem","address":"276 E 1090 N, Orem, UT 84057","precinct":"25OR13","hd":"58","v_score":"6.299555799","decile":"7","lat":40.316870798493085,"lng":-111.68926454537767,"phone":"(871) 167-1694","sd":"24","ssbd":"12","lsbd":"School Board Timpanogos 5"},{"vid":"1870967","name":"Miss Selma Macejkovic","party":"","address":"880 N 275 E, Orem, UT 84057","precinct":"25OR13","hd":"58","v_score":"18.81608303","decile":"10","lat":40.31355291508521,"lng":-111.68897652908836,"phone":"(450) 990-2349","sd":"24","ssbd":"12","lsbd":"School Board Timpanogos 5"},{"vid":"1874690","name":"Mr. Chris Quitzon III","party":"","address":"199 E 910 N, Orem, UT 84057","precinct":"25OR13","hd":"58","v_score":"5.258122542","decile":"7","lat":40.31400873948889,"lng":-111.69123013796764,"phone":"(700) 135-4355","sd":"24","ssbd":"12","lsbd":"School Board Timpanogos 5"},{"vid":"1875223","name":"Luverne Schimmel","party":"Rep","address":"577 E 1090 N, Orem, UT 84097","precinct":"25OR13","hd":"58","v_score":"28.10869664","decile":"10","lat":40.31755591342417,"lng":-111.68228079594519,"phone":"(391) 466-0606","sd":"24","ssbd":"12","lsbd":"School Board Timpanogos 5"},{"vid":"1877406","name":"Tolbert Kunze DVM","party":"","address":"186 E 865 N, Orem, UT 84057","precinct":"25OR13","hd":"58","v_score":"1.193887297","decile":"3","lat":40.31302416601234,"lng":-111.69172634565462,"phone":"(817) 100-5577","sd":"24","ssbd":"12","lsbd":"School Board Timpanogos 5"},{"vid":"f0fd1458531919e75932b6650876acbd1d16e6c8b45ac45b9bdab730f7b2bdcb","name":"Braydon Glover","party":"Dem","address":"587 E 950 N, Orem, UT 84097","precinct":"25OR13","hd":"58","v_score":"2.587603312","decile":"5","lat":40.3148998748184,"lng":-111.68168268156201,"phone":"(808) 832-8022","sd":"24","ssbd":"12","lsbd":"School Board Timpanogos 5"},{"vid":"1895504","name":"Toby Heidenreich","party":"Rep","address":"944 N Garden Dr, Orem, UT 84057","precinct":"25OR13","hd":"58","v_score":"0","decile":"1","lat":40.314636589043126,"lng":-111.69181679181096,"phone":"(915) 823-0735","sd":"24","ssbd":"12","lsbd":"School Board Timpanogos 5"},{"vid":"45dedde4a6254e47b4f223338920dd8bb9f08a9634d958dd507e6c68d06f43a0","name":"Mr. Savon Skiles I","party":"Rep","address":"1075 N 200 E, Orem, UT 84057","precinct":"25OR13","hd":"58","v_score":"3.781490609","decile":"6","lat":40.31682913528369,"lng":-111.69142558040697,"phone":"(110) 610-2635","sd":"24","ssbd":"12","lsbd":"School Board Timpanogos 5"},{"vid":"1da91b29b942a2bb9d8ffe5a1ff2658b8a52434e6b21bebf6e62fb3890cea3f2","name":"Shaylee Franecki","party":"Rep","address":"1023 N 250 E, Orem, UT 84057","precinct":"25OR13","hd":"58","v_score":"5.40460374","decile":"7","lat":40.316161743315526,"lng":-111.69020989117996,"phone":"(649) 162-2495","sd":"24","ssbd":"12","lsbd":"School Board Timpanogos 5"},{"vid":"ed7d71fd6d3a257ac1593973ff288ca7135b4d46128547466a6fd3bf2c87e394","name":"Miss Maudie Dicki","party":"Dem","address":"867 N 235 E, Orem, UT 84057","precinct":"25OR13","hd":"58","v_score":"5.273794831","decile":"7","lat":40.31317080673556,"lng":-111.69046712052763,"phone":"(753) 117-8519","sd":"24","ssbd":"12","lsbd":"School Board Timpanogos 5"},{"vid":"1937631","name":"Brenden O'Keefe","party":"","address":"865 N 350 E, Orem, UT 84057","precinct":"25OR13","hd":"58","v_score":"1.121327652","decile":"3","lat":40.31318476751039,"lng":-111.6877432573673,"phone":"(697) 659-5974","sd":"24","ssbd":"12","lsbd":"School Board Timpanogos 5"},{"vid":"1941634","name":"Dr. Precious Daniel","party":"Dem","address":"1007 N 475 E, Orem, UT 84097","precinct":"25OR13","hd":"58","v_score":"3.93832808","decile":"6","lat":40.31580165189969,"lng":-111.68473887531687,"phone":"(892) 538-4302","sd":"24","ssbd":"12","lsbd":"School Board Timpanogos 5"},{"vid":"1943755","name":"Valentino Jaskolski","party":"Rep","address":"880 N 350 E, Orem, UT 84057","precinct":"25OR13","hd":"58","v_score":"2.315214949","decile":"5","lat":40.31326979840229,"lng":-111.6872176001538,"phone":"(345) 773-6521","sd":"24","ssbd":"12","lsbd":"School Board Timpanogos 5"},{"vid":"1947317","name":"Dr. Caitlin Bernier MD","party":"","address":"1032 N 475 E, Orem, UT 84097","precinct":"25OR13","hd":"58","v_score":"3.781490609","decile":"6","lat":40.316275813163806,"lng":-111.68411177043012,"phone":"(167) 038-6940","sd":"24","ssbd":"12","lsbd":"School Board Timpanogos 5"},{"vid":"1951079","name":"Vernita Bayer DDS","party":"","address":"343 E 1140 N, Orem, UT 84057","precinct":"25OR13","hd":"58","v_score":"1.121327652","decile":"3","lat":40.31807498088154,"lng":-111.68767720316646,"phone":"(423) 349-4893","sd":"24","ssbd":"12","lsbd":"School Board Timpanogos 5"},{"vid":"bb5d3ff216c5e08eb8902f4049bdcf0074cf43046529a34203490668d7371318","name":"Mr. Donald Mayer","party":"","address":"343 E 1140 N, Orem, UT 84057","precinct":"25OR13","hd":"58","v_score":"0","decile":"1","lat":40.31807498088154,"lng":-111.68767720316646,"phone":"(961) 362-4859","sd":"24","ssbd":"12","lsbd":"School Board Timpanogos 5"},{"vid":"ed237d3f06a4f95ebfe8ef93596229571090dedf0b6564a911aaeae375989b67","name":"Dr. Jaylon Funk IV","party":"","address":"1117 N 520 E, Orem, UT 84097","precinct":"25OR13","hd":"58","v_score":"2.660162957","decile":"5","lat":40.31778926228141,"lng":-111.68384619311574,"phone":"(411) 663-3630","sd":"24","ssbd":"12","lsbd":"School Board Timpanogos 5"},{"vid":"1968464","name":"Roel Lockman","party":"Rep","address":"1024 N 250 E, Orem, UT 84057","precinct":"25OR13","hd":"58","v_score":"8.091152","decile":"8","lat":40.31616789967009,"lng":-111.68963826567621,"phone":"(868) 135-6161","sd":"24","ssbd":"12","lsbd":"School Board Timpanogos 5"},{"vid":"1968661","name":"Kerwin Herzog III","party":"Dem","address":"311 E 1000 N, Orem, UT 84057","precinct":"25OR13","hd":"58","v_score":"0","decile":"1","lat":40.3158074265033,"lng":-111.68853261423907,"phone":"(505) 780-7577","sd":"24","ssbd":"12","lsbd":"School Board Timpanogos 5"},{"vid":"1969433","name":"Algot Gleichner-Klocko","party":"","address":"326 E 1090 N, Orem, UT 84057","precinct":"25OR13","hd":"58","v_score":"1.121327652","decile":"3","lat":40.3168886349055,"lng":-111.68820797724365,"phone":"(205) 814-4075","sd":"24","ssbd":"12","lsbd":"School Board Timpanogos 5"},{"vid":"c2d49c06bc0afc9c18c01ef00861e4c607794128f6c7c077214021036b8e462a","name":"Nash Marquardt-Kreiger","party":"","address":"856 N 275 E, Orem, UT 84057","precinct":"25OR13","hd":"58","v_score":"2.315214949","decile":"5","lat":40.31290638358581,"lng":-111.68896823152974,"phone":"(978) 400-9362","sd":"24","ssbd":"12","lsbd":"School Board Timpanogos 5"},{"vid":"26b90abc750e72fa1e47d3ec0effd6b351dacc053d3501e3cd90e09e122c86c9","name":"Fran Rice","party":"Dem","address":"273 E 1140 N, Orem, UT 84057","precinct":"25OR13","hd":"58","v_score":"2.744440783","decile":"5","lat":40.31807087100771,"lng":-111.68929053088401,"phone":"(751) 674-7464","sd":"24","ssbd":"12","lsbd":"School Board Timpanogos 5"},{"vid":"1971937","name":"Porsche Goldner","party":"","address":"505 E 950 N, Orem, UT 84097","precinct":"25OR13","hd":"58","v_score":"9.61867875","decile":"8","lat":40.31489379062207,"lng":-111.68378388860931,"phone":"(601) 848-8524","sd":"24","ssbd":"12","lsbd":"School Board Timpanogos 5"},{"vid":"1973400","name":"Mr. Beryl Beatty MD","party":"Dem","address":"386 E 1165 N, Orem, UT 84057","precinct":"25OR13","hd":"58","v_score":"11.2494549","decile":"9","lat":40.31843569511654,"lng":-111.68660942393655,"phone":"(310) 879-2221","sd":"24","ssbd":"12","lsbd":"School Board Timpanogos 5"},{"vid":"1988696","name":"Virgle Denesik","party":"","address":"1128 N 475 E, Orem, UT 84097","precinct":"25OR13","hd":"58","v_score":"2.315214949","decile":"5","lat":40.31796077939178,"lng":-111.68428521064737,"phone":"(843) 963-6622","sd":"24","ssbd":"12","lsbd":"School Board Timpanogos 5"},{"vid":"1988858","name":"Marcia Nolan-Sanford","party":"","address":"315 E 900 N, Orem, UT 84057","precinct":"25OR13","hd":"58","v_score":"2.315214949","decile":"5","lat":40.31384155496502,"lng":-111.68843679530063,"phone":"(497) 581-5588","sd":"24","ssbd":"12","lsbd":"School Board Timpanogos 5"},{"vid":"a17aee5c0b0f60a54169e1d440d2b1703a86932a0fd414a198b19c5969a1336e","name":"Arba Rosenbaum MD","party":"Rep","address":"385 E 900 N, Orem, UT 84057","precinct":"25OR13","hd":"58","v_score":"12.63270431","decile":"9","lat":40.31400750860642,"lng":-111.68678711375537,"phone":"(743) 189-0566","sd":"24","ssbd":"12","lsbd":"School Board Timpanogos 5"},{"vid":"1994424","name":"Easton Wilderman-Hilpert","party":"Dem","address":"279 E 1090 N, Orem, UT 84057","precinct":"25OR13","hd":"58","v_score":"1.46627566","decile":"4","lat":40.31731011031175,"lng":-111.68922454657212,"phone":"(268) 298-4673","sd":"24","ssbd":"12","lsbd":"School Board Timpanogos 5"},{"vid":"1996469","name":"Dr. Vela Skiles","party":"","address":"1077 N 250 E, Orem, UT 84057","precinct":"25OR13","hd":"58","v_score":"2.315214949","decile":"5","lat":40.316870360596205,"lng":-111.69025804575467,"phone":"(737) 119-3969","sd":"24","ssbd":"12","lsbd":"School Board Timpanogos 5"},{"vid":"2016352","name":"Rolland Shields PhD","party":"","address":"987 N 600 E, Orem, UT 84097","precinct":"25OR13","hd":"58","v_score":"31.15555998","decile":"10","lat":40.315392919262194,"lng":-111.6817479200257,"phone":"(234) 409-9667","sd":"24","ssbd":"12","lsbd":"School Board Timpanogos 5"},{"vid":"2017523","name":"Francesca Kiehn MD","party":"Dem","address":"492 E 1200 N, Orem, UT 84097","precinct":"25OR13","hd":"58","v_score":"2.315214949","decile":"5","lat":40.31906805171105,"lng":-111.68413858229668,"phone":"(159) 963-0486","sd":"24","ssbd":"12","lsbd":"School Board Timpanogos 5"},{"vid":"2021608","name":"Tyrek Conn-Wyman","party":"","address":"1035 N 600 E, Orem, UT 84097","precinct":"25OR13","hd":"58","v_score":"23.75314872","decile":"10","lat":40.31627105537608,"lng":-111.681759501286,"phone":"(140) 069-1937","sd":"24","ssbd":"12","lsbd":"School Board Timpanogos 5"},{"vid":"5390ffdede96950a390b05b1353e7ea20db05889ede6c5af8fe7012eb552dade","name":"Dorathea Bode","party":"Rep","address":"966 N 350 E, Orem, UT 84057","precinct":"25OR13","hd":"58","v_score":"11.02844566","decile":"9","lat":40.31480562883818,"lng":-111.68717643353841,"phone":"(569) 368-3964","sd":"24","ssbd":"12","lsbd":"School Board Timpanogos 5"},{"vid":"2045305","name":"Mr. Robb Heidenreich","party":"Dem","address":"197 E 980 N, Orem, UT 84057","precinct":"25OR13","hd":"58","v_score":"0","decile":"1","lat":40.3154501695453,"lng":-111.69131259393231,"phone":"(285) 350-7518","sd":"24","ssbd":"12","lsbd":"School Board Timpanogos 5"},{"vid":"2054057","name":"Lera Larson","party":"Rep","address":"587 E 950 N, Orem, UT 84097","precinct":"25OR13","hd":"58","v_score":"6.324725604","decile":"7","lat":40.3148998748184,"lng":-111.68168268156201,"phone":"(250) 210-3982","sd":"24","ssbd":"12","lsbd":"School Board Timpanogos 5"},{"vid":"74dad8cec974ed0512328520b2fdfbd42aec9e16c0989485610e8cbca872ba13","name":"Gwyn Vandervort DVM","party":"Dem","address":"181 E 910 N, Orem, UT 84057","precinct":"25OR13","hd":"58","v_score":"0","decile":"1","lat":40.314027426769734,"lng":-111.6917958494266,"phone":"(685) 347-9320","sd":"24","ssbd":"12","lsbd":"School Board Timpanogos 5"},{"vid":"2055915","name":"Dr. Patric Casper","party":"","address":"349 E 1000 N, Orem, UT 84057","precinct":"25OR13","hd":"58","v_score":"9.61867875","decile":"8","lat":40.31586054072231,"lng":-111.68750988206332,"phone":"(628) 039-6569","sd":"24","ssbd":"12","lsbd":"School Board Timpanogos 5"},{"vid":"2056160","name":"Tomie Swift","party":"Dem","address":"492 E 1200 N, Orem, UT 84097","precinct":"25OR13","hd":"58","v_score":"2.315214949","decile":"5","lat":40.31906805171105,"lng":-111.68413858229668,"phone":"(890) 890-6723","sd":"24","ssbd":"12","lsbd":"School Board Timpanogos 5"},{"vid":"2056431","name":"Ms. Lakendra Lindgren DVM","party":"","address":"864 N 350 E, Orem, UT 84057","precinct":"25OR13","hd":"58","v_score":"5.687348376","decile":"7","lat":40.3129351406502,"lng":-111.68716803051758,"phone":"(483) 344-1192","sd":"24","ssbd":"12","lsbd":"School Board Timpanogos 5"},{"vid":"2069597","name":"Lem Cronin","party":"Dem","address":"574 E 1050 N, Orem, UT 84097","precinct":"25OR13","hd":"58","v_score":"5.191257514","decile":"7","lat":40.31652441635823,"lng":-111.68225473509403,"phone":"(121) 197-1052","sd":"24","ssbd":"12","lsbd":"School Board Timpanogos 5"},{"vid":"2072618","name":"Miss Natalee Tillman","party":"Rep","address":"1043 N 520 E, Orem, UT 84097","precinct":"25OR13","hd":"58","v_score":"0","decile":"1","lat":40.316500130594044,"lng":-111.68371720756876,"phone":"(895) 673-7256","sd":"24","ssbd":"12","lsbd":"School Board Timpanogos 5"},{"vid":"2074223","name":"Sammie Reynolds","party":"Dem","address":"1017 N 520 E, Orem, UT 84097","precinct":"25OR13","hd":"58","v_score":"14.06645533","decile":"9","lat":40.31597400963102,"lng":-111.6837221603199,"phone":"(745) 691-6087","sd":"24","ssbd":"12","lsbd":"School Board Timpanogos 5"},{"vid":"2074518","name":"Ms. Leafy Rohan","party":"","address":"854 N 200 E, Orem, UT 84057","precinct":"25OR13","hd":"58","v_score":"4.064235245","decile":"6","lat":40.312844282340926,"lng":-111.6908214349403,"phone":"(394) 491-4334","sd":"24","ssbd":"12","lsbd":"School Board Timpanogos 5"},{"vid":"2084983","name":"Mrs. Journey Nolan MD","party":"","address":"384 E 1140 N, Orem, UT 84057","precinct":"25OR13","hd":"58","v_score":"8.958408171","decile":"8","lat":40.317672225386794,"lng":-111.68659779118533,"phone":"(176) 300-8694","sd":"24","ssbd":"12","lsbd":"School Board Timpanogos 5"},{"vid":"2091298","name":"Dr. Nathen Paucek I","party":"","address":"865 N 350 E, Orem, UT 84057","precinct":"25OR13","hd":"58","v_score":"12.03607147","decile":"9","lat":40.31318476751039,"lng":-111.6877432573673,"phone":"(192) 728-1455","sd":"24","ssbd":"12","lsbd":"School Board Timpanogos 5"},{"vid":"8e28fff60e775537038f504085793f4d1cf07ff080d5f9d7ce663add4e98c21f","name":"Ezekiel Armstrong","party":"Dem","address":"371 E 1140 N, Orem, UT 84057","precinct":"25OR13","hd":"58","v_score":"5.273794831","decile":"7","lat":40.31801414124372,"lng":-111.6869661846428,"phone":"(141) 893-6093","sd":"24","ssbd":"12","lsbd":"School Board Timpanogos 5"},{"vid":"ea6154b63ea2ccf8109eb057f6ef5b962f02f8fdaf9bc2b9e6eae7033bbdeae5","name":"Boston Abshire","party":"Rep","address":"336 E 1000 N, Orem, UT 84057","precinct":"25OR13","hd":"58","v_score":"1.121327652","decile":"3","lat":40.31537932854861,"lng":-111.68798801773947,"phone":"(556) 803-6127","sd":"24","ssbd":"12","lsbd":"School Board Timpanogos 5"},{"vid":"6f44b330abd3fa79da63636fdd65947c839ca21196af88cae9ded7bc5e4d4594","name":"Orene Hackett","party":"Rep","address":"190 E 980 N, Orem, UT 84057","precinct":"25OR13","hd":"58","v_score":"2.587603312","decile":"5","lat":40.31512320485756,"lng":-111.69127992777442,"phone":"(405) 513-7726","sd":"24","ssbd":"12","lsbd":"School Board Timpanogos 5"},{"vid":"2118149","name":"Oma Wolf DVM","party":"","address":"533 E 950 N, Orem, UT 84097","precinct":"25OR13","hd":"58","v_score":"11.09531068","decile":"9","lat":40.31491690340596,"lng":-111.68329323353683,"phone":"(731) 272-3601","sd":"24","ssbd":"12","lsbd":"School Board Timpanogos 5"},{"vid":"a1e4c4365861daaf5a80c6e8e84eb367ae38f16256817275748d8623d0e81287","name":"Cherrelle Mraz","party":"Rep","address":"222 E 1140 N, Orem, UT 84057","precinct":"25OR13","hd":"58","v_score":"23.63610586","decile":"10","lat":40.317676267912375,"lng":-111.69053427137679,"phone":"(129) 467-3717","sd":"24","ssbd":"12","lsbd":"School Board Timpanogos 5"},{"vid":"3c8d5969d0aa68cb0bbd566e79557f38b5e587e304120550a627fa52b83c6df0","name":"Thad Emard","party":"","address":"151 E 1060 N, Orem, UT 84057","precinct":"25OR13","hd":"58","v_score":"9.750280533","decile":"8","lat":40.31683327735491,"lng":-111.69246694311694,"phone":"(410) 797-7217","sd":"24","ssbd":"12","lsbd":"School Board Timpanogos 5"},{"vid":"2120432","name":"Sydnee Rodriguez","party":"","address":"190 E 980 N, Orem, UT 84057","precinct":"25OR13","hd":"58","v_score":"1.46627566","decile":"4","lat":40.31512320485756,"lng":-111.69127992777442,"phone":"(414) 486-5192","sd":"24","ssbd":"12","lsbd":"School Board Timpanogos 5"},{"vid":"2123697","name":"Lashawn Bartell","party":"Rep","address":"1025 N 200 E, Orem, UT 84057","precinct":"25OR13","hd":"58","v_score":"0","decile":"1","lat":40.31583684142031,"lng":-111.69130324492808,"phone":"(220) 841-7624","sd":"24","ssbd":"12","lsbd":"School Board Timpanogos 5"},{"vid":"2127146","name":"Halley Moore","party":"Dem","address":"1145 N 200 E, Orem, UT 84057","precinct":"25OR13","hd":"58","v_score":"3.781490609","decile":"6","lat":40.318225618502844,"lng":-111.6915674514681,"phone":"(175) 331-0709","sd":"24","ssbd":"12","lsbd":"School Board Timpanogos 5"},{"vid":"80fce990282c8a3f47abdf4a9a48ffcb47203eb0451d8161885a34b0f30562aa","name":"Rayburn Koch-Von","party":"","address":"937 N 200 E, Orem, UT 84057","precinct":"25OR13","hd":"58","v_score":"0","decile":"1","lat":40.31446266087967,"lng":-111.69139662621673,"phone":"(421) 006-4601","sd":"24","ssbd":"12","lsbd":"School Board Timpanogos 5"},{"vid":"4b919c102dc7f019a31f5edb6d9951fdd52d8675830aeb672fe22452dd91b611","name":"Attilio Boyer","party":"Dem","address":"889 N 235 E, Orem, UT 84057","precinct":"25OR13","hd":"58","v_score":"6.657533174","decile":"7","lat":40.3136437073681,"lng":-111.689861850182,"phone":"(224) 778-0623","sd":"24","ssbd":"12","lsbd":"School Board Timpanogos 5"},{"vid":"ab69e9078a064f3ba462e8357e5c2c1ab731a53c28cd0d7a012d191429839aec","name":"Sharita Bahringer","party":"","address":"386 E 900 N, Orem, UT 84057","precinct":"25OR13","hd":"58","v_score":"2.315214949","decile":"5","lat":40.31349047386292,"lng":-111.68678478675947,"phone":"(292) 527-7873","sd":"24","ssbd":"12","lsbd":"School Board Timpanogos 5"},{"vid":"3ec61480f328b93ca93f182db81ef14852466e592a9b9fad173bcb058eb4b965","name":"Charisse Klein","party":"Dem","address":"1075 N 200 E, Orem, UT 84057","precinct":"25OR13","hd":"58","v_score":"3.781490609","decile":"6","lat":40.31682913528369,"lng":-111.69142558040697,"phone":"(733) 257-2918","sd":"24","ssbd":"12","lsbd":"School Board Timpanogos 5"},{"vid":"2166420","name":"Mrs. Jamey Zulauf","party":"Dem","address":"395 E 900 N, Orem, UT 84057","precinct":"25OR13","hd":"58","v_score":"2.587603312","decile":"5","lat":40.31384956568342,"lng":-111.68650802278104,"phone":"(470) 082-9330","sd":"24","ssbd":"12","lsbd":"School Board Timpanogos 5"},{"vid":"2169202","name":"Ms. Kaela Lynch DDS","party":"Rep","address":"1092 N 140 E, Orem, UT 84057","precinct":"25OR13","hd":"58","v_score":"13.92577445","decile":"9","lat":40.31729685599951,"lng":-111.69232501885102,"phone":"(824) 864-4056","sd":"24","ssbd":"12","lsbd":"School Board Timpanogos 5"},{"vid":"2169248","name":"Cinda Grant","party":"","address":"168 E 1020 N, Orem, UT 84057","precinct":"25OR13","hd":"58","v_score":"9.600440767","decile":"8","lat":40.31572341490704,"lng":-111.6917264689041,"phone":"(300) 436-7884","sd":"24","ssbd":"12","lsbd":"School Board Timpanogos 5"},{"vid":"4b9c1950a77298bcf9c2fb21533051091891aa8b2b90c8eddbd31cbe826d708e","name":"Orrin Turner","party":"","address":"1177 N 600 E, Orem, UT 84097","precinct":"25OR13","hd":"58","v_score":"13.64956069","decile":"9","lat":40.318841398252474,"lng":-111.68177069573174,"phone":"(819) 337-7654","sd":"24","ssbd":"12","lsbd":"School Board Timpanogos 5"},{"vid":"51c5f146a736219e4be792f4ec049a93be2b226ddf802d6b88cb44c78ddc593b","name":"Domenico Harris-Miller","party":"Rep","address":"300 E 1200 N, Orem, UT 84057","precinct":"25OR13","hd":"58","v_score":"5.243007221","decile":"7","lat":40.31908047286089,"lng":-111.68867150020476,"phone":"(198) 542-0472","sd":"24","ssbd":"12","lsbd":"School Board Timpanogos 5"},{"vid":"6e602131a537fd3b9a03fbb021392c900df001e0719299e78d4e32b946472301","name":"Genaro Dooley","party":"Rep","address":"326 E 1090 N, Orem, UT 84057","precinct":"25OR13","hd":"58","v_score":"1.121327652","decile":"3","lat":40.3168886349055,"lng":-111.68820797724365,"phone":"(147) 991-0219","sd":"24","ssbd":"12","lsbd":"School Board Timpanogos 5"},{"vid":"96bec6191155e95811717c91b1aa0bb6280d82df4cece5fa7f8e629af7d08dd6","name":"Rhianna Hessel","party":"Rep","address":"836 N 200 E, Orem, UT 84057","precinct":"25OR13","hd":"58","v_score":"2.315214949","decile":"5","lat":40.312383395922694,"lng":-111.69079759571878,"phone":"(170) 272-3642","sd":"24","ssbd":"12","lsbd":"School Board Timpanogos 5"},{"vid":"3024bbd2746df2ad3a674f194ef694012b8de8dda472abb1191582357280100f","name":"Rylee Roob","party":"Rep","address":"955 N 250 E, Orem, UT 84057","precinct":"25OR13","hd":"58","v_score":"1.121327652","decile":"3","lat":40.31482315747974,"lng":-111.6903344412338,"phone":"(260) 204-5806","sd":"24","ssbd":"12","lsbd":"School Board Timpanogos 5"},{"vid":"2178919","name":"Elianna Leannon DDS","party":"Rep","address":"848 N 200 E, Orem, UT 84057","precinct":"25OR13","hd":"58","v_score":"0","decile":"1","lat":40.312693344197136,"lng":-111.69081947248073,"phone":"(612) 587-3518","sd":"24","ssbd":"12","lsbd":"School Board Timpanogos 5"},{"vid":"683d331a2201e783f56325b773f76244c077f36195eb9eb8501bad87e5ef0589","name":"Mrs. Michelle D'Amore PhD","party":"","address":"859 N 235 E, Orem, UT 84057","precinct":"25OR13","hd":"58","v_score":"0","decile":"1","lat":40.31300615017525,"lng":-111.69046501397827,"phone":"(832) 220-6402","sd":"24","ssbd":"12","lsbd":"School Board Timpanogos 5"},{"vid":"01bd520707c94819db3450abf5c302985e9fde5b4fb0f3c14af9d0eacc50ba2d","name":"Dennis Smitham","party":"Dem","address":"296 E 1140 N, Orem, UT 84057","precinct":"25OR13","hd":"58","v_score":"7.650280567","decile":"8","lat":40.317617400468706,"lng":-111.68863656238771,"phone":"(472) 795-4889","sd":"24","ssbd":"12","lsbd":"School Board Timpanogos 5"},{"vid":"4bb6458b5fc36d74f5abc463424c1cfc4a0a559f2b349051bc8252d92b93b2cf","name":"Esther Kuphal","party":"Dem","address":"848 N 235 E, Orem, UT 84057","precinct":"25OR13","hd":"58","v_score":"1.121327652","decile":"3","lat":40.312700047214214,"lng":-111.6899232407491,"phone":"(857) 388-9653","sd":"24","ssbd":"12","lsbd":"School Board Timpanogos 5"},{"vid":"86e095fd440aac8c7d4b6d37b2e571dac64a40623964b2c1a6201786f981c820","name":"Demetrius Ernser","party":"","address":"237 E 1000 N, Orem, UT 84057","precinct":"25OR13","hd":"58","v_score":"13.46923073","decile":"9","lat":40.31577502168906,"lng":-111.69007365642425,"phone":"(491) 452-0919","sd":"24","ssbd":"12","lsbd":"School Board Timpanogos 5"},{"vid":"2194216","name":"Ronaldo Farrell","party":"Rep","address":"383 E 1090 N, Orem, UT 84057","precinct":"25OR13","hd":"58","v_score":"2.315214949","decile":"5","lat":40.317219555337296,"lng":-111.68655222576098,"phone":"(492) 299-6330","sd":"24","ssbd":"12","lsbd":"School Board Timpanogos 5"},{"vid":"66aadfe5abc285763181663f6f1d5bd7e57c668a9bf97aa15279c12796424501","name":"Mrs. Ashlyn Kovacek DVM","party":"Rep","address":"945 N 400 E, Orem, UT 84097","precinct":"25OR13","hd":"58","v_score":"2.315214949","decile":"5","lat":40.314244625830234,"lng":-111.68661521429857,"phone":"(689) 517-9625","sd":"24","ssbd":"12","lsbd":"School Board Timpanogos 5"},{"vid":"2204311","name":"Shiloh Wehner-Schaden","party":"Dem","address":"300 E 1200 N, Orem, UT 84057","precinct":"25OR13","hd":"58","v_score":"10.83254138","decile":"9","lat":40.31908047286089,"lng":-111.68867150020476,"phone":"(588) 828-1105","sd":"24","ssbd":"12","lsbd":"School Board Timpanogos 5"},{"vid":"02bfc524d6fea159d07e17cf82eb09b8fc880b0492e466a4a854adc9f44806cd","name":"Pleas Kuhn-Yost","party":"Dem","address":"1075 N 140 E, Orem, UT 84057","precinct":"25OR13","hd":"58","v_score":"0","decile":"1","lat":40.316810845155686,"lng":-111.6928522506495,"phone":"(635) 891-8074","sd":"24","ssbd":"12","lsbd":"School Board Timpanogos 5"},{"vid":"5fa264dc4b918a4bc35d4dd01d30251d5e531a2108f6050fb91f712b8d47fba8","name":"Dr. Emma Hagenes Sr.","party":"Rep","address":"547 E 1090 N, Orem, UT 84097","precinct":"25OR13","hd":"58","v_score":"2.315214949","decile":"5","lat":40.3175548316073,"lng":-111.68270039606428,"phone":"(382) 280-6831","sd":"24","ssbd":"12","lsbd":"School Board Timpanogos 5"},{"vid":"2222734","name":"Mellissa Hilll","party":"Dem","address":"975 N 600 E, Orem, UT 84097","precinct":"25OR13","hd":"58","v_score":"2.315214949","decile":"5","lat":40.315173405368114,"lng":-111.68174500750787,"phone":"(368) 201-1082","sd":"24","ssbd":"12","lsbd":"School Board Timpanogos 5"},{"vid":"922c0813adda1ce75879e67d3e4aa6d557c02ca15e43a74aa3f5f98c5be68364","name":"Dr. Layne Gaylord","party":"","address":"1075 N 140 E, Orem, UT 84057","precinct":"25OR13","hd":"58","v_score":"6.881235673","decile":"8","lat":40.316810845155686,"lng":-111.6928522506495,"phone":"(901) 099-1065","sd":"24","ssbd":"12","lsbd":"School Board Timpanogos 5"},{"vid":"539acc672e3f652c70ae29cd84a6f466709fbe7b6e78f23fba00f590b8a4abab","name":"Dr. Whitney Anderson","party":"Dem","address":"836 N 235 E, Orem, UT 84057","precinct":"25OR13","hd":"58","v_score":"0","decile":"1","lat":40.31239009855953,"lng":-111.68990133173763,"phone":"(742) 447-1538","sd":"24","ssbd":"12","lsbd":"School Board Timpanogos 5"},{"vid":"2231016","name":"Dr. Aron Shanahan","party":"Dem","address":"1077 N 250 E, Orem, UT 84057","precinct":"25OR13","hd":"58","v_score":"0","decile":"1","lat":40.316870360596205,"lng":-111.69025804575467,"phone":"(270) 950-2062","sd":"24","ssbd":"12","lsbd":"School Board Timpanogos 5"},{"vid":"2235029","name":"Dr. Zana Konopelski","party":"Rep","address":"247 E 1090 N, Orem, UT 84057","precinct":"25OR13","hd":"58","v_score":"2.315214949","decile":"5","lat":40.31722915937841,"lng":-111.69005808818497,"phone":"(137) 870-9671","sd":"24","ssbd":"12","lsbd":"School Board Timpanogos 5"},{"vid":"2236245","name":"Fabian Vandervort","party":"Rep","address":"1165 N 140 E, Orem, UT 84057","precinct":"25OR13","hd":"58","v_score":"1.121327652","decile":"3","lat":40.318549911728034,"lng":-111.6926840346339,"phone":"(465) 735-1054","sd":"24","ssbd":"12","lsbd":"School Board Timpanogos 5"},{"vid":"e37b3123f464c1e261b4dbfa4c5b3b9f3bc97f8bb971a73415974fd9e97a78d9","name":"Alto Runte PhD","party":"Dem","address":"578 E 1090 N, Orem, UT 84097","precinct":"25OR13","hd":"58","v_score":"1.193887297","decile":"3","lat":40.31715026460807,"lng":-111.68205685999438,"phone":"(644) 436-7443","sd":"24","ssbd":"12","lsbd":"School Board Timpanogos 5"},{"vid":"b39361b98da0591af69a87e9d20a036dbc52a1028f02bfd5b5d57eb0771fe73f","name":"Bartholomew Gibson","party":"Dem","address":"414 E 1200 N, Orem, UT 84097","precinct":"25OR13","hd":"58","v_score":"0","decile":"1","lat":40.31910423973355,"lng":-111.68610684468368,"phone":"(817) 674-1107","sd":"24","ssbd":"12","lsbd":"School Board Timpanogos 5"},{"vid":"2247430","name":"Dr. Corey D'Amore IV","party":"","address":"270 E 1140 N, Orem, UT 84057","precinct":"25OR13","hd":"58","v_score":"0","decile":"1","lat":40.31761696895784,"lng":-111.68928386807957,"phone":"(891) 324-9071","sd":"24","ssbd":"12","lsbd":"School Board Timpanogos 5"},{"vid":"101e2ad305f55d2c8ab578d2eb59f0ca8474135a519c704c4ce4adf7097a94fb","name":"Micheal Hauck","party":"Dem","address":"161 E 1060 N, Orem, UT 84057","precinct":"25OR13","hd":"58","v_score":"12.38288823","decile":"9","lat":40.316778090739156,"lng":-111.69210696476267,"phone":"(409) 396-3092","sd":"24","ssbd":"12","lsbd":"School Board Timpanogos 5"},{"vid":"c74008f82c5b8d774311ae01696a83cc676627364e07ac43ea1a2134e96d8ecb","name":"Marrion Doyle MD","party":"","address":"883 N 235 E, Orem, UT 84057","precinct":"25OR13","hd":"58","v_score":"1.121327652","decile":"3","lat":40.313579728168975,"lng":-111.69012404540292,"phone":"(837) 707-3296","sd":"24","ssbd":"12","lsbd":"School Board Timpanogos 5"},{"vid":"c3494e68cf488ee0e4f6303b8c68f2b6960ca40cc3d7bcd4b52a2d44acdfc7e6","name":"Dr. Autry Senger","party":"","address":"365 E 1040 N, Orem, UT 84057","precinct":"25OR13","hd":"58","v_score":"1.121327652","decile":"3","lat":40.31659313802383,"lng":-111.68727882998238,"phone":"(820) 188-2029","sd":"24","ssbd":"12","lsbd":"School Board Timpanogos 5"},{"vid":"2272328","name":"Dafne Kuhic","party":"Dem","address":"1032 N 475 E, Orem, UT 84097","precinct":"25OR13","hd":"58","v_score":"2.315214949","decile":"5","lat":40.316275813163806,"lng":-111.68411177043012,"phone":"(976) 866-5429","sd":"24","ssbd":"12","lsbd":"School Board Timpanogos 5"},{"vid":"9dc80b41cb77b2f5897579bbd4bf80edd556a543f41a7eeb6220f6f1795ef0e3","name":"Minna Johnston","party":"Rep","address":"1049 N 140 E, Orem, UT 84057","precinct":"25OR13","hd":"58","v_score":"0","decile":"1","lat":40.31618501421412,"lng":-111.69299432648228,"phone":"(821) 810-7855","sd":"24","ssbd":"12","lsbd":"School Board Timpanogos 5"},{"vid":"a20635b0d5fa9ea98cf7cad20aa343e751853ba6c9f2992ee69e612437a92d69","name":"Cornelious Oberbrunner-Tillman","party":"Dem","address":"886 N 350 E, Orem, UT 84057","precinct":"25OR13","hd":"58","v_score":"14.4898859","decile":"9","lat":40.313400813076306,"lng":-111.68722025183081,"phone":"(688) 232-9937","sd":"24","ssbd":"12","lsbd":"School Board Timpanogos 5"},{"vid":"2295130","name":"Lavar Walker","party":"Dem","address":"975 N 400 E, Orem, UT 84097","precinct":"25OR13","hd":"58","v_score":"2.744440783","decile":"5","lat":40.31486764156271,"lng":-111.68671269839524,"phone":"(441) 287-7363","sd":"24","ssbd":"12","lsbd":"School Board Timpanogos 5"},{"vid":"2297924","name":"Dr. Roscoe Kutch","party":"","address":"198 E 910 N, Orem, UT 84057","precinct":"25OR13","hd":"58","v_score":"5.818950158","decile":"7","lat":40.31376275111936,"lng":-111.69122069478742,"phone":"(547) 641-3254","sd":"24","ssbd":"12","lsbd":"School Board Timpanogos 5"},{"vid":"2299664","name":"General Schmitt","party":"Dem","address":"937 N 200 E, Orem, UT 84057","precinct":"25OR13","hd":"58","v_score":"0","decile":"1","lat":40.31446266087967,"lng":-111.69139662621673,"phone":"(289) 127-2955","sd":"24","ssbd":"12","lsbd":"School Board Timpanogos 5"},{"vid":"2300904","name":"Teddie Schinner","party":"","address":"151 E 1060 N, Orem, UT 84057","precinct":"25OR13","hd":"58","v_score":"17.75698939","decile":"10","lat":40.31683327735491,"lng":-111.69246694311694,"phone":"(640) 752-9844","sd":"24","ssbd":"12","lsbd":"School Board Timpanogos 5"},{"vid":"8d88e11b41abb662a338f953ab49918c3a987144b400ed23297df0d3aef0710e","name":"Verna Turcotte","party":"Rep","address":"924 N 200 E, Orem, UT 84057","precinct":"25OR13","hd":"58","v_score":"5.693042993","decile":"7","lat":40.31420979143825,"lng":-111.69039864651043,"phone":"(322) 525-0124","sd":"24","ssbd":"12","lsbd":"School Board Timpanogos 5"},{"vid":"c3f27c6771b6cb5c227e93285c657af82a9c4b8ccd3862c524824c60690527fe","name":"Berenice Walsh-Ebert","party":"Dem","address":"222 E 1140 N, Orem, UT 84057","precinct":"25OR13","hd":"58","v_score":"19.47429609","decile":"10","lat":40.317676267912375,"lng":-111.69053427137679,"phone":"(224) 160-8781","sd":"24","ssbd":"12","lsbd":"School Board Timpanogos 5"},{"vid":"91e04f8ffa76cd287536afa435c401e78053c861eb68593820fa7cc610644fa2","name":"Demetra Rempel DVM","party":"Rep","address":"984 N 475 E, Orem, UT 84097","precinct":"25OR13","hd":"58","v_score":"1.121327652","decile":"3","lat":40.31537337183385,"lng":-111.68409983780877,"phone":"(249) 872-4454","sd":"24","ssbd":"12","lsbd":"School Board Timpanogos 5"},{"vid":"2314992","name":"Niko Hoppe II","party":"Dem","address":"987 N 600 E, Orem, UT 84097","precinct":"25OR13","hd":"58","v_score":"0","decile":"1","lat":40.315392919262194,"lng":-111.6817479200257,"phone":"(690) 353-8617","sd":"24","ssbd":"12","lsbd":"School Board Timpanogos 5"},{"vid":"2320734","name":"Violetta Cartwright-Purdy","party":"Rep","address":"259 E 1090 N, Orem, UT 84057","precinct":"25OR13","hd":"58","v_score":"12.28698903","decile":"9","lat":40.31731034031496,"lng":-111.68979745828366,"phone":"(618) 334-7194","sd":"24","ssbd":"12","lsbd":"School Board Timpanogos 5"},{"vid":"2322454","name":"Lovett Hahn","party":"Rep","address":"1114 N 200 E, Orem, UT 84057","precinct":"25OR13","hd":"58","v_score":"7.650280567","decile":"8","lat":40.317328882214476,"lng":-111.69072523076328,"phone":"(891) 351-6668","sd":"24","ssbd":"12","lsbd":"School Board Timpanogos 5"},{"vid":"2327259","name":"Alcie Ernser-Ruecker","party":"Dem","address":"1065 N 250 E, Orem, UT 84057","precinct":"25OR13","hd":"58","v_score":"2.998909327","decile":"6","lat":40.31663045484547,"lng":-111.69011153178798,"phone":"(393) 034-3479","sd":"24","ssbd":"12","lsbd":"School Board Timpanogos 5"},{"vid":"2327358","name":"Viola Herzog PhD","party":"","address":"542 E 1090 N, Orem, UT 84097","precinct":"25OR13","hd":"58","v_score":"0","decile":"1","lat":40.31714865896544,"lng":-111.68302055053262,"phone":"(960) 039-0366","sd":"24","ssbd":"12","lsbd":"School Board Timpanogos 5"},{"vid":"2332056","name":"Ms. Faith Turner MD","party":"","address":"1046 N 200 E, Orem, UT 84057","precinct":"25OR13","hd":"58","v_score":"3.93832808","decile":"6","lat":40.316271240587,"lng":-111.6908400158733,"phone":"(661) 191-7857","sd":"24","ssbd":"12","lsbd":"School Board Timpanogos 5"},{"vid":"2332333","name":"Manley Simonis","party":"Rep","address":"160 E 1200 N, Orem, UT 84057","precinct":"25OR13","hd":"58","v_score":"9.907118004","decile":"8","lat":40.31898900501892,"lng":-111.6923985030597,"phone":"(750) 576-9366","sd":"24","ssbd":"12","lsbd":"School Board Timpanogos 5"},{"vid":"2332726","name":"Orange Greenholt","party":"","address":"326 E 1000 N, Orem, UT 84057","precinct":"25OR13","hd":"58","v_score":"6.814370645","decile":"8","lat":40.31537871509788,"lng":-111.68822105060563,"phone":"(852) 419-8983","sd":"24","ssbd":"12","lsbd":"School Board Timpanogos 5"},{"vid":"2337718","name":"Rodrick Bauch-Hilll","party":"","address":"880 N 275 E, Orem, UT 84057","precinct":"25OR13","hd":"58","v_score":"2.315214949","decile":"5","lat":40.31355291508521,"lng":-111.68897652908836,"phone":"(964) 291-4736","sd":"24","ssbd":"12","lsbd":"School Board Timpanogos 5"},{"vid":"2342617","name":"Dr. Burdette Prohaska I","party":"","address":"574 E 1050 N, Orem, UT 84097","precinct":"25OR13","hd":"58","v_score":"0","decile":"1","lat":40.31652441635823,"lng":-111.68225473509403,"phone":"(866) 398-5835","sd":"24","ssbd":"12","lsbd":"School Board Timpanogos 5"},{"vid":"2343351","name":"Mr. Ewell Hauck","party":"Rep","address":"1114 N 140 E, Orem, UT 84057","precinct":"25OR13","hd":"58","v_score":"6.52928996","decile":"7","lat":40.317559114474044,"lng":-111.69228244684504,"phone":"(340) 392-3183","sd":"24","ssbd":"12","lsbd":"School Board Timpanogos 5"},{"vid":"2343390","name":"Ms. Jolette Kerluke DDS","party":"Rep","address":"882 N 300 E, Orem, UT 84057","precinct":"25OR13","hd":"58","v_score":"0","decile":"1","lat":40.31317669287282,"lng":-111.68822617072045,"phone":"(509) 631-3975","sd":"24","ssbd":"12","lsbd":"School Board Timpanogos 5"},{"vid":"2344270","name":"Magan Trantow-Hagenes","party":"","address":"504 E 1090 N, Orem, UT 84097","precinct":"25OR13","hd":"58","v_score":"9.043758688","decile":"8","lat":40.317147086473994,"lng":-111.68393476743458,"phone":"(895) 022-3185","sd":"24","ssbd":"12","lsbd":"School Board Timpanogos 5"},{"vid":"2344311","name":"Khari Kulas-Schuppe","party":"Dem","address":"375 E 900 N, Orem, UT 84057","precinct":"25OR13","hd":"58","v_score":"1.193887297","decile":"3","lat":40.314006888293456,"lng":-111.68702014177066,"phone":"(170) 683-6553","sd":"24","ssbd":"12","lsbd":"School Board Timpanogos 5"},{"vid":"2345541","name":"Ms. Dusty Kassulke PhD","party":"","address":"1035 N 250 E, Orem, UT 84057","precinct":"25OR13","hd":"58","v_score":"1.121327652","decile":"3","lat":40.31641342405771,"lng":-111.69031473355676,"phone":"(514) 006-3343","sd":"24","ssbd":"12","lsbd":"School Board Timpanogos 5"},{"vid":"2349072","name":"Miss Bernice Prohaska","party":"Rep","address":"542 E 1090 N, Orem, UT 84097","precinct":"25OR13","hd":"58","v_score":"5.853935319","decile":"7","lat":40.31714865896544,"lng":-111.68302055053262,"phone":"(565) 273-7648","sd":"24","ssbd":"12","lsbd":"School Board Timpanogos 5"},{"vid":"2351744","name":"Nico Oberbrunner","party":"","address":"375 E 900 N, Orem, UT 84057","precinct":"25OR13","hd":"58","v_score":"1.121327652","decile":"3","lat":40.314006888293456,"lng":-111.68702014177066,"phone":"(898) 476-9282","sd":"24","ssbd":"12","lsbd":"School Board Timpanogos 5"},{"vid":"2357662","name":"Heber Cassin","party":"Dem","address":"1115 N 140 E, Orem, UT 84057","precinct":"25OR13","hd":"58","v_score":"0","decile":"1","lat":40.31750904059351,"lng":-111.6927982921603,"phone":"(435) 728-7107","sd":"24","ssbd":"12","lsbd":"School Board Timpanogos 5"},{"vid":"2362833","name":"Dorine Trantow","party":"","address":"589 E 1050 N, Orem, UT 84097","precinct":"25OR13","hd":"58","v_score":"3.93832808","decile":"6","lat":40.316815527445875,"lng":-111.68172622278296,"phone":"(513) 519-2086","sd":"24","ssbd":"12","lsbd":"School Board Timpanogos 5"},{"vid":"2369710","name":"Dr. Avon Rowe Jr.","party":"Rep","address":"556 E 1200 N, Orem, UT 84097","precinct":"25OR13","hd":"58","v_score":"19.74515628","decile":"10","lat":40.31905208567359,"lng":-111.68273897747385,"phone":"(161) 128-8445","sd":"24","ssbd":"12","lsbd":"School Board Timpanogos 5"},{"vid":"2377037","name":"Zaniyah Koss","party":"","address":"1032 N 475 E, Orem, UT 84097","precinct":"25OR13","hd":"58","v_score":"2.315214949","decile":"5","lat":40.316275813163806,"lng":-111.68411177043012,"phone":"(769) 101-5728","sd":"24","ssbd":"12","lsbd":"School Board Timpanogos 5"},{"vid":"2380639","name":"Harlon Jenkins-Adams","party":"Rep","address":"966 N Garden Dr, Orem, UT 84057","precinct":"25OR13","hd":"58","v_score":"1.121327652","decile":"3","lat":40.31511365585575,"lng":-111.69199505854668,"phone":"(576) 600-0364","sd":"24","ssbd":"12","lsbd":"School Board Timpanogos 5"},{"vid":"2387391","name":"Aylin Hyatt","party":"","address":"1130 N 560 E, Orem, UT 84097","precinct":"25OR13","hd":"58","v_score":"19.49442423","decile":"10","lat":40.31786029346252,"lng":-111.68247821771294,"phone":"(728) 057-8520","sd":"24","ssbd":"12","lsbd":"School Board Timpanogos 5"},{"vid":"2393820","name":"Yadiel Walsh","party":"Rep","address":"842 N 235 E, Orem, UT 84057","precinct":"25OR13","hd":"58","v_score":"9.207031979","decile":"8","lat":40.31254910998103,"lng":-111.68992128098446,"phone":"(603) 151-0827","sd":"24","ssbd":"12","lsbd":"School Board Timpanogos 5"},{"vid":"2395772","name":"Rosella Rutherford","party":"Rep","address":"343 E 1140 N, Orem, UT 84057","precinct":"25OR13","hd":"58","v_score":"2.315214949","decile":"5","lat":40.31807498088154,"lng":-111.68767720316646,"phone":"(653) 039-1808","sd":"24","ssbd":"12","lsbd":"School Board Timpanogos 5"},{"vid":"2397946","name":"Renee Weissnat","party":"Rep","address":"1043 N 520 E, Orem, UT 84097","precinct":"25OR13","hd":"58","v_score":"0","decile":"1","lat":40.316500130594044,"lng":-111.68371720756876,"phone":"(783) 439-2428","sd":"24","ssbd":"12","lsbd":"School Board Timpanogos 5"},{"vid":"2398311","name":"Waino Osinski","party":"Dem","address":"279 E 1090 N, Orem, UT 84057","precinct":"25OR13","hd":"58","v_score":"0","decile":"1","lat":40.31731011031175,"lng":-111.68922454657212,"phone":"(201) 042-5720","sd":"24","ssbd":"12","lsbd":"School Board Timpanogos 5"},{"vid":"2398325","name":"Dr. Audie Murphy I","party":"","address":"909 N Garden Dr, Orem, UT 84057","precinct":"25OR13","hd":"58","v_score":"1.121327652","decile":"3","lat":40.3137862902197,"lng":-111.69208409490089,"phone":"(513) 077-2257","sd":"24","ssbd":"12","lsbd":"School Board Timpanogos 5"},{"vid":"2400082","name":"Humberto Gerhold II","party":"Dem","address":"1114 N 200 E, Orem, UT 84057","precinct":"25OR13","hd":"58","v_score":"0","decile":"1","lat":40.317328882214476,"lng":-111.69072523076328,"phone":"(169) 789-4357","sd":"24","ssbd":"12","lsbd":"School Board Timpanogos 5"},{"vid":"2400755","name":"Norine Denesik","party":"Dem","address":"990 N 350 E, Orem, UT 84057","precinct":"25OR13","hd":"58","v_score":"2.315214949","decile":"5","lat":40.31550979631213,"lng":-111.68734811131745,"phone":"(386) 624-3328","sd":"24","ssbd":"12","lsbd":"School Board Timpanogos 5"},{"vid":"2404206","name":"Mr. Benji Block DDS","party":"Dem","address":"225 E 905 N, Orem, UT 84057","precinct":"25OR13","hd":"58","v_score":"2.315214949","decile":"5","lat":40.313981538476305,"lng":-111.69050390114863,"phone":"(914) 961-9283","sd":"24","ssbd":"12","lsbd":"School Board Timpanogos 5"},{"vid":"2406340","name":"Koby Thiel Jr.","party":"","address":"1185 N 400 E, Orem, UT 84097","precinct":"25OR13","hd":"58","v_score":"6.027167436","decile":"7","lat":40.31901595070717,"lng":-111.68660738643054,"phone":"(209) 152-4000","sd":"24","ssbd":"12","lsbd":"School Board Timpanogos 5"},{"vid":"2407031","name":"Dr. Mose Bergstrom Sr.","party":"Rep","address":"288 E 1090 N, Orem, UT 84057","precinct":"25OR13","hd":"58","v_score":"2.315214949","decile":"5","lat":40.316898300990225,"lng":-111.6889603279722,"phone":"(183) 265-8933","sd":"24","ssbd":"12","lsbd":"School Board Timpanogos 5"},{"vid":"2408452","name":"Damon Ondricka","party":"Rep","address":"161 E 1060 N, Orem, UT 84057","precinct":"25OR13","hd":"58","v_score":"12.38288823","decile":"9","lat":40.316778090739156,"lng":-111.69210696476267,"phone":"(430) 518-5215","sd":"24","ssbd":"12","lsbd":"School Board Timpanogos 5"},{"vid":"2410077","name":"Robbin Corwin","party":"Dem","address":"1000 N 560 E, Orem, UT 84097","precinct":"25OR13","hd":"58","v_score":"9.405332525","decile":"8","lat":40.31561179584242,"lng":-111.68214074683156,"phone":"(429) 248-0006","sd":"24","ssbd":"12","lsbd":"School Board Timpanogos 5"},{"vid":"2415784","name":"Kalvin O'Reilly","party":"Rep","address":"870 N 235 E, Orem, UT 84057","precinct":"25OR13","hd":"58","v_score":"8.15240309","decile":"8","lat":40.313269913389284,"lng":-111.6900109779743,"phone":"(577) 508-8242","sd":"24","ssbd":"12","lsbd":"School Board Timpanogos 5"},{"vid":"2418087","name":"Gay Thiel","party":"Rep","address":"914 N 200 E, Orem, UT 84057","precinct":"25OR13","hd":"58","v_score":"1.121327652","decile":"3","lat":40.31391948132793,"lng":-111.69083545791138,"phone":"(495) 424-8495","sd":"24","ssbd":"12","lsbd":"School Board Timpanogos 5"},{"vid":"2422279","name":"Essex Hettinger","party":"Rep","address":"990 N 350 E, Orem, UT 84057","precinct":"25OR13","hd":"58","v_score":"2.315214949","decile":"5","lat":40.31550979631213,"lng":-111.68734811131745,"phone":"(436) 266-8318","sd":"24","ssbd":"12","lsbd":"School Board Timpanogos 5"},{"vid":"2424770","name":"John Auer","party":"","address":"225 E 905 N, Orem, UT 84057","precinct":"25OR13","hd":"58","v_score":"1.193887297","decile":"3","lat":40.313981538476305,"lng":-111.69050390114863,"phone":"(780) 352-6307","sd":"24","ssbd":"12","lsbd":"School Board Timpanogos 5"},{"vid":"2427302","name":"Burnie Lynch-Schiller","party":"Dem","address":"577 E 1090 N, Orem, UT 84097","precinct":"25OR13","hd":"58","v_score":"1.121327652","decile":"3","lat":40.31755591342417,"lng":-111.68228079594519,"phone":"(605) 627-2081","sd":"24","ssbd":"12","lsbd":"School Board Timpanogos 5"},{"vid":"2428502","name":"Orlo Gislason","party":"","address":"848 N 235 E, Orem, UT 84057","precinct":"25OR13","hd":"58","v_score":"2.315214949","decile":"5","lat":40.312700047214214,"lng":-111.6899232407491,"phone":"(678) 093-4191","sd":"24","ssbd":"12","lsbd":"School Board Timpanogos 5"},{"vid":"2432126","name":"Lucas Prosacco","party":"","address":"842 N 200 E, Orem, UT 84057","precinct":"25OR13","hd":"58","v_score":"0","decile":"1","lat":40.31254243407456,"lng":-111.69081754649275,"phone":"(213) 900-0351","sd":"24","ssbd":"12","lsbd":"School Board Timpanogos 5"},{"vid":"2433267","name":"Jacquez Steuber","party":"","address":"856 N 275 E, Orem, UT 84057","precinct":"25OR13","hd":"58","v_score":"3.93832808","decile":"6","lat":40.31290638358581,"lng":-111.68896823152974,"phone":"(887) 516-9923","sd":"24","ssbd":"12","lsbd":"School Board Timpanogos 5"},{"vid":"2435097","name":"Randi Jast","party":"","address":"1023 N 250 E, Orem, UT 84057","precinct":"25OR13","hd":"58","v_score":"3.93832808","decile":"6","lat":40.316161743315526,"lng":-111.69020989117996,"phone":"(493) 384-5926","sd":"24","ssbd":"12","lsbd":"School Board Timpanogos 5"},{"vid":"2439100","name":"Kale Cole","party":"Dem","address":"847 N 275 E, Orem, UT 84057","precinct":"25OR13","hd":"58","v_score":"0","decile":"1","lat":40.3127027427782,"lng":-111.6895647479127,"phone":"(878) 234-3987","sd":"24","ssbd":"12","lsbd":"School Board Timpanogos 5"},{"vid":"2439721","name":"Makayla Schiller","party":"Dem","address":"327 E 1140 N, Orem, UT 84057","precinct":"25OR13","hd":"58","v_score":"2.744440783","decile":"5","lat":40.31807423183847,"lng":-111.68799987639954,"phone":"(136) 803-7726","sd":"24","ssbd":"12","lsbd":"School Board Timpanogos 5"},{"vid":"2443204","name":"Yair Walsh","party":"","address":"990 N 250 E, Orem, UT 84057","precinct":"25OR13","hd":"58","v_score":"1.121327652","decile":"3","lat":40.315482218551644,"lng":-111.68972028399737,"phone":"(360) 441-9404","sd":"24","ssbd":"12","lsbd":"School Board Timpanogos 5"},{"vid":"2447159","name":"Kaycee Wisozk","party":"Dem","address":"1049 N 140 E, Orem, UT 84057","precinct":"25OR13","hd":"58","v_score":"1.121327652","decile":"3","lat":40.31618501421412,"lng":-111.69299432648228,"phone":"(118) 171-5358","sd":"24","ssbd":"12","lsbd":"School Board Timpanogos 5"},{"vid":"2447379","name":"Krish Zulauf DVM","party":"Dem","address":"311 E 1000 N, Orem, UT 84057","precinct":"25OR13","hd":"58","v_score":"1.121327652","decile":"3","lat":40.3158074265033,"lng":-111.68853261423907,"phone":"(954) 648-7392","sd":"24","ssbd":"12","lsbd":"School Board Timpanogos 5"},{"vid":"2447977","name":"Jerrilyn McClure","party":"","address":"327 E 1140 N, Orem, UT 84057","precinct":"25OR13","hd":"58","v_score":"1.121327652","decile":"3","lat":40.31807423183847,"lng":-111.68799987639954,"phone":"(972) 220-7630","sd":"24","ssbd":"12","lsbd":"School Board Timpanogos 5"},{"vid":"2460228","name":"Melinda Blanda-Towne","party":"Dem","address":"288 E 1090 N, Orem, UT 84057","precinct":"25OR13","hd":"58","v_score":"0","decile":"1","lat":40.316898300990225,"lng":-111.6889603279722,"phone":"(138) 994-5394","sd":"24","ssbd":"12","lsbd":"School Board Timpanogos 5"},{"vid":"2465928","name":"Nestor Hilpert Sr.","party":"Dem","address":"197 E 980 N, Orem, UT 84057","precinct":"25OR13","hd":"58","v_score":"0","decile":"1","lat":40.3154501695453,"lng":-111.69131259393231,"phone":"(711) 341-4277","sd":"24","ssbd":"12","lsbd":"School Board Timpanogos 5"},{"vid":"2470141","name":"Tatyana Greenfelder","party":"Dem","address":"364 E 900 N, Orem, UT 84057","precinct":"25OR13","hd":"58","v_score":"0","decile":"1","lat":40.31352335795392,"lng":-111.68716591124209,"phone":"(383) 434-6704","sd":"24","ssbd":"12","lsbd":"School Board Timpanogos 5"},{"vid":"2491078","name":"Davey Rutherford","party":"Dem","address":"578 E 1090 N, Orem, UT 84097","precinct":"25OR13","hd":"58","v_score":"1.193887297","decile":"3","lat":40.31715026460807,"lng":-111.68205685999438,"phone":"(805) 782-2109","sd":"24","ssbd":"12","lsbd":"School Board Timpanogos 5"},{"vid":"2496825","name":"Dr. Milford Wehner","party":"Dem","address":"1072 N 200 E, Orem, UT 84057","precinct":"25OR13","hd":"58","v_score":"17.15779086","decile":"9","lat":40.316899532619566,"lng":-111.69069232619304,"phone":"(573) 494-1186","sd":"24","ssbd":"12","lsbd":"School Board Timpanogos 5"},{"vid":"2502954","name":"Lanie Marquardt","party":"","address":"291 E 1090 N, Orem, UT 84057","precinct":"25OR13","hd":"58","v_score":"1.193887297","decile":"3","lat":40.31731002181737,"lng":-111.68894060150755,"phone":"(499) 630-2061","sd":"24","ssbd":"12","lsbd":"School Board Timpanogos 5"},{"vid":"2509293","name":"Dr. Penny Heathcote","party":"","address":"991 N 560 E, Orem, UT 84097","precinct":"25OR13","hd":"58","v_score":"14.27815183","decile":"9","lat":40.3153912487805,"lng":-111.68272936953846,"phone":"(732) 821-7458","sd":"24","ssbd":"12","lsbd":"School Board Timpanogos 5"},{"vid":"2518571","name":"Ismael Wuckert-Grady","party":"Dem","address":"941 N Garden Dr, Orem, UT 84057","precinct":"25OR13","hd":"58","v_score":"0","decile":"1","lat":40.314529131151275,"lng":-111.69245783714356,"phone":"(486) 147-2171","sd":"24","ssbd":"12","lsbd":"School Board Timpanogos 5"},{"vid":"2525848","name":"Hertha Herman-Hickle","party":"","address":"588 E 1050 N, Orem, UT 84097","precinct":"25OR13","hd":"58","v_score":"14.13760315","decile":"9","lat":40.31652546511675,"lng":-111.68170797511664,"phone":"(252) 020-4838","sd":"24","ssbd":"12","lsbd":"School Board Timpanogos 5"},{"vid":"2527558","name":"Dr. Leroy Bednar III","party":"Dem","address":"990 N 250 E, Orem, UT 84057","precinct":"25OR13","hd":"58","v_score":"0","decile":"1","lat":40.315482218551644,"lng":-111.68972028399737,"phone":"(741) 760-3928","sd":"24","ssbd":"12","lsbd":"School Board Timpanogos 5"},{"vid":"2527973","name":"Jerald Schmeler","party":"Rep","address":"916 N 350 E, Orem, UT 84057","precinct":"25OR13","hd":"58","v_score":"13.61907049","decile":"9","lat":40.31400625647291,"lng":-111.68726604012868,"phone":"(137) 186-0945","sd":"24","ssbd":"12","lsbd":"School Board Timpanogos 5"},{"vid":"2528467","name":"Edra Langosh","party":"Rep","address":"1024 N 200 E, Orem, UT 84057","precinct":"25OR13","hd":"58","v_score":"5.693042993","decile":"7","lat":40.31578250002518,"lng":-111.69093095902498,"phone":"(623) 243-9349","sd":"24","ssbd":"12","lsbd":"School Board Timpanogos 5"},{"vid":"2534002","name":"Mindy Ruecker","party":"Rep","address":"296 E 1140 N, Orem, UT 84057","precinct":"25OR13","hd":"58","v_score":"3.711952487","decile":"6","lat":40.317617400468706,"lng":-111.68863656238771,"phone":"(261) 224-4974","sd":"24","ssbd":"12","lsbd":"School Board Timpanogos 5"},{"vid":"2538142","name":"Susann Weissnat","party":"Rep","address":"1145 N 200 E, Orem, UT 84057","precinct":"25OR13","hd":"58","v_score":"1.193887297","decile":"4","lat":40.318225618502844,"lng":-111.6915674514681,"phone":"(489) 871-4130","sd":"24","ssbd":"12","lsbd":"School Board Timpanogos 5"},{"vid":"2548564","name":"Fed Ziemann III","party":"Dem","address":"941 N Garden Dr, Orem, UT 84057","precinct":"25OR13","hd":"58","v_score":"1.193887297","decile":"4","lat":40.314529131151275,"lng":-111.69245783714356,"phone":"(187) 308-4912","sd":"24","ssbd":"12","lsbd":"School Board Timpanogos 5"},{"vid":"2552698","name":"Freida Jast","party":"Rep","address":"836 N 200 E, Orem, UT 84057","precinct":"25OR13","hd":"58","v_score":"0","decile":"1","lat":40.312383395922694,"lng":-111.69079759571878,"phone":"(559) 274-8761","sd":"24","ssbd":"12","lsbd":"School Board Timpanogos 5"},{"vid":"2569195","name":"Ms. Katlin Koelpin PhD","party":"","address":"945 N 400 E, Orem, UT 84097","precinct":"25OR13","hd":"58","v_score":"1.193887297","decile":"4","lat":40.314244625830234,"lng":-111.68661521429857,"phone":"(959) 217-8622","sd":"24","ssbd":"12","lsbd":"School Board Timpanogos 5"},{"vid":"2578136","name":"Davonte O'Connell","party":"","address":"986 N 520 E, Orem, UT 84097","precinct":"25OR13","hd":"58","v_score":"0","decile":"1","lat":40.315442616893776,"lng":-111.6832582106366,"phone":"(292) 173-0429","sd":"24","ssbd":"12","lsbd":"School Board Timpanogos 5"},{"vid":"2594538","name":"Tressie Lueilwitz","party":"Dem","address":"1054 N 200 E, Orem, UT 84057","precinct":"25OR13","hd":"58","v_score":"0","decile":"1","lat":40.31665880672732,"lng":-111.69068701640114,"phone":"(726) 112-3950","sd":"24","ssbd":"12","lsbd":"School Board Timpanogos 5"},{"vid":"2597786","name":"Rosie Simonis","party":"","address":"853 N 275 E, Orem, UT 84057","precinct":"25OR13","hd":"58","v_score":"2.817000428","decile":"6","lat":40.31285368117499,"lng":-111.68956670785698,"phone":"(336) 015-2978","sd":"24","ssbd":"12","lsbd":"School Board Timpanogos 5"},{"vid":"2601527","name":"Diandra Davis","party":"Dem","address":"326 E 1000 N, Orem, UT 84057","precinct":"25OR13","hd":"58","v_score":"5.693042993","decile":"7","lat":40.31537871509788,"lng":-111.68822105060563,"phone":"(480) 758-3628","sd":"24","ssbd":"12","lsbd":"School Board Timpanogos 5"},{"vid":"2607191","name":"Agustin Green","party":"Rep","address":"1024 N 250 E, Orem, UT 84057","precinct":"25OR13","hd":"58","v_score":"0","decile":"1","lat":40.31616789967009,"lng":-111.68963826567621,"phone":"(380) 778-1999","sd":"24","ssbd":"12","lsbd":"School Board Timpanogos 5"},{"vid":"2612662","name":"Guido Kemmer I","party":"","address":"848 N 235 E, Orem, UT 84057","precinct":"25OR13","hd":"58","v_score":"0","decile":"1","lat":40.312700047214214,"lng":-111.6899232407491,"phone":"(425) 535-7333","sd":"24","ssbd":"12","lsbd":"School Board Timpanogos 5"},{"vid":"2614217","name":"Lacy Kirlin-Terry","party":"Rep","address":"958 N Garden Dr, Orem, UT 84057","precinct":"25OR13","hd":"58","v_score":"1.193887297","decile":"4","lat":40.31483483874684,"lng":-111.69182877258201,"phone":"(661) 496-2259","sd":"24","ssbd":"12","lsbd":"School Board Timpanogos 5"},{"vid":"2616763","name":"Roel Howell PhD","party":"","address":"916 N 350 E, Orem, UT 84057","precinct":"25OR13","hd":"58","v_score":"13.61907049","decile":"9","lat":40.31400625647291,"lng":-111.68726604012868,"phone":"(568) 753-4980","sd":"24","ssbd":"12","lsbd":"School Board Timpanogos 5"},{"vid":"2627316","name":"Duwayne Lesch","party":"Rep","address":"343 E 1140 N, Orem, UT 84057","precinct":"25OR13","hd":"58","v_score":"2.817000428","decile":"6","lat":40.31807498088154,"lng":-111.68767720316646,"phone":"(805) 494-7313","sd":"24","ssbd":"12","lsbd":"School Board Timpanogos 5"},{"vid":"2630376","name":"Jaunita Osinski","party":"","address":"349 E 1040 N, Orem, UT 84057","precinct":"25OR13","hd":"58","v_score":"18.35167816","decile":"10","lat":40.316592325812074,"lng":-111.68757998407281,"phone":"(617) 654-1841","sd":"24","ssbd":"12","lsbd":"School Board Timpanogos 5"},{"vid":"2630880","name":"Erika Beier","party":"","address":"994 N 520 E, Orem, UT 84097","precinct":"25OR13","hd":"58","v_score":"1.623113131","decile":"5","lat":40.315501269988694,"lng":-111.68350689214026,"phone":"(749) 538-0940","sd":"24","ssbd":"12","lsbd":"School Board Timpanogos 5"},{"vid":"2643893","name":"Dr. Hervey Botsford","party":"Rep","address":"995 N 475 E, Orem, UT 84097","precinct":"25OR13","hd":"58","v_score":"1.623113131","decile":"5","lat":40.31558211138809,"lng":-111.68473598849086,"phone":"(450) 140-0753","sd":"24","ssbd":"12","lsbd":"School Board Timpanogos 5"},{"vid":"2644177","name":"Spurgeon Schroeder","party":"","address":"518 E 1090 N, Orem, UT 84097","precinct":"25OR13","hd":"58","v_score":"1.623113131","decile":"5","lat":40.3171475931946,"lng":-111.6836300287068,"phone":"(725) 437-9028","sd":"24","ssbd":"12","lsbd":"School Board Timpanogos 5"},{"vid":"2645042","name":"Drake Bogan Sr.","party":"Dem","address":"349 E 1040 N, Orem, UT 84057","precinct":"25OR13","hd":"58","v_score":"18.35167816","decile":"10","lat":40.316592325812074,"lng":-111.68757998407281,"phone":"(303) 160-1647","sd":"24","ssbd":"12","lsbd":"School Board Timpanogos 5"},{"vid":"2648841","name":"Joseph Hilpert","party":"","address":"1185 N 400 E, Orem, UT 84097","precinct":"25OR13","hd":"58","v_score":"1.193887297","decile":"4","lat":40.31901595070717,"lng":-111.68660738643054,"phone":"(888) 176-1162","sd":"24","ssbd":"12","lsbd":"School Board Timpanogos 5"},{"vid":"2653906","name":"Mrs. Neva Robel DDS","party":"","address":"853 N 235 E, Orem, UT 84057","precinct":"25OR13","hd":"58","v_score":"1.193887297","decile":"4","lat":40.31284697776217,"lng":-111.69046294138528,"phone":"(824) 927-1663","sd":"24","ssbd":"12","lsbd":"School Board Timpanogos 5"},{"vid":"2655160","name":"Mr. Fernand Abernathy DDS","party":"Dem","address":"976 N 560 E, Orem, UT 84097","precinct":"25OR13","hd":"58","v_score":"1.193887297","decile":"4","lat":40.315172740817296,"lng":-111.68213495377596,"phone":"(937) 592-2756","sd":"24","ssbd":"12","lsbd":"School Board Timpanogos 5"},{"vid":"2656008","name":"Mr. Darnell Hessel","party":"Dem","address":"278 E 1000 N, Orem, UT 84057","precinct":"25OR13","hd":"58","v_score":"0","decile":"1","lat":40.31541576954049,"lng":-111.6892738982172,"phone":"(651) 675-7164","sd":"24","ssbd":"12","lsbd":"School Board Timpanogos 5"},{"vid":"2656017","name":"London Bernier","party":"","address":"1155 N 200 E, Orem, UT 84057","precinct":"25OR13","hd":"58","v_score":"1.193887297","decile":"4","lat":40.31833269640293,"lng":-111.69154259616218,"phone":"(147) 005-6031","sd":"24","ssbd":"12","lsbd":"School Board Timpanogos 5"},{"vid":"2665648","name":"Dr. Rodrick Lindgren","party":"","address":"348 E 1040 N, Orem, UT 84057","precinct":"25OR13","hd":"58","v_score":"11.54592159","decile":"9","lat":40.31615619232163,"lng":-111.68758308505717,"phone":"(263) 762-1992","sd":"24","ssbd":"12","lsbd":"School Board Timpanogos 5"},{"vid":"2672303","name":"Beverlee Ruecker-Bode","party":"","address":"1015 N 560 E, Orem, UT 84097","precinct":"25OR13","hd":"58","v_score":"0","decile":"2","lat":40.315830330879045,"lng":-111.68273513061403,"phone":"(299) 059-9265","sd":"24","ssbd":"12","lsbd":"School Board Timpanogos 5"},{"vid":"2675243","name":"Wilford Bailey","party":"Dem","address":"956 N 350 E, Orem, UT 84057","precinct":"25OR13","hd":"58","v_score":"0","decile":"2","lat":40.3146244989429,"lng":-111.68717561463419,"phone":"(756) 688-8568","sd":"24","ssbd":"12","lsbd":"School Board Timpanogos 5"},{"vid":"2677346","name":"Claudette Schmidt","party":"Dem","address":"974 N 520 E, Orem, UT 84097","precinct":"25OR13","hd":"58","v_score":"4.214075011","decile":"7","lat":40.31522262191757,"lng":-111.68326323642098,"phone":"(461) 713-5909","sd":"24","ssbd":"12","lsbd":"School Board Timpanogos 5"},{"vid":"2689769","name":"Darrick Bartoletti","party":"Dem","address":"362 E 900 N, Orem, UT 84057","precinct":"25OR13","hd":"58","v_score":"0","decile":"2","lat":40.31354182385604,"lng":-111.68722656444206,"phone":"(869) 845-8868","sd":"24","ssbd":"12","lsbd":"School Board Timpanogos 5"},{"vid":"2690623","name":"Ms. Francina Hegmann","party":"","address":"182 E 910 N, Orem, UT 84057","precinct":"25OR13","hd":"58","v_score":"1.193887297","decile":"4","lat":40.31367457099644,"lng":-111.69162489244232,"phone":"(688) 431-6399","sd":"24","ssbd":"12","lsbd":"School Board Timpanogos 5"},{"vid":"2706134","name":"Mr. Ross Dickinson","party":"Dem","address":"1042 N 520 E, Orem, UT 84097","precinct":"25OR13","hd":"58","v_score":"0","decile":"2","lat":40.316517085538685,"lng":-111.68325845954273,"phone":"(971) 481-6910","sd":"24","ssbd":"12","lsbd":"School Board Timpanogos 5"},{"vid":"2708283","name":"Harlow Boyle-O'Conner","party":"Rep","address":"991 N 560 E, Orem, UT 84097","precinct":"25OR13","hd":"58","v_score":"9.638447451","decile":"8","lat":40.3153912487805,"lng":-111.68272936953846,"phone":"(402) 425-7891","sd":"24","ssbd":"12","lsbd":"School Board Timpanogos 5"},{"vid":"2709060","name":"Herbert Kovacek","party":"Dem","address":"1155 N 200 E, Orem, UT 84057","precinct":"25OR13","hd":"58","v_score":"1.193887297","decile":"4","lat":40.31833269640293,"lng":-111.69154259616218,"phone":"(674) 049-4916","sd":"24","ssbd":"12","lsbd":"School Board Timpanogos 5"},{"vid":"2729270","name":"Charlie Bartell-Little","party":"","address":"955 N 400 E, Orem, UT 84097","precinct":"25OR13","hd":"58","v_score":"1.193887297","decile":"4","lat":40.31444341993451,"lng":-111.6866208418845,"phone":"(180) 334-2763","sd":"24","ssbd":"12","lsbd":"School Board Timpanogos 5"},{"vid":"2729586","name":"Dr. Payton Wunsch","party":"Dem","address":"848 N 275 E, Orem, UT 84057","precinct":"25OR13","hd":"58","v_score":"1.193887297","decile":"4","lat":40.31274721299257,"lng":-111.68896617959797,"phone":"(564) 600-1058","sd":"24","ssbd":"12","lsbd":"School Board Timpanogos 5"},{"vid":"2735287","name":"Koen Wisoky","party":"","address":"556 E 1200 N, Orem, UT 84097","precinct":"25OR13","hd":"58","v_score":"7.090117576","decile":"8","lat":40.31905208567359,"lng":-111.68273897747385,"phone":"(223) 694-8099","sd":"24","ssbd":"12","lsbd":"School Board Timpanogos 5"},{"vid":"2739473","name":"Crista Bailey MD","party":"Dem","address":"193 E 865 N, Orem, UT 84057","precinct":"25OR13","hd":"58","v_score":"0","decile":"2","lat":40.31323444186907,"lng":-111.69182919821729,"phone":"(320) 224-7830","sd":"24","ssbd":"12","lsbd":"School Board Timpanogos 5"},{"vid":"2741484","name":"Florian Bernhard","party":"","address":"1115 N 140 E, Orem, UT 84057","precinct":"25OR13","hd":"58","v_score":"1.193887297","decile":"4","lat":40.31750904059351,"lng":-111.6927982921603,"phone":"(501) 879-8526","sd":"24","ssbd":"12","lsbd":"School Board Timpanogos 5"},{"vid":"2743437","name":"Tangela Doyle","party":"Dem","address":"345 E 1000 N, Orem, UT 84057","precinct":"25OR13","hd":"58","v_score":"4.069929862","decile":"7","lat":40.315859546440514,"lng":-111.68787738967325,"phone":"(394) 826-2491","sd":"24","ssbd":"12","lsbd":"School Board Timpanogos 5"},{"vid":"2754701","name":"Cynthia Herman","party":"Dem","address":"237 E 1000 N, Orem, UT 84057","precinct":"25OR13","hd":"58","v_score":"1.193887297","decile":"4","lat":40.31577502168906,"lng":-111.69007365642425,"phone":"(309) 118-6085","sd":"24","ssbd":"12","lsbd":"School Board Timpanogos 5"},{"vid":"2760579","name":"Dr. Lacey Ziemann PhD","party":"Rep","address":"504 E 1090 N, Orem, UT 84097","precinct":"25OR13","hd":"58","v_score":"1.193887297","decile":"4","lat":40.317147086473994,"lng":-111.68393476743458,"phone":"(458) 159-9936","sd":"24","ssbd":"12","lsbd":"School Board Timpanogos 5"},{"vid":"2760604","name":"Amir Keebler","party":"Rep","address":"1192 N 475 E, Orem, UT 84097","precinct":"25OR13","hd":"58","v_score":"0","decile":"2","lat":40.31912923058849,"lng":-111.68447878737244,"phone":"(852) 336-5599","sd":"24","ssbd":"12","lsbd":"School Board Timpanogos 5"},{"vid":"2771673","name":"Creola Reilly","party":"Rep","address":"273 E 1140 N, Orem, UT 84057","precinct":"25OR13","hd":"58","v_score":"0","decile":"2","lat":40.31807087100771,"lng":-111.68929053088401,"phone":"(995) 959-2381","sd":"24","ssbd":"12","lsbd":"School Board Timpanogos 5"},{"vid":"2771738","name":"Margot Muller","party":"Dem","address":"273 E 1140 N, Orem, UT 84057","precinct":"25OR13","hd":"58","v_score":"0","decile":"2","lat":40.31807087100771,"lng":-111.68929053088401,"phone":"(607) 543-2795","sd":"24","ssbd":"12","lsbd":"School Board Timpanogos 5"},{"vid":"2780361","name":"Janine Kassulke","party":"Rep","address":"888 N 200 E, Orem, UT 84057","precinct":"25OR13","hd":"58","v_score":"4.214075011","decile":"7","lat":40.31368471481099,"lng":-111.6908322449071,"phone":"(430) 112-7693","sd":"24","ssbd":"12","lsbd":"School Board Timpanogos 5"},{"vid":"2782069","name":"Darius Hayes DDS","party":"Rep","address":"988 N 560 E, Orem, UT 84097","precinct":"25OR13","hd":"58","v_score":"1.193887297","decile":"4","lat":40.31539225498749,"lng":-111.68213783323579,"phone":"(347) 499-6837","sd":"24","ssbd":"12","lsbd":"School Board Timpanogos 5"},{"vid":"2783558","name":"Kamden Keebler-Wisozk","party":"","address":"956 N 350 E, Orem, UT 84057","precinct":"25OR13","hd":"58","v_score":"0","decile":"2","lat":40.3146244989429,"lng":-111.68717561463419,"phone":"(569) 653-0097","sd":"24","ssbd":"12","lsbd":"School Board Timpanogos 5"},{"vid":"2791449","name":"Tuan Brekke","party":"Rep","address":"1169 N 200 E, Orem, UT 84057","precinct":"25OR13","hd":"58","v_score":"1.193887297","decile":"4","lat":40.31855460127322,"lng":-111.69154678662333,"phone":"(340) 022-2434","sd":"24","ssbd":"12","lsbd":"School Board Timpanogos 5"},