[{"vid":"505746","name":"Leonel Jacobi","party":"Dem","address":"1157 N 185 W, Orem, UT 84057","precinct":"25OR12","hd":"56","v_score":"22.04691019","decile":"10","lat":40.31856965953504,"lng":-111.70052661911157},{"vid":"1227544","name":"Verlene Prohaska","party":"Dem","address":"29 E 925 N, Orem, UT 84057","precinct":"25OR12","hd":"56","v_score":"3.93832808","decile":"6","lat":40.314348552717405,"lng":-111.69515742745025},{"vid":"b251e075ed58bf75d5afdc155de442c3c5eea86da9c2bd8f9c211138d87e8144","name":"Raelynn Sipes-Kessler","party":"","address":"60 E 1340 N, Orem, UT 84057","precinct":"25OR12","hd":"56","v_score":"2.587603312","decile":"5","lat":40.321839175469734,"lng":-111.69464352824102},{"vid":"c3a9492a2821d3fce8418bd6bd7b47156b45cd2b8c8ab882947da39cbbbcd3e3","name":"Baldwin Gulgowski","party":"Dem","address":"1084 N 75 E, Orem, UT 84057","precinct":"25OR12","hd":"56","v_score":"26.84076894","decile":"10","lat":40.31689881629736,"lng":-111.69333556067582},{"vid":"1282804","name":"Caesar Smith","party":"","address":"1032 N 50 W, Orem, UT 84057","precinct":"25OR12","hd":"56","v_score":"20.7369877","decile":"10","lat":40.316339513923786,"lng":-111.69694705564692},{"vid":"1289716","name":"Sariah McGlynn","party":"Rep","address":"957 N 100 W, Orem, UT 84057","precinct":"25OR12","hd":"56","v_score":"0","decile":"1","lat":40.31483449713901,"lng":-111.69917270634278},{"vid":"1318054","name":"Mr. Beryl Kertzmann","party":"Dem","address":"1129 N Main St, Orem, UT 84057","precinct":"25OR12","hd":"56","v_score":"6.724398202","decile":"7","lat":40.31796786873695,"lng":-111.6961927647563},{"vid":"1318082","name":"Ms. Ozie Davis DDS","party":"Dem","address":"64 W 1160 N, Orem, UT 84057","precinct":"25OR12","hd":"56","v_score":"25.06350144","decile":"10","lat":40.31867407678402,"lng":-111.69752218653784},{"vid":"1342108","name":"Marry Zboncak","party":"Dem","address":"1092 N 75 E, Orem, UT 84057","precinct":"25OR12","hd":"56","v_score":"17.76342521","decile":"10","lat":40.31712319377001,"lng":-111.69334968820225},{"vid":"29e7c1606529a5290bdd643c312c5a2332b48bb32958eac29aaa1e8f94c6fda9","name":"Miss Amina Langworth","party":"Dem","address":"1190 N 50 E, Orem, UT 84057","precinct":"25OR12","hd":"56","v_score":"21.01746175","decile":"10","lat":40.31902536447454,"lng":-111.69457016678436},{"vid":"1356690","name":"Dr. Hattie Gorczany DVM","party":"Dem","address":"59 E 980 N, Orem, UT 84057","precinct":"25OR12","hd":"56","v_score":"1.121327652","decile":"3","lat":40.31542788724964,"lng":-111.69457554193099},{"vid":"1357660","name":"Brandon Spinka","party":"Rep","address":"115 E 1200 N, Orem, UT 84057","precinct":"25OR12","hd":"56","v_score":"9.616113056","decile":"8","lat":40.31949051219289,"lng":-111.69346820629994},{"vid":"1367385","name":"Dr. Hal Runolfsson MD","party":"Rep","address":"878 N 60 E, Orem, UT 84057","precinct":"25OR12","hd":"56","v_score":"3.781490609","decile":"6","lat":40.31336593469462,"lng":-111.69422098175193},{"vid":"1382794","name":"Sal Effertz","party":"","address":"28 W 990 N, Orem, UT 84057","precinct":"25OR12","hd":"56","v_score":"5.926494964","decile":"7","lat":40.315837137835,"lng":-111.69652712486163},{"vid":"1384647","name":"Ms. Dusty Brekke DVM","party":"","address":"858 N 60 E, Orem, UT 84057","precinct":"25OR12","hd":"56","v_score":"4.064235245","decile":"6","lat":40.31298725733539,"lng":-111.69421298782389},{"vid":"1393192","name":"Ila Bernhard","party":"","address":"1118 N 50 W, Orem, UT 84057","precinct":"25OR12","hd":"56","v_score":"25.14617095","decile":"10","lat":40.31771504857433,"lng":-111.69676056577255},{"vid":"db74aba7292d4028e6e489cb6ef3a303cdd769526ff9ec575d15076a4f5f5f62","name":"Mayo Hayes I","party":"Rep","address":"126 W 930 N, Orem, UT 84057","precinct":"25OR12","hd":"56","v_score":"2.587603312","decile":"5","lat":40.314313131457965,"lng":-111.69893758788795},{"vid":"1395780","name":"Shaniece Daniel","party":"","address":"65 W 1160 N, Orem, UT 84057","precinct":"25OR12","hd":"56","v_score":"9.677720888","decile":"8","lat":40.31835501489375,"lng":-111.6975205866365},{"vid":"1396537","name":"Charleen Kulas","party":"Rep","address":"114 W 975 N, Orem, UT 84057","precinct":"25OR12","hd":"56","v_score":"4.15282392","decile":"7","lat":40.31539504164651,"lng":-111.69850248049582},{"vid":"1396631","name":"Dr. Aron Predovic DVM","party":"","address":"24 E 1340 N, Orem, UT 84057","precinct":"25OR12","hd":"56","v_score":"7.47704845","decile":"8","lat":40.32183831565239,"lng":-111.69544663522043},{"vid":"1397849","name":"Ms. Fronnie O'Keefe DVM","party":"Dem","address":"894 N 160 W, Orem, UT 84057","precinct":"25OR12","hd":"56","v_score":"1.193887297","decile":"3","lat":40.313471909714075,"lng":-111.69958731362402},{"vid":"1409930","name":"Miss Rochelle Langworth","party":"Rep","address":"1276 N 50 E, Orem, UT 84057","precinct":"25OR12","hd":"56","v_score":"26.9144526","decile":"10","lat":40.32054243358527,"lng":-111.69449185363416},{"vid":"c5cddea2fe55954082d184cda5fa8b57169adfd4bd2bd040429bade75449cd0a","name":"Lessie Larkin","party":"","address":"1050 N 100 W, Orem, UT 84057","precinct":"25OR12","hd":"56","v_score":"1.46627566","decile":"4","lat":40.31662144583609,"lng":-111.69805880814656},{"vid":"1414424","name":"Dr. Iva Konopelski","party":"Dem","address":"848 N 60 E, Orem, UT 84057","precinct":"25OR12","hd":"56","v_score":"36.85952137","decile":"10","lat":40.3127979325867,"lng":-111.6942089732529},{"vid":"1423488","name":"Sydell Conroy","party":"","address":"901 N 60 E, Orem, UT 84057","precinct":"25OR12","hd":"56","v_score":"8.280646305","decile":"8","lat":40.31373192100025,"lng":-111.6948302703816},{"vid":"1467219","name":"Shawnee Harvey-Wisozk","party":"","address":"997 N 75 E, Orem, UT 84057","precinct":"25OR12","hd":"56","v_score":"19.1495814","decile":"10","lat":40.315533749870376,"lng":-111.69398628861947},{"vid":"1484373","name":"Jada Parisian","party":"","address":"921 N 75 E, Orem, UT 84057","precinct":"25OR12","hd":"56","v_score":"0","decile":"1","lat":40.31410110579303,"lng":-111.69388185084388},{"vid":"1485235","name":"Mr. Rex Homenick II","party":"Rep","address":"1011 N 50 W, Orem, UT 84057","precinct":"25OR12","hd":"56","v_score":"1.121327652","decile":"3","lat":40.31613624629635,"lng":-111.69728546947064},{"vid":"3b0d2f5fec59dd0144025a58da62abe235ce750a3df23766b3a11c62f533d53b","name":"Sid Lemke","party":"Dem","address":"49 W 990 N, Orem, UT 84057","precinct":"25OR12","hd":"56","v_score":"9.405332525","decile":"8","lat":40.315506720656266,"lng":-111.69700202862067},{"vid":"1525737","name":"Phillis Terry-Conn","party":"","address":"848 N 60 E, Orem, UT 84057","precinct":"25OR12","hd":"56","v_score":"30.57016229","decile":"10","lat":40.3127979325867,"lng":-111.6942089732529},{"vid":"1528069","name":"Michel O'Connell","party":"","address":"60 E 1085 N, Orem, UT 84057","precinct":"25OR12","hd":"56","v_score":"18.27552205","decile":"10","lat":40.31667195046058,"lng":-111.6942074110826},{"vid":"595bbb3fd6128888ce72ef94bcaa9e186ebf6f4217fa8f2117da0f6c1efefe4e","name":"Elia Corkery","party":"Dem","address":"72 W 940 N, Orem, UT 84057","precinct":"25OR12","hd":"56","v_score":"1.46627566","decile":"4","lat":40.31464860338376,"lng":-111.69745276117743},{"vid":"1531842","name":"Loree Schoen","party":"","address":"1136 N 75 E, Orem, UT 84057","precinct":"25OR12","hd":"56","v_score":"35.30276996","decile":"10","lat":40.31804882049525,"lng":-111.6933553166608},{"vid":"1538887","name":"Guadalupe Wolff","party":"Rep","address":"866 N 100 W, Orem, UT 84057","precinct":"25OR12","hd":"56","v_score":"1.121327652","decile":"3","lat":40.31300099950103,"lng":-111.69795282886193},{"vid":"886088dec284fa01eeff7cad45d5706742d2e6cf7b217c3fc4a7bbb096a2ea9b","name":"Armani Torp","party":"","address":"51 W 1160 N, Orem, UT 84057","precinct":"25OR12","hd":"56","v_score":"2.315214949","decile":"5","lat":40.31832364538383,"lng":-111.69711043904962},{"vid":"1575469","name":"Gaylen Schuppe-Okuneva","party":"Rep","address":"1285 N 50 E, Orem, UT 84057","precinct":"25OR12","hd":"56","v_score":"23.17240261","decile":"10","lat":40.320758364129446,"lng":-111.69508153617343},{"vid":"c19143ffb4da35795a616a866ea1364e86627ae2df1162899c140074c5e63565","name":"Jaylynn Ziemann","party":"Dem","address":"23 W 1070 N, Orem, UT 84057","precinct":"25OR12","hd":"56","v_score":"0","decile":"1","lat":40.31669802901051,"lng":-111.69641652754773},{"vid":"141c853ae2737107acb130c068d4ab8fa4e19bbdb8cfc5d21e2f2f9633260d55","name":"Deann Johnston-Blick","party":"","address":"1134 N 50 W, Orem, UT 84057","precinct":"25OR12","hd":"56","v_score":"1.193887297","decile":"3","lat":40.31822329489462,"lng":-111.69657968893206},{"vid":"1614004","name":"Keyon Bergnaum","party":"Rep","address":"65 E 1340 N, Orem, UT 84057","precinct":"25OR12","hd":"56","v_score":"8.280646305","decile":"8","lat":40.32225089465864,"lng":-111.69455112244044},{"vid":"1617486","name":"Haiden Homenick","party":"","address":"49 W 990 N, Orem, UT 84057","precinct":"25OR12","hd":"56","v_score":"5.191257514","decile":"7","lat":40.315506720656266,"lng":-111.69700202862067},{"vid":"1623163","name":"Mrs. Siddie Green PhD","party":"","address":"23 W 940 N, Orem, UT 84057","precinct":"25OR12","hd":"56","v_score":"5.40460374","decile":"7","lat":40.314317823831885,"lng":-111.69643007989143},{"vid":"d8837ca328f5d9016db7737a1fdea8145e1fe92bbc2f04ec75db7752b51166d0","name":"Dell Tillman","party":"Dem","address":"847 N 60 E, Orem, UT 84057","precinct":"25OR12","hd":"56","v_score":"16.72520646","decile":"9","lat":40.312771509625954,"lng":-111.69481256027544},{"vid":"d157ff0ce569c9d2fb6dcb5d8a6d0e137871c87e9c8c3543b0314f16111a4fc0","name":"Porsche Krajcik","party":"Rep","address":"961 N 40 W, Orem, UT 84057","precinct":"25OR12","hd":"56","v_score":"3.781490609","decile":"6","lat":40.314906275219116,"lng":-111.69712537392114},{"vid":"ed81dd78fdf02da432936a020ca2ef1890918e4168f3365470984809b6b4e27b","name":"Senora Wilderman","party":"","address":"955 N 40 W, Orem, UT 84057","precinct":"25OR12","hd":"56","v_score":"9.772950527","decile":"8","lat":40.31468874381935,"lng":-111.69693815170604},{"vid":"1633759","name":"Mireya Weimann PhD","party":"","address":"1293 N 50 E, Orem, UT 84057","precinct":"25OR12","hd":"56","v_score":"15.95616156","decile":"9","lat":40.320943247557075,"lng":-111.69508682994541},{"vid":"1634773","name":"Miss Mariel Deckow","party":"","address":"888 N Main St, Orem, UT 84057","precinct":"25OR12","hd":"56","v_score":"7.650280567","decile":"8","lat":40.31327759334519,"lng":-111.6950724318678},{"vid":"1652383","name":"Jazmyn Batz","party":"","address":"36 E 980 N, Orem, UT 84057","precinct":"25OR12","hd":"56","v_score":"2.315214949","decile":"5","lat":40.31509996869367,"lng":-111.6950336768097},{"vid":"1653936","name":"Emely Abshire","party":"","address":"1349 N 40 E, Orem, UT 84057","precinct":"25OR12","hd":"56","v_score":"0","decile":"1","lat":40.32214948897991,"lng":-111.69529259021014},{"vid":"1656357","name":"Honora Thiel","party":"","address":"10 E 1300 N, Orem, UT 84057","precinct":"25OR12","hd":"56","v_score":"2.587603312","decile":"5","lat":40.32115419196535,"lng":-111.69564318786223},{"vid":"d1f7ee81e2d0e9eb24eaa415fab1e976b2d63c9b2207e4f0a511c48703b50d23","name":"Brittnie McLaughlin","party":"","address":"828 N 60 E, Orem, UT 84057","precinct":"25OR12","hd":"56","v_score":"1.46627566","decile":"4","lat":40.31233012483467,"lng":-111.6942656643135},{"vid":"1659150","name":"Conard Aufderhar","party":"Dem","address":"1090 N 100 W, Orem, UT 84057","precinct":"25OR12","hd":"56","v_score":"1.193887297","decile":"3","lat":40.31720655769386,"lng":-111.69786635415805},{"vid":"1663047","name":"Dr. Reginal Wilderman III","party":"","address":"987 N 185 W, Orem, UT 84057","precinct":"25OR12","hd":"56","v_score":"5.530510904","decile":"7","lat":40.315340137222876,"lng":-111.70042732657792},{"vid":"1663573","name":"Dr. Carrol Larson I","party":"Rep","address":"61 E 1085 N, Orem, UT 84057","precinct":"25OR12","hd":"56","v_score":"36.44782433","decile":"10","lat":40.31708353403541,"lng":-111.69423163199829},{"vid":"1a8a5e451bf1f6264f0e26af45e8ba74056d2c4f9cdb147775f6c2c00e17d422","name":"Ozell Stark","party":"Rep","address":"275 W 1200 N, Orem, UT 84057","precinct":"25OR12","hd":"56","v_score":"10.87722212","decile":"9","lat":40.31905735678093,"lng":-111.7027354639005},{"vid":"1691978","name":"Deon Hamill Jr.","party":"Rep","address":"1352 N 40 E, Orem, UT 84057","precinct":"25OR12","hd":"56","v_score":"2.876042565","decile":"6","lat":40.322153586223806,"lng":-111.69491958203537},{"vid":"1697359","name":"Mr. Nathanael Heidenreich PhD","party":"","address":"41 W 1200 N, Orem, UT 84057","precinct":"25OR12","hd":"56","v_score":"1.121327652","decile":"3","lat":40.31901490185407,"lng":-111.69697599956432},{"vid":"1703382","name":"Mrs. Shawnda Ankunding","party":"Rep","address":"212 W 1030 N, Orem, UT 84057","precinct":"25OR12","hd":"56","v_score":"0","decile":"1","lat":40.31637801006087,"lng":-111.70050815823811},{"vid":"1717395","name":"Ms. Geraldine Muller","party":"","address":"1148 N 50 W, Orem, UT 84057","precinct":"25OR12","hd":"56","v_score":"2.744440783","decile":"5","lat":40.318417549155775,"lng":-111.69672935183915},{"vid":"0ddfb5f68ebdbb28411038c36e658ba2611890c824c2130965d734ae0ca176d0","name":"Mireya Stehr","party":"Dem","address":"1150 N 75 E, Orem, UT 84057","precinct":"25OR12","hd":"56","v_score":"40.57147386","decile":"10","lat":40.318313199095044,"lng":-111.6933547030259},{"vid":"1737631","name":"Brinley Kassulke","party":"Dem","address":"132 W 1090 N, Orem, UT 84057","precinct":"25OR12","hd":"56","v_score":"0","decile":"1","lat":40.31756867396133,"lng":-111.69910595953729},{"vid":"1742556","name":"Lexie Wilkinson","party":"","address":"997 N 100 W, Orem, UT 84057","precinct":"25OR12","hd":"56","v_score":"0","decile":"1","lat":40.31575019526415,"lng":-111.69851241400049},{"vid":"1760143","name":"Alphonso Will","party":"Dem","address":"28 W 990 N, Orem, UT 84057","precinct":"25OR12","hd":"56","v_score":"7.320210979","decile":"8","lat":40.315837137835,"lng":-111.69652712486163},{"vid":"86d651fb40edbe08a82772322fc88d82687eceeb3bc663c83abad7879b326781","name":"Hester Mueller-Harber","party":"Rep","address":"1084 N 75 E, Orem, UT 84057","precinct":"25OR12","hd":"56","v_score":"0","decile":"1","lat":40.31689881629736,"lng":-111.69333556067582},{"vid":"1772839","name":"Dr. Leo Armstrong MD","party":"Dem","address":"139 W 870 N, Orem, UT 84057","precinct":"25OR12","hd":"56","v_score":"6.657533174","decile":"7","lat":40.31300943344388,"lng":-111.6991844873884},{"vid":"1773624","name":"Barrett McGlynn","party":"Rep","address":"143 W 1200 N, Orem, UT 84057","precinct":"25OR12","hd":"56","v_score":"0","decile":"1","lat":40.319078617404216,"lng":-111.69976689321454},{"vid":"a9f1952555cf6edace577f150154d3d1dc9af0f6fc786f679e2a2920138ef7f3","name":"Carleigh Bednar","party":"","address":"1101 N 185 W, Orem, UT 84057","precinct":"25OR12","hd":"56","v_score":"2.315214949","decile":"5","lat":40.31746205116161,"lng":-111.7005857810782},{"vid":"1796920","name":"Dr. Carlos Reilly","party":"Rep","address":"130 W 870 N, Orem, UT 84057","precinct":"25OR12","hd":"56","v_score":"2.587603312","decile":"5","lat":40.31333053404228,"lng":-111.69897145964428},{"vid":"1799272","name":"Stacie Terry","party":"","address":"1089 N 50 W, Orem, UT 84057","precinct":"25OR12","hd":"56","v_score":"8.347511332","decile":"8","lat":40.31720601371283,"lng":-111.6974380325797},{"vid":"1815563","name":"Renae Purdy","party":"Dem","address":"1123 N 75 E, Orem, UT 84057","precinct":"25OR12","hd":"56","v_score":"0","decile":"1","lat":40.31776274578523,"lng":-111.694026078417},{"vid":"407f900d5c7d7b51aba6d4cf9a594bc6d8d687bc01d0047612dce2152b814ed9","name":"Marin Kulas","party":"Rep","address":"121 W 905 N, Orem, UT 84057","precinct":"25OR12","hd":"56","v_score":"8.94332411","decile":"8","lat":40.313521583954945,"lng":-111.69897376287334},{"vid":"1819316","name":"Maida Krajcik","party":"Rep","address":"1072 N 185 W, Orem, UT 84057","precinct":"25OR12","hd":"56","v_score":"2.315214949","decile":"5","lat":40.316892746769135,"lng":-111.69992859355895},{"vid":"1844594","name":"Marylouise Harris","party":"Rep","address":"933 N 75 E, Orem, UT 84057","precinct":"25OR12","hd":"56","v_score":"3.089388791","decile":"6","lat":40.31427948076581,"lng":-111.69388565413111},{"vid":"1856396","name":"Amado Heathcote-Harris","party":"Rep","address":"72 W 940 N, Orem, UT 84057","precinct":"25OR12","hd":"56","v_score":"5.60307055","decile":"7","lat":40.31464860338376,"lng":-111.69745276117743},{"vid":"4293741f95bfff5c6ab340a1ca84a16f807ed24e890eb37c59b62c81adb56160","name":"Mr. Albion Keebler Jr.","party":"","address":"10 W 990 N, Orem, UT 84057","precinct":"25OR12","hd":"56","v_score":"6.884189957","decile":"8","lat":40.31572820883297,"lng":-111.69610230462828},{"vid":"1888994","name":"Dr. Alex Kuvalis","party":"Rep","address":"948 N 60 E, Orem, UT 84057","precinct":"25OR12","hd":"56","v_score":"1.46627566","decile":"4","lat":40.314765825778075,"lng":-111.69431297144433},{"vid":"1b4ff40fa3a40647c2679a9785a3f05512aa63e84a9b7d0cea359d7a47c8b824","name":"Kameron Veum","party":"Dem","address":"1062 N 75 E, Orem, UT 84057","precinct":"25OR12","hd":"56","v_score":"6.814370645","decile":"8","lat":40.31664249759703,"lng":-111.6934196298763},{"vid":"1894684","name":"Celestia Carroll","party":"Dem","address":"1032 N 50 W, Orem, UT 84057","precinct":"25OR12","hd":"56","v_score":"1.121327652","decile":"3","lat":40.316339513923786,"lng":-111.69694705564692},{"vid":"1899552","name":"Jordi Schmidt-Schiller","party":"Rep","address":"1090 N 100 W, Orem, UT 84057","precinct":"25OR12","hd":"56","v_score":"1.193887297","decile":"3","lat":40.31720655769386,"lng":-111.69786635415805},{"vid":"1902287","name":"Mrs. Rose Auer","party":"Dem","address":"57 E 1200 N, Orem, UT 84057","precinct":"25OR12","hd":"56","v_score":"6.657533174","decile":"7","lat":40.31941457179809,"lng":-111.69447026927386},{"vid":"1902936","name":"Ceylon Crooks","party":"","address":"1094 N 300 W, Orem, UT 84057","precinct":"25OR12","hd":"56","v_score":"0","decile":"1","lat":40.182574650742346,"lng":-111.61575625608329},{"vid":"1908673","name":"Mr. Malaki Windler","party":"Rep","address":"956 N 75 E, Orem, UT 84057","precinct":"25OR12","hd":"56","v_score":"2.315214949","decile":"5","lat":40.314804703768154,"lng":-111.69336121341622},{"vid":"1922039","name":"Mr. Lawyer Smitham","party":"Dem","address":"857 N 60 E, Orem, UT 84057","precinct":"25OR12","hd":"56","v_score":"12.58300477","decile":"9","lat":40.312963575622305,"lng":-111.69481610376992},{"vid":"1934958","name":"Dr. Goebel Harris IV","party":"","address":"25 W 990 N, Orem, UT 84057","precinct":"25OR12","hd":"56","v_score":"43.51438145","decile":"10","lat":40.31542881241562,"lng":-111.69645737556067},{"vid":"1961282","name":"Kerry Heaney","party":"","address":"72 W 940 N, Orem, UT 84057","precinct":"25OR12","hd":"56","v_score":"8.016984044","decile":"8","lat":40.31464860338376,"lng":-111.69745276117743},{"vid":"1968170","name":"Essie Hickle","party":"Dem","address":"878 N Main St, Orem, UT 84057","precinct":"25OR12","hd":"56","v_score":"1.121327652","decile":"3","lat":40.313290491112696,"lng":-111.69541475023807},{"vid":"1969877","name":"Dr. Kanesha Bernhard","party":"","address":"1123 N 75 E, Orem, UT 84057","precinct":"25OR12","hd":"56","v_score":"0","decile":"1","lat":40.31776274578523,"lng":-111.694026078417},{"vid":"f127dca073d7cb496f78aef8913c7e16ecf224fe2edb7cc49fe603b8a3b771c1","name":"Lemon Tromp","party":"Rep","address":"1102 N 75 E, Orem, UT 84057","precinct":"25OR12","hd":"56","v_score":"8.280646305","decile":"8","lat":40.31731246156214,"lng":-111.69341460044191},{"vid":"eb0050bfd1ff99c8212b0fabad35171315fa5f94c3bdd50cc00b9dc5964a672e","name":"Mr. Chauncy Keeling","party":"Rep","address":"23 W 940 N, Orem, UT 84057","precinct":"25OR12","hd":"56","v_score":"27.97970372","decile":"10","lat":40.314317823831885,"lng":-111.69643007989143},{"vid":"58cbb40df0045f485841bf51e6b41b0bdff7568a051b2ce578a7650024ea9507","name":"Lannie O'Kon Sr.","party":"Dem","address":"77 W 1200 N, Orem, UT 84057","precinct":"25OR12","hd":"56","v_score":"39.08952591","decile":"10","lat":40.31902812330129,"lng":-111.69788993981511},{"vid":"2013573","name":"Shelly Gleichner","party":"Rep","address":"956 N 75 E, Orem, UT 84057","precinct":"25OR12","hd":"56","v_score":"6.657533174","decile":"7","lat":40.314804703768154,"lng":-111.69336121341622},{"vid":"2013688","name":"Alby Kuvalis","party":"","address":"948 N 60 E, Orem, UT 84057","precinct":"25OR12","hd":"56","v_score":"0","decile":"1","lat":40.314765825778075,"lng":-111.69431297144433},{"vid":"2014126","name":"Clint Kuhlman","party":"","address":"23 E 1100 N, Orem, UT 84057","precinct":"25OR12","hd":"56","v_score":"4.566020724","decile":"7","lat":40.31772297014356,"lng":-111.69542208588067},{"vid":"2034774","name":"Daisie Prosacco","party":"Dem","address":"1221 N 50 E, Orem, UT 84057","precinct":"25OR12","hd":"56","v_score":"2.744440783","decile":"5","lat":40.31975526927773,"lng":-111.695043301719},{"vid":"2035199","name":"Pershing Grimes","party":"Dem","address":"1050 N 100 W, Orem, UT 84057","precinct":"25OR12","hd":"56","v_score":"14.63972567","decile":"9","lat":40.31662144583609,"lng":-111.69805880814656},{"vid":"2037610","name":"Jonah Gibson-Bins","party":"Dem","address":"1312 N Main St, Orem, UT 84057","precinct":"25OR12","hd":"56","v_score":"9.99960731","decile":"9","lat":40.32147286114343,"lng":-111.6958480142377},{"vid":"b8426edb62834ddc40c5df51089ddb484a40bb753429525a1361654e5434305b","name":"Demarco Bartell","party":"Dem","address":"171 W 975 N, Orem, UT 84057","precinct":"25OR12","hd":"56","v_score":"3.781490609","decile":"6","lat":40.31487904925658,"lng":-111.69971204711383},{"vid":"2041580","name":"Jerrod Bogisich III","party":"Rep","address":"177 W 930 N, Orem, UT 84057","precinct":"25OR12","hd":"56","v_score":"0","decile":"1","lat":40.31397564193886,"lng":-111.70016961119033},{"vid":"2056997","name":"Scot O'Hara","party":"","address":"1075 N 50 W, Orem, UT 84057","precinct":"25OR12","hd":"56","v_score":"15.53259879","decile":"9","lat":40.31696205257628,"lng":-111.69716688768558},{"vid":"2060793","name":"Angella Swaniawski-Kuphal","party":"Rep","address":"836 N MAIN St, Orem, UT 84057","precinct":"25OR12","hd":"56","v_score":"6.881235673","decile":"8","lat":40.31257484845068,"lng":-111.69558109613014},{"vid":"2068101","name":"Kassidy Klocko-Price","party":"Rep","address":"1064 N 300 W, Orem, UT 84057","precinct":"25OR12","hd":"56","v_score":"7.934314529","decile":"8","lat":40.1820723740335,"lng":-111.61602579772754},{"vid":"2083581","name":"Mrs. Jaleesa Feest MD","party":"","address":"1161 N Main St, Orem, UT 84057","precinct":"25OR12","hd":"56","v_score":"0","decile":"1","lat":40.31859954075711,"lng":-111.69625237785687},{"vid":"bf8d4a1f7fb003e3d11da80c0b1e51971b6c48cde09ae21b4ee6d7424b9e950d","name":"Mr. Valentin Grady DVM","party":"Dem","address":"82 W 940 N, Orem, UT 84057","precinct":"25OR12","hd":"56","v_score":"5.530510904","decile":"7","lat":40.314702768694474,"lng":-111.6977488201733},{"vid":"f760a81de0b23b57840c744c451843704351c16f9b4368880ac315424c703ce2","name":"Violette Dooley-Crist","party":"","address":"126 W 870 N, Orem, UT 84057","precinct":"25OR12","hd":"56","v_score":"0","decile":"1","lat":40.31333114847058,"lng":-111.69881899990989},{"vid":"a1a339540374e39b033a47ee7d9445d7c08db6b33c4739281f03e0abc59bc25c","name":"Miss Lida Jacobson DDS","party":"","address":"43 W 1070 N, Orem, UT 84057","precinct":"25OR12","hd":"56","v_score":"10.13721141","decile":"9","lat":40.31678318607472,"lng":-111.69703706242083},{"vid":"2088112","name":"Kent Sauer-Olson","party":"","address":"861 N 100 W, Orem, UT 84057","precinct":"25OR12","hd":"56","v_score":"7.234402762","decile":"8","lat":40.31304581365514,"lng":-111.69852526338839},{"vid":"0207f78c7d591051063c884edcc82e1b1b07531d6880dbe4efe411207c6f98af","name":"Miss Rayne Lakin","party":"","address":"1072 N 185 W, Orem, UT 84057","precinct":"25OR12","hd":"56","v_score":"0","decile":"1","lat":40.316892746769135,"lng":-111.69992859355895},{"vid":"1d5f90eafccfb92d36db53f3682cbbcba46b0d99110bfa638f73f978c513d371","name":"Jovani Hirthe Sr.","party":"Dem","address":"141 W 905 N, Orem, UT 84057","precinct":"25OR12","hd":"56","v_score":"6.724398202","decile":"8","lat":40.31365117323909,"lng":-111.69945545441504},{"vid":"5a38411eed64f5c3a7e313cf3f71618c64bbbd13a718e7014cc28a8d31eb7c59","name":"Ms. Janey Cormier DVM","party":"Dem","address":"1022 N 185 W, Orem, UT 84057","precinct":"25OR12","hd":"56","v_score":"6.753951438","decile":"8","lat":40.31606551903787,"lng":-111.70000984012717},{"vid":"7ecc46629d63e21e721b6ea6fa4987e1f902fb1944cf67ac27c6f091b3c10d6b","name":"Mrs. Lesia Koss DDS","party":"","address":"139 W 870 N, Orem, UT 84057","precinct":"25OR12","hd":"56","v_score":"6.657533174","decile":"7","lat":40.31300943344388,"lng":-111.6991844873884},{"vid":"2107594","name":"Rogers Block","party":"Dem","address":"986 N 185 W, Orem, UT 84057","precinct":"25OR12","hd":"56","v_score":"0","decile":"1","lat":40.31534577143929,"lng":-111.70005750523501},{"vid":"62901c90bc428c2c1dc06e585d6ee7c23e326bc70e69ec73ee7a31bcba8bfd4f","name":"Joann Hand-Jacobs","party":"","address":"1093 N 50 E, Orem, UT 84057","precinct":"25OR12","hd":"56","v_score":"6.724398202","decile":"8","lat":40.3172921493353,"lng":-111.69492166470756},{"vid":"2129300","name":"Dr. Dillard West","party":"","address":"33 W 1070 N, Orem, UT 84057","precinct":"25OR12","hd":"56","v_score":"1.46627566","decile":"4","lat":40.31669683281863,"lng":-111.69670333662107},{"vid":"2130156","name":"Brenton Ruecker","party":"Rep","address":"832 N 100 W, Orem, UT 84057","precinct":"25OR12","hd":"56","v_score":"0","decile":"1","lat":40.31239177185541,"lng":-111.69794805683145},{"vid":"2134228","name":"Gustave Rogahn III","party":"Rep","address":"1110 N 50 W, Orem, UT 84057","precinct":"25OR12","hd":"56","v_score":"8.280646305","decile":"8","lat":40.317548778351814,"lng":-111.69687094287195},{"vid":"2134238","name":"Saige Collier","party":"Rep","address":"876 N 100 W, Orem, UT 84057","precinct":"25OR12","hd":"56","v_score":"2.315214949","decile":"5","lat":40.31320407512054,"lng":-111.69795441887996},{"vid":"8aa1621a02e98a0bbba7002ac7858c03fc0ed30a121ead44f1b0f446674f0123","name":"Luna Stark","party":"Dem","address":"1349 N 40 E, Orem, UT 84057","precinct":"25OR12","hd":"56","v_score":"0","decile":"1","lat":40.32214948897991,"lng":-111.69529259021014},{"vid":"3aacd4d6db1f0e44c7f2ad5dc4ecd7eab605b3c0e94860163e9098e18a7d67a2","name":"Jerimiah Stehr","party":"Dem","address":"987 N 185 W, Orem, UT 84057","precinct":"25OR12","hd":"56","v_score":"1.193887297","decile":"3","lat":40.315340137222876,"lng":-111.70042732657792},{"vid":"5ec624be6f398205e944fd966807ca6053a92fb10b960e8beeda030d71c503af","name":"Inell Lockman-Wehner","party":"","address":"24 E 1100 N, Orem, UT 84057","precinct":"25OR12","hd":"56","v_score":"3.781490609","decile":"6","lat":40.31718555339316,"lng":-111.6953386643708},{"vid":"2166642","name":"Elza Ferry","party":"","address":"97 E 1200 N, Orem, UT 84057","precinct":"25OR12","hd":"56","v_score":"18.07129544","decile":"10","lat":40.31942177367129,"lng":-111.69372462087563},{"vid":"2d7bc3e82da9619ea0939f21a19a5a14f2e7437ba787dd8021aa5fba7d62ed70","name":"Ainsley Hand","party":"","address":"904 N 75 E, Orem, UT 84057","precinct":"25OR12","hd":"56","v_score":"11.11672911","decile":"9","lat":40.313901968623746,"lng":-111.69333088967159},{"vid":"2176962","name":"Vince Feest","party":"Rep","address":"865 N 75 E, Orem, UT 84057","precinct":"25OR12","hd":"56","v_score":"0","decile":"1","lat":40.31320846627046,"lng":-111.69393223141925},{"vid":"2182266","name":"Dr. Brandon Jaskolski MD","party":"Rep","address":"82 E 1340 N, Orem, UT 84057","precinct":"25OR12","hd":"56","v_score":"1.121327652","decile":"3","lat":40.32187601598468,"lng":-111.69397687708987},{"vid":"210ac4aa4ea8cbf046efe78041419f47893dbc7c3e07b390fde18a147180e7b1","name":"Sunny Emard MD","party":"","address":"1028 N 50 W, Orem, UT 84057","precinct":"25OR12","hd":"56","v_score":"0","decile":"1","lat":40.31628228757333,"lng":-111.69669349982142},{"vid":"2190334","name":"Shawnna Kerluke","party":"","address":"114 W 870 N, Orem, UT 84057","precinct":"25OR12","hd":"56","v_score":"5.273794831","decile":"7","lat":40.313332785302165,"lng":-111.6985513808273},{"vid":"2190429","name":"Noel Balistreri-Bradtke","party":"","address":"1050 N 100 W, Orem, UT 84057","precinct":"25OR12","hd":"56","v_score":"2.315214949","decile":"5","lat":40.31662144583609,"lng":-111.69805880814656},{"vid":"2e3d010765f244f27be5e81550c491279edeec28eebf6a9ea1ee60d2137de39e","name":"Ignatz Luettgen-Beer","party":"Rep","address":"1150 N 75 E, Orem, UT 84057","precinct":"25OR12","hd":"56","v_score":"12.51949831","decile":"9","lat":40.318313199095044,"lng":-111.6933547030259},{"vid":"d79eec82db3a134fb82a36c902a5b1a33e598ffa1a04caf36651e54b43b8294b","name":"Mrs. Edra Lemke DDS","party":"","address":"271 W 1200 N, Orem, UT 84057","precinct":"25OR12","hd":"56","v_score":"0","decile":"1","lat":40.31902126450435,"lng":-111.70260194622503},{"vid":"61d445f7f43cb401411484fcca635b9b516d7f80dc25db44362737cef8b3c597","name":"Marcy Homenick","party":"Dem","address":"1164 N 50 E, Orem, UT 84057","precinct":"25OR12","hd":"56","v_score":"7.848747377","decile":"8","lat":40.31851212786449,"lng":-111.69447262106328},{"vid":"2230609","name":"Derick Marks Sr.","party":"Dem","address":"870 N 160 W, Orem, UT 84057","precinct":"25OR12","hd":"56","v_score":"0","decile":"1","lat":40.31301986172805,"lng":-111.69952137676884},{"vid":"9d6fb1ddfa3e565f14eaf9518bb81f5d324685b72971ca1691919d005cf94f1a","name":"Jeanne Schoen","party":"Rep","address":"852 N Main St, Orem, UT 84057","precinct":"25OR12","hd":"56","v_score":"5.331806201","decile":"7","lat":40.312770004983264,"lng":-111.69542349246277},{"vid":"8ace97599a0d9dc87bef7b8d97fcefa981851ad48c90b4bca8a75e348a02d3ff","name":"Jenna Gaylord","party":"Rep","address":"1098 N 50 E, Orem, UT 84057","precinct":"25OR12","hd":"56","v_score":"2.315214949","decile":"5","lat":40.31730245593526,"lng":-111.69445440307958},{"vid":"8f8187107fc8133eb1addff3d74aa9ca2dee95c458c94e25c493e3a8f6efb426","name":"Susanne Kub","party":"Dem","address":"894 N 160 W, Orem, UT 84057","precinct":"25OR12","hd":"56","v_score":"2.315214949","decile":"5","lat":40.313471909714075,"lng":-111.69958731362402},{"vid":"a4c40d9b43959d5ca276a709e99a01d9c2b19f9e9b0bcf9685a1c12d2abf343a","name":"Jaslene DuBuque-Robel","party":"","address":"1379 N 40 E, Orem, UT 84057","precinct":"25OR12","hd":"56","v_score":"17.59830555","decile":"9","lat":40.32270702117097,"lng":-111.69508384924437},{"vid":"2251317","name":"Sonny Wisoky","party":"","address":"1094 N 300 W, Orem, UT 84057","precinct":"25OR12","hd":"56","v_score":"1.193887297","decile":"3","lat":40.182574650742346,"lng":-111.61575625608329},{"vid":"2252135","name":"Milda Kiehn DVM","party":"Dem","address":"16 E 925 N, Orem, UT 84057","precinct":"25OR12","hd":"56","v_score":"2.315214949","decile":"5","lat":40.314089427005825,"lng":-111.69548601620063},{"vid":"2255951","name":"Tariq Lockman","party":"Dem","address":"1089 N 50 W, Orem, UT 84057","precinct":"25OR12","hd":"56","v_score":"1.121327652","decile":"3","lat":40.31720601371283,"lng":-111.6974380325797},{"vid":"2c379e62346cc3ec6c69d9c927050c98a6cd189efb76fb5bf8ad6e313bd129e2","name":"Jakob Williamson","party":"","address":"76 E 1300 N, Orem, UT 84057","precinct":"25OR12","hd":"56","v_score":"2.315214949","decile":"5","lat":40.32121106576681,"lng":-111.69398384923215},{"vid":"49d80e75456b7174a430fc1e2fc6206f9f532c0fdbf4b8a92c459d7433220e1d","name":"Dr. Lacey Wintheiser I","party":"Dem","address":"139 W 930 N, Orem, UT 84057","precinct":"25OR12","hd":"56","v_score":"5.258122542","decile":"7","lat":39.99209193585664,"lng":-111.78877659378027},{"vid":"beb6f48ef8a6c022de4e2a26112554824a3696b500649320ceffddb3e476dacd","name":"Citlalli Reynolds PhD","party":"Rep","address":"1256 N 50 E, Orem, UT 84057","precinct":"25OR12","hd":"56","v_score":"1.193887297","decile":"3","lat":40.32015447659847,"lng":-111.694482687764},{"vid":"2277989","name":"Shreya Reichert","party":"","address":"122 W 975 N, Orem, UT 84057","precinct":"25OR12","hd":"56","v_score":"1.193887297","decile":"3","lat":40.31537136106647,"lng":-111.69869139709837},{"vid":"725a5a39da1bf710ffcfb3532283068da72946b37394c07c9efde0c3b02b3308","name":"Tobie Skiles-O'Conner","party":"Dem","address":"1290 N 50 E, Orem, UT 84057","precinct":"25OR12","hd":"56","v_score":"3.93832808","decile":"6","lat":40.32094119928258,"lng":-111.69448986242851},{"vid":"2289177","name":"Braden Williamson","party":"","address":"28 E 1200 N, Orem, UT 84057","precinct":"25OR12","hd":"56","v_score":"6.881235673","decile":"8","lat":40.319011069020654,"lng":-111.6954241351175},{"vid":"b373bb29c6ac331fcae321a7b87b20f7277333ffe7c885df21c10800017cb8fe","name":"Jaymes Lubowitz","party":"Dem","address":"1123 N 75 E, Orem, UT 84057","precinct":"25OR12","hd":"56","v_score":"1.121327652","decile":"3","lat":40.31776274578523,"lng":-111.694026078417},{"vid":"2295765","name":"Jean Skiles","party":"Dem","address":"51 W 1160 N, Orem, UT 84057","precinct":"25OR12","hd":"56","v_score":"2.315214949","decile":"5","lat":40.31832364538383,"lng":-111.69711043904962},{"vid":"f672c7e626894dfc7b9e9cb3681c28646db65de29976b25037b5534c6dc351a7","name":"Beatrice Orn-Cassin","party":"Dem","address":"1052 N 150 W, Orem, UT 84057","precinct":"25OR12","hd":"56","v_score":"10.52632313","decile":"9","lat":40.31678718223474,"lng":-111.69895255675507},{"vid":"2312020","name":"Maribeth Champlin","party":"Rep","address":"1346 N 90 E, Orem, UT 84057","precinct":"25OR12","hd":"56","v_score":"2.744440783","decile":"5","lat":40.32219507225822,"lng":-111.69357894542787},{"vid":"2326613","name":"Mrs. Monna Stokes","party":"","address":"1075 N 50 W, Orem, UT 84057","precinct":"25OR12","hd":"56","v_score":"2.817000428","decile":"6","lat":40.31696205257628,"lng":-111.69716688768558},{"vid":"2328733","name":"Lelah Hoeger","party":"","address":"1101 N 50 W, Orem, UT 84057","precinct":"25OR12","hd":"56","v_score":"2.315214949","decile":"5","lat":40.317490866012584,"lng":-111.69741982732214},{"vid":"2333395","name":"Izabelle Krajcik","party":"Rep","address":"1032 N 50 W, Orem, UT 84057","precinct":"25OR12","hd":"56","v_score":"0","decile":"1","lat":40.316339513923786,"lng":-111.69694705564692},{"vid":"2333402","name":"Darby Jaskolski","party":"","address":"137 W 1015 N, Orem, UT 84057","precinct":"25OR12","hd":"56","v_score":"2.315214949","decile":"5","lat":40.31570190286554,"lng":-111.69896451458916},{"vid":"2335522","name":"Wesley Anderson","party":"","address":"49 W 990 N, Orem, UT 84057","precinct":"25OR12","hd":"56","v_score":"12.94512768","decile":"9","lat":40.315506720656266,"lng":-111.69700202862067},{"vid":"2335652","name":"Emilia Wilderman-Kiehn","party":"Dem","address":"57 E 1200 N, Orem, UT 84057","precinct":"25OR12","hd":"56","v_score":"1.121327652","decile":"3","lat":40.31941457179809,"lng":-111.69447026927386},{"vid":"2345138","name":"Hadley Rodriguez PhD","party":"","address":"882 N 160 W, Orem, UT 84057","precinct":"25OR12","hd":"56","v_score":"21.39002488","decile":"10","lat":40.31321745013053,"lng":-111.69952335023919},{"vid":"2350463","name":"Latisha Grady","party":"","address":"1185 N 50 E, Orem, UT 84057","precinct":"25OR12","hd":"56","v_score":"1.121327652","decile":"3","lat":40.3187520367442,"lng":-111.69510557811905},{"vid":"2358883","name":"Joi Dach","party":"","address":"1154 N 50 E, Orem, UT 84057","precinct":"25OR12","hd":"56","v_score":"0","decile":"1","lat":40.31826514069773,"lng":-111.69447191929937},{"vid":"2364311","name":"Letty Runolfsson","party":"Dem","address":"34 E 1430 N, Orem, UT 84057","precinct":"25OR12","hd":"56","v_score":"5.191257514","decile":"7","lat":40.32309618845829,"lng":-111.69525978312605},{"vid":"2365593","name":"Dr. Westin Russel Jr.","party":"Dem","address":"856 N 100 W, Orem, UT 84057","precinct":"25OR12","hd":"56","v_score":"0","decile":"1","lat":40.31279956956817,"lng":-111.69795125195928},{"vid":"2365668","name":"Emerson Stroman","party":"Rep","address":"1098 N 50 E, Orem, UT 84057","precinct":"25OR12","hd":"56","v_score":"6.52928996","decile":"7","lat":40.31730245593526,"lng":-111.69445440307958},{"vid":"2369930","name":"Karsyn Bashirian","party":"","address":"1091 N 150 W, Orem, UT 84057","precinct":"25OR12","hd":"56","v_score":"1.121327652","decile":"3","lat":40.317765147446345,"lng":-111.69962609936175},{"vid":"2376035","name":"Demonte Bosco","party":"Dem","address":"1183 N 75 E, Orem, UT 84057","precinct":"25OR12","hd":"56","v_score":"2.315214949","decile":"5","lat":40.31886048095954,"lng":-111.69403169935539},{"vid":"2376040","name":"Jasmyne Tromp","party":"Dem","address":"1183 N 75 E, Orem, UT 84057","precinct":"25OR12","hd":"56","v_score":"2.315214949","decile":"5","lat":40.31886048095954,"lng":-111.69403169935539},{"vid":"2384241","name":"Arnett Anderson","party":"Dem","address":"1145 N 100 W, Orem, UT 84057","precinct":"25OR12","hd":"56","v_score":"2.315214949","decile":"5","lat":40.31806719880602,"lng":-111.69856667266873},{"vid":"2387299","name":"Karel Bailey","party":"Rep","address":"851 N 75 E, Orem, UT 84057","precinct":"25OR12","hd":"56","v_score":"3.93832808","decile":"6","lat":40.31303009066055,"lng":-111.69392846496294},{"vid":"2394392","name":"Kelby Abernathy","party":"Dem","address":"70 E 1430 N, Orem, UT 84057","precinct":"25OR12","hd":"56","v_score":"1.121327652","decile":"3","lat":40.32317922273739,"lng":-111.69429624406082},{"vid":"2404073","name":"Kerri Jakubowski","party":"Dem","address":"110 W 930 N, Orem, UT 84057","precinct":"25OR12","hd":"56","v_score":"13.11728501","decile":"9","lat":40.314316061879936,"lng":-111.6985325620803},{"vid":"2404079","name":"Johnny Auer-Zboncak","party":"Rep","address":"110 W 930 N, Orem, UT 84057","precinct":"25OR12","hd":"56","v_score":"9.047355149","decile":"8","lat":40.314316061879936,"lng":-111.6985325620803},{"vid":"2404244","name":"Friend Bahringer","party":"Dem","address":"130 W 930 N, Orem, UT 84057","precinct":"25OR12","hd":"56","v_score":"2.315214949","decile":"5","lat":40.3143525302867,"lng":-111.69898196924012},{"vid":"2405294","name":"Kirt Barton Sr.","party":"Rep","address":"960 N 60 E, Orem, UT 84057","precinct":"25OR12","hd":"56","v_score":"7.047822616","decile":"8","lat":40.314968593257525,"lng":-111.69432205102488},{"vid":"2406121","name":"Miss Alysa Kihn PhD","party":"Dem","address":"1110 N 50 W, Orem, UT 84057","precinct":"25OR12","hd":"56","v_score":"12.38288823","decile":"9","lat":40.317548778351814,"lng":-111.69687094287195},{"vid":"2406846","name":"Dr. Toni Murray","party":"","address":"888 N 60 E, Orem, UT 84057","precinct":"25OR12","hd":"56","v_score":"0","decile":"1","lat":40.31355525908386,"lng":-111.69422499614329},{"vid":"2408713","name":"Carmela Steuber-Kozey","party":"Dem","address":"147 W 905 N, Orem, UT 84057","precinct":"25OR12","hd":"56","v_score":"3.93832808","decile":"6","lat":40.31361762593585,"lng":-111.69949854069601},{"vid":"2410759","name":"Lexie Batz","party":"Rep","address":"1101 N 50 W, Orem, UT 84057","precinct":"25OR12","hd":"56","v_score":"1.121327652","decile":"3","lat":40.317490866012584,"lng":-111.69741982732214},{"vid":"2426282","name":"Dr. Regis Koepp","party":"Rep","address":"147 W 905 N, Orem, UT 84057","precinct":"25OR12","hd":"56","v_score":"3.93832808","decile":"6","lat":40.31361762593585,"lng":-111.69949854069601},{"vid":"2428099","name":"Maxine Murray","party":"","address":"947 N 75 E, Orem, UT 84057","precinct":"25OR12","hd":"56","v_score":"1.121327652","decile":"3","lat":40.31463617271948,"lng":-111.69389349588457},{"vid":"2439452","name":"Dequan Aufderhar","party":"","address":"1148 N 50 W, Orem, UT 84057","precinct":"25OR12","hd":"56","v_score":"6.481563075","decile":"7","lat":40.318417549155775,"lng":-111.69672935183915},{"vid":"2446944","name":"Dontae Steuber","party":"","address":"1150 N 75 E, Orem, UT 84057","precinct":"25OR12","hd":"56","v_score":"13.57168065","decile":"9","lat":40.318313199095044,"lng":-111.6933547030259},{"vid":"2447105","name":"Ms. Renee Langworth","party":"Rep","address":"1190 N 50 E, Orem, UT 84057","precinct":"25OR12","hd":"56","v_score":"3.93832808","decile":"6","lat":40.31902536447454,"lng":-111.69457016678436},{"vid":"2460736","name":"Dr. August Anderson III","party":"","address":"24 E 980 N, Orem, UT 84057","precinct":"25OR12","hd":"56","v_score":"0","decile":"1","lat":40.31507077618362,"lng":-111.69530111718744},{"vid":"2470718","name":"Mr. Ewing Parker III","party":"Rep","address":"895 N 50 W, Orem, UT 84057","precinct":"25OR12","hd":"56","v_score":"0","decile":"1","lat":40.31346608789283,"lng":-111.69725379637941},{"vid":"2474754","name":"Luella Jacobson","party":"Rep","address":"1176 N 75 E, Orem, UT 84057","precinct":"25OR12","hd":"56","v_score":"4.905839784","decile":"7","lat":40.31881251384145,"lng":-111.69348641892367},{"vid":"2482583","name":"Keandre Lemke","party":"","address":"956 N 75 E, Orem, UT 84057","precinct":"25OR12","hd":"56","v_score":"1.623113131","decile":"5","lat":40.314804703768154,"lng":-111.69336121341622},{"vid":"2487113","name":"Brendan Ernser I","party":"Rep","address":"1100 N 300 W, Orem, UT 84057","precinct":"25OR12","hd":"56","v_score":"0","decile":"1","lat":40.124510864942295,"lng":-111.65926751045967},{"vid":"2488995","name":"Tavares Hessel","party":"Rep","address":"147 W 905 N, Orem, UT 84057","precinct":"25OR12","hd":"56","v_score":"0","decile":"1","lat":40.31361762593585,"lng":-111.69949854069601},{"vid":"2494419","name":"Governor Spinka-Balistreri","party":"Dem","address":"914 N Main St, Orem, UT 84057","precinct":"25OR12","hd":"56","v_score":"0","decile":"1","lat":40.31382525129104,"lng":-111.6952857889942},{"vid":"2502802","name":"Michell McCullough","party":"","address":"1349 N 40 E, Orem, UT 84057","precinct":"25OR12","hd":"56","v_score":"0","decile":"1","lat":40.32214948897991,"lng":-111.69529259021014},{"vid":"2510455","name":"Ms. Destinee Schiller","party":"Dem","address":"933 N 75 E, Orem, UT 84057","precinct":"25OR12","hd":"56","v_score":"2.817000428","decile":"6","lat":40.31427948076581,"lng":-111.69388565413111},{"vid":"2514495","name":"Diya Bechtelar","party":"","address":"1150 N 75 E, Orem, UT 84057","precinct":"25OR12","hd":"56","v_score":"0","decile":"1","lat":40.318313199095044,"lng":-111.6933547030259},{"vid":"2523787","name":"Efrem Prosacco","party":"","address":"902 N 60 E, Orem, UT 84057","precinct":"25OR12","hd":"56","v_score":"0","decile":"1","lat":40.31374461034135,"lng":-111.69422901071428},{"vid":"2535154","name":"Alphonsine Schneider PhD","party":"","address":"49 W 990 N, Orem, UT 84057","precinct":"25OR12","hd":"56","v_score":"0","decile":"1","lat":40.315506720656266,"lng":-111.69700202862067},{"vid":"2541481","name":"Emile Ledner Jr.","party":"Rep","address":"267 W 1200 N, Orem, UT 84057","precinct":"25OR12","hd":"56","v_score":"0","decile":"1","lat":40.31870188768504,"lng":-111.70264383235356},{"vid":"2542335","name":"Herma Jones","party":"","address":"1365 N 90 E, Orem, UT 84057","precinct":"25OR12","hd":"56","v_score":"1.193887297","decile":"4","lat":40.3225009519133,"lng":-111.69435438870296},{"vid":"2547898","name":"Leslie Larson","party":"","address":"47 E 980 N, Orem, UT 84057","precinct":"25OR12","hd":"56","v_score":"1.193887297","decile":"4","lat":40.31550819459065,"lng":-111.69484638346287},{"vid":"2548209","name":"Abbey Grimes-Farrell","party":"","address":"47 E 980 N, Orem, UT 84057","precinct":"25OR12","hd":"56","v_score":"1.193887297","decile":"4","lat":40.31550819459065,"lng":-111.69484638346287},{"vid":"2554858","name":"Tomasa Welch","party":"","address":"1078 N 100 W, Orem, UT 84057","precinct":"25OR12","hd":"56","v_score":"1.193887297","decile":"4","lat":40.31701783779927,"lng":-111.69783430729929},{"vid":"2554869","name":"Leeann Krajcik","party":"Rep","address":"1078 N 100 W, Orem, UT 84057","precinct":"25OR12","hd":"56","v_score":"0","decile":"1","lat":40.31701783779927,"lng":-111.69783430729929},{"vid":"2563474","name":"Dillard McLaughlin","party":"Dem","address":"1100 N 100 W, Orem, UT 84057","precinct":"25OR12","hd":"56","v_score":"0","decile":"1","lat":40.31742583387951,"lng":-111.6980343414518},{"vid":"2571509","name":"Rosalind Reynolds DDS","party":"","address":"81 W 940 N, Orem, UT 84057","precinct":"25OR12","hd":"56","v_score":"0","decile":"1","lat":40.314303967817956,"lng":-111.69779225644217},{"vid":"2574578","name":"Calhoun Hegmann-Osinski","party":"Rep","address":"974 N 100 W, Orem, UT 84057","precinct":"25OR12","hd":"56","v_score":"0","decile":"1","lat":40.315174944890316,"lng":-111.69804955136686},{"vid":"2590222","name":"Mrs. Stephani O'Connell DVM","party":"Dem","address":"1185 N 50 E, Orem, UT 84057","precinct":"25OR12","hd":"56","v_score":"6.355720798","decile":"7","lat":40.3187520367442,"lng":-111.69510557811905},{"vid":"2597426","name":"Quint Quitzon","party":"","address":"1379 N 40 E, Orem, UT 84057","precinct":"25OR12","hd":"56","v_score":"8.284004873","decile":"8","lat":40.32270702117097,"lng":-111.69508384924437},{"vid":"2599115","name":"Deborrah Swift","party":"Dem","address":"1056 N 100 W, Orem, UT 84057","precinct":"25OR12","hd":"56","v_score":"0","decile":"1","lat":40.31664123626093,"lng":-111.69774797487226},{"vid":"2612863","name":"Dr. Lafe Ebert III","party":"Rep","address":"1352 N 40 E, Orem, UT 84057","precinct":"25OR12","hd":"56","v_score":"9.40499548","decile":"8","lat":40.322153586223806,"lng":-111.69491958203537},{"vid":"2615321","name":"Nasir Beier","party":"","address":"1081 N 150 W, Orem, UT 84057","precinct":"25OR12","hd":"56","v_score":"0","decile":"1","lat":40.31747810623308,"lng":-111.6995157006354},{"vid":"2622440","name":"Sarahi Pfeffer","party":"","address":"91 W 940 N, Orem, UT 84057","precinct":"25OR12","hd":"56","v_score":"1.193887297","decile":"4","lat":40.31434776131589,"lng":-111.69811812167586},{"vid":"2623678","name":"Marva Turcotte","party":"Dem","address":"1056 N 100 W, Orem, UT 84057","precinct":"25OR12","hd":"56","v_score":"0","decile":"1","lat":40.31664123626093,"lng":-111.69774797487226},{"vid":"2624917","name":"Sandie Mann","party":"Dem","address":"267 W 1200 N, Orem, UT 84057","precinct":"25OR12","hd":"56","v_score":"0","decile":"1","lat":40.31870188768504,"lng":-111.70264383235356},{"vid":"2625836","name":"Mr. Brad McGlynn I","party":"Rep","address":"23 W 1070 N, Orem, UT 84057","precinct":"25OR12","hd":"56","v_score":"1.193887297","decile":"4","lat":40.31669802901051,"lng":-111.69641652754773},{"vid":"2628091","name":"Ed O'Hara","party":"Rep","address":"1379 N 40 E, Orem, UT 84057","precinct":"25OR12","hd":"56","v_score":"9.907118004","decile":"8","lat":40.32270702117097,"lng":-111.69508384924437},{"vid":"2632402","name":"Joan Hauck","party":"Rep","address":"1110 N 50 W, Orem, UT 84057","precinct":"25OR12","hd":"56","v_score":"5.335065618","decile":"7","lat":40.317548778351814,"lng":-111.69687094287195},{"vid":"2634451","name":"Jaylynn Kassulke","party":"Dem","address":"26 W 1070 N, Apt B, Orem, UT 84057","precinct":"25OR12","hd":"56","v_score":"1.193887297","decile":"4","lat":40.31712617488083,"lng":-111.69651825115353},{"vid":"2634700","name":"Gibson Kertzmann Sr.","party":"","address":"1023 N 50 W, Orem, UT 84057","precinct":"25OR12","hd":"56","v_score":"0","decile":"1","lat":40.316383639241145,"lng":-111.69721514731572},{"vid":"2636797","name":"Haskell Mayer","party":"","address":"11 W 1200 N, Orem, UT 84057","precinct":"25OR12","hd":"56","v_score":"0","decile":"1","lat":40.319096413622,"lng":-111.69625994795979},{"vid":"2641361","name":"Eden Hermiston","party":"","address":"832 N 100 W, Orem, UT 84057","precinct":"25OR12","hd":"56","v_score":"1.193887297","decile":"4","lat":40.31239177185541,"lng":-111.69794805683145},{"vid":"2644378","name":"Dondre Stanton","party":"Dem","address":"70 E 1430 N, Orem, UT 84057","precinct":"25OR12","hd":"56","v_score":"8.119049786","decile":"8","lat":40.32317922273739,"lng":-111.69429624406082},{"vid":"2644730","name":"Mychal Tremblay-Schoen","party":"","address":"932 N 60 E, Orem, UT 84057","precinct":"25OR12","hd":"56","v_score":"2.817000428","decile":"6","lat":40.31434869112171,"lng":-111.69425189832478},{"vid":"2647807","name":"Kelsi Torphy DDS","party":"","address":"1058 N 185 W, Orem, UT 84057","precinct":"25OR12","hd":"56","v_score":"1.193887297","decile":"4","lat":40.316681521094644,"lng":-111.69992518588975},{"vid":"2651484","name":"Mellie Harber","party":"Rep","address":"1072 N 185 W, Orem, UT 84057","precinct":"25OR12","hd":"56","v_score":"1.193887297","decile":"4","lat":40.316892746769135,"lng":-111.69992859355895},{"vid":"2658274","name":"Alvah Corwin","party":"Dem","address":"64 W 1160 N, Orem, UT 84057","precinct":"25OR12","hd":"56","v_score":"0","decile":"1","lat":40.31867407678402,"lng":-111.69752218653784},{"vid":"2659553","name":"Joanne Anderson","party":"Rep","address":"16 E 925 N, Orem, UT 84057","precinct":"25OR12","hd":"56","v_score":"1.193887297","decile":"4","lat":40.314089427005825,"lng":-111.69548601620063},{"vid":"2665746","name":"Shanta Powlowski","party":"Dem","address":"895 N 50 W, Orem, UT 84057","precinct":"25OR12","hd":"56","v_score":"0","decile":"1","lat":40.31346608789283,"lng":-111.69725379637941},{"vid":"2671557","name":"Dr. Talen Collins","party":"Dem","address":"1312 N Main St, Orem, UT 84057","precinct":"25OR12","hd":"56","v_score":"1.193887297","decile":"4","lat":40.32147286114343,"lng":-111.6958480142377},{"vid":"2681167","name":"Meyer Rutherford IV","party":"","address":"67 W 1200 N, Orem, UT 84057","precinct":"25OR12","hd":"56","v_score":"0","decile":"2","lat":40.31903450450608,"lng":-111.69760856192603},{"vid":"2693035","name":"Louetta Champlin","party":"","address":"851 N 75 E, Orem, UT 84057","precinct":"25OR12","hd":"56","v_score":"0","decile":"2","lat":40.31303009066055,"lng":-111.69392846496294},{"vid":"2694278","name":"Mr. Gordon Brakus","party":"","address":"51 W 1160 N, Orem, UT 84057","precinct":"25OR12","hd":"56","v_score":"1.193887297","decile":"4","lat":40.31832364538383,"lng":-111.69711043904962},{"vid":"2704091","name":"Luciano Mertz-Olson","party":"Dem","address":"896 N 100 W, Orem, UT 84057","precinct":"25OR12","hd":"56","v_score":"0","decile":"2","lat":40.31346329933901,"lng":-111.69805682718169},{"vid":"2705097","name":"Hilma Becker","party":"Dem","address":"852 N 75 E, Orem, UT 84057","precinct":"25OR12","hd":"56","v_score":"0","decile":"2","lat":40.31298075979664,"lng":-111.69329399667565},{"vid":"2706007","name":"Dedrick Paucek","party":"Dem","address":"976 N 40 W, Orem, UT 84057","precinct":"25OR12","hd":"56","v_score":"0","decile":"2","lat":40.31508526740889,"lng":-111.69674426669226},{"vid":"2708348","name":"Olie Jerde-O'Connell","party":"Dem","address":"976 N 40 W, Orem, UT 84057","precinct":"25OR12","hd":"56","v_score":"1.193887297","decile":"4","lat":40.31508526740889,"lng":-111.69674426669226},{"vid":"2708610","name":"Dionicio Heidenreich","party":"","address":"75 W 1160 N, Orem, UT 84057","precinct":"25OR12","hd":"56","v_score":"0","decile":"2","lat":40.31833721105484,"lng":-111.69783425564614},{"vid":"2715917","name":"Graves Crist DDS","party":"","address":"1276 N 50 E, Orem, UT 84057","precinct":"25OR12","hd":"56","v_score":"4.214075011","decile":"7","lat":40.32054243358527,"lng":-111.69449185363416},{"vid":"2717452","name":"Shanelle Rau","party":"Rep","address":"1081 N 150 W, Orem, UT 84057","precinct":"25OR12","hd":"56","v_score":"0","decile":"2","lat":40.31747810623308,"lng":-111.6995157006354},{"vid":"2726738","name":"Azaria Waters","party":"Rep","address":"977 N 75 E, Orem, UT 84057","precinct":"25OR12","hd":"56","v_score":"0","decile":"2","lat":40.31517123307731,"lng":-111.69390556528938},{"vid":"2729559","name":"Shiela Rodriguez","party":"","address":"128 W 870 N, Orem, UT 84057","precinct":"25OR12","hd":"56","v_score":"1.193887297","decile":"4","lat":40.31333082789932,"lng":-111.69889499325068},{"vid":"2731984","name":"Ibrahim Emmerich","party":"","address":"878 N MAIN St, Orem, UT 84057","precinct":"25OR12","hd":"56","v_score":"4.064235245","decile":"6","lat":40.313290491112696,"lng":-111.69541475023807},{"vid":"2738015","name":"Chaya Stroman","party":"","address":"1009 N 185 W, Orem, UT 84057","precinct":"25OR12","hd":"56","v_score":"0","decile":"2","lat":40.315752685448345,"lng":-111.70058432740194},{"vid":"2739934","name":"Danica Dietrich","party":"","address":"1089 N 50 W, Orem, UT 84057","precinct":"25OR12","hd":"56","v_score":"1.193887297","decile":"4","lat":40.31720601371283,"lng":-111.6974380325797},{"vid":"2747483","name":"Lura Brakus","party":"","address":"946 N 75 E, Orem, UT 84057","precinct":"25OR12","hd":"56","v_score":"1.193887297","decile":"4","lat":40.31464137751845,"lng":-111.69340033247167},{"vid":"2750845","name":"Kaia Mohr-Stoltenberg","party":"","address":"128 W 870 N, Orem, UT 84057","precinct":"25OR12","hd":"56","v_score":"0","decile":"2","lat":40.31333082789932,"lng":-111.69889499325068},{"vid":"2751377","name":"Tammie Hahn PhD","party":"","address":"263 W 1200 N, Orem, UT 84057","precinct":"25OR12","hd":"56","v_score":"0","decile":"2","lat":40.31894773641649,"lng":-111.7021403456811},{"vid":"2753756","name":"Anjelica Veum","party":"","address":"141 W 870 N, Orem, UT 84057","precinct":"25OR12","hd":"56","v_score":"0","decile":"2","lat":40.31300886216665,"lng":-111.69926024213665},{"vid":"2757373","name":"Eligah Feest Jr.","party":"Dem","address":"128 W 870 N, Orem, UT 84057","precinct":"25OR12","hd":"56","v_score":"1.193887297","decile":"4","lat":40.31333082789932,"lng":-111.69889499325068},{"vid":"2760815","name":"Caesar Altenwerth","party":"Rep","address":"1209 N 50 E, Orem, UT 84057","precinct":"25OR12","hd":"56","v_score":"0","decile":"2","lat":40.31944479621324,"lng":-111.6950311683541},{"vid":"2769318","name":"Dr. Ernest Bahringer Sr.","party":"Dem","address":"28 E 1200 N, Orem, UT 84057","precinct":"25OR12","hd":"56","v_score":"1.193887297","decile":"4","lat":40.319011069020654,"lng":-111.6954241351175},{"vid":"2775046","name":"Clarance Mosciski","party":"Dem","address":"1011 N 50 W, Orem, UT 84057","precinct":"25OR12","hd":"56","v_score":"0","decile":"2","lat":40.31613624629635,"lng":-111.69728546947064},{"vid":"2777972","name":"Kayli Ruecker","party":"","address":"271 W 1200 N, Orem, UT 84057","precinct":"25OR12","hd":"56","v_score":"1.193887297","decile":"4","lat":40.31902126450435,"lng":-111.70260194622503},{"vid":"2782774","name":"Latonya Ortiz","party":"Dem","address":"293 W 1200 N, Orem, UT 84057","precinct":"25OR12","hd":"56","v_score":"0","decile":"2","lat":40.318966235401064,"lng":-111.70303984145133},{"vid":"2783636","name":"Beckham Cassin MD","party":"","address":"1145 N 100 W, Orem, UT 84057","precinct":"25OR12","hd":"56","v_score":"0","decile":"2","lat":40.31806719880602,"lng":-111.69856667266873},{"vid":"2793106","name":"Baldwin Weber","party":"Rep","address":"67 W 1200 N, Orem, UT 84057","precinct":"25OR12","hd":"56","v_score":"0","decile":"2","lat":40.31903450450608,"lng":-111.69760856192603},{"vid":"2794301","name":"Douglas Collier","party":"Rep","address":"114 W 975 N, Orem, UT 84057","precinct":"25OR12","hd":"56","v_score":"0","decile":"2","lat":40.31539504164651,"lng":-111.69850248049582},{"vid":"2796470","name":"Lyman Hartmann","party":"Rep","address":"1134 N 50 W, Orem, UT 84057","precinct":"25OR12","hd":"56","v_score":"1.193887297","decile":"4","lat":40.31822329489462,"lng":-111.69657968893206},{"vid":"2797922","name":"Miss Blossom Dietrich PhD","party":"","address":"1098 N 50 E, Orem, UT 84057","precinct":"25OR12","hd":"56","v_score":"5.407962308","decile":"7","lat":40.31730245593526,"lng":-111.69445440307958},{"vid":"2800999","name":"Charles Kulas","party":"","address":"931 N 60 E, Orem, UT 84057","precinct":"25OR12","hd":"56","v_score":"0","decile":"2","lat":40.31435804095686,"lng":-111.69477228969959},{"vid":"2801871","name":"Kaaren McClure","party":"","address":"942 N 75 E, Orem, UT 84057","precinct":"25OR12","hd":"56","v_score":"0","decile":"2","lat":40.31441300283098,"lng":-111.69338331137332},{"vid":"2807794","name":"Dr. Nicholaus Bode II","party":"","address":"1047 N 300 W, Orem, UT 84057","precinct":"25OR12","hd":"56","v_score":"1.193887297","decile":"4","lat":40.39742547099155,"lng":-111.80715321161391},{"vid":"2822676","name":"Welton Schmidt","party":"","address":"965 N 75 E, Orem, UT 84057","precinct":"25OR12","hd":"56","v_score":"0","decile":"2","lat":40.31499288854368,"lng":-111.69390151891801},{"vid":"2828971","name":"Regenia Ward-Grant","party":"","address":"890 N 50 W, Orem, UT 84057","precinct":"25OR12","hd":"56","v_score":"1.193887297","decile":"4","lat":40.313466182146065,"lng":-111.69686662051568},{"vid":"2829381","name":"Isreal Windler DDS","party":"Dem","address":"67 W 1200 N, Orem, UT 84057","precinct":"25OR12","hd":"56","v_score":"0","decile":"2","lat":40.31903450450608,"lng":-111.69760856192603},{"vid":"2835898","name":"Coolidge Pagac","party":"Rep","address":"1075 N 50 W, Orem, UT 84057","precinct":"25OR12","hd":"56","v_score":"1.193887297","decile":"4","lat":40.31696205257628,"lng":-111.69716688768558},{"vid":"2835952","name":"Torrie Russel-Hackett","party":"Rep","address":"904 N 75 E, Orem, UT 84057","precinct":"25OR12","hd":"56","v_score":"1.193887297","decile":"4","lat":40.313901968623746,"lng":-111.69333088967159},{"vid":"2839904","name":"Mr. Burke Fahey","party":"Rep","address":"1093 N 50 E, Orem, UT 84057","precinct":"25OR12","hd":"56","v_score":"0","decile":"2","lat":40.3172921493353,"lng":-111.69492166470756},{"vid":"2840410","name":"Miss Doreen Wiegand DDS","party":"","address":"51 W 1160 N, Orem, UT 84057","precinct":"25OR12","hd":"56","v_score":"1.193887297","decile":"4","lat":40.31832364538383,"lng":-111.69711043904962},{"vid":"2851160","name":"Jacque Conroy","party":"Rep","address":"998 N 235 W, Orem, UT 84057","precinct":"25OR12","hd":"56","v_score":"0","decile":"2","lat":40.31575274601811,"lng":-111.70095090296806},{"vid":"2859605","name":"Raquel Grant","party":"","address":"61 W 940 N, Orem, UT 84057","precinct":"25OR12","hd":"56","v_score":"1.193887297","decile":"4","lat":40.31430950019589,"lng":-111.69724737899469},{"vid":"2860771","name":"Worley O'Reilly","party":"Rep","address":"1090 N 100 W, Orem, UT 84057","precinct":"25OR12","hd":"56","v_score":"0","decile":"2","lat":40.31720655769386,"lng":-111.69786635415805},{"vid":"2860929","name":"Carlisle Kohler","party":"Rep","address":"97 E 1200 N, Orem, UT 84057","precinct":"25OR12","hd":"56","v_score":"1.193887297","decile":"4","lat":40.31942177367129,"lng":-111.69372462087563},{"vid":"2860985","name":"Billie Frami","party":"Rep","address":"30 E 925 N, Orem, UT 84057","precinct":"25OR12","hd":"56","v_score":"1.193887297","decile":"4","lat":40.31412050475427,"lng":-111.69522339696348},{"vid":"2869149","name":"Hjalmar Goldner Jr.","party":"Rep","address":"143 W 1200 N, Orem, UT 84057","precinct":"25OR12","hd":"56","v_score":"0","decile":"2","lat":40.319078617404216,"lng":-111.69976689321454},{"vid":"2872757","name":"Mr. Damarion Bradtke","party":"","address":"1221 N 50 E, Orem, UT 84057","precinct":"25OR12","hd":"56","v_score":"1.193887297","decile":"4","lat":40.31975526927773,"lng":-111.695043301719},{"vid":"2881579","name":"Donna Mills-Hyatt","party":"","address":"1234 N 50 E, Orem, UT 84057","precinct":"25OR12","hd":"56","v_score":"1.193887297","decile":"4","lat":40.31979777502947,"lng":-111.69447421683051},{"vid":"2886815","name":"Daquan Boehm","party":"","address":"954 N 100 W, Orem, UT 84057","precinct":"25OR12","hd":"56","v_score":"1.193887297","decile":"4","lat":40.31481675438207,"lng":-111.69800765729572},{"vid":"2887214","name":"Dagny Hilll MD","party":"Dem","address":"997 N 185 W, Orem, UT 84057","precinct":"25OR12","hd":"56","v_score":"1.193887297","decile":"4","lat":40.315557370131735,"lng":-111.70054862585971},{"vid":"2888867","name":"Mr. Zion Bergnaum DVM","party":"Rep","address":"44 E 1200 N, Orem, UT 84057","precinct":"25OR12","hd":"56","v_score":"1.193887297","decile":"4","lat":40.31898535437381,"lng":-111.69501534039813},{"vid":"2892090","name":"Alethea Bechtelar","party":"","address":"1104 N 50 E, Orem, UT 84057","precinct":"25OR12","hd":"56","v_score":"0","decile":"2","lat":40.317542884934134,"lng":-111.69446986772692},{"vid":"2892540","name":"Alize White","party":"","address":"57 E 1200 N, Orem, UT 84057","precinct":"25OR12","hd":"56","v_score":"7.090117576","decile":"8","lat":40.31941457179809,"lng":-111.69447026927386},{"vid":"2893687","name":"Mrs. Lula Turner PhD","party":"Dem","address":"91 W 940 N, Orem, UT 84057","precinct":"25OR12","hd":"56","v_score":"0","decile":"2","lat":40.31434776131589,"lng":-111.69811812167586},{"vid":"2903190","name":"Kathie Herman-Walsh","party":"Dem","address":"865 N 50 W, Orem, UT 84057","precinct":"25OR12","hd":"56","v_score":"0","decile":"2","lat":40.31300411878456,"lng":-111.69735056074585},{"vid":"2915849","name":"Chanda Jaskolski MD","party":"Rep","address":"912 N 60 E, Orem, UT 84057","precinct":"25OR12","hd":"56","v_score":"0","decile":"2","lat":40.31393393531288,"lng":-111.69423302546495},{"vid":"2927070","name":"Esco Jerde-Hudson","party":"","address":"1178 N 185 W, Orem, UT 84057","precinct":"25OR12","hd":"56","v_score":"7.090117576","decile":"8","lat":40.318846432602534,"lng":-111.70015193687286},{"vid":"2932980","name":"Hyrum Lakin Jr.","party":"Rep","address":"832 N 100 W, Orem, UT 84057","precinct":"25OR12","hd":"56","v_score":"0","decile":"2","lat":40.31239177185541,"lng":-111.69794805683145},{"vid":"2945946","name":"Forrest Willms-Bayer","party":"","address":"997 N 185 W, Orem, UT 84057","precinct":"25OR12","hd":"56","v_score":"0","decile":"2","lat":40.315557370131735,"lng":-111.70054862585971},{"vid":"2950632","name":"Dominic Rutherford","party":"","address":"118 W 930 N, Orem, UT 84057","precinct":"25OR12","hd":"56","v_score":"0","decile":"2","lat":40.3143965363843,"lng":-111.69853474588476},{"vid":"2951208","name":"Perla Wunsch","party":"Dem","address":"225 W 1200 N, Orem, UT 84057","precinct":"25OR12","hd":"56","v_score":"0","decile":"2","lat":40.40167963427197,"lng":-111.8531174092085},{"vid":"2952018","name":"Rosina Zulauf","party":"","address":"1032 N 50 W, Orem, UT 84057","precinct":"25OR12","hd":"56","v_score":"0","decile":"2","lat":40.316339513923786,"lng":-111.69694705564692},{"vid":"2952421","name":"Myrl Grady","party":"","address":"872 N MAIN St, Orem, UT 84057","precinct":"25OR12","hd":"56","v_score":"0","decile":"2","lat":40.12095127721147,"lng":-111.65414255695671},{"vid":"2958664","name":"Beatriz McGlynn DDS","party":"Dem","address":"921 N 75 E, Orem, UT 84057","precinct":"25OR12","hd":"56","v_score":"0","decile":"2","lat":40.31410110579303,"lng":-111.69388185084388},{"vid":"2959319","name":"Lessie Schroeder","party":"","address":"35 E 980 N, Orem, UT 84057","precinct":"25OR12","hd":"56","v_score":"0","decile":"2","lat":40.31550820171422,"lng":-111.69512423759046},{"vid":"2962030","name":"Milford Kling","party":"","address":"976 N 40 W, Orem, UT 84057","precinct":"25OR12","hd":"56","v_score":"0","decile":"2","lat":40.31508526740889,"lng":-111.69674426669226},{"vid":"2974367","name":"Braulio Kihn","party":"","address":"1110 N 50 W, Orem, UT 84057","precinct":"25OR12","hd":"56","v_score":"0","decile":"2","lat":40.317548778351814,"lng":-111.69687094287195},{"vid":"2975827","name":"Ms. Clevie Reilly","party":"Rep","address":"912 N 60 E, Orem, UT 84057","precinct":"25OR12","hd":"56","v_score":"0","decile":"2","lat":40.31393393531288,"lng":-111.69423302546495},{"vid":"3032351","name":"Glenna Graham-Abbott","party":"Dem","address":"112 W 870 N, Orem, UT 84057","precinct":"25OR12","hd":"56","v_score":"3.93832808","decile":"6","lat":40.31333307765221,"lng":-111.69847538748652},{"vid":"3033790","name":"Rhonda Spinka PhD","party":"Dem","address":"996 N 75 E, Orem, UT 84057","precinct":"25OR12","hd":"56","v_score":"36.69008127","decile":"10","lat":40.3155364540887,"lng":-111.69342998406259},{"vid":"3082222","name":"Alexandrea Hoeger","party":"Rep","address":"33 W 1070 N, Orem, UT 84057","precinct":"25OR12","hd":"56","v_score":"5.40460374","decile":"7","lat":40.31669683281863,"lng":-111.69670333662107},{"vid":"3082234","name":"Taniya Bechtelar","party":"Dem","address":"33 W 1070 N, Orem, UT 84057","precinct":"25OR12","hd":"56","v_score":"1.623113131","decile":"5","lat":40.31669683281863,"lng":-111.69670333662107},{"vid":"3122531","name":"Mckinley Wiza-Towne","party":"Rep","address":"1122 N 50 W, Orem, UT 84057","precinct":"25OR12","hd":"56","v_score":"13.12879517","decile":"9","lat":40.317967928019534,"lng":-111.69677975191362},{"vid":"3345607","name":"Sunny Breitenberg","party":"","address":"933 N 75 E, Orem, UT 84057","precinct":"25OR12","hd":"56","v_score":"5.40460374","decile":"7","lat":40.31427948076581,"lng":-111.69388565413111},{"vid":"3371335","name":"Jeremiah Murazik-Bernier","party":"Rep","address":"1075 N 50 E, Orem, UT 84057","precinct":"25OR12","hd":"56","v_score":"2.817000428","decile":"6","lat":40.316785183023384,"lng":-111.69492179134919},{"vid":"aff50aedf13515498e77c2b1d552f308cae2b3adfaba53ca6cb1eb0891d8af87","name":"Dr. Belen Murazik","party":"","address":"838 N 50 W, Orem, UT 84057","precinct":"25OR12","hd":"56","v_score":"2.315214949","decile":"5","lat":39.990019872901456,"lng":-111.78625712306368},{"vid":"3529329","name":"Vina Anderson","party":"Dem","address":"1119 N 50 E, Orem, UT 84057","precinct":"25OR12","hd":"56","v_score":"16.97287982","decile":"9","lat":40.31758837370934,"lng":-111.69494987696162},{"vid":"26cc78e07e99438b09abe021860bfe744a8eba8d27de0e7f516e8d97f0475f95","name":"Dr. Acy Monahan MD","party":"","address":"1290 N 50 E, Orem, UT 84057","precinct":"25OR12","hd":"56","v_score":"19.746806","decile":"10","lat":40.32094119928258,"lng":-111.69448986242851},{"vid":"5408739","name":"Jamar Kris","party":"","address":"67 W 1200 N, Orem, UT 84057","precinct":"25OR12","hd":"56","v_score":"0","decile":"3","lat":40.31903450450608,"lng":-111.69760856192603},{"vid":"5889277","name":"Jerimiah Deckow","party":"","address":"942 N 75 E, Orem, UT 84057","precinct":"25OR12","hd":"56","v_score":"7.282185415","decile":"8","lat":40.31441300283098,"lng":-111.69338331137332},{"vid":"d8da9256ade4a652681e44aa29d8d525e056682fd6c4720c854c8d80c09501b4","name":"Dr. Levi Hagenes","party":"","address":"847 N 60 E, Orem, UT 84057","precinct":"25OR12","hd":"56","v_score":"16.72520646","decile":"9","lat":40.312771509625954,"lng":-111.69481256027544},{"vid":"6066982","name":"Mr. Bret Beahan PhD","party":"","address":"868 N 60 E, Orem, UT 84057","precinct":"25OR12","hd":"56","v_score":"21.67497337","decile":"10","lat":40.3131766101856,"lng":-111.6942170029339},{"vid":"6076514","name":"Angelica Turner","party":"Dem","address":"1119 N 50 E, Orem, UT 84057","precinct":"25OR12","hd":"56","v_score":"16.81308806","decile":"9","lat":40.31758837370934,"lng":-111.69494987696162},{"vid":"6147960","name":"Codie Jaskolski","party":"","address":"81 W 940 N, Orem, UT 84057","precinct":"25OR12","hd":"56","v_score":"3.781490609","decile":"6","lat":40.314303967817956,"lng":-111.69779225644217},{"vid":"6166145","name":"Mackenzie Lemke","party":"Rep","address":"1011 N 50 W, Orem, UT 84057","precinct":"25OR12","hd":"56","v_score":"1.121327652","decile":"3","lat":40.31613624629635,"lng":-111.69728546947064},{"vid":"6170970","name":"Dejon VonRueden","party":"","address":"997 N 75 E, Orem, UT 84057","precinct":"25OR12","hd":"56","v_score":"19.1495814","decile":"10","lat":40.315533749870376,"lng":-111.69398628861947},{"vid":"6182603","name":"Mr. Danial Gusikowski IV","party":"Rep","address":"896 N 100 W, Orem, UT 84057","precinct":"25OR12","hd":"56","v_score":"13.34346464","decile":"9","lat":40.31346329933901,"lng":-111.69805682718169},{"vid":"6182912","name":"Jamarcus Prosacco","party":"","address":"76 W 1160 N, Orem, UT 84057","precinct":"25OR12","hd":"56","v_score":"6.724398202","decile":"8","lat":40.31869172359693,"lng":-111.69784054879386},{"vid":"6193524","name":"Evette Bashirian","party":"","address":"921 N 60 E, Orem, UT 84057","precinct":"25OR12","hd":"56","v_score":"1.121327652","decile":"3","lat":40.31411608027323,"lng":-111.69483737228256},{"vid":"6201541","name":"Loraine Walsh","party":"","address":"74 W 900 N, Orem, UT 84057","precinct":"25OR12","hd":"56","v_score":"5.40460374","decile":"7","lat":40.31402201910573,"lng":-111.69759776794923},{"vid":"6202284","name":"Lennon Pouros","party":"Rep","address":"1266 N 50 E, Orem, UT 84057","precinct":"25OR12","hd":"56","v_score":"5.40460374","decile":"7","lat":40.32033507427813,"lng":-111.69448922731961},{"vid":"6211205","name":"Dawne Hoppe-Jerde","party":"Dem","address":"1351 N 90 E, Orem, UT 84057","precinct":"25OR12","hd":"56","v_score":"29.87877862","decile":"10","lat":40.322269055115626,"lng":-111.69410113783623},{"vid":"6218138","name":"Lucy Hyatt-Lowe","party":"Dem","address":"1196 N State St, Orem, UT 84057","precinct":"25OR12","hd":"56","v_score":"30.56732341","decile":"10","lat":40.31869797538228,"lng":-111.70382122057701},{"vid":"6218937","name":"Mr. Llewellyn Metz","party":"Rep","address":"60 E 1085 N, Orem, UT 84057","precinct":"25OR12","hd":"56","v_score":"19.74179771","decile":"10","lat":40.31667195046058,"lng":-111.6942074110826},{"vid":"6220663","name":"Shaniece Wisoky","party":"","address":"1312 N Main St, Orem, UT 84057","precinct":"25OR12","hd":"56","v_score":"38.99046514","decile":"10","lat":40.32147286114343,"lng":-111.6958480142377},{"vid":"6220982","name":"Joretta Herman-Koepp","party":"","address":"13 W 940 N, Orem, UT 84057","precinct":"25OR12","hd":"56","v_score":"5.40460374","decile":"7","lat":40.31435069454598,"lng":-111.69604271171465},{"vid":"6222121","name":"Mrs. Tamatha Mills","party":"","address":"24 E 1100 N, Orem, UT 84057","precinct":"25OR12","hd":"56","v_score":"28.05068527","decile":"10","lat":40.31718555339316,"lng":-111.6953386643708},{"vid":"6230945","name":"Jaimee Stoltenberg","party":"Dem","address":"1046 N 100 W, Orem, UT 84057","precinct":"25OR12","hd":"56","v_score":"1.193887297","decile":"4","lat":40.31643702076874,"lng":-111.69798653331202},{"vid":"6234126","name":"Mrs. Adella Crooks DDS","party":"","address":"1155 N 100 W, Orem, UT 84057","precinct":"25OR12","hd":"56","v_score":"5.274151572","decile":"7","lat":40.31822044096647,"lng":-111.69856992295307},{"vid":"6237013","name":"Dr. Rosevelt White DVM","party":"","address":"1155 N 100 W, Orem, UT 84057","precinct":"25OR12","hd":"56","v_score":"14.90236525","decile":"9","lat":40.31822044096647,"lng":-111.69856992295307},{"vid":"6244807","name":"Metro Parker","party":"Dem","address":"967 N 60 E, Orem, UT 84057","precinct":"25OR12","hd":"56","v_score":"15.43762891","decile":"9","lat":40.31514462494645,"lng":-111.69470966585214},{"vid":"6247779","name":"Miss Charlee Barrows MD","party":"Dem","address":"1286 N 50 E, Orem, UT 84057","precinct":"25OR12","hd":"56","v_score":"17.84989268","decile":"10","lat":40.32075453180593,"lng":-111.69450093542204},{"vid":"6250129","name":"Kole Padberg","party":"","address":"865 N 75 E, Orem, UT 84057","precinct":"25OR12","hd":"56","v_score":"0","decile":"3","lat":40.31320846627046,"lng":-111.69393223141925},{"vid":"6267143","name":"Harrell Dietrich","party":"","address":"960 N 60 E, Orem, UT 84057","precinct":"25OR12","hd":"56","v_score":"4.069929862","decile":"7","lat":40.314968593257525,"lng":-111.69432205102488},{"vid":"6267922","name":"Juston Ferry","party":"","address":"1039 N Main St, Orem, UT 84057","precinct":"25OR12","hd":"56","v_score":"5.40460374","decile":"7","lat":40.31644627097092,"lng":-111.69623732802161},{"vid":"6277050","name":"Lilie Becker MD","party":"Dem","address":"868 N 160 W, Orem, UT 84057","precinct":"25OR12","hd":"56","v_score":"19.81367103","decile":"10","lat":40.31301986163019,"lng":-111.69952137651217},{"vid":"b9109d5ec7afe75b79341445b9dec115bcedb6faa2370ec49290e8096caffee3","name":"Gavyn Anderson","party":"Dem","address":"1020 N 75 E, Orem, UT 84057","precinct":"25OR12","hd":"56","v_score":"29.94346829","decile":"10","lat":40.31598657079989,"lng":-111.6934057198481},{"vid":"6287805","name":"Vick Wyman","party":"Dem","address":"1346 N 90 E, Orem, UT 84057","precinct":"25OR12","hd":"56","v_score":"2.587603312","decile":"5","lat":40.32219507225822,"lng":-111.69357894542787},{"vid":"6289537","name":"Jeraldine Blanda MD","party":"","address":"116 W 870 N, Orem, UT 84057","precinct":"25OR12","hd":"56","v_score":"0","decile":"3","lat":40.31333249021218,"lng":-111.69862784686158},{"vid":"6294235","name":"Silas Schneider","party":"Dem","address":"867 N 60 E, Orem, UT 84057","precinct":"25OR12","hd":"56","v_score":"9.207031979","decile":"8","lat":40.31315566833473,"lng":-111.69481967619014},{"vid":"6294236","name":"Clara Wiza","party":"","address":"867 N 60 E, Orem, UT 84057","precinct":"25OR12","hd":"56","v_score":"10.67330764","decile":"9","lat":40.31315566833473,"lng":-111.69481967619014},{"vid":"6295198","name":"Maybelle Conroy DVM","party":"Rep","address":"1039 N Main St, Orem, UT 84057","precinct":"25OR12","hd":"56","v_score":"4.210716443","decile":"7","lat":40.31644627097092,"lng":-111.69623732802161},{"vid":"6301349","name":"Mr. Adalberto Gaylord Jr.","party":"Dem","address":"1034 N 100 W, Orem, UT 84057","precinct":"25OR12","hd":"56","v_score":"6.74007049","decile":"8","lat":40.31618124898466,"lng":-111.69789911661478},{"vid":"6304486","name":"Mr. Terell Turner","party":"","address":"1150 N 75 E, Orem, UT 84057","precinct":"25OR12","hd":"56","v_score":"22.54903271","decile":"10","lat":40.318313199095044,"lng":-111.6933547030259},{"vid":"6304765","name":"Gaetano Walsh","party":"Dem","address":"70 E 1430 N, Orem, UT 84057","precinct":"25OR12","hd":"56","v_score":"22.18184494","decile":"10","lat":40.32317922273739,"lng":-111.69429624406082},{"vid":"6310046","name":"Verla Spencer DVM","party":"Rep","address":"24 E 1100 N, Orem, UT 84057","precinct":"25OR12","hd":"56","v_score":"28.05068527","decile":"10","lat":40.31718555339316,"lng":-111.6953386643708},{"vid":"6313673","name":"Sharee White","party":"","address":"1134 N 50 W, Orem, UT 84057","precinct":"25OR12","hd":"56","v_score":"2.817000428","decile":"6","lat":40.31822329489462,"lng":-111.69657968893206},{"vid":"6324229","name":"Coleen Auer","party":"","address":"1072 N 185 W, Orem, UT 84057","precinct":"25OR12","hd":"56","v_score":"5.40460374","decile":"7","lat":40.316892746769135,"lng":-111.69992859355895},{"vid":"6326180","name":"Lucious Reichel","party":"Dem","address":"126 W 930 N, Orem, UT 84057","precinct":"25OR12","hd":"56","v_score":"1.121327652","decile":"3","lat":40.314313131457965,"lng":-111.69893758788795},{"vid":"6334726","name":"Juliet Howell DVM","party":"","address":"941 N 75 E, Orem, UT 84057","precinct":"25OR12","hd":"56","v_score":"43.22595857","decile":"10","lat":40.314446992441766,"lng":-111.6939251321833},{"vid":"6344624","name":"Jennie Heaney","party":"Dem","address":"1155 N 100 W, Orem, UT 84057","precinct":"25OR12","hd":"56","v_score":"35.30276996","decile":"10","lat":40.31822044096647,"lng":-111.69856992295307},{"vid":"6357823","name":"George Braun","party":"","address":"888 N 160 W, Orem, UT 84057","precinct":"25OR12","hd":"56","v_score":"3.93832808","decile":"6","lat":40.31341457412523,"lng":-111.69960415677895},{"vid":"6359675","name":"Rayford Doyle","party":"","address":"948 N 60 E, Orem, UT 84057","precinct":"25OR12","hd":"56","v_score":"5.546183193","decile":"7","lat":40.314765825778075,"lng":-111.69431297144433},{"vid":"6359839","name":"Landan Hegmann","party":"","address":"957 N 100 W, Orem, UT 84057","precinct":"25OR12","hd":"56","v_score":"0","decile":"3","lat":40.31483449713901,"lng":-111.69917270634278},{"vid":"6369196","name":"Georgeann Feest","party":"","address":"141 W 905 N, Orem, UT 84057","precinct":"25OR12","hd":"56","v_score":"2.817000428","decile":"6","lat":40.31365117323909,"lng":-111.69945545441504},{"vid":"6370214","name":"Mrs. Venus Daniel","party":"Rep","address":"267 W 1200 N, Orem, UT 84057","precinct":"25OR12","hd":"56","v_score":"25.09303893","decile":"10","lat":40.31870188768504,"lng":-111.70264383235356},{"vid":"6375098","name":"Dr. Cornelious McLaughlin","party":"","address":"1110 N 50 W, Orem, UT 84057","precinct":"25OR12","hd":"56","v_score":"10.10335026","decile":"9","lat":40.317548778351814,"lng":-111.69687094287195},{"vid":"6377365","name":"Mr. Conard Senger II","party":"","address":"865 N 50 W, Orem, UT 84057","precinct":"25OR12","hd":"56","v_score":"0","decile":"3","lat":40.31300411878456,"lng":-111.69735056074585},{"vid":"6378921","name":"Mr. Duwayne Dooley DVM","party":"Rep","address":"65 W 1160 N, Orem, UT 84057","precinct":"25OR12","hd":"56","v_score":"22.63170223","decile":"10","lat":40.31835501489375,"lng":-111.6975205866365},{"vid":"6379680","name":"Vernie Stracke","party":"Dem","address":"931 N 60 E, Orem, UT 84057","precinct":"25OR12","hd":"56","v_score":"12.90642918","decile":"9","lat":40.31435804095686,"lng":-111.69477228969959},{"vid":"6380972","name":"Leila Parker","party":"","address":"922 N 60 E, Orem, UT 84057","precinct":"25OR12","hd":"56","v_score":"0","decile":"3","lat":40.314123259753565,"lng":-111.69423703949697},{"vid":"6382870","name":"Alejandra Koss-Barton","party":"Rep","address":"1075 N 50 W, Orem, UT 84057","precinct":"25OR12","hd":"56","v_score":"33.92668176","decile":"10","lat":40.31696205257628,"lng":-111.69716688768558},{"vid":"6389983","name":"Leonard Spinka","party":"Dem","address":"1176 N 50 E, Orem, UT 84057","precinct":"25OR12","hd":"56","v_score":"0","decile":"3","lat":40.31872618258683,"lng":-111.69447322868372},{"vid":"6392456","name":"Ara Dare-Stamm","party":"","address":"1351 N 90 E, Orem, UT 84057","precinct":"25OR12","hd":"56","v_score":"1.121327652","decile":"3","lat":40.322269055115626,"lng":-111.69410113783623},{"vid":"6400089","name":"Mrs. Mittie Schultz","party":"Rep","address":"1235 N Farm Lane Cir, Orem, UT 84057","precinct":"25OR12","hd":"56","v_score":"10.38488476","decile":"9","lat":40.3201507986485,"lng":-111.69381346041857},{"vid":"6403156","name":"Miss Muriel Turcotte","party":"Dem","address":"23 E 1100 N, Orem, UT 84057","precinct":"25OR12","hd":"56","v_score":"41.55511856","decile":"10","lat":40.31772297014356,"lng":-111.69542208588067},{"vid":"6410957","name":"Dr. Price Kassulke I","party":"","address":"1148 N 50 W, Orem, UT 84057","precinct":"25OR12","hd":"56","v_score":"0","decile":"3","lat":40.318417549155775,"lng":-111.69672935183915},{"vid":"6415457","name":"Ulysses Jones","party":"Rep","address":"1358 N 90 E, Orem, UT 84057","precinct":"25OR12","hd":"56","v_score":"12.58300477","decile":"9","lat":40.322433154269895,"lng":-111.69379089510774},{"vid":"6417799","name":"Ms. Meadow White","party":"Rep","address":"35 E 980 N, Orem, UT 84057","precinct":"25OR12","hd":"56","v_score":"6.814370645","decile":"8","lat":40.31550820171422,"lng":-111.69512423759046},{"vid":"fc444e1df82868726f82346284e15bdbd46763312fee5cca921c06ea3d463159","name":"Tatyana Jakubowski-Terry","party":"","address":"52 E 1085 N, Orem, UT 84057","precinct":"25OR12","hd":"56","v_score":"3.93832808","decile":"6","lat":40.3167310729831,"lng":-111.69458954843181},{"vid":"6424945","name":"Mr. Beau Walker","party":"","address":"1101 N 50 W, Orem, UT 84057","precinct":"25OR12","hd":"56","v_score":"1.193887297","decile":"4","lat":40.317490866012584,"lng":-111.69741982732214},{"vid":"6429499","name":"Severo Stark","party":"Dem","address":"899 N 75 E, Orem, UT 84057","precinct":"25OR12","hd":"56","v_score":"15.00919004","decile":"9","lat":40.313743535612126,"lng":-111.69394357103276},{"vid":"6430192","name":"Harlon Ruecker-Purdy","party":"","address":"67 W 1200 N, Orem, UT 84057","precinct":"25OR12","hd":"56","v_score":"0","decile":"3","lat":40.31903450450608,"lng":-111.69760856192603},{"vid":"6432422","name":"Jayvon Baumbach","party":"Rep","address":"1122 N 50 W, Orem, UT 84057","precinct":"25OR12","hd":"56","v_score":"14.32268247","decile":"9","lat":40.317967928019534,"lng":-111.69677975191362},{"vid":"6433945","name":"Mahalia Spinka","party":"","address":"899 N 75 E, Orem, UT 84057","precinct":"25OR12","hd":"56","v_score":"15.00919004","decile":"9","lat":40.313743535612126,"lng":-111.69394357103276},{"vid":"6435184","name":"Eller Sporer","party":"","address":"1101 N 50 W, Orem, UT 84057","precinct":"25OR12","hd":"56","v_score":"3.93832808","decile":"6","lat":40.317490866012584,"lng":-111.69741982732214},{"vid":"6437499","name":"Mr. Issac Hodkiewicz","party":"","address":"1051 N 150 W, Orem, UT 84057","precinct":"25OR12","hd":"56","v_score":"1.193887297","decile":"4","lat":40.31667832280104,"lng":-111.69960991854751},{"vid":"6438795","name":"Brendan Jacobi III","party":"","address":"843 N 50 W, Orem, UT 84057","precinct":"25OR12","hd":"56","v_score":"25.74573511","decile":"10","lat":40.312597960389375,"lng":-111.69734450861613},{"vid":"6439322","name":"Ms. Cordelia Auer MD","party":"Rep","address":"88 W 1160 N, Orem, UT 84057","precinct":"25OR12","hd":"56","v_score":"1.193887297","decile":"4","lat":40.31871743867523,"lng":-111.69814880083271},{"vid":"6442380","name":"Gearld Lowe","party":"Rep","address":"941 N 75 E, Orem, UT 84057","precinct":"25OR12","hd":"56","v_score":"0","decile":"3","lat":40.314446992441766,"lng":-111.6939251321833},{"vid":"d45cd05b61692391a970f76d83dccdfec69e329650153d46f62d409e622c4262","name":"Desean Runolfsson","party":"","address":"1050 N 100 W, Orem, UT 84057","precinct":"25OR12","hd":"56","v_score":"0","decile":"3","lat":40.31662144583609,"lng":-111.69805880814656},{"vid":"6452011","name":"Jayde Baumbach","party":"","address":"1286 N 50 E, Orem, UT 84057","precinct":"25OR12","hd":"56","v_score":"4.137918904","decile":"7","lat":40.32075453180593,"lng":-111.69450093542204},{"vid":"fa2b89c46c09005d7c8137cfe62b0160639f32ce049f7de08e6a46e450bf438b","name":"Mrs. Emeline Gislason","party":"Rep","address":"1056 N 300 W, Orem, UT 84057","precinct":"25OR12","hd":"56","v_score":"12.49472132","decile":"9","lat":40.39776165670008,"lng":-111.80675401535493},{"vid":"6461409","name":"Mr. Normand Jenkins IV","party":"","address":"43 W 1070 N, Orem, UT 84057","precinct":"25OR12","hd":"56","v_score":"3.781490609","decile":"6","lat":40.31678318607472,"lng":-111.69703706242083},{"vid":"6464107","name":"Makai Corwin","party":"Dem","address":"65 W 1160 N, Orem, UT 84057","precinct":"25OR12","hd":"56","v_score":"22.63170223","decile":"10","lat":40.31835501489375,"lng":-111.6975205866365},{"vid":"6466937","name":"Skyler Mann","party":"Rep","address":"118 W 975 N, Orem, UT 84057","precinct":"25OR12","hd":"56","v_score":"11.92292056","decile":"9","lat":40.31538025411877,"lng":-111.69857579874353},{"vid":"6470395","name":"Duncan Larkin","party":"Rep","address":"1025 N Main St, Orem, UT 84057","precinct":"25OR12","hd":"56","v_score":"5.40460374","decile":"7","lat":40.31621930566548,"lng":-111.6962603583102},{"vid":"6477071","name":"Dr. Adam Hermiston","party":"Dem","address":"81 W 940 N, Orem, UT 84057","precinct":"25OR12","hd":"56","v_score":"0","decile":"3","lat":40.314303967817956,"lng":-111.69779225644217},{"vid":"6477516","name":"Helene Hoppe","party":"","address":"1155 N 100 W, Orem, UT 84057","precinct":"25OR12","hd":"56","v_score":"13.99251192","decile":"9","lat":40.31822044096647,"lng":-111.69856992295307},{"vid":"6478347","name":"Tex Crona","party":"","address":"275 W 1200 N, Orem, UT 84057","precinct":"25OR12","hd":"56","v_score":"26.7250905","decile":"10","lat":40.31905735678093,"lng":-111.7027354639005},{"vid":"6478402","name":"Mrs. Maci Macejkovic","party":"Dem","address":"1358 N 90 E, Orem, UT 84057","precinct":"25OR12","hd":"56","v_score":"12.58300477","decile":"9","lat":40.322433154269895,"lng":-111.69379089510774},{"vid":"c466febc499eba2cb0aaf7223711da41fdc1cf99cea572b72beee8b82047568f","name":"Jeanette Leuschke","party":"Rep","address":"1078 N 100 W, Orem, UT 84057","precinct":"25OR12","hd":"56","v_score":"8.280646305","decile":"8","lat":40.31701783779927,"lng":-111.69783430729929},{"vid":"fca7a1b4c230b1b83f552db8b68ecee34cdf894c3b9aa7c3b2b6eea1beac8f11","name":"Latarsha Quitzon","party":"Dem","address":"926 N 75 E, Orem, UT 84057","precinct":"25OR12","hd":"56","v_score":"0","decile":"3","lat":40.31407891990542,"lng":-111.69338827582293},{"vid":"6496684","name":"Miss Karsyn Upton PhD","party":"Dem","address":"36 E 980 N, Orem, UT 84057","precinct":"25OR12","hd":"56","v_score":"2.315214949","decile":"5","lat":40.31509996869367,"lng":-111.6950336768097},{"vid":"6498565","name":"Dr. Shenna Braun PhD","party":"Dem","address":"921 N 75 E, Orem, UT 84057","precinct":"25OR12","hd":"56","v_score":"2.315214949","decile":"5","lat":40.31410110579303,"lng":-111.69388185084388},{"vid":"6499982","name":"Torrence Kovacek IV","party":"","address":"65 W 1160 N, Orem, UT 84057","precinct":"25OR12","hd":"56","v_score":"13.64082596","decile":"9","lat":40.31835501489375,"lng":-111.6975205866365},{"vid":"6507432","name":"Mrs. Amiya Doyle","party":"","address":"1155 N 100 W, Orem, UT 84057","precinct":"25OR12","hd":"56","v_score":"35.30276996","decile":"10","lat":40.31822044096647,"lng":-111.69856992295307},{"vid":"6507734","name":"Mrs. Krysten Harvey","party":"Rep","address":"954 N 40 W, Orem, UT 84057","precinct":"25OR12","hd":"56","v_score":"9.757018484","decile":"8","lat":40.31479836709741,"lng":-111.69649160173233},{"vid":"df362948b5d7cf82c5c2e742639f1da398d35649d8f89e5c621462f814b3f16e","name":"Gloria Wolf DVM","party":"Rep","address":"1122 N 100 W, Orem, UT 84057","precinct":"25OR12","hd":"56","v_score":"4.210716443","decile":"7","lat":40.3176327958397,"lng":-111.69807787366074},{"vid":"6508471","name":"Cynthia Sporer","party":"Dem","address":"987 N 75 E, Orem, UT 84057","precinct":"25OR12","hd":"56","v_score":"4.210716443","decile":"7","lat":40.3153496050863,"lng":-111.69390957662647},{"vid":"6526747","name":"Mr. Marchello Harvey DVM","party":"Dem","address":"1276 N 50 E, Orem, UT 84057","precinct":"25OR12","hd":"56","v_score":"26.9144526","decile":"10","lat":40.32054243358527,"lng":-111.69449185363416},{"vid":"6527582","name":"Artie Gibson-Durgan","party":"Rep","address":"141 W 905 N, Orem, UT 84057","precinct":"25OR12","hd":"56","v_score":"1.193887297","decile":"4","lat":40.31365117323909,"lng":-111.69945545441504},{"vid":"6528113","name":"Mr. Rey Kozey","party":"","address":"1011 N 50 W, Orem, UT 84057","precinct":"25OR12","hd":"56","v_score":"0","decile":"3","lat":40.31613624629635,"lng":-111.69728546947064}]