[{"vid":"31232eb907f7c6f5466f721d6a72f4df7db4170af637976cd26dbd0384ce100e","name":"Bennie Grimes","party":"","address":"875 S 700 E, Apt 409, Orem, UT 84097","precinct":"25OR40","hd":"57","v_score":"7.650280567","decile":"8","lat":40.281072578040394,"lng":-111.67814956580085,"phone":"(374) 446-3798","sd":"24","ssbd":"12","lsbd":"School Board Timpanogos 6"},{"vid":"1230627","name":"Valentine Adams","party":"","address":"730 E 950 S, Apt A205, Orem, UT 84097","precinct":"25OR40","hd":"57","v_score":"5.40460374","decile":"7","lat":40.279656222755975,"lng":-111.67765470753655,"phone":"(670) 711-0987","sd":"24","ssbd":"12","lsbd":"School Board Timpanogos 6"},{"vid":"1247111","name":"Cuba Rosenbaum","party":"","address":"730 E 950 S, Apt C417, Orem, UT 84097","precinct":"25OR40","hd":"57","v_score":"1.121327652","decile":"3","lat":40.279656222755975,"lng":-111.67765470753655,"phone":"(544) 077-7502","sd":"24","ssbd":"12","lsbd":"School Board Timpanogos 6"},{"vid":"1249424","name":"Dr. Sylvan Thompson PhD","party":"","address":"706 S 630 E, Orem, UT 84097","precinct":"25OR40","hd":"57","v_score":"5.693042993","decile":"7","lat":40.28424768586694,"lng":-111.68047561273258,"phone":"(665) 429-2043","sd":"24","ssbd":"12","lsbd":"School Board Timpanogos 6"},{"vid":"1260379","name":"Shiela Kunde","party":"Dem","address":"426 E 900 S, Orem, UT 84097","precinct":"25OR40","hd":"57","v_score":"6.954919332","decile":"8","lat":40.28038082259868,"lng":-111.68509375509926,"phone":"(597) 805-0728","sd":"24","ssbd":"12","lsbd":"School Board Timpanogos 6"},{"vid":"5e0afc664a120e3c0c30443ae4415c325a9eed0caf4ba8f95c1ad8e5de0b31bd","name":"Gerry Hickle MD","party":"Dem","address":"450 E 850 S, Orem, UT 84097","precinct":"25OR40","hd":"57","v_score":"14.13760315","decile":"9","lat":40.28120731243833,"lng":-111.6844426624495,"phone":"(902) 047-8013","sd":"24","ssbd":"12","lsbd":"School Board Timpanogos 6"},{"vid":"1272630","name":"Camille Nienow-Considine","party":"Dem","address":"446 E 900 S, Orem, UT 84097","precinct":"25OR40","hd":"57","v_score":"10.19351556","decile":"9","lat":40.28044392686005,"lng":-111.68472743439277,"phone":"(105) 510-8087","sd":"24","ssbd":"12","lsbd":"School Board Timpanogos 6"},{"vid":"1277427","name":"Adison Williamson DVM","party":"","address":"730 E 950 S, A507, Orem, UT 84097","precinct":"25OR40","hd":"57","v_score":"1.193887297","decile":"3","lat":40.279656222755975,"lng":-111.67765470753655,"phone":"(490) 986-6102","sd":"24","ssbd":"12","lsbd":"School Board Timpanogos 6"},{"vid":"97d006f5355b84152a41affa69a6436fbe2d119fadda054c3bf16adaca1bd208","name":"Mrs. Dolly Gleason PhD","party":"Rep","address":"651 S 590 E, Orem, UT 84097","precinct":"25OR40","hd":"57","v_score":"0","decile":"1","lat":40.28510141856179,"lng":-111.68091554862926,"phone":"(742) 163-4387","sd":"24","ssbd":"12","lsbd":"School Board Timpanogos 6"},{"vid":"1317427","name":"Loyal Cassin-Schiller","party":"Dem","address":"875 S 700 E, Apt 520, Orem, UT 84097","precinct":"25OR40","hd":"57","v_score":"35.12606409","decile":"10","lat":40.281072578040394,"lng":-111.67814956580085,"phone":"(633) 469-1263","sd":"24","ssbd":"12","lsbd":"School Board Timpanogos 6"},{"vid":"1317487","name":"Bernadine Fay-Brown","party":"","address":"845 S 750 E, Apt A429, Orem, UT 84097","precinct":"25OR40","hd":"57","v_score":"2.817000428","decile":"6","lat":40.28150531012748,"lng":-111.67685533377579,"phone":"(667) 134-5023","sd":"24","ssbd":"12","lsbd":"School Board Timpanogos 6"},{"vid":"1333209","name":"Franklyn Medhurst","party":"Rep","address":"730 E 950 S, Apt D429, Orem, UT 84097","precinct":"25OR40","hd":"57","v_score":"2.315214949","decile":"5","lat":40.279656222755975,"lng":-111.67765470753655,"phone":"(561) 028-4602","sd":"24","ssbd":"12","lsbd":"School Board Timpanogos 6"},{"vid":"1337438","name":"Manson Connelly","party":"Rep","address":"730 E 950 S, Apt C238, Orem, UT 84097","precinct":"25OR40","hd":"57","v_score":"20.49533263","decile":"10","lat":40.279656222755975,"lng":-111.67765470753655,"phone":"(869) 856-3017","sd":"24","ssbd":"12","lsbd":"School Board Timpanogos 6"},{"vid":"1346411","name":"Chana Pfannerstill","party":"Dem","address":"978 S 450 E, Orem, UT 84097","precinct":"25OR40","hd":"57","v_score":"25.1747749","decile":"10","lat":40.27900227645904,"lng":-111.68487412961863,"phone":"(617) 652-9152","sd":"24","ssbd":"12","lsbd":"School Board Timpanogos 6"},{"vid":"1353472","name":"Gusta Wilderman","party":"Dem","address":"676 E 400 S, Orem, UT 84097","precinct":"25OR40","hd":"57","v_score":"4.283276088","decile":"7","lat":40.28937651462478,"lng":-111.67940077687818,"phone":"(126) 285-0452","sd":"24","ssbd":"12","lsbd":"School Board Timpanogos 6"},{"vid":"1354876","name":"Shaniece Auer DVM","party":"Rep","address":"909 S 550 E, Orem, UT 84097","precinct":"25OR40","hd":"57","v_score":"21.89181036","decile":"10","lat":40.28036818905697,"lng":-111.68191743140116,"phone":"(428) 490-4246","sd":"24","ssbd":"12","lsbd":"School Board Timpanogos 6"},{"vid":"1359011","name":"Ova Bins","party":"Rep","address":"845 S 550 E, Orem, UT 84097","precinct":"25OR40","hd":"57","v_score":"11.23922619","decile":"9","lat":40.2816931165435,"lng":-111.68204848632872,"phone":"(771) 350-6373","sd":"24","ssbd":"12","lsbd":"School Board Timpanogos 6"},{"vid":"1359048","name":"Kale Dickens","party":"Rep","address":"845 S 550 E, Orem, UT 84097","precinct":"25OR40","hd":"57","v_score":"11.23922619","decile":"9","lat":40.2816931165435,"lng":-111.68204848632872,"phone":"(326) 721-7650","sd":"24","ssbd":"12","lsbd":"School Board Timpanogos 6"},{"vid":"1359144","name":"Lon Homenick","party":"","address":"845 S 550 E, Orem, UT 84097","precinct":"25OR40","hd":"57","v_score":"11.23922619","decile":"9","lat":40.2816931165435,"lng":-111.68204848632872,"phone":"(794) 958-6122","sd":"24","ssbd":"12","lsbd":"School Board Timpanogos 6"},{"vid":"26df22cc54321b348aaaddfd7916fa8c2129066dcf7909cd3c91eca2a84aeb38","name":"Erin Rosenbaum","party":"","address":"875 S 700 E, Orem, UT 84097","precinct":"25OR40","hd":"57","v_score":"6.724398202","decile":"8","lat":40.281072578040394,"lng":-111.67814956580085,"phone":"(702) 886-8370","sd":"24","ssbd":"12","lsbd":"School Board Timpanogos 6"},{"vid":"1417878","name":"Kathlyn Corkery","party":"","address":"966 S 500 E, Orem, UT 84097","precinct":"25OR40","hd":"57","v_score":"3.93832808","decile":"6","lat":40.279494626895215,"lng":-111.68367328312674,"phone":"(570) 553-5563","sd":"24","ssbd":"12","lsbd":"School Board Timpanogos 6"},{"vid":"1425114","name":"Vernell Weissnat","party":"","address":"730 E 950 S, Apt B313, Orem, UT 84097","precinct":"25OR40","hd":"57","v_score":"0","decile":"1","lat":40.279656222755975,"lng":-111.67765470753655,"phone":"(808) 281-8301","sd":"24","ssbd":"12","lsbd":"School Board Timpanogos 6"},{"vid":"dcf2388874fb194e609eb4622aa2e26fd9dc91717b83cb098219725d0d5f88de","name":"Clint Wunsch","party":"Rep","address":"730 E 950 S, Apt C409, Orem, UT 84097","precinct":"25OR40","hd":"57","v_score":"9.640097175","decile":"8","lat":40.279656222755975,"lng":-111.67765470753655,"phone":"(720) 474-6497","sd":"24","ssbd":"12","lsbd":"School Board Timpanogos 6"},{"vid":"1462781","name":"Tyreek Schmeler III","party":"Dem","address":"925 S 500 E, Orem, UT 84097","precinct":"25OR40","hd":"57","v_score":"20.12211688","decile":"10","lat":40.28023782777565,"lng":-111.68310552810422,"phone":"(107) 779-2344","sd":"24","ssbd":"12","lsbd":"School Board Timpanogos 6"},{"vid":"1473040","name":"Damion Wisoky","party":"Dem","address":"730 E 950 S, Apt B234, Orem, UT 84097","precinct":"25OR40","hd":"57","v_score":"5.40460374","decile":"7","lat":40.279656222755975,"lng":-111.67765470753655,"phone":"(651) 431-5929","sd":"24","ssbd":"12","lsbd":"School Board Timpanogos 6"},{"vid":"1487319","name":"Monica Oberbrunner","party":"","address":"895 S 500 E, Orem, UT 84097","precinct":"25OR40","hd":"57","v_score":"8.280646305","decile":"8","lat":40.28076862082547,"lng":-111.68311162748535,"phone":"(827) 902-2239","sd":"24","ssbd":"12","lsbd":"School Board Timpanogos 6"},{"vid":"1503349","name":"Harrold Gottlieb MD","party":"Rep","address":"940 S 450 E, Orem, UT 84097","precinct":"25OR40","hd":"57","v_score":"15.61526831","decile":"9","lat":40.279907848900734,"lng":-111.68488796888423,"phone":"(973) 889-0229","sd":"24","ssbd":"12","lsbd":"School Board Timpanogos 6"},{"vid":"1504138","name":"Jermaine Kutch","party":"","address":"463 S 750 E, Orem, UT 84097","precinct":"25OR40","hd":"57","v_score":"1.121327652","decile":"3","lat":40.28861715941433,"lng":-111.67678167865988,"phone":"(471) 999-4674","sd":"24","ssbd":"12","lsbd":"School Board Timpanogos 6"},{"vid":"1511554","name":"Anton Kris","party":"","address":"400 E 1010 S, Orem, UT 84097","precinct":"25OR40","hd":"57","v_score":"17.44846579","decile":"9","lat":40.27808200014405,"lng":-111.68561032037388,"phone":"(223) 131-5124","sd":"24","ssbd":"12","lsbd":"School Board Timpanogos 6"},{"vid":"32589eaf85caeb0c8cf33436c8f6150a3bdbd7c748c96433c8d05c007fe35561","name":"Shelia Murphy MD","party":"Rep","address":"845 S 750 E, Apt B323, Orem, UT 84097","precinct":"25OR40","hd":"57","v_score":"0","decile":"1","lat":40.28150531012748,"lng":-111.67685533377579,"phone":"(392) 615-3307","sd":"24","ssbd":"12","lsbd":"School Board Timpanogos 6"},{"vid":"1555005","name":"Courtney Heathcote","party":"Dem","address":"925 S 500 E, Orem, UT 84097","precinct":"25OR40","hd":"57","v_score":"16.74428883","decile":"9","lat":40.28023782777565,"lng":-111.68310552810422,"phone":"(502) 557-4361","sd":"24","ssbd":"12","lsbd":"School Board Timpanogos 6"},{"vid":"1560784","name":"Dr. Charls Bartoletti MD","party":"Rep","address":"838 S 550 E, Orem, UT 84097","precinct":"25OR40","hd":"57","v_score":"22.78340385","decile":"10","lat":40.28172307743076,"lng":-111.68243854852187,"phone":"(740) 336-0520","sd":"24","ssbd":"12","lsbd":"School Board Timpanogos 6"},{"vid":"1562952","name":"Media Swaniawski","party":"Rep","address":"875 S 700 E, Apt 409, Orem, UT 84097","precinct":"25OR40","hd":"57","v_score":"9.116556227","decile":"8","lat":40.281072578040394,"lng":-111.67814956580085,"phone":"(615) 242-1566","sd":"24","ssbd":"12","lsbd":"School Board Timpanogos 6"},{"vid":"1563196","name":"Davy Wunsch-Prosacco","party":"Dem","address":"730 E 950 S, Apt A504, Orem, UT 84097","precinct":"25OR40","hd":"57","v_score":"2.587603312","decile":"5","lat":40.279656222755975,"lng":-111.67765470753655,"phone":"(139) 983-9283","sd":"24","ssbd":"12","lsbd":"School Board Timpanogos 6"},{"vid":"1566008","name":"Dr. Carlene Harber DDS","party":"","address":"653 S 670 E, Orem, UT 84097","precinct":"25OR40","hd":"57","v_score":"17.32816772","decile":"9","lat":40.28522884012868,"lng":-111.67912732539378,"phone":"(683) 309-5204","sd":"24","ssbd":"12","lsbd":"School Board Timpanogos 6"},{"vid":"0964980df9daf0807cc02312fa6d940d8dc3f8f73f76a9ab25b3326e6bcff8bf","name":"Guss Zieme","party":"","address":"730 E 950 S, Apt B422, Orem, UT 84097","precinct":"25OR40","hd":"57","v_score":"1.46627566","decile":"4","lat":40.279656222755975,"lng":-111.67765470753655,"phone":"(443) 872-8263","sd":"24","ssbd":"12","lsbd":"School Board Timpanogos 6"},{"vid":"6068a377762cab04706d7e1b7a6082852b5d006704beeadde9fbacbe2b89a7a2","name":"Carlie Parisian PhD","party":"","address":"855 S 550 E, Orem, UT 84097","precinct":"25OR40","hd":"57","v_score":"15.7013764","decile":"9","lat":40.281498140618005,"lng":-111.68188316533174,"phone":"(362) 534-1268","sd":"24","ssbd":"12","lsbd":"School Board Timpanogos 6"},{"vid":"1577596","name":"Casey Bashirian","party":"","address":"875 S 700 E, Apt 208, Orem, UT 84097","precinct":"25OR40","hd":"57","v_score":"6.798081861","decile":"8","lat":40.281072578040394,"lng":-111.67814956580085,"phone":"(264) 462-4623","sd":"24","ssbd":"12","lsbd":"School Board Timpanogos 6"},{"vid":"1578069","name":"Anfernee Tremblay","party":"Dem","address":"845 S 750 E, Apt B411, Orem, UT 84097","precinct":"25OR40","hd":"57","v_score":"2.315214949","decile":"5","lat":40.28150531012748,"lng":-111.67685533377579,"phone":"(147) 533-6836","sd":"24","ssbd":"12","lsbd":"School Board Timpanogos 6"},{"vid":"1587300","name":"Ms. Laisha Jakubowski DVM","party":"","address":"730 E 950 S, Apt A422, Orem, UT 84097","precinct":"25OR40","hd":"57","v_score":"5.356821087","decile":"7","lat":40.279656222755975,"lng":-111.67765470753655,"phone":"(619) 681-9552","sd":"24","ssbd":"12","lsbd":"School Board Timpanogos 6"},{"vid":"1601677","name":"Carson Leffler DDS","party":"Rep","address":"634 S 700 E, Orem, UT 84097","precinct":"25OR40","hd":"57","v_score":"1.193887297","decile":"3","lat":40.28486015754401,"lng":-111.67861158248364,"phone":"(936) 272-2135","sd":"24","ssbd":"12","lsbd":"School Board Timpanogos 6"},{"vid":"1601965","name":"Laquan Walter","party":"Dem","address":"875 S 700 E, Apt 502, Orem, UT 84097","precinct":"25OR40","hd":"57","v_score":"0","decile":"1","lat":40.281072578040394,"lng":-111.67814956580085,"phone":"(770) 762-2096","sd":"24","ssbd":"12","lsbd":"School Board Timpanogos 6"},{"vid":"1607899","name":"Samira Beer-Collier","party":"","address":"875 S 700 E, Apt 511, Orem, UT 84097","precinct":"25OR40","hd":"57","v_score":"5.331806201","decile":"7","lat":40.281072578040394,"lng":-111.67814956580085,"phone":"(138) 155-8915","sd":"24","ssbd":"12","lsbd":"School Board Timpanogos 6"},{"vid":"1610319","name":"Zachariah Spencer","party":"","address":"669 S 630 E, Orem, UT 84097","precinct":"25OR40","hd":"57","v_score":"2.587603312","decile":"5","lat":40.284908148770626,"lng":-111.6800427007332,"phone":"(239) 267-3217","sd":"24","ssbd":"12","lsbd":"School Board Timpanogos 6"},{"vid":"1621042","name":"North Braun","party":"Rep","address":"730 E 950 S, Apt C240, Orem, UT 84097","precinct":"25OR40","hd":"57","v_score":"12.6552766","decile":"9","lat":40.279656222755975,"lng":-111.67765470753655,"phone":"(524) 209-5606","sd":"24","ssbd":"12","lsbd":"School Board Timpanogos 6"},{"vid":"d9e0b230b0ad195c4a970b6f3d66a945bb8e88ef06acf17c598e53cffec5c68c","name":"Mrs. Coletta Rippin DVM","party":"Rep","address":"452 S 750 E, Orem, UT 84097","precinct":"25OR40","hd":"57","v_score":"2.315214949","decile":"5","lat":40.28899544138082,"lng":-111.67711563405102,"phone":"(328) 053-6395","sd":"24","ssbd":"12","lsbd":"School Board Timpanogos 6"},{"vid":"1629698","name":"Percy Torphy","party":"","address":"719 S 590 E, Orem, UT 84097","precinct":"25OR40","hd":"57","v_score":"2.660162957","decile":"5","lat":40.283938406108476,"lng":-111.68090135686472,"phone":"(365) 860-2461","sd":"24","ssbd":"12","lsbd":"School Board Timpanogos 6"},{"vid":"1634182","name":"Alferd Jakubowski","party":"","address":"465 S 650 E, Orem, UT 84097","precinct":"25OR40","hd":"57","v_score":"2.315214949","decile":"5","lat":40.28824822338845,"lng":-111.67978344082925,"phone":"(530) 096-1935","sd":"24","ssbd":"12","lsbd":"School Board Timpanogos 6"},{"vid":"1634863","name":"Andrew Raynor","party":"Dem","address":"875 S 700 E, Apt 511, Orem, UT 84097","precinct":"25OR40","hd":"57","v_score":"6.798081861","decile":"8","lat":40.281072578040394,"lng":-111.67814956580085,"phone":"(662) 601-0794","sd":"24","ssbd":"12","lsbd":"School Board Timpanogos 6"},{"vid":"3489b1bf50a282fc4a75db74aea6ab74a9af80f87d972f722d2371602e3a606a","name":"Godfrey Balistreri","party":"","address":"637 S 700 E, Orem, UT 84097","precinct":"25OR40","hd":"57","v_score":"2.315214949","decile":"5","lat":40.284874273096214,"lng":-111.67827072151485,"phone":"(199) 619-0093","sd":"24","ssbd":"12","lsbd":"School Board Timpanogos 6"},{"vid":"1646529","name":"Erasmus Gleichner-Weimann","party":"Dem","address":"730 E 950 S, Apt B233, Orem, UT 84097","precinct":"25OR40","hd":"57","v_score":"2.315214949","decile":"5","lat":40.279656222755975,"lng":-111.67765470753655,"phone":"(916) 862-5393","sd":"24","ssbd":"12","lsbd":"School Board Timpanogos 6"},{"vid":"1648196","name":"Mrs. Rosemary Kris","party":"Rep","address":"875 S 700 E, Apt 502, Orem, UT 84097","precinct":"25OR40","hd":"57","v_score":"0","decile":"1","lat":40.281072578040394,"lng":-111.67814956580085,"phone":"(774) 579-8294","sd":"24","ssbd":"12","lsbd":"School Board Timpanogos 6"},{"vid":"1651537","name":"Ms. Cordella Gislason","party":"","address":"730 E 950 S, Apt C434, Orem, UT 84097","precinct":"25OR40","hd":"57","v_score":"0","decile":"1","lat":40.279656222755975,"lng":-111.67765470753655,"phone":"(192) 824-0309","sd":"24","ssbd":"12","lsbd":"School Board Timpanogos 6"},{"vid":"1651987","name":"Eleanore Olson","party":"","address":"730 E 950 S, Apt D219, Orem, UT 84097","precinct":"25OR40","hd":"57","v_score":"2.315214949","decile":"5","lat":40.279656222755975,"lng":-111.67765470753655,"phone":"(810) 002-1207","sd":"24","ssbd":"12","lsbd":"School Board Timpanogos 6"},{"vid":"1656003","name":"Kylan Weber-Graham","party":"Rep","address":"875 S 700 E, Apt 509, Orem, UT 84097","precinct":"25OR40","hd":"57","v_score":"11.30609121","decile":"9","lat":40.281072578040394,"lng":-111.67814956580085,"phone":"(749) 581-7501","sd":"24","ssbd":"12","lsbd":"School Board Timpanogos 6"},{"vid":"1658570","name":"Dr. Raphael Macejkovic","party":"Dem","address":"730 E 950 S, Apt A303, Orem, UT 84097","precinct":"25OR40","hd":"57","v_score":"6.881235673","decile":"8","lat":40.279656222755975,"lng":-111.67765470753655,"phone":"(915) 953-7140","sd":"24","ssbd":"12","lsbd":"School Board Timpanogos 6"},{"vid":"fd7ac71f1312ccb934fe05a37898225797c5f6ccbd02ae45110747b01764d6e1","name":"Tia Lakin","party":"","address":"730 E 950 S, Apt D313, Orem, UT 84097","precinct":"25OR40","hd":"57","v_score":"1.121327652","decile":"3","lat":40.279656222755975,"lng":-111.67765470753655,"phone":"(668) 946-0068","sd":"24","ssbd":"12","lsbd":"School Board Timpanogos 6"},{"vid":"1670952","name":"Dr. Gabriel Williamson MD","party":"Rep","address":"430 E 850 S, Orem, UT 84097","precinct":"25OR40","hd":"57","v_score":"1.121327652","decile":"3","lat":40.28112616857417,"lng":-111.68490962472053,"phone":"(400) 451-3704","sd":"24","ssbd":"12","lsbd":"School Board Timpanogos 6"},{"vid":"83ae259751fbd819cbb227792a6bea4e626a8148cb96410375003a32907c2708","name":"Mr. Ryland Carroll","party":"","address":"730 E 950 S, Apt D340, Orem, UT 84097","precinct":"25OR40","hd":"57","v_score":"2.744440783","decile":"5","lat":40.279656222755975,"lng":-111.67765470753655,"phone":"(921) 417-8646","sd":"24","ssbd":"12","lsbd":"School Board Timpanogos 6"},{"vid":"1687057","name":"Avis Gibson","party":"Rep","address":"515 S 630 E, Orem, UT 84097","precinct":"25OR40","hd":"57","v_score":"15.2589308","decile":"9","lat":40.287644377557704,"lng":-111.67998441609117,"phone":"(383) 645-9095","sd":"24","ssbd":"12","lsbd":"School Board Timpanogos 6"},{"vid":"1687111","name":"Audrey Jakubowski","party":"Rep","address":"572 S 700 E, Orem, UT 84097","precinct":"25OR40","hd":"57","v_score":"16.59976258","decile":"9","lat":40.28652195133118,"lng":-111.6786889773592,"phone":"(326) 555-5397","sd":"24","ssbd":"12","lsbd":"School Board Timpanogos 6"},{"vid":"1692302","name":"Aspen Russel","party":"Rep","address":"404 E 1010 S, Orem, UT 84097","precinct":"25OR40","hd":"57","v_score":"7.153624035","decile":"8","lat":40.27808273181178,"lng":-111.68541323000053,"phone":"(999) 790-1524","sd":"24","ssbd":"12","lsbd":"School Board Timpanogos 6"},{"vid":"1692324","name":"Ms. Danielle Gottlieb MD","party":"Dem","address":"1013 S 545 E, Orem, UT 84097","precinct":"25OR40","hd":"57","v_score":"2.315214949","decile":"5","lat":40.27861422901182,"lng":-111.68206022649115,"phone":"(789) 028-3651","sd":"24","ssbd":"12","lsbd":"School Board Timpanogos 6"},{"vid":"e15bb406e7b2d23479d52568b3774088b0695e935dfad7c3a4f65051af83a499","name":"Carey Lind","party":"Rep","address":"963 S 450 E, Orem, UT 84097","precinct":"25OR40","hd":"57","v_score":"3.781490609","decile":"6","lat":40.279310030922,"lng":-111.68421589196879,"phone":"(966) 180-4096","sd":"24","ssbd":"12","lsbd":"School Board Timpanogos 6"},{"vid":"1702488","name":"Bode Gutmann","party":"Rep","address":"425 E 900 S, Orem, UT 84097","precinct":"25OR40","hd":"57","v_score":"12.05946382","decile":"9","lat":40.280875506323966,"lng":-111.68520592383607,"phone":"(731) 982-0645","sd":"24","ssbd":"12","lsbd":"School Board Timpanogos 6"},{"vid":"1724661","name":"Gwen Hintz","party":"Dem","address":"646 S 700 E, Orem, UT 84097","precinct":"25OR40","hd":"57","v_score":"1.121327652","decile":"3","lat":40.28469585657951,"lng":-111.67863843264304,"phone":"(533) 297-6913","sd":"24","ssbd":"12","lsbd":"School Board Timpanogos 6"},{"vid":"0a2e4ddec0a7843a3adc16c600591f5c3e405a11920c9e5ad58cb6503d5153f2","name":"Bryana Turner","party":"Rep","address":"465 E 850 S, Orem, UT 84097","precinct":"25OR40","hd":"57","v_score":"38.40546931","decile":"10","lat":40.28149039582937,"lng":-111.68423543694853,"phone":"(294) 159-0570","sd":"24","ssbd":"12","lsbd":"School Board Timpanogos 6"},{"vid":"1765039","name":"Kimball Goyette","party":"","address":"875 S 700 E, Apt 305, Orem, UT 84097","precinct":"25OR40","hd":"57","v_score":"1.193887297","decile":"3","lat":40.281072578040394,"lng":-111.67814956580085,"phone":"(738) 926-3690","sd":"24","ssbd":"12","lsbd":"School Board Timpanogos 6"},{"vid":"1772214","name":"Shaquille Brekke","party":"","address":"875 S 700 E, Apt 521, Orem, UT 84097","precinct":"25OR40","hd":"57","v_score":"0","decile":"1","lat":40.281072578040394,"lng":-111.67814956580085,"phone":"(261) 769-9800","sd":"24","ssbd":"12","lsbd":"School Board Timpanogos 6"},{"vid":"1775428","name":"Ulysses Jenkins-Fadel","party":"Dem","address":"730 E 950 S, Apt D301, Orem, UT 84097","precinct":"25OR40","hd":"57","v_score":"29.15089296","decile":"10","lat":40.279656222755975,"lng":-111.67765470753655,"phone":"(532) 049-2574","sd":"24","ssbd":"12","lsbd":"School Board Timpanogos 6"},{"vid":"1786769","name":"Dr. Edris Weissnat DDS","party":"Dem","address":"730 E 950 S, Orem, UT 84097","precinct":"25OR40","hd":"57","v_score":"0","decile":"1","lat":40.279656222755975,"lng":-111.67765470753655,"phone":"(895) 317-8549","sd":"24","ssbd":"12","lsbd":"School Board Timpanogos 6"},{"vid":"1790466","name":"Ryker Heathcote DVM","party":"Rep","address":"730 E 950 S, Apt B203, Orem, UT 84097","precinct":"25OR40","hd":"57","v_score":"1.121327652","decile":"3","lat":40.279656222755975,"lng":-111.67765470753655,"phone":"(769) 421-8683","sd":"24","ssbd":"12","lsbd":"School Board Timpanogos 6"},{"vid":"1792836","name":"Dr. India Rau","party":"","address":"951 S 450 E, Orem, UT 84097","precinct":"25OR40","hd":"57","v_score":"5.40460374","decile":"7","lat":40.27961187896445,"lng":-111.68422050338049,"phone":"(546) 087-5735","sd":"24","ssbd":"12","lsbd":"School Board Timpanogos 6"},{"vid":"1795215","name":"Mr. Kiyoshi Prohaska","party":"Dem","address":"730 E 950 S, Apt A315, Orem, UT 84097","precinct":"25OR40","hd":"57","v_score":"2.744440783","decile":"5","lat":40.279656222755975,"lng":-111.67765470753655,"phone":"(616) 030-5963","sd":"24","ssbd":"12","lsbd":"School Board Timpanogos 6"},{"vid":"1809465","name":"Mayme Rowe","party":"Dem","address":"925 S 550 E, Orem, UT 84097","precinct":"25OR40","hd":"57","v_score":"0","decile":"1","lat":40.280045908869184,"lng":-111.68184027635903,"phone":"(162) 217-4463","sd":"24","ssbd":"12","lsbd":"School Board Timpanogos 6"},{"vid":"1815361","name":"Leroy McDermott","party":"Dem","address":"474 S 750 E, Orem, UT 84097","precinct":"25OR40","hd":"57","v_score":"2.315214949","decile":"5","lat":40.28838776910476,"lng":-111.67731770865147,"phone":"(275) 421-3333","sd":"24","ssbd":"12","lsbd":"School Board Timpanogos 6"},{"vid":"1817610","name":"Destry Gislason","party":"Dem","address":"611 E 800 S, Orem, UT 84097","precinct":"25OR40","hd":"57","v_score":"0","decile":"1","lat":40.28265575677345,"lng":-111.68056621753078,"phone":"(915) 488-7580","sd":"24","ssbd":"12","lsbd":"School Board Timpanogos 6"},{"vid":"1819662","name":"Zeb Fadel DVM","party":"Rep","address":"730 E 950 S, Apt B403, Orem, UT 84097","precinct":"25OR40","hd":"57","v_score":"1.193887297","decile":"3","lat":40.279656222755975,"lng":-111.67765470753655,"phone":"(149) 629-6955","sd":"24","ssbd":"12","lsbd":"School Board Timpanogos 6"},{"vid":"1823536","name":"Keli Schmeler DDS","party":"Rep","address":"908 S 400 E, Orem, UT 84097","precinct":"25OR40","hd":"57","v_score":"0","decile":"1","lat":40.28043381000422,"lng":-111.68585677191079,"phone":"(584) 842-3157","sd":"24","ssbd":"12","lsbd":"School Board Timpanogos 6"},{"vid":"1826676","name":"Tandy Durgan","party":"Rep","address":"719 S 590 E, Orem, UT 84097","precinct":"25OR40","hd":"57","v_score":"1.193887297","decile":"3","lat":40.283938406108476,"lng":-111.68090135686472,"phone":"(354) 442-4864","sd":"24","ssbd":"12","lsbd":"School Board Timpanogos 6"},{"vid":"970167ed1c60e352b0d015a18ae98775b2e3d48d5e62c266961539b85b8322fb","name":"Ruth Feil DDS","party":"Dem","address":"655 S 700 E, Orem, UT 84097","precinct":"25OR40","hd":"57","v_score":"3.781490609","decile":"6","lat":40.28450883377351,"lng":-111.67829206709791,"phone":"(766) 797-7013","sd":"24","ssbd":"12","lsbd":"School Board Timpanogos 6"},{"vid":"1836235","name":"Caron Moore","party":"Dem","address":"875 S 700 E, Apt 513, Orem, UT 84097","precinct":"25OR40","hd":"57","v_score":"2.587603312","decile":"5","lat":40.281072578040394,"lng":-111.67814956580085,"phone":"(908) 116-9233","sd":"24","ssbd":"12","lsbd":"School Board Timpanogos 6"},{"vid":"1840876","name":"Brynn McGlynn","party":"","address":"730 E 950 S, C227, Orem, UT 84097","precinct":"25OR40","hd":"57","v_score":"1.193887297","decile":"3","lat":40.279656222755975,"lng":-111.67765470753655,"phone":"(742) 667-4981","sd":"24","ssbd":"12","lsbd":"School Board Timpanogos 6"},{"vid":"1849266","name":"Amin Pfannerstill","party":"Rep","address":"963 S 450 E, Orem, UT 84097","precinct":"25OR40","hd":"57","v_score":"1.193887297","decile":"3","lat":40.279310030922,"lng":-111.68421589196879,"phone":"(993) 882-1875","sd":"24","ssbd":"12","lsbd":"School Board Timpanogos 6"},{"vid":"1850153","name":"Vesta Hintz-Strosin","party":"","address":"699 S 590 E, Orem, UT 84097","precinct":"25OR40","hd":"57","v_score":"4.064235245","decile":"6","lat":40.28441588083988,"lng":-111.6809078631827,"phone":"(502) 125-5968","sd":"24","ssbd":"12","lsbd":"School Board Timpanogos 6"},{"vid":"1854677","name":"Dr. Jeffrey Brekke","party":"Rep","address":"890 S 500 E, Orem, UT 84097","precinct":"25OR40","hd":"57","v_score":"6.814370645","decile":"8","lat":40.28091903091378,"lng":-111.68358663003741,"phone":"(348) 195-4552","sd":"24","ssbd":"12","lsbd":"School Board Timpanogos 6"},{"vid":"1859651","name":"Seldon Fay","party":"Dem","address":"1013 S 545 E, Orem, UT 84097","precinct":"25OR40","hd":"57","v_score":"1.193887297","decile":"3","lat":40.27861422901182,"lng":-111.68206022649115,"phone":"(514) 577-0159","sd":"24","ssbd":"12","lsbd":"School Board Timpanogos 6"},{"vid":"1865506","name":"Mr. Emmett Bergstrom","party":"","address":"951 S 450 E, # 2, Orem, UT 84097","precinct":"25OR40","hd":"57","v_score":"7.047822616","decile":"8","lat":40.27961187896445,"lng":-111.68422050338049,"phone":"(809) 556-3895","sd":"24","ssbd":"12","lsbd":"School Board Timpanogos 6"},{"vid":"1868711","name":"Oland Rath","party":"","address":"730 E 950 S, Apt D313, Orem, UT 84097","precinct":"25OR40","hd":"57","v_score":"0","decile":"1","lat":40.279656222755975,"lng":-111.67765470753655,"phone":"(817) 428-8467","sd":"24","ssbd":"12","lsbd":"School Board Timpanogos 6"},{"vid":"1872496","name":"Mr. Kwame Leuschke","party":"Rep","address":"875 S 700 E, Apt 209, Orem, UT 84097","precinct":"25OR40","hd":"57","v_score":"2.587603312","decile":"5","lat":40.281072578040394,"lng":-111.67814956580085,"phone":"(430) 713-9168","sd":"24","ssbd":"12","lsbd":"School Board Timpanogos 6"},{"vid":"1874295","name":"Duane Erdman","party":"Dem","address":"730 E 950 S, Apt D212, Orem, UT 84097","precinct":"25OR40","hd":"57","v_score":"1.623113131","decile":"4","lat":40.279656222755975,"lng":-111.67765470753655,"phone":"(949) 851-0414","sd":"24","ssbd":"12","lsbd":"School Board Timpanogos 6"},{"vid":"1874472","name":"Miss Jannie Mills PhD","party":"","address":"730 E 950 S, Apt B435, Orem, UT 84097","precinct":"25OR40","hd":"57","v_score":"0","decile":"1","lat":40.279656222755975,"lng":-111.67765470753655,"phone":"(155) 471-2321","sd":"24","ssbd":"12","lsbd":"School Board Timpanogos 6"},{"vid":"1877809","name":"Ever Ward","party":"Dem","address":"837 S 500 E, Orem, UT 84097","precinct":"25OR40","hd":"57","v_score":"16.36864091","decile":"9","lat":40.28185483112089,"lng":-111.68315128702714,"phone":"(461) 092-0894","sd":"24","ssbd":"12","lsbd":"School Board Timpanogos 6"},{"vid":"1881192","name":"Mr. Caleb Keebler","party":"Dem","address":"1015 S 500 E, Orem, UT 84097","precinct":"25OR40","hd":"57","v_score":"1.193887297","decile":"3","lat":40.27858779338746,"lng":-111.68308035227939,"phone":"(730) 947-8171","sd":"24","ssbd":"12","lsbd":"School Board Timpanogos 6"},{"vid":"1888057","name":"Thyra Mayert","party":"Rep","address":"730 E 950 S, Apt A317, Orem, UT 84097","precinct":"25OR40","hd":"57","v_score":"1.193887297","decile":"3","lat":40.279656222755975,"lng":-111.67765470753655,"phone":"(647) 964-9367","sd":"24","ssbd":"12","lsbd":"School Board Timpanogos 6"},{"vid":"1888497","name":"Jenna Medhurst","party":"Rep","address":"730 E 950 S, Apt A239, Orem, UT 84097","precinct":"25OR40","hd":"57","v_score":"21.22486546","decile":"10","lat":40.279656222755975,"lng":-111.67765470753655,"phone":"(703) 390-2880","sd":"24","ssbd":"12","lsbd":"School Board Timpanogos 6"},{"vid":"1891306","name":"Maryjane Waelchi","party":"","address":"730 E 950 S, Apt B311, Orem, UT 84097","precinct":"25OR40","hd":"57","v_score":"0","decile":"1","lat":40.279656222755975,"lng":-111.67765470753655,"phone":"(861) 185-3258","sd":"24","ssbd":"12","lsbd":"School Board Timpanogos 6"},{"vid":"56ab2cd065f998392e88eae4c1da8f3ce82ebd55ee35a6e3b125988b80a2fc7a","name":"Dawna Hoppe-Hegmann","party":"","address":"730 E 950 S, Apt D423, Orem, UT 84097","precinct":"25OR40","hd":"57","v_score":"31.13427375","decile":"10","lat":40.279656222755975,"lng":-111.67765470753655,"phone":"(820) 137-7069","sd":"24","ssbd":"12","lsbd":"School Board Timpanogos 6"},{"vid":"1892814","name":"Clarice Hills","party":"","address":"426 E 1070 S, Orem, UT 84097","precinct":"25OR40","hd":"57","v_score":"1.193887297","decile":"3","lat":40.27723159361453,"lng":-111.68513367590108,"phone":"(601) 189-3690","sd":"24","ssbd":"12","lsbd":"School Board Timpanogos 6"},{"vid":"1896956","name":"Emmons Koepp","party":"Dem","address":"511 S 750 E, Orem, UT 84097","precinct":"25OR40","hd":"57","v_score":"15.53259879","decile":"9","lat":40.287642635843035,"lng":-111.67676133178273,"phone":"(324) 528-2787","sd":"24","ssbd":"12","lsbd":"School Board Timpanogos 6"},{"vid":"1896995","name":"Fredric Greenfelder DDS","party":"","address":"452 S 750 E, Orem, UT 84097","precinct":"25OR40","hd":"57","v_score":"2.315214949","decile":"5","lat":40.28899544138082,"lng":-111.67711563405102,"phone":"(322) 285-7060","sd":"24","ssbd":"12","lsbd":"School Board Timpanogos 6"},{"vid":"1898348","name":"Chin Wilderman-Hansen","party":"","address":"845 S 750 E, Apt B421, Orem, UT 84097","precinct":"25OR40","hd":"57","v_score":"0","decile":"1","lat":40.28150531012748,"lng":-111.67685533377579,"phone":"(791) 204-5695","sd":"24","ssbd":"12","lsbd":"School Board Timpanogos 6"},{"vid":"1901279","name":"Dyllan Zieme","party":"","address":"730 E 950 S, Apt C411, Orem, UT 84097","precinct":"25OR40","hd":"57","v_score":"6.753951438","decile":"8","lat":40.279656222755975,"lng":-111.67765470753655,"phone":"(792) 509-9738","sd":"24","ssbd":"12","lsbd":"School Board Timpanogos 6"},{"vid":"1903205","name":"Jan Conroy","party":"Rep","address":"730 E 950 S, Apt D417, Orem, UT 84097","precinct":"25OR40","hd":"57","v_score":"8.347511332","decile":"8","lat":40.279656222755975,"lng":-111.67765470753655,"phone":"(227) 692-0322","sd":"24","ssbd":"12","lsbd":"School Board Timpanogos 6"},{"vid":"1908743","name":"Ramiro Macejkovic","party":"Dem","address":"966 S 500 E, Orem, UT 84097","precinct":"25OR40","hd":"57","v_score":"5.40460374","decile":"7","lat":40.279494626895215,"lng":-111.68367328312674,"phone":"(892) 893-3304","sd":"24","ssbd":"12","lsbd":"School Board Timpanogos 6"},{"vid":"1913902","name":"Richard Graham","party":"","address":"875 S 700 E, Apt 534, Orem, UT 84097","precinct":"25OR40","hd":"57","v_score":"18.45422016","decile":"10","lat":40.281072578040394,"lng":-111.67814956580085,"phone":"(667) 505-3402","sd":"24","ssbd":"12","lsbd":"School Board Timpanogos 6"},{"vid":"1914859","name":"Davonta Towne","party":"Dem","address":"845 S 750 E, Apt B321, Orem, UT 84097","precinct":"25OR40","hd":"57","v_score":"0","decile":"1","lat":40.28150531012748,"lng":-111.67685533377579,"phone":"(780) 250-9125","sd":"24","ssbd":"12","lsbd":"School Board Timpanogos 6"},{"vid":"1916125","name":"Robbie Boyer","party":"Dem","address":"730 E 950 S, Apt D525, Orem, UT 84097","precinct":"25OR40","hd":"57","v_score":"0","decile":"1","lat":40.279656222755975,"lng":-111.67765470753655,"phone":"(540) 117-6294","sd":"24","ssbd":"12","lsbd":"School Board Timpanogos 6"},{"vid":"1933972","name":"Verle Schowalter","party":"Rep","address":"448 S 800 E, Orem, UT 84097","precinct":"25OR40","hd":"57","v_score":"5.356821087","decile":"7","lat":40.289088197990594,"lng":-111.67669086325165,"phone":"(638) 455-0193","sd":"24","ssbd":"12","lsbd":"School Board Timpanogos 6"},{"vid":"5947cee13f2777ecb8c4b618f87db7f07db932b9a8cd4d8d477d13b4a9f4e044","name":"Ms. Brooke Johnston","party":"","address":"972 S 500 E, Orem, UT 84097","precinct":"25OR40","hd":"57","v_score":"1.193887297","decile":"3","lat":40.279275099141856,"lng":-111.68366952565356,"phone":"(234) 949-0909","sd":"24","ssbd":"12","lsbd":"School Board Timpanogos 6"},{"vid":"1946925","name":"Mrs. Girtha Rice PhD","party":"Rep","address":"657 S 630 E, Orem, UT 84097","precinct":"25OR40","hd":"57","v_score":"7.781882349","decile":"8","lat":40.28519337881743,"lng":-111.68002272384817,"phone":"(977) 467-9743","sd":"24","ssbd":"12","lsbd":"School Board Timpanogos 6"},{"vid":"1948804","name":"Lorene Dibbert","party":"Dem","address":"730 E 950 S, Apt C239, Orem, UT 84097","precinct":"25OR40","hd":"57","v_score":"5.530510904","decile":"7","lat":40.279656222755975,"lng":-111.67765470753655,"phone":"(873) 268-5488","sd":"24","ssbd":"12","lsbd":"School Board Timpanogos 6"},{"vid":"1954717","name":"Dr. Durwood Grimes","party":"","address":"951 S 450 E, Orem, UT 84097","precinct":"25OR40","hd":"57","v_score":"8.507303088","decile":"8","lat":40.27961187896445,"lng":-111.68422050338049,"phone":"(305) 592-6890","sd":"24","ssbd":"12","lsbd":"School Board Timpanogos 6"},{"vid":"1960857","name":"Orion Vandervort","party":"Dem","address":"875 S 700 E, Apt 434, Orem, UT 84097","precinct":"25OR40","hd":"57","v_score":"6.814370645","decile":"8","lat":40.281072578040394,"lng":-111.67814956580085,"phone":"(997) 061-5434","sd":"24","ssbd":"12","lsbd":"School Board Timpanogos 6"},{"vid":"a1bac6f50acb8f611f5e68cd6b9134e9b09ba847c6fc216bf2237b2281d2745c","name":"Rosie Swaniawski","party":"Dem","address":"850 S 550 E, Orem, UT 84097","precinct":"25OR40","hd":"57","v_score":"2.315214949","decile":"5","lat":40.281525867989444,"lng":-111.68240692354587,"phone":"(808) 746-9700","sd":"24","ssbd":"12","lsbd":"School Board Timpanogos 6"},{"vid":"1965019","name":"Marti Weissnat","party":"Dem","address":"662 S 630 E, Orem, UT 84097","precinct":"25OR40","hd":"57","v_score":"8.232731454","decile":"8","lat":40.284999536039116,"lng":-111.68048595611444,"phone":"(415) 328-5172","sd":"24","ssbd":"12","lsbd":"School Board Timpanogos 6"},{"vid":"1968271","name":"Haven Aufderhar-Jenkins","party":"","address":"733 E 575 S, Orem, UT 84097","precinct":"25OR40","hd":"57","v_score":"8.091152","decile":"8","lat":40.286462407098675,"lng":-111.6775511521346,"phone":"(954) 331-0891","sd":"24","ssbd":"12","lsbd":"School Board Timpanogos 6"},{"vid":"183e3645673ffbb19f7cd81ad4a1cc9a663f47a64bb2aacc9a5993eb947347bd","name":"Alyvia Turner","party":"Rep","address":"515 S 630 E, Orem, UT 84097","precinct":"25OR40","hd":"57","v_score":"6.814370645","decile":"8","lat":40.287644377557704,"lng":-111.67998441609117,"phone":"(842) 896-7439","sd":"24","ssbd":"12","lsbd":"School Board Timpanogos 6"},{"vid":"1971292","name":"Crystal Effertz","party":"Rep","address":"474 S 750 E, Orem, UT 84097","precinct":"25OR40","hd":"57","v_score":"5.687348376","decile":"7","lat":40.28838776910476,"lng":-111.67731770865147,"phone":"(849) 807-0604","sd":"24","ssbd":"12","lsbd":"School Board Timpanogos 6"},{"vid":"1971659","name":"Corrine Quigley","party":"Dem","address":"730 E 950 S, Apt B431, Orem, UT 84097","precinct":"25OR40","hd":"57","v_score":"2.315214949","decile":"5","lat":40.279656222755975,"lng":-111.67765470753655,"phone":"(145) 930-5474","sd":"24","ssbd":"12","lsbd":"School Board Timpanogos 6"},{"vid":"1972504","name":"Lavona Gibson DVM","party":"","address":"612 E 750 S, Orem, UT 84097","precinct":"25OR40","hd":"57","v_score":"0","decile":"1","lat":40.28309962349737,"lng":-111.68056031038915,"phone":"(121) 868-9298","sd":"24","ssbd":"12","lsbd":"School Board Timpanogos 6"},{"vid":"1988785","name":"Garett McDermott","party":"","address":"545 E University Pkwy, # 200, Orem, UT 84097","precinct":"25OR40","hd":"57","v_score":"3.089388791","decile":"6","lat":40.27418384299123,"lng":-111.68323442017783,"phone":"(476) 518-9588","sd":"24","ssbd":"12","lsbd":"School Board Timpanogos 6"},{"vid":"1993638","name":"Mr. Amasa Schultz III","party":"","address":"730 E 950 S, Apt D441, Orem, UT 84097","precinct":"25OR40","hd":"57","v_score":"2.315214949","decile":"5","lat":40.279656222755975,"lng":-111.67765470753655,"phone":"(702) 640-7487","sd":"24","ssbd":"12","lsbd":"School Board Timpanogos 6"},{"vid":"1994132","name":"Mr. Darrius Skiles IV","party":"","address":"845 S 750 E, Apt B403, Orem, UT 84097","precinct":"25OR40","hd":"57","v_score":"1.193887297","decile":"3","lat":40.28150531012748,"lng":-111.67685533377579,"phone":"(479) 926-3570","sd":"24","ssbd":"12","lsbd":"School Board Timpanogos 6"},{"vid":"1996772","name":"Scott Mosciski","party":"","address":"730 E 950 S, Apt C213, Orem, UT 84097","precinct":"25OR40","hd":"57","v_score":"1.46627566","decile":"4","lat":40.279656222755975,"lng":-111.67765470753655,"phone":"(928) 370-1372","sd":"24","ssbd":"12","lsbd":"School Board Timpanogos 6"},{"vid":"1997528","name":"Kendra Jacobi-Wilderman","party":"","address":"634 S 700 E, Orem, UT 84097","precinct":"25OR40","hd":"57","v_score":"1.121327652","decile":"3","lat":40.28486015754401,"lng":-111.67861158248364,"phone":"(410) 388-3772","sd":"24","ssbd":"12","lsbd":"School Board Timpanogos 6"},{"vid":"e3c62e619298656a24e675f40f7661193e66f28e021ae642d20b139ee814e66b","name":"Tanesha Strosin PhD","party":"Dem","address":"465 S 650 E, Orem, UT 84097","precinct":"25OR40","hd":"57","v_score":"0","decile":"1","lat":40.28824822338845,"lng":-111.67978344082925,"phone":"(445) 907-8895","sd":"24","ssbd":"12","lsbd":"School Board Timpanogos 6"},{"vid":"2003380","name":"Katherine Gaylord-Fisher","party":"Rep","address":"875 S 700 E, Apt 220, Orem, UT 84097","precinct":"25OR40","hd":"57","v_score":"2.587603312","decile":"5","lat":40.281072578040394,"lng":-111.67814956580085,"phone":"(602) 505-9696","sd":"24","ssbd":"12","lsbd":"School Board Timpanogos 6"},{"vid":"2006045","name":"Mrs. Nora Fadel","party":"Rep","address":"435 E 900 S, Orem, UT 84097","precinct":"25OR40","hd":"57","v_score":"0","decile":"1","lat":40.280874047069396,"lng":-111.68501062679948,"phone":"(278) 117-1183","sd":"24","ssbd":"12","lsbd":"School Board Timpanogos 6"},{"vid":"40815c83a36abc9c0994278262448f56da8233841dcf198151be5887a32ec1e3","name":"Candida Mann","party":"Rep","address":"634 S 700 E, Orem, UT 84097","precinct":"25OR40","hd":"57","v_score":"2.315214949","decile":"5","lat":40.28486015754401,"lng":-111.67861158248364,"phone":"(413) 805-9736","sd":"24","ssbd":"12","lsbd":"School Board Timpanogos 6"},{"vid":"2011786","name":"Acey Gottlieb","party":"Dem","address":"400 E 1010 S, Orem, UT 84097","precinct":"25OR40","hd":"57","v_score":"15.97183385","decile":"9","lat":40.27808200014405,"lng":-111.68561032037388,"phone":"(343) 516-2001","sd":"24","ssbd":"12","lsbd":"School Board Timpanogos 6"},{"vid":"697392e928ae017331d519c2fad4a541de3e172a351d5086447843aa3e8a49ec","name":"Mrs. Miley Gleason","party":"","address":"436 E 1010 S, Orem, UT 84097","precinct":"25OR40","hd":"57","v_score":"6.954919332","decile":"8","lat":40.278084932160546,"lng":-111.68482199517248,"phone":"(119) 817-5496","sd":"24","ssbd":"12","lsbd":"School Board Timpanogos 6"},{"vid":"2017531","name":"Rhys Raynor-Howell","party":"Dem","address":"730 E 950 S, Apt D537, Orem, UT 84097","precinct":"25OR40","hd":"57","v_score":"2.315214949","decile":"5","lat":40.279656222755975,"lng":-111.67765470753655,"phone":"(101) 824-3024","sd":"24","ssbd":"12","lsbd":"School Board Timpanogos 6"},{"vid":"2020625","name":"Miss Adrianne Beahan","party":"Dem","address":"730 E 950 S, Apt B413, Orem, UT 84097","precinct":"25OR40","hd":"57","v_score":"2.315214949","decile":"5","lat":40.279656222755975,"lng":-111.67765470753655,"phone":"(817) 111-6447","sd":"24","ssbd":"12","lsbd":"School Board Timpanogos 6"},{"vid":"2026127","name":"Gaetano O'Keefe","party":"Rep","address":"895 S 500 E, Orem, UT 84097","precinct":"25OR40","hd":"57","v_score":"2.315214949","decile":"5","lat":40.28076862082547,"lng":-111.68311162748535,"phone":"(598) 388-4443","sd":"24","ssbd":"12","lsbd":"School Board Timpanogos 6"},{"vid":"d78e0e3604552e7cee4fb5c212ceb6f5f11ce7637489af2c0200254dfd6c4807","name":"Cedric Goyette-Feest","party":"Dem","address":"730 E 950 S, Apt A415, Orem, UT 84097","precinct":"25OR40","hd":"57","v_score":"1.193887297","decile":"3","lat":40.279656222755975,"lng":-111.67765470753655,"phone":"(795) 250-3366","sd":"24","ssbd":"12","lsbd":"School Board Timpanogos 6"},{"vid":"2028738","name":"Mr. Sharif Zulauf Sr.","party":"Rep","address":"875 S 700 E, Apt 233, Orem, UT 84097","precinct":"25OR40","hd":"57","v_score":"0","decile":"1","lat":40.281072578040394,"lng":-111.67814956580085,"phone":"(335) 764-7983","sd":"24","ssbd":"12","lsbd":"School Board Timpanogos 6"},{"vid":"2033391","name":"Mr. Tito Collins","party":"Dem","address":"730 E 950 S, Apt C338, Orem, UT 84097","precinct":"25OR40","hd":"57","v_score":"5.703020665","decile":"7","lat":40.279656222755975,"lng":-111.67765470753655,"phone":"(465) 245-0599","sd":"24","ssbd":"12","lsbd":"School Board Timpanogos 6"},{"vid":"2035614","name":"Gee Flatley","party":"Dem","address":"845 S 750 E, Apt A311, Orem, UT 84097","precinct":"25OR40","hd":"57","v_score":"0","decile":"1","lat":40.28150531012748,"lng":-111.67685533377579,"phone":"(949) 359-2603","sd":"24","ssbd":"12","lsbd":"School Board Timpanogos 6"},{"vid":"2041644","name":"Ms. Margie Torp","party":"Dem","address":"695 S 630 E, Orem, UT 84097","precinct":"25OR40","hd":"57","v_score":"5.620483348","decile":"7","lat":40.284392047806485,"lng":-111.68001172128257,"phone":"(811) 833-5355","sd":"24","ssbd":"12","lsbd":"School Board Timpanogos 6"},{"vid":"2044579","name":"Deven Zulauf","party":"","address":"730 E 950 S, Apt D511, Orem, UT 84097","precinct":"25OR40","hd":"57","v_score":"30.08550586","decile":"10","lat":40.279656222755975,"lng":-111.67765470753655,"phone":"(206) 650-9668","sd":"24","ssbd":"12","lsbd":"School Board Timpanogos 6"},{"vid":"2054233","name":"Carly Kerluke","party":"","address":"970 S 400 E, Orem, UT 84097","precinct":"25OR40","hd":"57","v_score":"2.817000428","decile":"6","lat":40.279143245301356,"lng":-111.68598714405229,"phone":"(302) 057-2302","sd":"24","ssbd":"12","lsbd":"School Board Timpanogos 6"},{"vid":"2056206","name":"Cherry Carroll","party":"Dem","address":"474 S 750 E, Orem, UT 84097","precinct":"25OR40","hd":"57","v_score":"5.335402662","decile":"7","lat":40.28838776910476,"lng":-111.67731770865147,"phone":"(937) 808-4528","sd":"24","ssbd":"12","lsbd":"School Board Timpanogos 6"},{"vid":"2056364","name":"Arron Kassulke","party":"Dem","address":"892 S 550 E, Orem, UT 84097","precinct":"25OR40","hd":"57","v_score":"2.315214949","decile":"5","lat":40.28081683933238,"lng":-111.68235114592548,"phone":"(163) 404-3705","sd":"24","ssbd":"12","lsbd":"School Board Timpanogos 6"},{"vid":"2056898","name":"Mrs. Angelita Marks DVM","party":"Dem","address":"730 E 950 S, Apt C236, Orem, UT 84097","precinct":"25OR40","hd":"57","v_score":"7.425774504","decile":"8","lat":40.279656222755975,"lng":-111.67765470753655,"phone":"(563) 275-4617","sd":"24","ssbd":"12","lsbd":"School Board Timpanogos 6"},{"vid":"a024ba9367c8f06931ac793cc9af6edd23a9dbec8bba0c479cdf96c4f245046b","name":"Andrea Wiza","party":"Rep","address":"1048 S 545 E, Orem, UT 84097","precinct":"25OR40","hd":"57","v_score":"6.812986877","decile":"8","lat":40.277973807946296,"lng":-111.68249641859862,"phone":"(877) 598-3534","sd":"24","ssbd":"12","lsbd":"School Board Timpanogos 6"},{"vid":"2059025","name":"Jolene Stracke","party":"","address":"655 E 600 S, Orem, UT 84097","precinct":"25OR40","hd":"57","v_score":"2.315214949","decile":"5","lat":40.28604980138,"lng":-111.67955785114124,"phone":"(512) 082-4400","sd":"24","ssbd":"12","lsbd":"School Board Timpanogos 6"},{"vid":"2069543","name":"Nevaeh Buckridge","party":"","address":"875 S 700 E, Apt 303, Orem, UT 84097","precinct":"25OR40","hd":"57","v_score":"2.315214949","decile":"5","lat":40.281072578040394,"lng":-111.67814956580085,"phone":"(414) 717-9730","sd":"24","ssbd":"12","lsbd":"School Board Timpanogos 6"},{"vid":"a35fd6dbbc4206fbaf44eb3ab655291da5731b43b4a97180557d0ed33c7dc9ba","name":"Jamari Wisoky","party":"Rep","address":"496 S 750 E, Orem, UT 84097","precinct":"25OR40","hd":"57","v_score":"6.550708384","decile":"7","lat":40.28783843380978,"lng":-111.67720208805687,"phone":"(933) 934-9635","sd":"24","ssbd":"12","lsbd":"School Board Timpanogos 6"},{"vid":"2084497","name":"Mr. Osborne Paucek","party":"Dem","address":"1001 S 400 E, Orem, UT 84097","precinct":"25OR40","hd":"57","v_score":"2.315214949","decile":"5","lat":40.278681668071584,"lng":-111.68529176370052,"phone":"(490) 739-6014","sd":"24","ssbd":"12","lsbd":"School Board Timpanogos 6"},{"vid":"1ab2e3f09fc2176aeac2967986b5250a52e5794640f51b523ed41f9ebd80c6ce","name":"Jaxen Runolfsson","party":"","address":"733 E 575 S, Orem, UT 84097","precinct":"25OR40","hd":"57","v_score":"2.315214949","decile":"5","lat":40.286462407098675,"lng":-111.6775511521346,"phone":"(492) 227-8996","sd":"24","ssbd":"12","lsbd":"School Board Timpanogos 6"},{"vid":"2085340","name":"Eden Koepp DDS","party":"Rep","address":"471 E 900 S, Orem, UT 84097","precinct":"25OR40","hd":"57","v_score":"6.724398202","decile":"8","lat":40.28084628536257,"lng":-111.68398747716185,"phone":"(768) 713-0660","sd":"24","ssbd":"12","lsbd":"School Board Timpanogos 6"},{"vid":"f1b485a354cdde201cd21093342c59e36d495c843ff826fda8820e15eb3e3d52","name":"Eathel Schmeler","party":"Dem","address":"978 S 450 E, Orem, UT 84097","precinct":"25OR40","hd":"57","v_score":"19.32083959","decile":"10","lat":40.27900227645904,"lng":-111.68487412961863,"phone":"(459) 381-2166","sd":"24","ssbd":"12","lsbd":"School Board Timpanogos 6"},{"vid":"2090973","name":"Demonte Collins-Cormier","party":"Dem","address":"730 E 950 S, Apt A335, Orem, UT 84097","precinct":"25OR40","hd":"57","v_score":"3.781490609","decile":"6","lat":40.279656222755975,"lng":-111.67765470753655,"phone":"(224) 185-9381","sd":"24","ssbd":"12","lsbd":"School Board Timpanogos 6"},{"vid":"2091375","name":"Corrie Stamm","party":"","address":"845 S 750 E, Apt B403, Orem, UT 84097","precinct":"25OR40","hd":"57","v_score":"2.315214949","decile":"5","lat":40.28150531012748,"lng":-111.67685533377579,"phone":"(492) 926-2439","sd":"24","ssbd":"12","lsbd":"School Board Timpanogos 6"},{"vid":"395782cd75a22c3447e70e2204964403d37dbae688987496426d7c6b688f4b71","name":"Kristin Wisoky","party":"Rep","address":"875 S 700 E, Apt 419, Orem, UT 84097","precinct":"25OR40","hd":"57","v_score":"1.46627566","decile":"4","lat":40.281072578040394,"lng":-111.67814956580085,"phone":"(119) 682-7110","sd":"24","ssbd":"12","lsbd":"School Board Timpanogos 6"},{"vid":"2093522","name":"Dorian Hoppe","party":"","address":"1015 S 500 E, Orem, UT 84097","precinct":"25OR40","hd":"57","v_score":"4.210716443","decile":"7","lat":40.27858779338746,"lng":-111.68308035227939,"phone":"(494) 071-7340","sd":"24","ssbd":"12","lsbd":"School Board Timpanogos 6"},{"vid":"2100623","name":"Belle Feil","party":"Dem","address":"730 E 950 S, Apt D429, Orem, UT 84097","precinct":"25OR40","hd":"57","v_score":"1.193887297","decile":"3","lat":40.279656222755975,"lng":-111.67765470753655,"phone":"(351) 705-0800","sd":"24","ssbd":"12","lsbd":"School Board Timpanogos 6"},{"vid":"2101638","name":"Talmage Pagac","party":"Rep","address":"730 E 950 S, Apt B438, Orem, UT 84097","precinct":"25OR40","hd":"57","v_score":"4.064235245","decile":"6","lat":40.279656222755975,"lng":-111.67765470753655,"phone":"(961) 129-6467","sd":"24","ssbd":"12","lsbd":"School Board Timpanogos 6"},{"vid":"2110072","name":"June Feest","party":"Dem","address":"845 S 550 E, Orem, UT 84097","precinct":"25OR40","hd":"57","v_score":"6.896907962","decile":"8","lat":40.2816931165435,"lng":-111.68204848632872,"phone":"(477) 370-8991","sd":"24","ssbd":"12","lsbd":"School Board Timpanogos 6"},{"vid":"c0d2d38a10205573369e9b726ad40026444d83fc1730bb66cbba77a77cd3ffc2","name":"Elaina Russel-Predovic","party":"","address":"1000 S 400 E, Orem, UT 84097","precinct":"25OR40","hd":"57","v_score":"0","decile":"1","lat":40.2786614780971,"lng":-111.68585951015908,"phone":"(660) 059-6654","sd":"24","ssbd":"12","lsbd":"School Board Timpanogos 6"},{"vid":"2115212","name":"Kamari Quitzon","party":"Dem","address":"733 E 575 S, Orem, UT 84097","precinct":"25OR40","hd":"57","v_score":"1.193887297","decile":"3","lat":40.286462407098675,"lng":-111.6775511521346,"phone":"(652) 266-0117","sd":"24","ssbd":"12","lsbd":"School Board Timpanogos 6"},{"vid":"09da81c9fa11f44147ff755df70a8e7f787cad1f57a6e50d06b6e9d9cf3a9b65","name":"Elsie Leannon","party":"Rep","address":"875 S 700 E, Apt 433, Orem, UT 84097","precinct":"25OR40","hd":"57","v_score":"5.258122542","decile":"7","lat":40.281072578040394,"lng":-111.67814956580085,"phone":"(493) 303-4120","sd":"24","ssbd":"12","lsbd":"School Board Timpanogos 6"},{"vid":"5d3c07dbe953de02d4195c394b7912f86c8beb349651fa299fc895d147aaf713","name":"Brain Heller","party":"","address":"730 E 950 S, Apt B217, Orem, UT 84097","precinct":"25OR40","hd":"57","v_score":"3.93832808","decile":"6","lat":40.279656222755975,"lng":-111.67765470753655,"phone":"(403) 439-7085","sd":"24","ssbd":"12","lsbd":"School Board Timpanogos 6"},{"vid":"2148226","name":"Primus Vandervort","party":"Dem","address":"1048 S 545 E, Orem, UT 84097","precinct":"25OR40","hd":"57","v_score":"7.934314529","decile":"8","lat":40.277973807946296,"lng":-111.68249641859862,"phone":"(875) 046-9581","sd":"24","ssbd":"12","lsbd":"School Board Timpanogos 6"},{"vid":"2153083","name":"Kristal Pacocha","party":"","address":"890 S 500 E, Orem, UT 84097","precinct":"25OR40","hd":"57","v_score":"6.814370645","decile":"8","lat":40.28091903091378,"lng":-111.68358663003741,"phone":"(963) 748-1102","sd":"24","ssbd":"12","lsbd":"School Board Timpanogos 6"},{"vid":"2154109","name":"Gilberto Kuphal","party":"","address":"725 E 550 S, Orem, UT 84097","precinct":"25OR40","hd":"57","v_score":"9.99652547","decile":"9","lat":40.2872093909064,"lng":-111.67793139214747,"phone":"(796) 791-7030","sd":"24","ssbd":"12","lsbd":"School Board Timpanogos 6"},{"vid":"2165394","name":"Mr. Gottlieb Fritsch","party":"","address":"539 S 590 E, Orem, UT 84097","precinct":"25OR40","hd":"57","v_score":"26.89878031","decile":"10","lat":40.287195483831184,"lng":-111.68094571208022,"phone":"(480) 471-7064","sd":"24","ssbd":"12","lsbd":"School Board Timpanogos 6"},{"vid":"2167738","name":"Dickie King-Ortiz","party":"","address":"612 S 700 E, Orem, UT 84097","precinct":"25OR40","hd":"57","v_score":"3.781490609","decile":"6","lat":40.28556023742934,"lng":-111.67874905147518,"phone":"(960) 469-7020","sd":"24","ssbd":"12","lsbd":"School Board Timpanogos 6"},{"vid":"2169059","name":"Mikalah Kertzmann DDS","party":"","address":"875 S 700 E, Apt 307, Orem, UT 84097","precinct":"25OR40","hd":"57","v_score":"7.226183681","decile":"8","lat":40.281072578040394,"lng":-111.67814956580085,"phone":"(957) 565-9180","sd":"24","ssbd":"12","lsbd":"School Board Timpanogos 6"},{"vid":"2171432","name":"Mr. Parker Towne Sr.","party":"Dem","address":"730 E 950 S, Apt B323, Orem, UT 84097","precinct":"25OR40","hd":"57","v_score":"1.121327652","decile":"3","lat":40.279656222755975,"lng":-111.67765470753655,"phone":"(565) 378-6034","sd":"24","ssbd":"12","lsbd":"School Board Timpanogos 6"},{"vid":"d10257153fe863cb8ef7abe3bd23c315a39680aaac89d42969b945bf4f93f50c","name":"Mrs. Bettylou O'Connell PhD","party":"","address":"395 E 1010 S, Orem, UT 84097","precinct":"25OR40","hd":"57","v_score":"0","decile":"1","lat":40.2784465792444,"lng":-111.6858032643606,"phone":"(395) 186-9043","sd":"24","ssbd":"12","lsbd":"School Board Timpanogos 6"},{"vid":"6773a5d8cc006e1d06af092e3a9845629a63c38bb17b09d041a295515058061a","name":"Jewell Hirthe","party":"","address":"515 S 630 E, Orem, UT 84097","precinct":"25OR40","hd":"57","v_score":"14.13760315","decile":"9","lat":40.287644377557704,"lng":-111.67998441609117,"phone":"(378) 766-3116","sd":"24","ssbd":"12","lsbd":"School Board Timpanogos 6"},{"vid":"2176679","name":"Leesa Gerhold-Lueilwitz","party":"Dem","address":"730 E 950 S, Apt D512, Orem, UT 84097","precinct":"25OR40","hd":"57","v_score":"0","decile":"1","lat":40.279656222755975,"lng":-111.67765470753655,"phone":"(512) 521-4565","sd":"24","ssbd":"12","lsbd":"School Board Timpanogos 6"},{"vid":"cca6c3df8adee9ff2c586b75636c4db75ecf400c7b8731692f97021eddae8116","name":"Dr. Damien Metz III","party":"Dem","address":"730 E 950 S, Apt D443, Orem, UT 84097","precinct":"25OR40","hd":"57","v_score":"1.193887297","decile":"3","lat":40.279656222755975,"lng":-111.67765470753655,"phone":"(586) 907-5931","sd":"24","ssbd":"12","lsbd":"School Board Timpanogos 6"},{"vid":"3ce6cd03bb4f72aeeda99739a4fcfa75b0aaac4c9a5ee705c6454b74448c34a1","name":"Gibson Donnelly","party":"","address":"744 E 400 S, Orem, UT 84097","precinct":"25OR40","hd":"57","v_score":"0","decile":"1","lat":40.28937751190027,"lng":-111.67768390359176,"phone":"(638) 044-5619","sd":"24","ssbd":"12","lsbd":"School Board Timpanogos 6"},{"vid":"32e7e2c287ed61fa0faaaaac4f2938c290c1b643303707367a21f82bfe9dcfef","name":"Leroy Cruickshank-O'Conner","party":"","address":"658 S 700 E, Orem, UT 84097","precinct":"25OR40","hd":"57","v_score":"6.528952915","decile":"7","lat":40.284521354052096,"lng":-111.67855130715068,"phone":"(281) 623-3224","sd":"24","ssbd":"12","lsbd":"School Board Timpanogos 6"},{"vid":"2190401","name":"Marti Lindgren","party":"","address":"730 E 950 S, Apt B222, Orem, UT 84097","precinct":"25OR40","hd":"57","v_score":"1.121327652","decile":"3","lat":40.279656222755975,"lng":-111.67765470753655,"phone":"(997) 739-1659","sd":"24","ssbd":"12","lsbd":"School Board Timpanogos 6"},{"vid":"1d198c0a5d41e14b1d70ed6891739a55d7eb17aa5e8e25f99988ff95b3133f86","name":"Sheryll Baumbach","party":"Rep","address":"730 E 950 S, Apt C322, Orem, UT 84097","precinct":"25OR40","hd":"57","v_score":"5.360235423","decile":"7","lat":40.279656222755975,"lng":-111.67765470753655,"phone":"(494) 924-2359","sd":"24","ssbd":"12","lsbd":"School Board Timpanogos 6"},{"vid":"46db1c7beccc1a4dbc7229a91db6476550ef279018997cd29fe5caf969263420","name":"Donnell Murray","party":"Dem","address":"685 S 670 E, Orem, UT 84097","precinct":"25OR40","hd":"57","v_score":"0","decile":"1","lat":40.28475941530312,"lng":-111.67911068281983,"phone":"(175) 919-9166","sd":"24","ssbd":"12","lsbd":"School Board Timpanogos 6"},{"vid":"00eb027603b7ec0e1772a901702f27cd3af36af0df972fcc63d5adb00c29448f","name":"Sylvan Skiles DVM","party":"","address":"452 S 750 E, Orem, UT 84097","precinct":"25OR40","hd":"57","v_score":"0","decile":"1","lat":40.28899544138082,"lng":-111.67711563405102,"phone":"(466) 349-3789","sd":"24","ssbd":"12","lsbd":"School Board Timpanogos 6"},{"vid":"2200928","name":"Norton Halvorson","party":"","address":"552 S 630 E, Orem, UT 84097","precinct":"25OR40","hd":"57","v_score":"0","decile":"1","lat":40.28695843885298,"lng":-111.6805842892987,"phone":"(371) 208-6444","sd":"24","ssbd":"12","lsbd":"School Board Timpanogos 6"},{"vid":"0b8e7c397c594997527438ff0e3f9b1ca7bff602f6ce6555c169705305aee543","name":"Ova Rogahn","party":"","address":"730 E 950 S, Apt B433, Orem, UT 84097","precinct":"25OR40","hd":"57","v_score":"1.121327652","decile":"3","lat":40.279656222755975,"lng":-111.67765470753655,"phone":"(268) 165-9863","sd":"24","ssbd":"12","lsbd":"School Board Timpanogos 6"},{"vid":"7f594a33a77a17d030f7ce4114d6314682ddb98aa9dc484fea7d5d8299ecdac3","name":"Ricki Sporer","party":"","address":"728 E 600 S, Orem, UT 84097","precinct":"25OR40","hd":"57","v_score":"24.51674595","decile":"10","lat":40.28561184744616,"lng":-111.67761812265846,"phone":"(816) 237-7809","sd":"24","ssbd":"12","lsbd":"School Board Timpanogos 6"},{"vid":"8cb0ec7d1c21b238e5e764f75ea4b878c695252c8bdaadbc4dc951333a44f03d","name":"Dr. Keli Kshlerin","party":"Rep","address":"730 E 950 S, Apt C213, Orem, UT 84097","precinct":"25OR40","hd":"57","v_score":"0","decile":"1","lat":40.279656222755975,"lng":-111.67765470753655,"phone":"(107) 752-4452","sd":"24","ssbd":"12","lsbd":"School Board Timpanogos 6"},{"vid":"2207434","name":"Dr. Jaxson Keebler I","party":"Rep","address":"730 E 950 S, Apt B206, Orem, UT 84097","precinct":"25OR40","hd":"57","v_score":"2.315214949","decile":"5","lat":40.279656222755975,"lng":-111.67765470753655,"phone":"(614) 422-5473","sd":"24","ssbd":"12","lsbd":"School Board Timpanogos 6"},{"vid":"ee338a88eb24e3b63f39c4b4afbee324f1e00e8709df0187bb5a650e5ad6ad6b","name":"Mr. Shea Rodriguez","party":"Rep","address":"551 S 590 E, Orem, UT 84097","precinct":"25OR40","hd":"57","v_score":"0","decile":"1","lat":40.286897611791204,"lng":-111.68093141685544,"phone":"(797) 125-4467","sd":"24","ssbd":"12","lsbd":"School Board Timpanogos 6"},{"vid":"2213842","name":"Mr. Sumner Kunde DDS","party":"","address":"845 S 750 E, Apt A132, Orem, UT 84097","precinct":"25OR40","hd":"57","v_score":"0","decile":"1","lat":40.28150531012748,"lng":-111.67685533377579,"phone":"(931) 533-8589","sd":"24","ssbd":"12","lsbd":"School Board Timpanogos 6"},{"vid":"569cf0e54c3322dfbcb2494aa34f096abc64f6e4306768a1bebace7610534737","name":"Skyler Larkin-Huel","party":"Rep","address":"730 E 950 S, Apt A303, Orem, UT 84097","precinct":"25OR40","hd":"57","v_score":"1.121327652","decile":"3","lat":40.279656222755975,"lng":-111.67765470753655,"phone":"(879) 285-6116","sd":"24","ssbd":"12","lsbd":"School Board Timpanogos 6"},{"vid":"5eba6d213d33e9ea867eea9829f2ea9383dd8adb0fe062847bdd5caf8327802d","name":"Courtney Considine","party":"Dem","address":"730 E 950 S, Apt C215, Orem, UT 84097","precinct":"25OR40","hd":"57","v_score":"1.193887297","decile":"3","lat":40.279656222755975,"lng":-111.67765470753655,"phone":"(325) 396-9488","sd":"24","ssbd":"12","lsbd":"School Board Timpanogos 6"},{"vid":"2216093","name":"Tennessee Wiza MD","party":"Rep","address":"730 E 950 S, Apt C441, Orem, UT 84097","precinct":"25OR40","hd":"57","v_score":"2.315214949","decile":"5","lat":40.279656222755975,"lng":-111.67765470753655,"phone":"(477) 143-6824","sd":"24","ssbd":"12","lsbd":"School Board Timpanogos 6"},{"vid":"2216737","name":"Dr. Dario Larkin PhD","party":"Dem","address":"612 E 750 S, Orem, UT 84097","precinct":"25OR40","hd":"57","v_score":"0","decile":"1","lat":40.28309962349737,"lng":-111.68056031038915,"phone":"(279) 258-4204","sd":"24","ssbd":"12","lsbd":"School Board Timpanogos 6"},{"vid":"b40b54f8a6b54063a1712cd435c6086a363d261228e41bbc145604d55eb57574","name":"Ludwig Gusikowski","party":"","address":"847 S 500 E, Orem, UT 84097","precinct":"25OR40","hd":"57","v_score":"9.968733675","decile":"9","lat":40.281673513499825,"lng":-111.68312710725432,"phone":"(913) 701-0843","sd":"24","ssbd":"12","lsbd":"School Board Timpanogos 6"},{"vid":"2222760","name":"Lou Beer-Wunsch","party":"","address":"1048 S 545 E, Orem, UT 84097","precinct":"25OR40","hd":"57","v_score":"2.315214949","decile":"5","lat":40.277973807946296,"lng":-111.68249641859862,"phone":"(203) 054-0961","sd":"24","ssbd":"12","lsbd":"School Board Timpanogos 6"},{"vid":"2d99dc61edadbcd81a44a0a25f345c6876bcca7a0d9e4a21dab5870cad928937","name":"Roxane Bernhard","party":"Dem","address":"534 E 1000 S, Orem, UT 84097","precinct":"25OR40","hd":"57","v_score":"1.623113131","decile":"5","lat":40.278644036017845,"lng":-111.68243975927733,"phone":"(459) 418-9937","sd":"24","ssbd":"12","lsbd":"School Board Timpanogos 6"},{"vid":"e4fd08c63705960e3af44aa6e685d6638a86d2c396c5c51f5ce11f884f386f8b","name":"Ms. Jayme Jerde DVM","party":"Rep","address":"875 S 700 E, Apt 414, Orem, UT 84097","precinct":"25OR40","hd":"57","v_score":"1.193887297","decile":"3","lat":40.281072578040394,"lng":-111.67814956580085,"phone":"(884) 707-6087","sd":"24","ssbd":"12","lsbd":"School Board Timpanogos 6"},{"vid":"2229326","name":"Lourdes Howe","party":"","address":"1001 S 450 E, Orem, UT 84097","precinct":"25OR40","hd":"57","v_score":"5.191257514","decile":"7","lat":40.27870644058449,"lng":-111.68420667255906,"phone":"(784) 528-1968","sd":"24","ssbd":"12","lsbd":"School Board Timpanogos 6"},{"vid":"72ec7e181cd9f7b84de690ab94815e329895d69e4726057c88d59265cee50fe1","name":"Mr. Ryker Quigley","party":"","address":"875 S 700 E, Apt 414, Orem, UT 84097","precinct":"25OR40","hd":"57","v_score":"5.83359168","decile":"7","lat":40.281072578040394,"lng":-111.67814956580085,"phone":"(287) 741-7150","sd":"24","ssbd":"12","lsbd":"School Board Timpanogos 6"},{"vid":"b26a2015319b532a795ac7c8b5c053b1ff3857bd14bddb3fa856698decb0b657","name":"Lawanda Kassulke","party":"Rep","address":"957 S 550 E, Orem, UT 84097","precinct":"25OR40","hd":"57","v_score":"17.06573246","decile":"9","lat":40.27952600989704,"lng":-111.68172533816984,"phone":"(356) 923-6665","sd":"24","ssbd":"12","lsbd":"School Board Timpanogos 6"},{"vid":"3324c89ea5034fd5a429c5a20b2f386cd8a09bbdd3945d8bd7ee0c9945d47d7b","name":"Dr. Charlie Purdy DVM","party":"","address":"730 E 950 S, Apt B225, Orem, UT 84097","precinct":"25OR40","hd":"57","v_score":"5.331806201","decile":"7","lat":40.279656222755975,"lng":-111.67765470753655,"phone":"(462) 501-8179","sd":"24","ssbd":"12","lsbd":"School Board Timpanogos 6"},{"vid":"55b8668e44be008bfd986d8776001eab8b0719ba93255c16abd672be6228feea","name":"Aleen Johnson-O'Reilly","party":"Dem","address":"836 S 500 E, Orem, UT 84097","precinct":"25OR40","hd":"57","v_score":"1.193887297","decile":"3","lat":40.281851397079535,"lng":-111.68381387360094,"phone":"(785) 728-6515","sd":"24","ssbd":"12","lsbd":"School Board Timpanogos 6"},{"vid":"776ed98eff7278a350b95544ba436199427161388782a1e2c1c0119952b2c84f","name":"Bev Predovic DDS","party":"","address":"557 S 670 E, Orem, UT 84097","precinct":"25OR40","hd":"57","v_score":"10.06908511","decile":"9","lat":40.28664785320943,"lng":-111.67914661294157,"phone":"(548) 372-9554","sd":"24","ssbd":"12","lsbd":"School Board Timpanogos 6"},{"vid":"2236916","name":"Alexia Leffler","party":"","address":"845 S 750 E, Apt B314, Orem, UT 84097","precinct":"25OR40","hd":"57","v_score":"9.612074184","decile":"8","lat":40.28150531012748,"lng":-111.67685533377579,"phone":"(482) 541-0989","sd":"24","ssbd":"12","lsbd":"School Board Timpanogos 6"},{"vid":"148cbe4590b41ac2cf759376b1a9d49ca2652aacb8fd8cc66f8b28b3a793f9bc","name":"Immanuel Bins-Turcotte","party":"Dem","address":"565 E 900 S, Orem, UT 84097","precinct":"25OR40","hd":"57","v_score":"0","decile":"1","lat":40.280843423367486,"lng":-111.68168536584089,"phone":"(741) 432-3509","sd":"24","ssbd":"12","lsbd":"School Board Timpanogos 6"},{"vid":"2f759291aa1109d8cf4de077c3265e07ba1d03c9c03be596fc9240a1429e081b","name":"Francisco Cormier","party":"Dem","address":"471 S 750 E, Orem, UT 84097","precinct":"25OR40","hd":"57","v_score":"6.881235673","decile":"8","lat":40.28840194221665,"lng":-111.67677917469584,"phone":"(687) 681-4708","sd":"24","ssbd":"12","lsbd":"School Board Timpanogos 6"},{"vid":"2250295","name":"Elwood Krajcik-Blanda","party":"Rep","address":"730 E 950 S, Apt A435, Orem, UT 84097","precinct":"25OR40","hd":"57","v_score":"7.583918848","decile":"8","lat":40.279656222755975,"lng":-111.67765470753655,"phone":"(481) 438-0866","sd":"24","ssbd":"12","lsbd":"School Board Timpanogos 6"},{"vid":"afa885a4b0188ef49b29df83c32ce254e34a2e8327f3c7e56cc1e6cddb6519f3","name":"Ebenezer Schimmel-Romaguera","party":"Dem","address":"730 E 950 S, Apt B413, Orem, UT 84097","precinct":"25OR40","hd":"57","v_score":"1.193887297","decile":"3","lat":40.279656222755975,"lng":-111.67765470753655,"phone":"(250) 828-0350","sd":"24","ssbd":"12","lsbd":"School Board Timpanogos 6"},{"vid":"db6558be5c5e5f8bc9177febb43fd76d1022dba957d1e93d27b1b522bd9565ad","name":"Paisley Morar-Veum","party":"Rep","address":"845 S 750 E, Apt B403, Orem, UT 84097","precinct":"25OR40","hd":"57","v_score":"1.121327652","decile":"3","lat":40.28150531012748,"lng":-111.67685533377579,"phone":"(519) 938-4158","sd":"24","ssbd":"12","lsbd":"School Board Timpanogos 6"},{"vid":"90d24317983b2d7f51d8fd4689abbbdd660158d7e6620c5e051b3c3b7fb20fc6","name":"Adam Wiegand","party":"","address":"730 E 950 S, Apt B307, Orem, UT 84097","precinct":"25OR40","hd":"57","v_score":"8.134165107","decile":"8","lat":40.279656222755975,"lng":-111.67765470753655,"phone":"(639) 968-4237","sd":"24","ssbd":"12","lsbd":"School Board Timpanogos 6"},{"vid":"7840ee82e1ecf1bf2d0b809ced61c74e28cc0bc06509d2ed9c4c2b241edbaf15","name":"Mr. Hoy Schmeler I","party":"Rep","address":"730 E 950 S, Apt A429, Orem, UT 84097","precinct":"25OR40","hd":"57","v_score":"2.315214949","decile":"5","lat":40.279656222755975,"lng":-111.67765470753655,"phone":"(193) 029-4137","sd":"24","ssbd":"12","lsbd":"School Board Timpanogos 6"},{"vid":"641c83653ae77558b083fb2901abba8edef85f89d86340403feb137013b5ca02","name":"Shae Kuhic","party":"Rep","address":"730 E 950 S, Apt B240, Orem, UT 84097","precinct":"25OR40","hd":"57","v_score":"2.315214949","decile":"5","lat":40.279656222755975,"lng":-111.67765470753655,"phone":"(520) 478-3910","sd":"24","ssbd":"12","lsbd":"School Board Timpanogos 6"},{"vid":"06be32dbf80e9913e00249cc4076db7fca5aaa0da5535b93dee219e48efbdd41","name":"Jacky Feest Sr.","party":"Rep","address":"730 E 950 S, Apt A240, Orem, UT 84097","precinct":"25OR40","hd":"57","v_score":"1.121327652","decile":"3","lat":40.279656222755975,"lng":-111.67765470753655,"phone":"(700) 886-2288","sd":"24","ssbd":"12","lsbd":"School Board Timpanogos 6"},{"vid":"d4131b10024679ad153c63ab51b3b72dde396fd46aa6ac7740e37f5fa99b9be2","name":"Dr. Exa Mayert DDS","party":"Rep","address":"730 E 950 S, Apt A501, Orem, UT 84097","precinct":"25OR40","hd":"57","v_score":"1.121327652","decile":"3","lat":40.279656222755975,"lng":-111.67765470753655,"phone":"(652) 956-4454","sd":"24","ssbd":"12","lsbd":"School Board Timpanogos 6"},{"vid":"0543afd18eae4bcf2d7493aa76b54d4ec5228ee2c8216c936a13f2571d888a9a","name":"Kassandra Jakubowski","party":"","address":"730 E 950 S, Apt D303, Orem, UT 84097","precinct":"25OR40","hd":"57","v_score":"1.121327652","decile":"3","lat":40.279656222755975,"lng":-111.67765470753655,"phone":"(565) 433-7805","sd":"24","ssbd":"12","lsbd":"School Board Timpanogos 6"},{"vid":"2280075","name":"Alanzo Schuppe Jr.","party":"Rep","address":"845 S 750 E, Apt B321, Orem, UT 84097","precinct":"25OR40","hd":"57","v_score":"1.121327652","decile":"3","lat":40.28150531012748,"lng":-111.67685533377579,"phone":"(569) 065-9201","sd":"24","ssbd":"12","lsbd":"School Board Timpanogos 6"},{"vid":"2283651","name":"Nathanael Crooks-Grimes","party":"Rep","address":"657 E 750 S, Orem, UT 84097","precinct":"25OR40","hd":"57","v_score":"10.01174678","decile":"9","lat":40.28339871971496,"lng":-111.67950313078707,"phone":"(896) 831-1881","sd":"24","ssbd":"12","lsbd":"School Board Timpanogos 6"},{"vid":"2284780","name":"Verl Wisoky","party":"Dem","address":"875 S 700 E, Apt 534, Orem, UT 84097","precinct":"25OR40","hd":"57","v_score":"11.02844566","decile":"9","lat":40.281072578040394,"lng":-111.67814956580085,"phone":"(653) 164-2850","sd":"24","ssbd":"12","lsbd":"School Board Timpanogos 6"},{"vid":"983c91b06411d46267e74c1aa0428c61ea672b745448409ce4738ddf784fb958","name":"Paxton Ruecker Sr.","party":"Dem","address":"565 E 900 S, Orem, UT 84097","precinct":"25OR40","hd":"57","v_score":"0","decile":"1","lat":40.280843423367486,"lng":-111.68168536584089,"phone":"(400) 477-7412","sd":"24","ssbd":"12","lsbd":"School Board Timpanogos 6"},{"vid":"5e1a8932a4b7986339cf5257611b924c6a8a8dc93f34fd6e82e642cf2683ba57","name":"Meaghan Kautzer","party":"","address":"890 S 500 E, Orem, UT 84097","precinct":"25OR40","hd":"57","v_score":"2.817000428","decile":"6","lat":40.28091903091378,"lng":-111.68358663003741,"phone":"(997) 591-4008","sd":"24","ssbd":"12","lsbd":"School Board Timpanogos 6"},{"vid":"2619772f8312f728bcef7706ff537be69bd26e3146889d6aded1c68379e16cca","name":"Dr. Dorothy Zieme DVM","party":"","address":"875 S 700 E, Apt 229, Orem, UT 84097","precinct":"25OR40","hd":"57","v_score":"0","decile":"1","lat":40.281072578040394,"lng":-111.67814956580085,"phone":"(892) 749-2745","sd":"24","ssbd":"12","lsbd":"School Board Timpanogos 6"},{"vid":"1e697d4768a6bcbbdbcc8c3691650f369ae955804668be60a69df9fe0307234d","name":"Gonzalo Schultz","party":"","address":"539 S 590 E, Orem, UT 84097","precinct":"25OR40","hd":"57","v_score":"25.96860089","decile":"10","lat":40.287195483831184,"lng":-111.68094571208022,"phone":"(628) 749-7108","sd":"24","ssbd":"12","lsbd":"School Board Timpanogos 6"},{"vid":"2295268","name":"Trinity Walker-McLaughlin","party":"","address":"730 E 950 S, Apt A540, Orem, UT 84097","precinct":"25OR40","hd":"57","v_score":"1.121327652","decile":"3","lat":40.279656222755975,"lng":-111.67765470753655,"phone":"(856) 626-2386","sd":"24","ssbd":"12","lsbd":"School Board Timpanogos 6"},{"vid":"f30c6f0ad927633b7c72c206eb246e0ba4ba9dd6ae6649d80c549f9989c111b0","name":"Arkie Koelpin","party":"Dem","address":"845 S 750 E, Apt B321, Orem, UT 84097","precinct":"25OR40","hd":"57","v_score":"2.942907593","decile":"6","lat":40.28150531012748,"lng":-111.67685533377579,"phone":"(206) 136-4514","sd":"24","ssbd":"12","lsbd":"School Board Timpanogos 6"},{"vid":"2298022","name":"Reatha Sawayn","party":"","address":"845 S 750 E, Apt A423, Orem, UT 84097","precinct":"25OR40","hd":"57","v_score":"17.17366959","decile":"9","lat":40.28150531012748,"lng":-111.67685533377579,"phone":"(496) 621-5705","sd":"24","ssbd":"12","lsbd":"School Board Timpanogos 6"},{"vid":"2300670","name":"Miss Geralyn Herman","party":"Dem","address":"875 S 700 E, Apt 527, Orem, UT 84097","precinct":"25OR40","hd":"57","v_score":"1.121327652","decile":"3","lat":40.281072578040394,"lng":-111.67814956580085,"phone":"(708) 245-5194","sd":"24","ssbd":"12","lsbd":"School Board Timpanogos 6"},{"vid":"2301120","name":"Ms. Laurie Schinner DVM","party":"","address":"495 E 1010 S, Orem, UT 84097","precinct":"25OR40","hd":"57","v_score":"2.315214949","decile":"5","lat":40.278499254793985,"lng":-111.6837824704749,"phone":"(590) 675-2565","sd":"24","ssbd":"12","lsbd":"School Board Timpanogos 6"},{"vid":"2302678","name":"Elia Morissette","party":"Dem","address":"495 E 1010 S, Orem, UT 84097","precinct":"25OR40","hd":"57","v_score":"2.315214949","decile":"5","lat":40.278499254793985,"lng":-111.6837824704749,"phone":"(944) 213-5164","sd":"24","ssbd":"12","lsbd":"School Board Timpanogos 6"},{"vid":"2310680","name":"Olie DuBuque","party":"","address":"845 S 750 E, Apt B403, Orem, UT 84097","precinct":"25OR40","hd":"57","v_score":"2.315214949","decile":"5","lat":40.28150531012748,"lng":-111.67685533377579,"phone":"(539) 318-7037","sd":"24","ssbd":"12","lsbd":"School Board Timpanogos 6"},{"vid":"2311830","name":"Catina Kozey","party":"Rep","address":"730 E 950 S, Apt A406, Orem, UT 84097","precinct":"25OR40","hd":"57","v_score":"1.121327652","decile":"3","lat":40.279656222755975,"lng":-111.67765470753655,"phone":"(637) 749-4661","sd":"24","ssbd":"12","lsbd":"School Board Timpanogos 6"},{"vid":"2315968","name":"Perri Rutherford","party":"Dem","address":"551 S 590 E, Orem, UT 84097","precinct":"25OR40","hd":"57","v_score":"0","decile":"1","lat":40.286897611791204,"lng":-111.68093141685544,"phone":"(519) 877-3629","sd":"24","ssbd":"12","lsbd":"School Board Timpanogos 6"},{"vid":"2316044","name":"Naomi Prosacco","party":"Dem","address":"729 E 550 S, Orem, UT 84097","precinct":"25OR40","hd":"57","v_score":"2.315214949","decile":"5","lat":40.287217939330695,"lng":-111.6776038948116,"phone":"(971) 059-0463","sd":"24","ssbd":"12","lsbd":"School Board Timpanogos 6"},{"vid":"2318404","name":"Aditya Breitenberg","party":"Rep","address":"730 E 950 S, Apt D241, Orem, UT 84097","precinct":"25OR40","hd":"57","v_score":"1.121327652","decile":"3","lat":40.279656222755975,"lng":-111.67765470753655,"phone":"(116) 274-7034","sd":"24","ssbd":"12","lsbd":"School Board Timpanogos 6"},{"vid":"2320519","name":"Dr. Tristian Hartmann Sr.","party":"Dem","address":"730 E 950 S, Apt A519, Orem, UT 84097","precinct":"25OR40","hd":"57","v_score":"9.472984522","decile":"8","lat":40.279656222755975,"lng":-111.67765470753655,"phone":"(179) 403-4352","sd":"24","ssbd":"12","lsbd":"School Board Timpanogos 6"},{"vid":"2320776","name":"Carmen Fay","party":"Rep","address":"955 S 450 E, Orem, UT 84097","precinct":"25OR40","hd":"57","v_score":"7.650280567","decile":"8","lat":40.27946096840696,"lng":-111.68421819776447,"phone":"(620) 898-1528","sd":"24","ssbd":"12","lsbd":"School Board Timpanogos 6"},{"vid":"2323872","name":"Aric Flatley","party":"Dem","address":"1048 S 545 E, Orem, UT 84097","precinct":"25OR40","hd":"57","v_score":"1.193887297","decile":"3","lat":40.277973807946296,"lng":-111.68249641859862,"phone":"(865) 393-9891","sd":"24","ssbd":"12","lsbd":"School Board Timpanogos 6"},{"vid":"2327489","name":"Refugio Wintheiser","party":"","address":"970 S 400 E, Orem, UT 84097","precinct":"25OR40","hd":"57","v_score":"5.837188142","decile":"7","lat":40.279143245301356,"lng":-111.68598714405229,"phone":"(346) 386-8576","sd":"24","ssbd":"12","lsbd":"School Board Timpanogos 6"},{"vid":"2329091","name":"Hayes Ebert","party":"Rep","address":"730 E 950 S, Apt B222, Orem, UT 84097","precinct":"25OR40","hd":"57","v_score":"1.121327652","decile":"3","lat":40.279656222755975,"lng":-111.67765470753655,"phone":"(190) 653-5111","sd":"24","ssbd":"12","lsbd":"School Board Timpanogos 6"},{"vid":"2332734","name":"Dorian Sauer","party":"","address":"845 S 750 E, Apt A304, Orem, UT 84097","precinct":"25OR40","hd":"57","v_score":"7.090117576","decile":"8","lat":40.28150531012748,"lng":-111.67685533377579,"phone":"(610) 672-7045","sd":"24","ssbd":"12","lsbd":"School Board Timpanogos 6"},{"vid":"2333623","name":"Alonso Kuphal","party":"","address":"730 E 950 S, Orem, UT 84097","precinct":"25OR40","hd":"57","v_score":"1.193887297","decile":"3","lat":40.279656222755975,"lng":-111.67765470753655,"phone":"(494) 827-6417","sd":"24","ssbd":"12","lsbd":"School Board Timpanogos 6"},{"vid":"2338465","name":"Dionicio Schmeler-Schuster","party":"Dem","address":"730 E 950 S, Apt D235, Orem, UT 84097","precinct":"25OR40","hd":"57","v_score":"1.121327652","decile":"3","lat":40.279656222755975,"lng":-111.67765470753655,"phone":"(186) 264-7430","sd":"24","ssbd":"12","lsbd":"School Board Timpanogos 6"},{"vid":"fd779f94ca6261eb254ccd095efee41ba26c7cc0abfa4ac90b6bab2378a3cd59","name":"Jami Mante","party":"","address":"730 E 950 S, Apt A315, Orem, UT 84097","precinct":"25OR40","hd":"57","v_score":"2.315214949","decile":"5","lat":40.279656222755975,"lng":-111.67765470753655,"phone":"(110) 001-7806","sd":"24","ssbd":"12","lsbd":"School Board Timpanogos 6"},{"vid":"2341533","name":"Bonnie Kilback","party":"Dem","address":"730 E 950 S, Orem, UT 84097","precinct":"25OR40","hd":"57","v_score":"1.121327652","decile":"3","lat":40.279656222755975,"lng":-111.67765470753655,"phone":"(866) 980-6532","sd":"24","ssbd":"12","lsbd":"School Board Timpanogos 6"},{"vid":"2341874","name":"Miss Consuelo Pacocha MD","party":"","address":"875 S 700 E, Apt 135, Orem, UT 84097","precinct":"25OR40","hd":"57","v_score":"9.405332525","decile":"8","lat":40.281072578040394,"lng":-111.67814956580085,"phone":"(938) 964-7585","sd":"24","ssbd":"12","lsbd":"School Board Timpanogos 6"},{"vid":"2352405","name":"Plummer Bahringer","party":"","address":"644 E 750 S, Orem, UT 84097","precinct":"25OR40","hd":"57","v_score":"3.93832808","decile":"6","lat":40.283093895037936,"lng":-111.67995108464157,"phone":"(378) 893-3228","sd":"24","ssbd":"12","lsbd":"School Board Timpanogos 6"},{"vid":"2353457","name":"Dagmar Emard-Volkman","party":"Dem","address":"730 E 950 S, Apt C404, Orem, UT 84097","precinct":"25OR40","hd":"57","v_score":"2.315214949","decile":"5","lat":40.279656222755975,"lng":-111.67765470753655,"phone":"(928) 891-2592","sd":"24","ssbd":"12","lsbd":"School Board Timpanogos 6"},{"vid":"2365165","name":"Stevie Abernathy","party":"Rep","address":"875 S 700 E, Apt 405, Orem, UT 84097","precinct":"25OR40","hd":"57","v_score":"2.315214949","decile":"5","lat":40.281072578040394,"lng":-111.67814956580085,"phone":"(874) 920-4505","sd":"24","ssbd":"12","lsbd":"School Board Timpanogos 6"},{"vid":"2365478","name":"Clearence Nader","party":"","address":"730 E 950 S, Apt D221, Orem, UT 84097","precinct":"25OR40","hd":"57","v_score":"1.193887297","decile":"3","lat":40.279656222755975,"lng":-111.67765470753655,"phone":"(997) 690-8699","sd":"24","ssbd":"12","lsbd":"School Board Timpanogos 6"},{"vid":"2367636","name":"Cael Hills","party":"","address":"875 S 700 E, Apt 114, Orem, UT 84097","precinct":"25OR40","hd":"57","v_score":"2.744440783","decile":"5","lat":40.281072578040394,"lng":-111.67814956580085,"phone":"(544) 432-1772","sd":"24","ssbd":"12","lsbd":"School Board Timpanogos 6"},{"vid":"2367804","name":"Elois Upton PhD","party":"","address":"730 E 950 S, Apt A242, Orem, UT 84097","precinct":"25OR40","hd":"57","v_score":"1.121327652","decile":"3","lat":40.279656222755975,"lng":-111.67765470753655,"phone":"(942) 981-1253","sd":"24","ssbd":"12","lsbd":"School Board Timpanogos 6"},{"vid":"2368047","name":"Miss Brynn Mueller DVM","party":"","address":"979 S 450 E, Orem, UT 84097","precinct":"25OR40","hd":"57","v_score":"3.93832808","decile":"6","lat":40.279008180846574,"lng":-111.68421128145545,"phone":"(714) 110-7129","sd":"24","ssbd":"12","lsbd":"School Board Timpanogos 6"},{"vid":"2370974","name":"Belinda Spencer","party":"","address":"946 S 500 E, Orem, UT 84097","precinct":"25OR40","hd":"57","v_score":"2.315214949","decile":"5","lat":40.27996935568654,"lng":-111.68368140713082,"phone":"(511) 297-3621","sd":"24","ssbd":"12","lsbd":"School Board Timpanogos 6"},{"vid":"2376984","name":"Stephen Ritchie","party":"Dem","address":"730 E 950 S, Apt A212, Orem, UT 84097","precinct":"25OR40","hd":"57","v_score":"2.315214949","decile":"5","lat":40.279656222755975,"lng":-111.67765470753655,"phone":"(377) 390-0806","sd":"24","ssbd":"12","lsbd":"School Board Timpanogos 6"},{"vid":"2378528","name":"Tyson Heaney","party":"Dem","address":"875 S 700 E, Apt 214, Orem, UT 84097","precinct":"25OR40","hd":"57","v_score":"2.315214949","decile":"5","lat":40.281072578040394,"lng":-111.67814956580085,"phone":"(157) 201-1403","sd":"24","ssbd":"12","lsbd":"School Board Timpanogos 6"},{"vid":"2379849","name":"Drew Mraz","party":"","address":"447 E 900 S, Orem, UT 84097","precinct":"25OR40","hd":"57","v_score":"1.121327652","decile":"3","lat":40.28087212740038,"lng":-111.68476102735255,"phone":"(224) 389-7364","sd":"24","ssbd":"12","lsbd":"School Board Timpanogos 6"},{"vid":"2385875","name":"Haven Rutherford","party":"Rep","address":"875 S 700 E, Apt 405, Orem, UT 84097","precinct":"25OR40","hd":"57","v_score":"11.02844566","decile":"9","lat":40.281072578040394,"lng":-111.67814956580085,"phone":"(475) 674-2934","sd":"24","ssbd":"12","lsbd":"School Board Timpanogos 6"},{"vid":"2386515","name":"Kylan Feeney","party":"","address":"730 E 950 S, Apt D339, Orem, UT 84097","precinct":"25OR40","hd":"57","v_score":"1.121327652","decile":"3","lat":40.279656222755975,"lng":-111.67765470753655,"phone":"(493) 571-1237","sd":"24","ssbd":"12","lsbd":"School Board Timpanogos 6"},{"vid":"2390432","name":"Reno Abernathy","party":"","address":"1027 S 545 E, Orem, UT 84097","precinct":"25OR40","hd":"57","v_score":"19.11644026","decile":"10","lat":40.27830938035991,"lng":-111.6819734065045,"phone":"(596) 260-9388","sd":"24","ssbd":"12","lsbd":"School Board Timpanogos 6"},{"vid":"2393554","name":"Miss Siobhan Gaylord","party":"Dem","address":"730 E 950 S, Apt B240, Orem, UT 84097","precinct":"25OR40","hd":"57","v_score":"1.121327652","decile":"3","lat":40.279656222755975,"lng":-111.67765470753655,"phone":"(914) 225-3259","sd":"24","ssbd":"12","lsbd":"School Board Timpanogos 6"},{"vid":"2399275","name":"Allyssa Mueller","party":"Rep","address":"730 E 950 S, Apt D315, Orem, UT 84097","precinct":"25OR40","hd":"57","v_score":"0","decile":"1","lat":40.279656222755975,"lng":-111.67765470753655,"phone":"(186) 233-3644","sd":"24","ssbd":"12","lsbd":"School Board Timpanogos 6"},{"vid":"2401783","name":"Arely Harvey PhD","party":"","address":"895 S 500 E, Orem, UT 84097","precinct":"25OR40","hd":"57","v_score":"2.315214949","decile":"5","lat":40.28076862082547,"lng":-111.68311162748535,"phone":"(461) 171-3465","sd":"24","ssbd":"12","lsbd":"School Board Timpanogos 6"},{"vid":"2404273","name":"Jacquline Murphy","party":"","address":"658 S 700 E, Orem, UT 84097","precinct":"25OR40","hd":"57","v_score":"7.650280567","decile":"8","lat":40.284521354052096,"lng":-111.67855130715068,"phone":"(705) 810-1257","sd":"24","ssbd":"12","lsbd":"School Board Timpanogos 6"},{"vid":"2404290","name":"Norita Kertzmann-Reichert","party":"Dem","address":"1054 S 500 E, Orem, UT 84097","precinct":"25OR40","hd":"57","v_score":"1.121327652","decile":"3","lat":40.277772542558004,"lng":-111.68354527127377,"phone":"(435) 582-5241","sd":"24","ssbd":"12","lsbd":"School Board Timpanogos 6"},{"vid":"2408361","name":"Zettie Altenwerth-Schiller","party":"","address":"420 E 850 S, Orem, UT 84097","precinct":"25OR40","hd":"57","v_score":"0","decile":"1","lat":40.28112920882871,"lng":-111.68514849978013,"phone":"(774) 881-5890","sd":"24","ssbd":"12","lsbd":"School Board Timpanogos 6"},{"vid":"2408430","name":"Cheyenne Nolan","party":"","address":"730 E 950 S, Apt B240, Orem, UT 84097","precinct":"25OR40","hd":"57","v_score":"6.979934218","decile":"8","lat":40.279656222755975,"lng":-111.67765470753655,"phone":"(103) 863-0899","sd":"24","ssbd":"12","lsbd":"School Board Timpanogos 6"},{"vid":"2411762","name":"Miss Ernestina Grant DVM","party":"","address":"730 E 950 S, Apt B203, Orem, UT 84097","precinct":"25OR40","hd":"57","v_score":"1.121327652","decile":"3","lat":40.279656222755975,"lng":-111.67765470753655,"phone":"(906) 776-5443","sd":"24","ssbd":"12","lsbd":"School Board Timpanogos 6"},{"vid":"2412626","name":"Mr. Mason Reynolds Sr.","party":"Dem","address":"496 S 750 E, Orem, UT 84097","precinct":"25OR40","hd":"57","v_score":"18.62547835","decile":"10","lat":40.28783843380978,"lng":-111.67720208805687,"phone":"(672) 808-6982","sd":"24","ssbd":"12","lsbd":"School Board Timpanogos 6"},{"vid":"2419219","name":"Verna Langworth-Tromp","party":"Rep","address":"730 E 950 S, Apt B310, Orem, UT 84097","precinct":"25OR40","hd":"57","v_score":"26.7250905","decile":"10","lat":40.279656222755975,"lng":-111.67765470753655,"phone":"(716) 734-0936","sd":"24","ssbd":"12","lsbd":"School Board Timpanogos 6"},{"vid":"2423793","name":"Mr. Ellison Padberg Jr.","party":"Dem","address":"730 E 950 S, Apt A217, Orem, UT 84097","precinct":"25OR40","hd":"57","v_score":"0","decile":"1","lat":40.279656222755975,"lng":-111.67765470753655,"phone":"(931) 434-7153","sd":"24","ssbd":"12","lsbd":"School Board Timpanogos 6"},{"vid":"2424679","name":"Reginald Cole PhD","party":"","address":"845 S 750 E, Apt B325, Orem, UT 84097","precinct":"25OR40","hd":"57","v_score":"1.121327652","decile":"3","lat":40.28150531012748,"lng":-111.67685533377579,"phone":"(693) 653-3976","sd":"24","ssbd":"12","lsbd":"School Board Timpanogos 6"},{"vid":"2427285","name":"Yulisa Schmidt","party":"Dem","address":"730 E 950 S, Apt C439, Orem, UT 84097","precinct":"25OR40","hd":"57","v_score":"3.93832808","decile":"6","lat":40.279656222755975,"lng":-111.67765470753655,"phone":"(783) 945-4986","sd":"24","ssbd":"12","lsbd":"School Board Timpanogos 6"},{"vid":"2431709","name":"Conley Koch","party":"Rep","address":"730 E 950 S, Apt D515, Orem, UT 84097","precinct":"25OR40","hd":"57","v_score":"2.315214949","decile":"5","lat":40.279656222755975,"lng":-111.67765470753655,"phone":"(380) 344-0635","sd":"24","ssbd":"12","lsbd":"School Board Timpanogos 6"},{"vid":"2435652","name":"Karlie Lang","party":"Rep","address":"730 E 950 S, Apt C441, Orem, UT 84097","precinct":"25OR40","hd":"57","v_score":"2.315214949","decile":"5","lat":40.279656222755975,"lng":-111.67765470753655,"phone":"(973) 432-2699","sd":"24","ssbd":"12","lsbd":"School Board Timpanogos 6"},{"vid":"2441716","name":"Laddie Robel MD","party":"Rep","address":"962 S 400 E, Orem, UT 84097","precinct":"25OR40","hd":"57","v_score":"12.42192378","decile":"9","lat":40.27929418274749,"lng":-111.68598945326156,"phone":"(159) 507-0832","sd":"24","ssbd":"12","lsbd":"School Board Timpanogos 6"},{"vid":"2442348","name":"Tristian Ernser-Schmeler","party":"Rep","address":"612 S 700 E, Orem, UT 84097","precinct":"25OR40","hd":"57","v_score":"1.121327652","decile":"3","lat":40.28556023742934,"lng":-111.67874905147518,"phone":"(646) 894-3381","sd":"24","ssbd":"12","lsbd":"School Board Timpanogos 6"},{"vid":"2443493","name":"Madyson O'Conner","party":"","address":"957 S 500 E, Orem, UT 84097","precinct":"25OR40","hd":"57","v_score":"6.814370645","decile":"8","lat":40.27961434170316,"lng":-111.68300428938333,"phone":"(407) 347-0801","sd":"24","ssbd":"12","lsbd":"School Board Timpanogos 6"},{"vid":"2445156","name":"Mrs. Lucinda Stokes","party":"","address":"730 E 950 S, Apt A235, Orem, UT 84097","precinct":"25OR40","hd":"57","v_score":"1.121327652","decile":"3","lat":40.279656222755975,"lng":-111.67765470753655,"phone":"(791) 038-4456","sd":"24","ssbd":"12","lsbd":"School Board Timpanogos 6"},{"vid":"2446458","name":"Dr. Merna Zboncak","party":"Dem","address":"875 S 700 E, Apt 405, Orem, UT 84097","precinct":"25OR40","hd":"57","v_score":"2.315214949","decile":"5","lat":40.281072578040394,"lng":-111.67814956580085,"phone":"(297) 123-9794","sd":"24","ssbd":"12","lsbd":"School Board Timpanogos 6"},{"vid":"2447529","name":"Jarret Kautzer","party":"","address":"730 E 950 S, Apt D204, Orem, UT 84097","precinct":"25OR40","hd":"57","v_score":"6.027167436","decile":"7","lat":40.279656222755975,"lng":-111.67765470753655,"phone":"(240) 731-7001","sd":"24","ssbd":"12","lsbd":"School Board Timpanogos 6"},{"vid":"2447880","name":"Dr. Bishop Kuhn Sr.","party":"Dem","address":"730 E 950 S, Orem, UT 84097","precinct":"25OR40","hd":"57","v_score":"2.315214949","decile":"5","lat":40.279656222755975,"lng":-111.67765470753655,"phone":"(397) 938-1519","sd":"24","ssbd":"12","lsbd":"School Board Timpanogos 6"},{"vid":"2449058","name":"Miss Gianna Volkman DDS","party":"","address":"730 E 950 S, Apt C212, Orem, UT 84097","precinct":"25OR40","hd":"57","v_score":"1.121327652","decile":"3","lat":40.279656222755975,"lng":-111.67765470753655,"phone":"(468) 109-5953","sd":"24","ssbd":"12","lsbd":"School Board Timpanogos 6"},{"vid":"2452210","name":"Damari Bailey","party":"Dem","address":"730 E 950 S, Apt A313, Orem, UT 84097","precinct":"25OR40","hd":"57","v_score":"1.121327652","decile":"3","lat":40.279656222755975,"lng":-111.67765470753655,"phone":"(782) 647-3889","sd":"24","ssbd":"12","lsbd":"School Board Timpanogos 6"},{"vid":"2454404","name":"Cordaro Toy-Schaefer","party":"","address":"730 E 950 S, Apt B429, Orem, UT 84097","precinct":"25OR40","hd":"57","v_score":"2.315214949","decile":"5","lat":40.279656222755975,"lng":-111.67765470753655,"phone":"(112) 021-9818","sd":"24","ssbd":"12","lsbd":"School Board Timpanogos 6"},{"vid":"2457631","name":"Scott Zulauf","party":"","address":"730 E 950 S, Apt B440, Orem, UT 84097","precinct":"25OR40","hd":"57","v_score":"2.315214949","decile":"5","lat":40.279656222755975,"lng":-111.67765470753655,"phone":"(683) 361-1778","sd":"24","ssbd":"12","lsbd":"School Board Timpanogos 6"},{"vid":"2457703","name":"Dr. Jett Kuhic","party":"","address":"436 E 1010 S, Orem, UT 84097","precinct":"25OR40","hd":"57","v_score":"9.380926125","decile":"8","lat":40.278084932160546,"lng":-111.68482199517248,"phone":"(935) 274-6423","sd":"24","ssbd":"12","lsbd":"School Board Timpanogos 6"},{"vid":"2458739","name":"Dr. Latosha Emard","party":"Dem","address":"730 E 950 S, Apt B204, Orem, UT 84097","precinct":"25OR40","hd":"57","v_score":"0","decile":"1","lat":40.279656222755975,"lng":-111.67765470753655,"phone":"(782) 645-8452","sd":"24","ssbd":"12","lsbd":"School Board Timpanogos 6"},{"vid":"2459624","name":"Haruko Wyman","party":"","address":"875 S 700 E, Apt 331, Orem, UT 84097","precinct":"25OR40","hd":"57","v_score":"0","decile":"1","lat":40.281072578040394,"lng":-111.67814956580085,"phone":"(700) 336-8626","sd":"24","ssbd":"12","lsbd":"School Board Timpanogos 6"},{"vid":"2460609","name":"Winford Mayert","party":"","address":"711 S 630 E, Orem, UT 84097","precinct":"25OR40","hd":"57","v_score":"18.35167816","decile":"10","lat":40.28417253266635,"lng":-111.68000874264875,"phone":"(542) 220-4061","sd":"24","ssbd":"12","lsbd":"School Board Timpanogos 6"},{"vid":"2460721","name":"Jule Prosacco MD","party":"","address":"845 S 750 E, Apt B401, Orem, UT 84097","precinct":"25OR40","hd":"57","v_score":"1.193887297","decile":"3","lat":40.28150531012748,"lng":-111.67685533377579,"phone":"(635) 730-4228","sd":"24","ssbd":"12","lsbd":"School Board Timpanogos 6"},{"vid":"2467326","name":"Dr. Deven Bernhard Sr.","party":"","address":"875 S 700 E, Apt 308, Orem, UT 84097","precinct":"25OR40","hd":"57","v_score":"0","decile":"1","lat":40.281072578040394,"lng":-111.67814956580085,"phone":"(486) 366-5980","sd":"24","ssbd":"12","lsbd":"School Board Timpanogos 6"},{"vid":"2476363","name":"Stefani Schuster-Schuppe","party":"Rep","address":"730 E 950 S, Apt A331, Orem, UT 84097","precinct":"25OR40","hd":"57","v_score":"4.069929862","decile":"6","lat":40.279656222755975,"lng":-111.67765470753655,"phone":"(116) 937-0689","sd":"24","ssbd":"12","lsbd":"School Board Timpanogos 6"},{"vid":"2479061","name":"Goldia Schneider","party":"Rep","address":"875 S 700 E, Apt 232, Orem, UT 84097","precinct":"25OR40","hd":"57","v_score":"10.12812725","decile":"9","lat":40.281072578040394,"lng":-111.67814956580085,"phone":"(185) 567-0312","sd":"24","ssbd":"12","lsbd":"School Board Timpanogos 6"},{"vid":"2481810","name":"Mr. Captain Ondricka","party":"","address":"875 S 700 E, Apt 107, Orem, UT 84097","precinct":"25OR40","hd":"57","v_score":"0","decile":"1","lat":40.281072578040394,"lng":-111.67814956580085,"phone":"(632) 611-9831","sd":"24","ssbd":"12","lsbd":"School Board Timpanogos 6"},{"vid":"2483439","name":"Cailyn Bauch","party":"Rep","address":"730 E 950 S, Apt C211, Orem, UT 84097","precinct":"25OR40","hd":"57","v_score":"0","decile":"1","lat":40.279656222755975,"lng":-111.67765470753655,"phone":"(410) 264-5148","sd":"24","ssbd":"12","lsbd":"School Board Timpanogos 6"},{"vid":"2486162","name":"Mr. Amit Koepp","party":"Rep","address":"730 E 950 S, Apt A342, Orem, UT 84097","precinct":"25OR40","hd":"57","v_score":"0","decile":"1","lat":40.279656222755975,"lng":-111.67765470753655,"phone":"(284) 036-6195","sd":"24","ssbd":"12","lsbd":"School Board Timpanogos 6"},{"vid":"2486548","name":"Hjalmer Cummings","party":"Rep","address":"711 S 630 E, Orem, UT 84097","precinct":"25OR40","hd":"57","v_score":"20.87115518","decile":"10","lat":40.28417253266635,"lng":-111.68000874264875,"phone":"(264) 028-0090","sd":"24","ssbd":"12","lsbd":"School Board Timpanogos 6"},{"vid":"2490384","name":"Carlota Mraz","party":"","address":"730 E 950 S, Apt A540, Orem, UT 84097","precinct":"25OR40","hd":"57","v_score":"0","decile":"1","lat":40.279656222755975,"lng":-111.67765470753655,"phone":"(419) 283-8137","sd":"24","ssbd":"12","lsbd":"School Board Timpanogos 6"},{"vid":"2490492","name":"Iona Littel MD","party":"Rep","address":"875 S 700 E, Apt 311, Orem, UT 84097","precinct":"25OR40","hd":"57","v_score":"0","decile":"1","lat":40.281072578040394,"lng":-111.67814956580085,"phone":"(572) 571-1059","sd":"24","ssbd":"12","lsbd":"School Board Timpanogos 6"},{"vid":"2494265","name":"Mr. Jan Collins I","party":"Dem","address":"730 E 950 S, Apt A417, Orem, UT 84097","precinct":"25OR40","hd":"57","v_score":"1.193887297","decile":"3","lat":40.279656222755975,"lng":-111.67765470753655,"phone":"(969) 846-8163","sd":"24","ssbd":"12","lsbd":"School Board Timpanogos 6"},{"vid":"2495256","name":"Mr. Gilmore Emard","party":"Rep","address":"875 S 700 E, Apt 420, Orem, UT 84097","precinct":"25OR40","hd":"57","v_score":"16.23080237","decile":"9","lat":40.281072578040394,"lng":-111.67814956580085,"phone":"(850) 125-4198","sd":"24","ssbd":"12","lsbd":"School Board Timpanogos 6"},{"vid":"2497219","name":"Dr. Talmadge Roberts","party":"","address":"957 S 550 E, Orem, UT 84097","precinct":"25OR40","hd":"57","v_score":"8.444560154","decile":"8","lat":40.27952600989704,"lng":-111.68172533816984,"phone":"(412) 618-1327","sd":"24","ssbd":"12","lsbd":"School Board Timpanogos 6"},{"vid":"2498707","name":"Wanita Hilll PhD","party":"Dem","address":"730 E 950 S, Apt D440, Orem, UT 84097","precinct":"25OR40","hd":"57","v_score":"16.23145079","decile":"9","lat":40.279656222755975,"lng":-111.67765470753655,"phone":"(614) 381-8847","sd":"24","ssbd":"12","lsbd":"School Board Timpanogos 6"},{"vid":"2500585","name":"Barnard Reilly","party":"","address":"730 E 950 S, Apt B338, Orem, UT 84097","precinct":"25OR40","hd":"57","v_score":"1.193887297","decile":"3","lat":40.279656222755975,"lng":-111.67765470753655,"phone":"(894) 151-6647","sd":"24","ssbd":"12","lsbd":"School Board Timpanogos 6"},{"vid":"2501549","name":"Mrs. Eleonora Howe","party":"Rep","address":"730 E 950 S, Apt D443, Orem, UT 84097","precinct":"25OR40","hd":"57","v_score":"1.193887297","decile":"3","lat":40.279656222755975,"lng":-111.67765470753655,"phone":"(465) 040-9560","sd":"24","ssbd":"12","lsbd":"School Board Timpanogos 6"},{"vid":"2503187","name":"Miss Leafy Schowalter","party":"Dem","address":"730 E 950 S, Apt D523, Orem, UT 84097","precinct":"25OR40","hd":"57","v_score":"14.67369938","decile":"9","lat":40.279656222755975,"lng":-111.67765470753655,"phone":"(825) 359-4602","sd":"24","ssbd":"12","lsbd":"School Board Timpanogos 6"},{"vid":"2503313","name":"Kaylin Gaylord","party":"","address":"730 E 950 S, Orem, UT 84097","precinct":"25OR40","hd":"57","v_score":"1.193887297","decile":"3","lat":40.279656222755975,"lng":-111.67765470753655,"phone":"(166) 414-2515","sd":"24","ssbd":"12","lsbd":"School Board Timpanogos 6"},{"vid":"2504188","name":"Glenn Doyle","party":"Dem","address":"909 S 550 E, Orem, UT 84097","precinct":"25OR40","hd":"57","v_score":"21.89181036","decile":"10","lat":40.28036818905697,"lng":-111.68191743140116,"phone":"(220) 609-1825","sd":"24","ssbd":"12","lsbd":"School Board Timpanogos 6"},{"vid":"2506554","name":"Dickie Denesik-Dooley","party":"Rep","address":"908 S 400 E, Orem, UT 84097","precinct":"25OR40","hd":"57","v_score":"0","decile":"1","lat":40.28043381000422,"lng":-111.68585677191079,"phone":"(374) 990-5220","sd":"24","ssbd":"12","lsbd":"School Board Timpanogos 6"},{"vid":"2507012","name":"Wiliam Stracke","party":"Rep","address":"730 E 950 S, Apt A529, Orem, UT 84097","precinct":"25OR40","hd":"57","v_score":"0","decile":"1","lat":40.279656222755975,"lng":-111.67765470753655,"phone":"(316) 047-4000","sd":"24","ssbd":"12","lsbd":"School Board Timpanogos 6"},{"vid":"2507229","name":"Dr. Rand Bernier","party":"Dem","address":"540 S 630 E, Orem, UT 84097","precinct":"25OR40","hd":"57","v_score":"11.32201455","decile":"9","lat":40.28723286689258,"lng":-111.68058802269702,"phone":"(643) 298-5694","sd":"24","ssbd":"12","lsbd":"School Board Timpanogos 6"},{"vid":"2509389","name":"Cristi Friesen","party":"Rep","address":"540 S 630 E, Orem, UT 84097","precinct":"25OR40","hd":"57","v_score":"9.638447451","decile":"8","lat":40.28723286689258,"lng":-111.68058802269702,"phone":"(749) 282-0259","sd":"24","ssbd":"12","lsbd":"School Board Timpanogos 6"},{"vid":"2509734","name":"Ennis Fisher","party":"Dem","address":"908 S 400 E, Orem, UT 84097","precinct":"25OR40","hd":"57","v_score":"4.639704383","decile":"7","lat":40.28043381000422,"lng":-111.68585677191079,"phone":"(220) 897-1201","sd":"24","ssbd":"12","lsbd":"School Board Timpanogos 6"},{"vid":"2510569","name":"China Romaguera","party":"","address":"962 S 450 E, Orem, UT 84097","precinct":"25OR40","hd":"57","v_score":"0","decile":"1","lat":40.27930412450483,"lng":-111.6848787426473,"phone":"(237) 389-1942","sd":"24","ssbd":"12","lsbd":"School Board Timpanogos 6"},{"vid":"2510912","name":"Mrs. Albertha Wyman","party":"Rep","address":"730 E 950 S, Apt A203, Orem, UT 84097","precinct":"25OR40","hd":"57","v_score":"0","decile":"1","lat":40.279656222755975,"lng":-111.67765470753655,"phone":"(143) 616-7266","sd":"24","ssbd":"12","lsbd":"School Board Timpanogos 6"},{"vid":"2514917","name":"Mr. Don Towne V","party":"Rep","address":"773 S 590 E, Orem, UT 84097","precinct":"25OR40","hd":"57","v_score":"1.193887297","decile":"4","lat":40.28288560809203,"lng":-111.68096829706258,"phone":"(443) 583-9266","sd":"24","ssbd":"12","lsbd":"School Board Timpanogos 6"},{"vid":"2515555","name":"Dr. Conard Luettgen V","party":"Rep","address":"728 E 600 S, Orem, UT 84097","precinct":"25OR40","hd":"57","v_score":"14.90715135","decile":"9","lat":40.28561184744616,"lng":-111.67761812265846,"phone":"(628) 592-5100","sd":"24","ssbd":"12","lsbd":"School Board Timpanogos 6"},{"vid":"2518030","name":"Ireland Douglas","party":"Rep","address":"730 E 950 S, B443, Orem, UT 84097","precinct":"25OR40","hd":"57","v_score":"0","decile":"1","lat":40.279656222755975,"lng":-111.67765470753655,"phone":"(491) 506-8936","sd":"24","ssbd":"12","lsbd":"School Board Timpanogos 6"},{"vid":"2521498","name":"Don Wilkinson","party":"","address":"730 E 950 S, Apt A441, Orem, UT 84097","precinct":"25OR40","hd":"57","v_score":"5.83359168","decile":"7","lat":40.279656222755975,"lng":-111.67765470753655,"phone":"(827) 423-7416","sd":"24","ssbd":"12","lsbd":"School Board Timpanogos 6"},{"vid":"2522868","name":"Winifred Wisoky","party":"Dem","address":"730 E 950 S, Apt A331, Orem, UT 84097","precinct":"25OR40","hd":"57","v_score":"4.069929862","decile":"6","lat":40.279656222755975,"lng":-111.67765470753655,"phone":"(854) 095-9667","sd":"24","ssbd":"12","lsbd":"School Board Timpanogos 6"},{"vid":"2523980","name":"Mr. Sherrill Grant","party":"Rep","address":"875 S 700 E, Apt 229, Orem, UT 84097","precinct":"25OR40","hd":"57","v_score":"1.193887297","decile":"4","lat":40.281072578040394,"lng":-111.67814956580085,"phone":"(594) 001-0804","sd":"24","ssbd":"12","lsbd":"School Board Timpanogos 6"},