[{"vid":"1261290","name":"Vena Rempel-Ward","party":"Dem","address":"310 E 1730 S, Orem, UT 84058","precinct":"25OR44","hd":"61","v_score":"8.280646305","decile":"8","lat":40.265215308156996,"lng":-111.68701091553746,"phone":"(683) 228-5301","sd":"23","ssbd":"12","lsbd":"School Board Timpanogos 7"},{"vid":"1293241","name":"Israel Kemmer-Cremin","party":"","address":"1807 S 543 E, Orem, UT 84058","precinct":"25OR44","hd":"61","v_score":"3.781490609","decile":"6","lat":40.26412411557145,"lng":-111.6818642062636,"phone":"(849) 402-4443","sd":"23","ssbd":"12","lsbd":"School Board Timpanogos 7"},{"vid":"1295959","name":"Lashanda Oberbrunner","party":"Rep","address":"1859 S Columbia Ln, Apt 325, Orem, UT 84097","precinct":"25OR44","hd":"61","v_score":"1.193887297","decile":"3","lat":40.2631570754494,"lng":-111.68015092070345,"phone":"(770) 023-8774","sd":"23","ssbd":"12","lsbd":"School Board Timpanogos 7"},{"vid":"a6b17d6607d8cf22f87070208a7baea3c9127eb9d21c801f41e56bfadfd70fb3","name":"Bennie Schuster","party":"Rep","address":"536 E 1864 S, Orem, UT 84058","precinct":"25OR44","hd":"61","v_score":"8.280646305","decile":"8","lat":40.26275149275097,"lng":-111.68227357104827,"phone":"(330) 843-7843","sd":"23","ssbd":"12","lsbd":"School Board Timpanogos 7"},{"vid":"1392725","name":"Henry Pfannerstill","party":"","address":"443 E 1834 S, Orem, UT 84058","precinct":"25OR44","hd":"61","v_score":"27.5620657","decile":"10","lat":40.26380337131387,"lng":-111.6842095726801,"phone":"(213) 322-3719","sd":"23","ssbd":"12","lsbd":"School Board Timpanogos 7"},{"vid":"1393939","name":"Joanna Collier-Cronin","party":"Dem","address":"1947 S Columbia Ln, Apt 3, Orem, UT 84097","precinct":"25OR44","hd":"61","v_score":"1.193887297","decile":"3","lat":40.26184295946831,"lng":-111.67940171160518,"phone":"(836) 473-4662","sd":"23","ssbd":"12","lsbd":"School Board Timpanogos 7"},{"vid":"1396625","name":"Ms. Lidie O'Keefe MD","party":"Rep","address":"522 E 1864 S, Orem, UT 84058","precinct":"25OR44","hd":"61","v_score":"1.193887297","decile":"3","lat":40.26270039298232,"lng":-111.68264595377781,"phone":"(463) 505-3293","sd":"23","ssbd":"12","lsbd":"School Board Timpanogos 7"},{"vid":"6b83ea7bec02f0a05cbb74d071109fd05a1484a4560cfbe11fc99b82b7bb00ba","name":"Bulah Kuphal","party":"Dem","address":"374 E 1780 S, Orem, UT 84058","precinct":"25OR44","hd":"61","v_score":"7.227307695","decile":"8","lat":40.264846775442656,"lng":-111.68611739762686,"phone":"(605) 605-4574","sd":"23","ssbd":"12","lsbd":"School Board Timpanogos 7"},{"vid":"1417174","name":"Amira Schumm MD","party":"Dem","address":"311 E 1800 S, Orem, UT 84058","precinct":"25OR44","hd":"61","v_score":"5.40460374","decile":"7","lat":40.26443367554677,"lng":-111.68794572294567,"phone":"(873) 467-1083","sd":"23","ssbd":"12","lsbd":"School Board Timpanogos 7"},{"vid":"6448328eca1da4a45be22bbc0730ed5ca1d3438dcf8074ceb5c7843100cae4ec","name":"Trayvon Schuster","party":"Rep","address":"1634 S 350 E, Orem, UT 84058","precinct":"25OR44","hd":"61","v_score":"10.37384553","decile":"9","lat":40.26685070582231,"lng":-111.68781417214815,"phone":"(382) 774-2541","sd":"23","ssbd":"12","lsbd":"School Board Timpanogos 7"},{"vid":"1460581","name":"Oral Lehner","party":"Rep","address":"525 E 1864 S, Orem, UT 84058","precinct":"25OR44","hd":"61","v_score":"0","decile":"1","lat":40.26312278336321,"lng":-111.6825376343562,"phone":"(558) 569-7166","sd":"23","ssbd":"12","lsbd":"School Board Timpanogos 7"},{"vid":"1492392","name":"Miss Luella Metz MD","party":"Dem","address":"433 E 1800 S, Orem, UT 84058","precinct":"25OR44","hd":"61","v_score":"16.31217197","decile":"9","lat":40.26448382478162,"lng":-111.68463678124584,"phone":"(562) 867-1541","sd":"23","ssbd":"12","lsbd":"School Board Timpanogos 7"},{"vid":"1497427","name":"Demetrius Kuhic","party":"Rep","address":"483 E 1834 S, Apt B, Orem, UT 84058","precinct":"25OR44","hd":"61","v_score":"0","decile":"1","lat":40.26379608188154,"lng":-111.68327820999365,"phone":"(751) 636-9147","sd":"23","ssbd":"12","lsbd":"School Board Timpanogos 7"},{"vid":"1516666","name":"Clemmie Farrell PhD","party":"","address":"1815 S 543 E, Orem, UT 84058","precinct":"25OR44","hd":"61","v_score":"10.52632313","decile":"9","lat":40.26386896396823,"lng":-111.6817174689342,"phone":"(743) 114-0763","sd":"23","ssbd":"12","lsbd":"School Board Timpanogos 7"},{"vid":"1547282","name":"Lanita Crona","party":"","address":"516 E 1834 S, Orem, UT 84058","precinct":"25OR44","hd":"61","v_score":"41.90479252","decile":"10","lat":40.26338105030383,"lng":-111.68284777072684,"phone":"(320) 135-9556","sd":"23","ssbd":"12","lsbd":"School Board Timpanogos 7"},{"vid":"1565738","name":"Carina Wilderman","party":"Dem","address":"1845 S 543 E, Orem, UT 84058","precinct":"25OR44","hd":"61","v_score":"2.817000428","decile":"6","lat":40.263470931544205,"lng":-111.68171268666296,"phone":"(374) 017-6588","sd":"23","ssbd":"12","lsbd":"School Board Timpanogos 7"},{"vid":"1575405","name":"Alexandro Abbott-Mann","party":"","address":"1775 S 290 E, Orem, UT 84058","precinct":"25OR44","hd":"61","v_score":"2.315214949","decile":"5","lat":40.26481102557362,"lng":-111.68793406240825,"phone":"(967) 841-9237","sd":"23","ssbd":"12","lsbd":"School Board Timpanogos 7"},{"vid":"cd997cb9a058995594450af55993b9dc47a36e0344e6c3a64dc67688b5802914","name":"Cordaro Ernser","party":"Rep","address":"301 E 1730 S, Orem, UT 84058","precinct":"25OR44","hd":"61","v_score":"4.465184987","decile":"7","lat":40.26567194770875,"lng":-111.68819726316546,"phone":"(492) 314-6010","sd":"23","ssbd":"12","lsbd":"School Board Timpanogos 7"},{"vid":"1579557","name":"Gael Smitham IV","party":"","address":"306 E 1600 S, Orem, UT 84058","precinct":"25OR44","hd":"61","v_score":"5.530510904","decile":"7","lat":40.26762760495043,"lng":-111.68765045906282,"phone":"(497) 512-3255","sd":"23","ssbd":"12","lsbd":"School Board Timpanogos 7"},{"vid":"c869c1a9e605844bd189d58b5a952f92dbf0d5a3c1d3048d41e046b0fcd917e8","name":"Abril Rosenbaum","party":"Dem","address":"422 E 1834 S, Orem, UT 84058","precinct":"25OR44","hd":"61","v_score":"5.273794831","decile":"7","lat":40.263395599369986,"lng":-111.68471048442164,"phone":"(675) 902-2586","sd":"23","ssbd":"12","lsbd":"School Board Timpanogos 7"},{"vid":"1630876","name":"Dr. Ashtyn Schmidt","party":"Dem","address":"1815 S 543 E, Orem, UT 84058","precinct":"25OR44","hd":"61","v_score":"11.99259879","decile":"9","lat":40.26386896396823,"lng":-111.6817174689342,"phone":"(663) 388-1203","sd":"23","ssbd":"12","lsbd":"School Board Timpanogos 7"},{"vid":"1642776","name":"Kitty Ernser","party":"","address":"515 E 1864 S, Orem, UT 84058","precinct":"25OR44","hd":"61","v_score":"6.896907962","decile":"8","lat":40.26310623781558,"lng":-111.68280485964299,"phone":"(531) 328-3262","sd":"23","ssbd":"12","lsbd":"School Board Timpanogos 7"},{"vid":"1652596","name":"Ms. Etna White DDS","party":"Rep","address":"461 E 1910 S, Orem, UT 84058","precinct":"25OR44","hd":"61","v_score":"34.91281376","decile":"10","lat":40.26243205266394,"lng":-111.68381263805811,"phone":"(674) 886-2104","sd":"23","ssbd":"12","lsbd":"School Board Timpanogos 7"},{"vid":"1655875","name":"Vincenzo Labadie","party":"","address":"501 E 2000 S, Orem, UT 84058","precinct":"25OR44","hd":"61","v_score":"6.814370645","decile":"8","lat":40.260904732876796,"lng":-111.68299127659347,"phone":"(212) 907-2573","sd":"23","ssbd":"12","lsbd":"School Board Timpanogos 7"},{"vid":"1656115","name":"Sibbie Brakus","party":"Dem","address":"433 E 1834 S, Orem, UT 84058","precinct":"25OR44","hd":"61","v_score":"10.42565066","decile":"9","lat":40.26380519867589,"lng":-111.68444239516086,"phone":"(830) 006-9977","sd":"23","ssbd":"12","lsbd":"School Board Timpanogos 7"},{"vid":"1666268","name":"Dr. Sherri Gottlieb DDS","party":"Dem","address":"479 E 1910 S, Orem, UT 84058","precinct":"25OR44","hd":"61","v_score":"22.28503271","decile":"10","lat":40.26242962915626,"lng":-111.6833469325502,"phone":"(543) 961-1132","sd":"23","ssbd":"12","lsbd":"School Board Timpanogos 7"},{"vid":"1684912","name":"Theodore Rempel","party":"Dem","address":"444 E 1800 S, Orem, UT 84058","precinct":"25OR44","hd":"61","v_score":"8.670935747","decile":"8","lat":40.26407815574444,"lng":-111.68425245447885,"phone":"(119) 147-8463","sd":"23","ssbd":"12","lsbd":"School Board Timpanogos 7"},{"vid":"2802114bce12c8117a4ed1e158dda0197277520a4d69582e28e23145f1346885","name":"Dr. Chet Prosacco Jr.","party":"Dem","address":"1958 S 520 E, Bsmt, Orem, UT 84058","precinct":"25OR44","hd":"61","v_score":"1.46627566","decile":"4","lat":40.261252010742034,"lng":-111.68245617902426,"phone":"(732) 274-8098","sd":"23","ssbd":"12","lsbd":"School Board Timpanogos 7"},{"vid":"1687075","name":"Dr. Kayden Feeney IV","party":"Rep","address":"311 E 1800 S, Orem, UT 84058","precinct":"25OR44","hd":"61","v_score":"5.40460374","decile":"7","lat":40.26443367554677,"lng":-111.68794572294567,"phone":"(969) 706-4358","sd":"23","ssbd":"12","lsbd":"School Board Timpanogos 7"},{"vid":"1692075","name":"Ivie Zemlak","party":"Dem","address":"474 E 1834 S, Orem, UT 84058","precinct":"25OR44","hd":"61","v_score":"0","decile":"1","lat":40.263386512270564,"lng":-111.68354626978973,"phone":"(733) 482-2864","sd":"23","ssbd":"12","lsbd":"School Board Timpanogos 7"},{"vid":"1692478","name":"Laurance Orn","party":"","address":"232 E 1600 S, Orem, UT 84058","precinct":"25OR44","hd":"61","v_score":"17.73138878","decile":"10","lat":40.267621684352264,"lng":-111.6897826019455,"phone":"(620) 132-6856","sd":"23","ssbd":"12","lsbd":"School Board Timpanogos 7"},{"vid":"b03e67202b8c65098c270918a546867b2f706f4f45047fc6691d008a30bae725","name":"Geo Heathcote-Nikolaus","party":"","address":"339 E 1800 S, Orem, UT 84058","precinct":"25OR44","hd":"61","v_score":"0","decile":"1","lat":40.264430938741505,"lng":-111.68705566957787,"phone":"(119) 336-7775","sd":"23","ssbd":"12","lsbd":"School Board Timpanogos 7"},{"vid":"caaf1ecf2df59db44563442a9b186c2f3907b527728791ef4b5940f5dec734e8","name":"Miss Rianna Pacocha DVM","party":"Dem","address":"1806 S 543 E, Orem, UT 84058","precinct":"25OR44","hd":"61","v_score":"5.40460374","decile":"7","lat":40.26412938569073,"lng":-111.68222652403107,"phone":"(342) 638-1436","sd":"23","ssbd":"12","lsbd":"School Board Timpanogos 7"},{"vid":"1743601","name":"Mr. Elliot Satterfield IV","party":"","address":"1756 S 290 E, Orem, UT 84058","precinct":"25OR44","hd":"61","v_score":"2.315214949","decile":"5","lat":40.2651487070907,"lng":-111.6883615154642,"phone":"(498) 406-0756","sd":"23","ssbd":"12","lsbd":"School Board Timpanogos 7"},{"vid":"1758826","name":"Laura Swaniawski DDS","party":"Rep","address":"1795 S 450 E, Orem, UT 84058","precinct":"25OR44","hd":"61","v_score":"18.00198781","decile":"10","lat":40.264480202174525,"lng":-111.68392748191795,"phone":"(372) 367-1119","sd":"23","ssbd":"12","lsbd":"School Board Timpanogos 7"},{"vid":"44e8f196ce1e76d9d9074a0ba322b15ec8d070a40667b02218c071f56e98e13b","name":"Joretta Schuster","party":"Dem","address":"412 E 1600 S, Orem, UT 84058","precinct":"25OR44","hd":"61","v_score":"2.315214949","decile":"5","lat":40.26776657135185,"lng":-111.68527072600817,"phone":"(288) 099-1468","sd":"23","ssbd":"12","lsbd":"School Board Timpanogos 7"},{"vid":"1769088","name":"Mr. Therman Sanford II","party":"Dem","address":"557 E 2000 S, Orem, UT 84058","precinct":"25OR44","hd":"61","v_score":"0","decile":"1","lat":40.26097383964954,"lng":-111.68187216981552,"phone":"(198) 582-2634","sd":"23","ssbd":"12","lsbd":"School Board Timpanogos 7"},{"vid":"1779951","name":"Celina Friesen","party":"","address":"301 E 1730 S, Orem, UT 84058","precinct":"25OR44","hd":"61","v_score":"5.191257514","decile":"7","lat":40.26567194770875,"lng":-111.68819726316546,"phone":"(516) 587-6769","sd":"23","ssbd":"12","lsbd":"School Board Timpanogos 7"},{"vid":"1783566","name":"Kaylah Stoltenberg","party":"","address":"449 E 2000 S, Orem, UT 84058","precinct":"25OR44","hd":"61","v_score":"1.121327652","decile":"3","lat":40.26090277889076,"lng":-111.68423362058024,"phone":"(384) 615-2265","sd":"23","ssbd":"12","lsbd":"School Board Timpanogos 7"},{"vid":"1785056","name":"Rosco Stracke","party":"","address":"1746 S 290 E, Orem, UT 84058","precinct":"25OR44","hd":"61","v_score":"1.121327652","decile":"3","lat":40.26539979659909,"lng":-111.68846389202241,"phone":"(672) 025-4008","sd":"23","ssbd":"12","lsbd":"School Board Timpanogos 7"},{"vid":"1791669","name":"Mariam Lindgren","party":"Rep","address":"1806 S 543 E, Orem, UT 84058","precinct":"25OR44","hd":"61","v_score":"2.315214949","decile":"5","lat":40.26412938569073,"lng":-111.68222652403107,"phone":"(414) 887-7826","sd":"23","ssbd":"12","lsbd":"School Board Timpanogos 7"},{"vid":"1797820","name":"Lilla Wintheiser","party":"Rep","address":"434 E 1600 S, Orem, UT 84058","precinct":"25OR44","hd":"61","v_score":"2.315214949","decile":"5","lat":40.267707307463745,"lng":-111.68471727622419,"phone":"(203) 011-7700","sd":"23","ssbd":"12","lsbd":"School Board Timpanogos 7"},{"vid":"1803821","name":"Mr. Tarik Reichert","party":"","address":"1859 S Columbia Ln, Apt 127, Orem, UT 84097","precinct":"25OR44","hd":"61","v_score":"1.121327652","decile":"3","lat":40.2631570754494,"lng":-111.68015092070345,"phone":"(845) 137-1855","sd":"23","ssbd":"12","lsbd":"School Board Timpanogos 7"},{"vid":"1804344","name":"Dr. Ellery Gaylord","party":"Dem","address":"507 E 1864 S, Orem, UT 84058","precinct":"25OR44","hd":"61","v_score":"9.99652547","decile":"9","lat":40.2631080678013,"lng":-111.68303767906947,"phone":"(113) 169-4156","sd":"23","ssbd":"12","lsbd":"School Board Timpanogos 7"},{"vid":"1819312","name":"Evelyn Erdman-Rohan","party":"","address":"520 E 1910 S, Orem, UT 84058","precinct":"25OR44","hd":"61","v_score":"1.46627566","decile":"4","lat":40.262024274784736,"lng":-111.68271821803218,"phone":"(112) 386-2449","sd":"23","ssbd":"12","lsbd":"School Board Timpanogos 7"},{"vid":"c88a48fb257ef46f1196ffeb1886244f7c56b9c8d08876dcde3402b66be7cdd9","name":"Britt Dach","party":"Dem","address":"520 E 1910 S, Orem, UT 84058","precinct":"25OR44","hd":"61","v_score":"1.46627566","decile":"4","lat":40.262024274784736,"lng":-111.68271821803218,"phone":"(372) 681-8689","sd":"23","ssbd":"12","lsbd":"School Board Timpanogos 7"},{"vid":"1827568","name":"Dayne O'Hara V","party":"","address":"1746 S 290 E, Orem, UT 84058","precinct":"25OR44","hd":"61","v_score":"7.650280567","decile":"8","lat":40.26539979659909,"lng":-111.68846389202241,"phone":"(771) 546-1939","sd":"23","ssbd":"12","lsbd":"School Board Timpanogos 7"},{"vid":"1834061","name":"Candice White","party":"Dem","address":"409 E 1864 S, Orem, UT 84058","precinct":"25OR44","hd":"61","v_score":"3.781490609","decile":"6","lat":40.26305173106929,"lng":-111.68519940767179,"phone":"(715) 804-9789","sd":"23","ssbd":"12","lsbd":"School Board Timpanogos 7"},{"vid":"1837786","name":"Adelyn Schoen-Ullrich","party":"Rep","address":"516 E 1834 S, Orem, UT 84058","precinct":"25OR44","hd":"61","v_score":"36.63608863","decile":"10","lat":40.26338105030383,"lng":-111.68284777072684,"phone":"(976) 951-1792","sd":"23","ssbd":"12","lsbd":"School Board Timpanogos 7"},{"vid":"1838480","name":"Alanna Brown","party":"Dem","address":"508 E 1834 S, Orem, UT 84058","precinct":"25OR44","hd":"61","v_score":"2.587603312","decile":"5","lat":40.2633828538223,"lng":-111.68308059159058,"phone":"(974) 076-4284","sd":"23","ssbd":"12","lsbd":"School Board Timpanogos 7"},{"vid":"1838481","name":"Bobby Carroll","party":"","address":"508 E 1834 S, Orem, UT 84058","precinct":"25OR44","hd":"61","v_score":"2.587603312","decile":"5","lat":40.2633828538223,"lng":-111.68308059159058,"phone":"(954) 659-2646","sd":"23","ssbd":"12","lsbd":"School Board Timpanogos 7"},{"vid":"1844272","name":"Viva Nader DDS","party":"Dem","address":"1775 S 290 E, Orem, UT 84058","precinct":"25OR44","hd":"61","v_score":"2.315214949","decile":"5","lat":40.26481102557362,"lng":-111.68793406240825,"phone":"(711) 827-0617","sd":"23","ssbd":"12","lsbd":"School Board Timpanogos 7"},{"vid":"f0624ca0b8579d963031caa26507810ebd492b96f94d74a27dbd66777e1e4be3","name":"Bronson McKenzie-Dach","party":"","address":"1914 S Columbia Ln, Orem, UT 84097","precinct":"25OR44","hd":"61","v_score":"5.68035067","decile":"7","lat":40.26216512679324,"lng":-111.68147678337999,"phone":"(272) 446-1854","sd":"23","ssbd":"12","lsbd":"School Board Timpanogos 7"},{"vid":"c89172aea52cc5c7ab6d0beaf1c627fa575ffac6097a724ed3d0e168fea2cac4","name":"Mrs. Fairy Haley","party":"","address":"430 E 1864 S, Orem, UT 84058","precinct":"25OR44","hd":"61","v_score":"2.315214949","decile":"5","lat":40.2627676799367,"lng":-111.68463697372984,"phone":"(397) 730-6909","sd":"23","ssbd":"12","lsbd":"School Board Timpanogos 7"},{"vid":"1854519","name":"Norval Wolff","party":"","address":"301 E 1730 S, Orem, UT 84058","precinct":"25OR44","hd":"61","v_score":"8.280646305","decile":"8","lat":40.26567194770875,"lng":-111.68819726316546,"phone":"(839) 066-3697","sd":"23","ssbd":"12","lsbd":"School Board Timpanogos 7"},{"vid":"1857227","name":"Penelope Veum","party":"Dem","address":"1859 S Columbia Ln, Apt 223, Orem, UT 84097","precinct":"25OR44","hd":"61","v_score":"1.193887297","decile":"3","lat":40.2631570754494,"lng":-111.68015092070345,"phone":"(683) 762-2286","sd":"23","ssbd":"12","lsbd":"School Board Timpanogos 7"},{"vid":"1876444","name":"Rico Orn","party":"","address":"1947 S Columbia Ln, Apt 13, Orem, UT 84097","precinct":"25OR44","hd":"61","v_score":"3.781490609","decile":"6","lat":40.26184295946831,"lng":-111.67940171160518,"phone":"(276) 644-7326","sd":"23","ssbd":"12","lsbd":"School Board Timpanogos 7"},{"vid":"1886939","name":"Mr. Efrem Kozey","party":"","address":"475 E 1960 S, Orem, UT 84058","precinct":"25OR44","hd":"61","v_score":"5.83359168","decile":"7","lat":40.26173645002402,"lng":-111.68371257382029,"phone":"(739) 838-3224","sd":"23","ssbd":"12","lsbd":"School Board Timpanogos 7"},{"vid":"1916090","name":"Kason Kiehn","party":"Rep","address":"1620 S 490 E, Orem, UT 84058","precinct":"25OR44","hd":"61","v_score":"1.46627566","decile":"4","lat":40.26750622559305,"lng":-111.68365364541563,"phone":"(845) 466-5145","sd":"23","ssbd":"12","lsbd":"School Board Timpanogos 7"},{"vid":"1928250","name":"Louise Pacocha","party":"Dem","address":"515 E 1864 S, Orem, UT 84058","precinct":"25OR44","hd":"61","v_score":"3.93832808","decile":"6","lat":40.26310623781558,"lng":-111.68280485964299,"phone":"(407) 059-9387","sd":"23","ssbd":"12","lsbd":"School Board Timpanogos 7"},{"vid":"36f0c42e5fadc4f5fee6ab5ff4b0ab9e8bf94bc4602ad6dd2f3eec7f19d0b1c0","name":"Nim Kris","party":"","address":"1764 S 450 E, Orem, UT 84058","precinct":"25OR44","hd":"61","v_score":"5.273794831","decile":"7","lat":40.26498246113948,"lng":-111.6844712303628,"phone":"(760) 226-2344","sd":"23","ssbd":"12","lsbd":"School Board Timpanogos 7"},{"vid":"1938978","name":"Dr. Beatrice Zulauf","party":"Rep","address":"419 E 1800 S, Orem, UT 84058","precinct":"25OR44","hd":"61","v_score":"6.740427232","decile":"8","lat":40.26448532570126,"lng":-111.68493767751983,"phone":"(238) 242-5496","sd":"23","ssbd":"12","lsbd":"School Board Timpanogos 7"},{"vid":"1945355","name":"Bethel Gislason-Anderson","party":"Rep","address":"512 E 1864 S, Orem, UT 84058","precinct":"25OR44","hd":"61","v_score":"2.744440783","decile":"5","lat":40.26270162042918,"lng":-111.68287877068897,"phone":"(737) 256-7453","sd":"23","ssbd":"12","lsbd":"School Board Timpanogos 7"},{"vid":"1969136","name":"Kent Simonis","party":"Dem","address":"422 E 1834 S, Orem, UT 84058","precinct":"25OR44","hd":"61","v_score":"2.315214949","decile":"5","lat":40.263395599369986,"lng":-111.68471048442164,"phone":"(601) 717-8895","sd":"23","ssbd":"12","lsbd":"School Board Timpanogos 7"},{"vid":"1969778","name":"Nicolle Hickle PhD","party":"","address":"1914 S Columbia Ln, Orem, UT 84097","precinct":"25OR44","hd":"61","v_score":"7.316774359","decile":"8","lat":40.26216512679324,"lng":-111.68147678337999,"phone":"(543) 053-6986","sd":"23","ssbd":"12","lsbd":"School Board Timpanogos 7"},{"vid":"1970033","name":"Mrs. Ashly Stiedemann MD","party":"Dem","address":"1795 S 450 E, Orem, UT 84058","precinct":"25OR44","hd":"61","v_score":"19.49509824","decile":"10","lat":40.264480202174525,"lng":-111.68392748191795,"phone":"(166) 407-5335","sd":"23","ssbd":"12","lsbd":"School Board Timpanogos 7"},{"vid":"1972878","name":"Ollie Walker","party":"Dem","address":"216 E 1600 S, Orem, UT 84058","precinct":"25OR44","hd":"61","v_score":"3.93832808","decile":"6","lat":40.267793572391795,"lng":-111.6901403298753,"phone":"(645) 727-9514","sd":"23","ssbd":"12","lsbd":"School Board Timpanogos 7"},{"vid":"1973998","name":"Dr. Arlen Lehner II","party":"Dem","address":"336 E 1730 S, Orem, UT 84058","precinct":"25OR44","hd":"61","v_score":"3.93832808","decile":"6","lat":40.26548035439132,"lng":-111.68702759338858,"phone":"(667) 352-1270","sd":"23","ssbd":"12","lsbd":"School Board Timpanogos 7"},{"vid":"1987414","name":"Sheryll Bayer","party":"","address":"449 E 2000 S, Orem, UT 84058","precinct":"25OR44","hd":"61","v_score":"1.121327652","decile":"3","lat":40.26090277889076,"lng":-111.68423362058024,"phone":"(555) 855-1708","sd":"23","ssbd":"12","lsbd":"School Board Timpanogos 7"},{"vid":"2013259","name":"Houston Mohr","party":"","address":"1902 S Columbia Ln, Orem, UT 84097","precinct":"25OR44","hd":"61","v_score":"2.660162957","decile":"5","lat":40.262268209712445,"lng":-111.6809130381375,"phone":"(301) 354-4751","sd":"23","ssbd":"12","lsbd":"School Board Timpanogos 7"},{"vid":"2049994","name":"Minervia Kub","party":"","address":"1795 S 340 E, Orem, UT 84058","precinct":"25OR44","hd":"61","v_score":"22.87503683","decile":"10","lat":40.26442762211992,"lng":-111.68674244849751,"phone":"(755) 445-9503","sd":"23","ssbd":"12","lsbd":"School Board Timpanogos 7"},{"vid":"1eed129651c82086977a384470ea8ec4086161f8a015dbb5906d62379cd93461","name":"Beverlee Schuppe","party":"Dem","address":"1857 S 543 E, Orem, UT 84058","precinct":"25OR44","hd":"61","v_score":"0","decile":"1","lat":40.26327191534511,"lng":-111.68171026049303,"phone":"(248) 331-4061","sd":"23","ssbd":"12","lsbd":"School Board Timpanogos 7"},{"vid":"255d10f75fd06b56f286d39aa4fa995d661b81c5f4194f1206587105fd88aa13","name":"Lloyd Mann","party":"Rep","address":"1746 S 290 E, Orem, UT 84058","precinct":"25OR44","hd":"61","v_score":"0","decile":"1","lat":40.26539979659909,"lng":-111.68846389202241,"phone":"(460) 995-7492","sd":"23","ssbd":"12","lsbd":"School Board Timpanogos 7"},{"vid":"2094846","name":"Drew Oberbrunner","party":"Dem","address":"1845 S 543 E, Orem, UT 84058","precinct":"25OR44","hd":"61","v_score":"3.93832808","decile":"6","lat":40.263470931544205,"lng":-111.68171268666296,"phone":"(704) 492-5070","sd":"23","ssbd":"12","lsbd":"School Board Timpanogos 7"},{"vid":"01ef218def2f0a113420a93b6a84e5213eff9e1132f9a644e52f88e15b3344e2","name":"Raul Marquardt-Mayert","party":"Dem","address":"1718 S 500 E, Orem, UT 84058","precinct":"25OR44","hd":"61","v_score":"1.193887297","decile":"3","lat":40.265594695161596,"lng":-111.6831021489798,"phone":"(578) 520-5286","sd":"23","ssbd":"12","lsbd":"School Board Timpanogos 7"},{"vid":"2099027","name":"Mrs. Mindy Champlin","party":"","address":"1947 S Columbia Ln, Apt 9, Orem, UT 84097","precinct":"25OR44","hd":"61","v_score":"8.347511332","decile":"8","lat":40.26184295946831,"lng":-111.67940171160518,"phone":"(119) 566-6510","sd":"23","ssbd":"12","lsbd":"School Board Timpanogos 7"},{"vid":"ecd1d89dc3582d84eca8595a71b5dce99f0436b49dda0d4bee70cba59ea571cd","name":"Michaela Hodkiewicz","party":"Rep","address":"444 E 1960 S, Orem, UT 84058","precinct":"25OR44","hd":"61","v_score":"28.96057337","decile":"10","lat":40.261294389359094,"lng":-111.6841155311073,"phone":"(868) 494-8322","sd":"23","ssbd":"12","lsbd":"School Board Timpanogos 7"},{"vid":"27ee56ac29ab6cbcaed02b0328bfd3e78386638a1b60dc311da500b1566911c5","name":"Enid Hills","party":"","address":"1660 S 350 E, Orem, UT 84058","precinct":"25OR44","hd":"61","v_score":"11.04986408","decile":"9","lat":40.26656186263778,"lng":-111.68757908843264,"phone":"(990) 062-2806","sd":"23","ssbd":"12","lsbd":"School Board Timpanogos 7"},{"vid":"2136025","name":"Mrs. Cassie Jaskolski","party":"Rep","address":"1947 S Columbia Ln, Apt 8, Orem, UT 84097","precinct":"25OR44","hd":"61","v_score":"0","decile":"1","lat":40.26184295946831,"lng":-111.67940171160518,"phone":"(614) 227-8606","sd":"23","ssbd":"12","lsbd":"School Board Timpanogos 7"},{"vid":"2144845","name":"Hamp Pagac","party":"Dem","address":"1796 S 450 E, Orem, UT 84058","precinct":"25OR44","hd":"61","v_score":"13.11728501","decile":"9","lat":40.264472884847656,"lng":-111.68442909236913,"phone":"(121) 191-0112","sd":"23","ssbd":"12","lsbd":"School Board Timpanogos 7"},{"vid":"2146742","name":"Tania Koss","party":"Rep","address":"475 E 1864 S, Orem, UT 84058","precinct":"25OR44","hd":"61","v_score":"20.80385273","decile":"10","lat":40.26311172763544,"lng":-111.68350335529229,"phone":"(635) 547-2369","sd":"23","ssbd":"12","lsbd":"School Board Timpanogos 7"},{"vid":"5f5a2bf1b7a5f7da042cb9df1e9bdff7bf37c954a1fbf4560534627119228fc9","name":"Mr. Eliseo Heaney IV","party":"","address":"1947 S Columbia Ln, Apt 11, Orem, UT 84097","precinct":"25OR44","hd":"61","v_score":"5.40460374","decile":"7","lat":40.26184295946831,"lng":-111.67940171160518,"phone":"(499) 313-9982","sd":"23","ssbd":"12","lsbd":"School Board Timpanogos 7"},{"vid":"b45eaca950282064cca9daa21588390fd0828baf96cb552420373027347e74d3","name":"Moody Franecki","party":"","address":"475 E 1960 S, Orem, UT 84058","precinct":"25OR44","hd":"61","v_score":"12.05946382","decile":"9","lat":40.26173645002402,"lng":-111.68371257382029,"phone":"(404) 046-6719","sd":"23","ssbd":"12","lsbd":"School Board Timpanogos 7"},{"vid":"d4741521837059fe4f197b1b3c03cbe16cc8dfd84b1d990d8c1900b5c004b9c2","name":"Lamont Gusikowski","party":"Rep","address":"339 E 1800 S, Orem, UT 84058","precinct":"25OR44","hd":"61","v_score":"0","decile":"1","lat":40.264430938741505,"lng":-111.68705566957787,"phone":"(392) 414-5570","sd":"23","ssbd":"12","lsbd":"School Board Timpanogos 7"},{"vid":"7f6797227bb6e992d8606dd4b1b106863869e98418bd40ff00aa81d6145c9c6a","name":"Dr. Shon Legros IV","party":"Rep","address":"414 E 1800 S, Orem, UT 84058","precinct":"25OR44","hd":"61","v_score":"0","decile":"1","lat":40.2640836097033,"lng":-111.68495099630154,"phone":"(578) 290-8143","sd":"23","ssbd":"12","lsbd":"School Board Timpanogos 7"},{"vid":"2178496","name":"Austen Jaskolski","party":"Dem","address":"1949 S 520 E, Orem, UT 84058","precinct":"25OR44","hd":"61","v_score":"3.93832808","decile":"6","lat":40.26134177743789,"lng":-111.68204689661877,"phone":"(595) 964-6031","sd":"23","ssbd":"12","lsbd":"School Board Timpanogos 7"},{"vid":"423cab483870431417b3a2117a7c1a0e3d491355007d70cb5b16fe29ee511dce","name":"Magnolia Heidenreich","party":"Rep","address":"507 E 1834 S, Orem, UT 84058","precinct":"25OR44","hd":"61","v_score":"2.315214949","decile":"5","lat":40.263794252325724,"lng":-111.68304535140066,"phone":"(441) 969-8270","sd":"23","ssbd":"12","lsbd":"School Board Timpanogos 7"},{"vid":"2187125","name":"Kahlil Deckow-Donnelly","party":"","address":"310 E 1730 S, Orem, UT 84058","precinct":"25OR44","hd":"61","v_score":"1.121327652","decile":"3","lat":40.265215308156996,"lng":-111.68701091553746,"phone":"(139) 182-1018","sd":"23","ssbd":"12","lsbd":"School Board Timpanogos 7"},{"vid":"2199873","name":"Philip Davis","party":"Dem","address":"1859 S Columbia Ln, Apt 226, Orem, UT 84097","precinct":"25OR44","hd":"61","v_score":"9.907118004","decile":"8","lat":40.2631570754494,"lng":-111.68015092070345,"phone":"(802) 589-8667","sd":"23","ssbd":"12","lsbd":"School Board Timpanogos 7"},{"vid":"2216741","name":"Ariel Fahey","party":"","address":"240 E 1600 S, Orem, UT 84058","precinct":"25OR44","hd":"61","v_score":"0","decile":"1","lat":40.267580500345666,"lng":-111.68944175651288,"phone":"(965) 873-0000","sd":"23","ssbd":"12","lsbd":"School Board Timpanogos 7"},{"vid":"d149b0ead58ed36e46c6a4f8b88c7c54f10b94e3fdfe201691c816e401cb1efc","name":"Dr. Bertha Dickens","party":"Rep","address":"1806 S 543 E, Orem, UT 84058","precinct":"25OR44","hd":"61","v_score":"3.93832808","decile":"6","lat":40.26412938569073,"lng":-111.68222652403107,"phone":"(115) 740-6798","sd":"23","ssbd":"12","lsbd":"School Board Timpanogos 7"},{"vid":"e8ed5567fdd4204b2bd35314fb3b75a1c69142d94a4562f9a8c4550de8317971","name":"Dr. Spenser Streich","party":"Dem","address":"1977 S 520 E, Orem, UT 84058","precinct":"25OR44","hd":"61","v_score":"1.193887297","decile":"3","lat":40.26086042534365,"lng":-111.68241827563135,"phone":"(766) 178-0117","sd":"23","ssbd":"12","lsbd":"School Board Timpanogos 7"},{"vid":"2262527","name":"Russel Johnson","party":"Rep","address":"474 E 1800 S, Orem, UT 84058","precinct":"25OR44","hd":"61","v_score":"4.905839784","decile":"7","lat":40.264072696712574,"lng":-111.6835539478701,"phone":"(448) 201-1531","sd":"23","ssbd":"12","lsbd":"School Board Timpanogos 7"},{"vid":"687a8a65a340745458033c580f5ee56fc211ede942006721045fa7e8ff7069d9","name":"Franc Pfeffer-Krajcik","party":"Dem","address":"1796 S 450 E, Orem, UT 84058","precinct":"25OR44","hd":"61","v_score":"0","decile":"1","lat":40.264472884847656,"lng":-111.68442909236913,"phone":"(540) 634-3993","sd":"23","ssbd":"12","lsbd":"School Board Timpanogos 7"},{"vid":"5c4afa37bd7eadaf0d9a83a1a170f57131d6935030de105ac92f48b0c29bc077","name":"Celena Dickinson","party":"","address":"429 E 1910 S, Orem, UT 84058","precinct":"25OR44","hd":"61","v_score":"5.693042993","decile":"7","lat":40.26236324850093,"lng":-111.68463666239188,"phone":"(952) 077-2500","sd":"23","ssbd":"12","lsbd":"School Board Timpanogos 7"},{"vid":"36a82825ea4cc32d860ae1ab181f5939f34c6771532144bb3008e25f594389bf","name":"Grafton Osinski-Braun","party":"","address":"526 E 1800 S, Orem, UT 84058","precinct":"25OR44","hd":"61","v_score":"1.121327652","decile":"3","lat":40.2640702359539,"lng":-111.6826179839101,"phone":"(324) 252-0543","sd":"23","ssbd":"12","lsbd":"School Board Timpanogos 7"},{"vid":"2319081","name":"Kenton Schamberger PhD","party":"","address":"1859 S Columbia Ln, Apt 125, Orem, UT 84097","precinct":"25OR44","hd":"61","v_score":"0","decile":"1","lat":40.2631570754494,"lng":-111.68015092070345,"phone":"(767) 246-1207","sd":"23","ssbd":"12","lsbd":"School Board Timpanogos 7"},{"vid":"2319294","name":"Efrem Goldner","party":"Dem","address":"1758 S 400 E, Orem, UT 84058","precinct":"25OR44","hd":"61","v_score":"13.42110699","decile":"9","lat":40.265148500251904,"lng":-111.68574665516927,"phone":"(838) 437-2392","sd":"23","ssbd":"12","lsbd":"School Board Timpanogos 7"},{"vid":"2327506","name":"Alferd Morar","party":"","address":"475 E 1864 S, Orem, UT 84058","precinct":"25OR44","hd":"61","v_score":"9.682978083","decile":"8","lat":40.26311172763544,"lng":-111.68350335529229,"phone":"(779) 131-4820","sd":"23","ssbd":"12","lsbd":"School Board Timpanogos 7"},{"vid":"2334675","name":"Wenzel Rath","party":"","address":"306 E 1600 S, Orem, UT 84058","precinct":"25OR44","hd":"61","v_score":"6.814370645","decile":"8","lat":40.26762760495043,"lng":-111.68765045906282,"phone":"(389) 329-4247","sd":"23","ssbd":"12","lsbd":"School Board Timpanogos 7"},{"vid":"2368912","name":"Dr. Case Kuhn I","party":"","address":"364 E 1600 S, Orem, UT 84058","precinct":"25OR44","hd":"61","v_score":"9.565887806","decile":"8","lat":40.26761234379467,"lng":-111.6864660526389,"phone":"(354) 510-6269","sd":"23","ssbd":"12","lsbd":"School Board Timpanogos 7"},{"vid":"2374836","name":"Aldo McCullough","party":"","address":"471 E 1910 S, Orem, UT 84058","precinct":"25OR44","hd":"61","v_score":"2.744440783","decile":"5","lat":40.2624308548257,"lng":-111.68357978431602,"phone":"(153) 933-2927","sd":"23","ssbd":"12","lsbd":"School Board Timpanogos 7"},{"vid":"2376901","name":"Ethan Russel-Hammes","party":"","address":"1859 S Columbia Ln, # 236, Orem, UT 84097","precinct":"25OR44","hd":"61","v_score":"2.315214949","decile":"5","lat":40.2631570754494,"lng":-111.68015092070345,"phone":"(883) 024-7698","sd":"23","ssbd":"12","lsbd":"School Board Timpanogos 7"},{"vid":"2388069","name":"Aylin Jerde DVM","party":"Dem","address":"338 E 1600 S, Apt 4, Orem, UT 84058","precinct":"25OR44","hd":"61","v_score":"1.193887297","decile":"3","lat":40.26760764808536,"lng":-111.68703447654698,"phone":"(239) 693-1906","sd":"23","ssbd":"12","lsbd":"School Board Timpanogos 7"},{"vid":"2392800","name":"Raegan Vandervort-Harvey","party":"Rep","address":"429 E 1910 S, Orem, UT 84058","precinct":"25OR44","hd":"61","v_score":"1.121327652","decile":"3","lat":40.26236324850093,"lng":-111.68463666239188,"phone":"(580) 275-5456","sd":"23","ssbd":"12","lsbd":"School Board Timpanogos 7"},{"vid":"2412289","name":"Arnett O'Conner","party":"Dem","address":"507 E 1834 S, Orem, UT 84058","precinct":"25OR44","hd":"61","v_score":"3.93832808","decile":"6","lat":40.263794252325724,"lng":-111.68304535140066,"phone":"(936) 385-4974","sd":"23","ssbd":"12","lsbd":"School Board Timpanogos 7"},{"vid":"2418226","name":"Skyler Hickle","party":"Dem","address":"1977 S 520 E, Orem, UT 84058","precinct":"25OR44","hd":"61","v_score":"2.315214949","decile":"5","lat":40.26086042534365,"lng":-111.68241827563135,"phone":"(999) 838-6468","sd":"23","ssbd":"12","lsbd":"School Board Timpanogos 7"},{"vid":"2420858","name":"Mrs. Osie Roob","party":"Rep","address":"326 E 1600 S, Apt 3, Orem, UT 84058","precinct":"25OR44","hd":"61","v_score":"10.24124245","decile":"9","lat":40.26760734032059,"lng":-111.68722371564472,"phone":"(748) 742-3157","sd":"23","ssbd":"12","lsbd":"School Board Timpanogos 7"},{"vid":"2426486","name":"Pauline Windler","party":"Rep","address":"352 E 1780 S, Orem, UT 84058","precinct":"25OR44","hd":"61","v_score":"2.315214949","decile":"5","lat":40.26483053639114,"lng":-111.68674288440302,"phone":"(803) 672-6485","sd":"23","ssbd":"12","lsbd":"School Board Timpanogos 7"},{"vid":"2448691","name":"Eldon Champlin DDS","party":"","address":"306 E 1600 S, Orem, UT 84058","precinct":"25OR44","hd":"61","v_score":"6.814370645","decile":"8","lat":40.26762760495043,"lng":-111.68765045906282,"phone":"(185) 933-3441","sd":"23","ssbd":"12","lsbd":"School Board Timpanogos 7"},{"vid":"2452748","name":"Gustave Kuvalis","party":"","address":"474 E 1800 S, Orem, UT 84058","precinct":"25OR44","hd":"61","v_score":"3.93832808","decile":"6","lat":40.264072696712574,"lng":-111.6835539478701,"phone":"(634) 509-2052","sd":"23","ssbd":"12","lsbd":"School Board Timpanogos 7"},{"vid":"2457495","name":"Dr. Thaddeus Stanton DVM","party":"Dem","address":"535 E 1700 S, Apt 3, Orem, UT 84097","precinct":"25OR44","hd":"61","v_score":"1.121327652","decile":"3","lat":40.265811931176096,"lng":-111.68229958777852,"phone":"(343) 339-1509","sd":"23","ssbd":"12","lsbd":"School Board Timpanogos 7"},{"vid":"2459683","name":"Chad Treutel","party":"Dem","address":"522 E 1864 S, Orem, UT 84058","precinct":"25OR44","hd":"61","v_score":"6.528952915","decile":"7","lat":40.26270039298232,"lng":-111.68264595377781,"phone":"(515) 174-6359","sd":"23","ssbd":"12","lsbd":"School Board Timpanogos 7"},{"vid":"2484621","name":"Dr. Clem Volkman DVM","party":"Rep","address":"1947 S Columbia Ln, Apt 20, Orem, UT 84097","precinct":"25OR44","hd":"61","v_score":"1.623113131","decile":"5","lat":40.26184295946831,"lng":-111.67940171160518,"phone":"(418) 208-4698","sd":"23","ssbd":"12","lsbd":"School Board Timpanogos 7"},{"vid":"2489604","name":"Mr. Zachariah Schimmel","party":"Rep","address":"414 E 1800 S, Orem, UT 84058","precinct":"25OR44","hd":"61","v_score":"0","decile":"1","lat":40.2640836097033,"lng":-111.68495099630154,"phone":"(824) 530-8811","sd":"23","ssbd":"12","lsbd":"School Board Timpanogos 7"},{"vid":"2491790","name":"Miranda Upton","party":"Rep","address":"483 E 1864 S, Orem, UT 84058","precinct":"25OR44","hd":"61","v_score":"2.817000428","decile":"6","lat":40.26310989819825,"lng":-111.68327053586586,"phone":"(467) 044-2578","sd":"23","ssbd":"12","lsbd":"School Board Timpanogos 7"},{"vid":"2497306","name":"Paris Armstrong","party":"Dem","address":"1771 S 290 E, Orem, UT 84058","precinct":"25OR44","hd":"61","v_score":"4.069929862","decile":"6","lat":40.26518575034657,"lng":-111.68809075644899,"phone":"(450) 537-8648","sd":"23","ssbd":"12","lsbd":"School Board Timpanogos 7"},{"vid":"2499117","name":"Mr. Doss Rath V","party":"","address":"1859 S Columbia Ln, Apt 329, Orem, UT 84097","precinct":"25OR44","hd":"61","v_score":"1.193887297","decile":"3","lat":40.2631570754494,"lng":-111.68015092070345,"phone":"(536) 480-1223","sd":"23","ssbd":"12","lsbd":"School Board Timpanogos 7"},{"vid":"2499215","name":"Sanford Rath-Padberg","party":"Rep","address":"1610 S 490 E, Orem, UT 84058","precinct":"25OR44","hd":"61","v_score":"0","decile":"1","lat":40.26771480005149,"lng":-111.68365302234415,"phone":"(546) 301-3711","sd":"23","ssbd":"12","lsbd":"School Board Timpanogos 7"},{"vid":"2500552","name":"Robin Rau","party":"","address":"1765 S 450 E, Orem, UT 84058","precinct":"25OR44","hd":"61","v_score":"0","decile":"1","lat":40.26497942408896,"lng":-111.68387656253304,"phone":"(991) 533-9834","sd":"23","ssbd":"12","lsbd":"School Board Timpanogos 7"},{"vid":"2501489","name":"Sloane Davis","party":"","address":"480 E 1864 S, Orem, UT 84058","precinct":"25OR44","hd":"61","v_score":"9.928536428","decile":"9","lat":40.262704045572306,"lng":-111.68334447817317,"phone":"(600) 762-0984","sd":"23","ssbd":"12","lsbd":"School Board Timpanogos 7"},{"vid":"2501497","name":"Hernan Bosco","party":"Dem","address":"480 E 1864 S, Orem, UT 84058","precinct":"25OR44","hd":"61","v_score":"9.928536428","decile":"9","lat":40.262704045572306,"lng":-111.68334447817317,"phone":"(169) 461-7088","sd":"23","ssbd":"12","lsbd":"School Board Timpanogos 7"},{"vid":"2504275","name":"Vinie Douglas","party":"","address":"311 E 1800 S, Orem, UT 84058","precinct":"25OR44","hd":"61","v_score":"0","decile":"1","lat":40.26443367554677,"lng":-111.68794572294567,"phone":"(596) 525-6431","sd":"23","ssbd":"12","lsbd":"School Board Timpanogos 7"},{"vid":"2528263","name":"Jeana Pfannerstill","party":"Rep","address":"1759 S 340 E, Orem, UT 84058","precinct":"25OR44","hd":"61","v_score":"0","decile":"1","lat":40.265411636741106,"lng":-111.68667659097171,"phone":"(652) 124-0275","sd":"23","ssbd":"12","lsbd":"School Board Timpanogos 7"},{"vid":"2530372","name":"Le Effertz","party":"","address":"1826 S 543 E, Orem, UT 84058","precinct":"25OR44","hd":"61","v_score":"2.817000428","decile":"6","lat":40.26368066882753,"lng":-111.68222194860768,"phone":"(243) 365-4817","sd":"23","ssbd":"12","lsbd":"School Board Timpanogos 7"},{"vid":"2534371","name":"Homer Kris","party":"Dem","address":"1904 S Columbia Ln, Orem, UT 84097","precinct":"25OR44","hd":"61","v_score":"8.284004873","decile":"8","lat":40.262290538797274,"lng":-111.68097138290244,"phone":"(453) 355-8859","sd":"23","ssbd":"12","lsbd":"School Board Timpanogos 7"},{"vid":"2534963","name":"Freeda Kub","party":"Dem","address":"1947 S Columbia Ln, Apt 17, Orem, UT 84097","precinct":"25OR44","hd":"61","v_score":"0","decile":"1","lat":40.26184295946831,"lng":-111.67940171160518,"phone":"(626) 497-7430","sd":"23","ssbd":"12","lsbd":"School Board Timpanogos 7"},{"vid":"2543995","name":"Brendan Sporer","party":"Dem","address":"1949 S 520 E, Orem, UT 84058","precinct":"25OR44","hd":"61","v_score":"4.069929862","decile":"6","lat":40.26134177743789,"lng":-111.68204689661877,"phone":"(155) 039-6810","sd":"23","ssbd":"12","lsbd":"School Board Timpanogos 7"},{"vid":"2544499","name":"Mr. Colon Prohaska MD","party":"Dem","address":"351 E 1780 S, Orem, UT 84058","precinct":"25OR44","hd":"61","v_score":"0","decile":"1","lat":40.26505175057321,"lng":-111.68670924294106,"phone":"(638) 268-2875","sd":"23","ssbd":"12","lsbd":"School Board Timpanogos 7"},{"vid":"2556979","name":"Dr. Zack Ziemann III","party":"","address":"461 E 2000 S, Orem, UT 84058","precinct":"25OR44","hd":"61","v_score":"0","decile":"1","lat":40.26090325312859,"lng":-111.68393271568247,"phone":"(461) 284-8197","sd":"23","ssbd":"12","lsbd":"School Board Timpanogos 7"},{"vid":"2559084","name":"Curley Bauch-Larson","party":"Rep","address":"1949 S 520 E, Orem, UT 84058","precinct":"25OR44","hd":"61","v_score":"1.193887297","decile":"4","lat":40.26134177743789,"lng":-111.68204689661877,"phone":"(424) 034-3657","sd":"23","ssbd":"12","lsbd":"School Board Timpanogos 7"},{"vid":"2561860","name":"Jensen Schmidt","party":"","address":"1718 S 500 E, Orem, UT 84058","precinct":"25OR44","hd":"61","v_score":"0","decile":"1","lat":40.265594695161596,"lng":-111.6831021489798,"phone":"(955) 737-9598","sd":"23","ssbd":"12","lsbd":"School Board Timpanogos 7"},{"vid":"2577975","name":"Jessenia O'Conner","party":"Dem","address":"576 E 1864 S, Orem, UT 84058","precinct":"25OR44","hd":"61","v_score":"0","decile":"1","lat":40.26262597008237,"lng":-111.68132271012163,"phone":"(354) 373-0428","sd":"23","ssbd":"12","lsbd":"School Board Timpanogos 7"},{"vid":"2594075","name":"Laraine Homenick","party":"Dem","address":"338 E 1600 S, Apt 1, Orem, UT 84058","precinct":"25OR44","hd":"61","v_score":"8.085704327","decile":"8","lat":40.26760764808536,"lng":-111.68703447654698,"phone":"(807) 087-3777","sd":"23","ssbd":"12","lsbd":"School Board Timpanogos 7"},{"vid":"2605082","name":"Lorena Harvey","party":"","address":"1947 S Columbia Ln, Apt 13, Orem, UT 84097","precinct":"25OR44","hd":"61","v_score":"0","decile":"1","lat":40.26184295946831,"lng":-111.67940171160518,"phone":"(723) 926-1759","sd":"23","ssbd":"12","lsbd":"School Board Timpanogos 7"},{"vid":"2614014","name":"Chastity Lockman-Bergstrom","party":"Dem","address":"351 E 1780 S, Orem, UT 84058","precinct":"25OR44","hd":"61","v_score":"1.193887297","decile":"4","lat":40.26505175057321,"lng":-111.68670924294106,"phone":"(764) 434-1340","sd":"23","ssbd":"12","lsbd":"School Board Timpanogos 7"},{"vid":"2616792","name":"Dayne Hettinger","party":"Dem","address":"483 E 1834 S, Orem, UT 84058","precinct":"25OR44","hd":"61","v_score":"1.623113131","decile":"5","lat":40.26379608188154,"lng":-111.68327820999365,"phone":"(939) 395-3542","sd":"23","ssbd":"12","lsbd":"School Board Timpanogos 7"},{"vid":"2622444","name":"Amir Stroman","party":"Dem","address":"438 E 1910 S, Orem, UT 84058","precinct":"25OR44","hd":"61","v_score":"18.35167816","decile":"10","lat":40.26203093991612,"lng":-111.68434815829427,"phone":"(347) 812-6808","sd":"23","ssbd":"12","lsbd":"School Board Timpanogos 7"},{"vid":"2626826","name":"Dr. Braden Fisher IV","party":"","address":"471 E 1910 S, Orem, UT 84058","precinct":"25OR44","hd":"61","v_score":"0","decile":"1","lat":40.2624308548257,"lng":-111.68357978431602,"phone":"(912) 634-5397","sd":"23","ssbd":"12","lsbd":"School Board Timpanogos 7"},{"vid":"2627849","name":"Jordi Keebler","party":"Dem","address":"349 E 1655 S, Orem, UT 84058","precinct":"25OR44","hd":"61","v_score":"18.35167816","decile":"10","lat":40.26706610098135,"lng":-111.68673486967367,"phone":"(932) 500-8306","sd":"23","ssbd":"12","lsbd":"School Board Timpanogos 7"},{"vid":"2627850","name":"Maximiliano Jacobs II","party":"","address":"349 E 1655 S, Orem, UT 84058","precinct":"25OR44","hd":"61","v_score":"18.35167816","decile":"10","lat":40.26706610098135,"lng":-111.68673486967367,"phone":"(510) 501-1481","sd":"23","ssbd":"12","lsbd":"School Board Timpanogos 7"},{"vid":"2630681","name":"Dann Prohaska-Dietrich","party":"Rep","address":"349 E 1655 S, Orem, UT 84058","precinct":"25OR44","hd":"61","v_score":"18.35167816","decile":"10","lat":40.26706610098135,"lng":-111.68673486967367,"phone":"(219) 027-8483","sd":"23","ssbd":"12","lsbd":"School Board Timpanogos 7"},{"vid":"2637050","name":"Cilla Goyette-Casper","party":"Rep","address":"1941 S Terrace Dr, Orem, UT 84097","precinct":"25OR44","hd":"61","v_score":"9.907118004","decile":"8","lat":40.261837194504835,"lng":-111.67811576269415,"phone":"(500) 837-4462","sd":"23","ssbd":"12","lsbd":"School Board Timpanogos 7"},{"vid":"2640426","name":"Ricky Donnelly","party":"Rep","address":"356 E 1655 S, Orem, UT 84058","precinct":"25OR44","hd":"61","v_score":"1.623113131","decile":"5","lat":40.266617807154546,"lng":-111.68672016769939,"phone":"(859) 850-9566","sd":"23","ssbd":"12","lsbd":"School Board Timpanogos 7"},{"vid":"2660062","name":"Harding Tremblay","party":"Dem","address":"482 E 1800 S, Orem, UT 84058","precinct":"25OR44","hd":"61","v_score":"1.193887297","decile":"4","lat":40.26407086689005,"lng":-111.68332108801948,"phone":"(937) 845-1230","sd":"23","ssbd":"12","lsbd":"School Board Timpanogos 7"},{"vid":"2677505","name":"Kaaren Bashirian PhD","party":"","address":"1728 S 290 E, Orem, UT 84058","precinct":"25OR44","hd":"61","v_score":"0","decile":"2","lat":40.26562002702451,"lng":-111.68839154322666,"phone":"(411) 154-7530","sd":"23","ssbd":"12","lsbd":"School Board Timpanogos 7"},{"vid":"2683579","name":"Arabella Hyatt","party":"Rep","address":"1807 S 543 E, Orem, UT 84058","precinct":"25OR44","hd":"61","v_score":"0","decile":"2","lat":40.26412411557145,"lng":-111.6818642062636,"phone":"(186) 662-3127","sd":"23","ssbd":"12","lsbd":"School Board Timpanogos 7"},{"vid":"2686940","name":"Nedra Larson","party":"","address":"426 E 1910 S, Orem, UT 84058","precinct":"25OR44","hd":"61","v_score":"0","decile":"2","lat":40.262091321231075,"lng":-111.6846695435875,"phone":"(698) 142-6583","sd":"23","ssbd":"12","lsbd":"School Board Timpanogos 7"},{"vid":"2689046","name":"Anderson Trantow","party":"Rep","address":"1818 S 543 E, Orem, UT 84058","precinct":"25OR44","hd":"61","v_score":"0","decile":"2","lat":40.26391351732438,"lng":-111.68236162079074,"phone":"(944) 764-2751","sd":"23","ssbd":"12","lsbd":"School Board Timpanogos 7"},{"vid":"2704270","name":"Floy Stehr","party":"Dem","address":"310 E 1730 S, Orem, UT 84058","precinct":"25OR44","hd":"61","v_score":"4.069929862","decile":"7","lat":40.265215308156996,"lng":-111.68701091553746,"phone":"(459) 586-6172","sd":"23","ssbd":"12","lsbd":"School Board Timpanogos 7"},{"vid":"2709081","name":"Dr. Braydon Ernser I","party":"Dem","address":"478 E 1960 S, Orem, UT 84058","precinct":"25OR44","hd":"61","v_score":"4.905839784","decile":"7","lat":40.26133763465064,"lng":-111.68335853311311,"phone":"(621) 829-1896","sd":"23","ssbd":"12","lsbd":"School Board Timpanogos 7"},{"vid":"2711638","name":"Maida Davis","party":"","address":"1859 S Columbia Ln, Apt 127, Orem, UT 84097","precinct":"25OR44","hd":"61","v_score":"1.193887297","decile":"4","lat":40.2631570754494,"lng":-111.68015092070345,"phone":"(650) 037-7453","sd":"23","ssbd":"12","lsbd":"School Board Timpanogos 7"},{"vid":"2715183","name":"Wilhelmina Willms","party":"Dem","address":"1906 S Columbia Ln, Orem, UT 84097","precinct":"25OR44","hd":"61","v_score":"1.193887297","decile":"4","lat":40.26226385300648,"lng":-111.68105982781704,"phone":"(876) 811-3849","sd":"23","ssbd":"12","lsbd":"School Board Timpanogos 7"},{"vid":"2725904","name":"Lynette Ziemann","party":"Rep","address":"1904 S Columbia Ln, Orem, UT 84097","precinct":"25OR44","hd":"61","v_score":"4.214075011","decile":"7","lat":40.262290538797274,"lng":-111.68097138290244,"phone":"(994) 668-3782","sd":"23","ssbd":"12","lsbd":"School Board Timpanogos 7"},{"vid":"2727502","name":"Dr. Orilla Marvin PhD","party":"Dem","address":"1926 S Columbia Ln, Orem, UT 84097","precinct":"25OR44","hd":"61","v_score":"1.193887297","decile":"4","lat":40.26200622578064,"lng":-111.68095312271933,"phone":"(744) 984-1431","sd":"23","ssbd":"12","lsbd":"School Board Timpanogos 7"},{"vid":"2732255","name":"Mr. Zack DuBuque IV","party":"Dem","address":"356 E 1655 S, Orem, UT 84058","precinct":"25OR44","hd":"61","v_score":"4.214075011","decile":"7","lat":40.266617807154546,"lng":-111.68672016769939,"phone":"(849) 159-7141","sd":"23","ssbd":"12","lsbd":"School Board Timpanogos 7"},{"vid":"2732419","name":"Miss Dagmar Simonis","party":"Dem","address":"338 E 1600 S, Apt 3, Orem, UT 84058","precinct":"25OR44","hd":"61","v_score":"0","decile":"2","lat":40.26760764808536,"lng":-111.68703447654698,"phone":"(147) 692-0362","sd":"23","ssbd":"12","lsbd":"School Board Timpanogos 7"},{"vid":"2748215","name":"Mr. Cornelious Hegmann DVM","party":"","address":"1660 S 350 E, Orem, UT 84058","precinct":"25OR44","hd":"61","v_score":"8.284004873","decile":"8","lat":40.26656186263778,"lng":-111.68757908843264,"phone":"(693) 611-7878","sd":"23","ssbd":"12","lsbd":"School Board Timpanogos 7"},{"vid":"2748385","name":"Jannette Waters PhD","party":"Dem","address":"1760 S 340 E, Orem, UT 84058","precinct":"25OR44","hd":"61","v_score":"8.284004873","decile":"8","lat":40.265215332575515,"lng":-111.68711272825239,"phone":"(457) 514-5588","sd":"23","ssbd":"12","lsbd":"School Board Timpanogos 7"},{"vid":"2760846","name":"Nicholas Purdy","party":"Dem","address":"1758 S 400 E, Orem, UT 84058","precinct":"25OR44","hd":"61","v_score":"5.407962308","decile":"7","lat":40.265148500251904,"lng":-111.68574665516927,"phone":"(586) 787-2183","sd":"23","ssbd":"12","lsbd":"School Board Timpanogos 7"},{"vid":"2764624","name":"Carol Flatley","party":"Dem","address":"442 E 1864 S, Orem, UT 84058","precinct":"25OR44","hd":"61","v_score":"1.193887297","decile":"4","lat":40.262708946310674,"lng":-111.68427589242292,"phone":"(780) 690-7007","sd":"23","ssbd":"12","lsbd":"School Board Timpanogos 7"},{"vid":"2770573","name":"Ewell Herzog","party":"Dem","address":"511 E 1910 S, Orem, UT 84058","precinct":"25OR44","hd":"61","v_score":"0","decile":"2","lat":40.2624271758979,"lng":-111.68288122704229,"phone":"(924) 648-8292","sd":"23","ssbd":"12","lsbd":"School Board Timpanogos 7"},{"vid":"2772905","name":"Doss Heaney DDS","party":"Dem","address":"447 E 1960 S, Orem, UT 84058","precinct":"25OR44","hd":"61","v_score":"0","decile":"2","lat":40.26173835641193,"lng":-111.68410660347034,"phone":"(547) 939-4624","sd":"23","ssbd":"12","lsbd":"School Board Timpanogos 7"},{"vid":"2775351","name":"Ryne Rau","party":"Rep","address":"476 E 1910 S, Orem, UT 84058","precinct":"25OR44","hd":"61","v_score":"0","decile":"2","lat":40.262027141963515,"lng":-111.68341677907881,"phone":"(713) 692-3882","sd":"23","ssbd":"12","lsbd":"School Board Timpanogos 7"},{"vid":"2779404","name":"Winford Harris","party":"","address":"1926 S Columbia Ln, Orem, UT 84097","precinct":"25OR44","hd":"61","v_score":"1.193887297","decile":"4","lat":40.26200622578064,"lng":-111.68095312271933,"phone":"(600) 346-7448","sd":"23","ssbd":"12","lsbd":"School Board Timpanogos 7"},{"vid":"2779898","name":"Micayla McKenzie-Schmitt","party":"Dem","address":"373 E 1800 S, Orem, UT 84058","precinct":"25OR44","hd":"61","v_score":"7.090117576","decile":"8","lat":40.26451192712473,"lng":-111.68636949111207,"phone":"(153) 527-3233","sd":"23","ssbd":"12","lsbd":"School Board Timpanogos 7"},{"vid":"2783316","name":"Cleveland Towne","party":"Dem","address":"310 E 1730 S, Orem, UT 84058","precinct":"25OR44","hd":"61","v_score":"4.069929862","decile":"7","lat":40.265215308156996,"lng":-111.68701091553746,"phone":"(932) 950-5778","sd":"23","ssbd":"12","lsbd":"School Board Timpanogos 7"},{"vid":"2793129","name":"Eulalia Schulist MD","party":"Dem","address":"1759 S 340 E, Orem, UT 84058","precinct":"25OR44","hd":"61","v_score":"0","decile":"2","lat":40.265411636741106,"lng":-111.68667659097171,"phone":"(297) 646-8777","sd":"23","ssbd":"12","lsbd":"School Board Timpanogos 7"},{"vid":"2795052","name":"Marion Leannon","party":"","address":"1846 S 543 E, Orem, UT 84058","precinct":"25OR44","hd":"61","v_score":"1.193887297","decile":"4","lat":40.26344320164973,"lng":-111.68221892278298,"phone":"(904) 809-8345","sd":"23","ssbd":"12","lsbd":"School Board Timpanogos 7"},{"vid":"2796031","name":"Bobbye Armstrong","party":"","address":"483 E 1834 S, Orem, UT 84058","precinct":"25OR44","hd":"61","v_score":"1.193887297","decile":"4","lat":40.26379608188154,"lng":-111.68327820999365,"phone":"(999) 674-8981","sd":"23","ssbd":"12","lsbd":"School Board Timpanogos 7"},{"vid":"2796931","name":"Lamar Stark-Nicolas","party":"","address":"507 E 1834 S, Orem, UT 84058","precinct":"25OR44","hd":"61","v_score":"1.193887297","decile":"4","lat":40.263794252325724,"lng":-111.68304535140066,"phone":"(720) 959-7274","sd":"23","ssbd":"12","lsbd":"School Board Timpanogos 7"},{"vid":"2797301","name":"Mrs. Cappie Ledner PhD","party":"","address":"374 E 1780 S, Orem, UT 84058","precinct":"25OR44","hd":"61","v_score":"8.284004873","decile":"8","lat":40.264846775442656,"lng":-111.68611739762686,"phone":"(270) 278-8980","sd":"23","ssbd":"12","lsbd":"School Board Timpanogos 7"},{"vid":"2798421","name":"Dr. Audra Feil MD","party":"","address":"374 E 1780 S, Orem, UT 84058","precinct":"25OR44","hd":"61","v_score":"8.284004873","decile":"8","lat":40.264846775442656,"lng":-111.68611739762686,"phone":"(159) 164-3915","sd":"23","ssbd":"12","lsbd":"School Board Timpanogos 7"},{"vid":"2821003","name":"Alston Bernhard","party":"","address":"384 E 1655 S, Orem, UT 84058","precinct":"25OR44","hd":"61","v_score":"1.193887297","decile":"4","lat":40.26664506480483,"lng":-111.68607649911426,"phone":"(584) 052-6400","sd":"23","ssbd":"12","lsbd":"School Board Timpanogos 7"},{"vid":"2827908","name":"Cheryll Dicki","party":"Rep","address":"1859 S Columbia Ln, Apt 221, Orem, UT 84097","precinct":"25OR44","hd":"61","v_score":"1.193887297","decile":"4","lat":40.2631570754494,"lng":-111.68015092070345,"phone":"(324) 722-5158","sd":"23","ssbd":"12","lsbd":"School Board Timpanogos 7"},{"vid":"2830273","name":"Grady Osinski","party":"Dem","address":"1859 S Columbia Ln, Orem, UT 84097","precinct":"25OR44","hd":"61","v_score":"0","decile":"2","lat":40.2631570754494,"lng":-111.68015092070345,"phone":"(695) 642-6972","sd":"23","ssbd":"12","lsbd":"School Board Timpanogos 7"},{"vid":"2835830","name":"Dr. Jabari Fahey I","party":"Rep","address":"240 E 1600 S, Orem, UT 84058","precinct":"25OR44","hd":"61","v_score":"1.193887297","decile":"4","lat":40.267580500345666,"lng":-111.68944175651288,"phone":"(576) 391-9629","sd":"23","ssbd":"12","lsbd":"School Board Timpanogos 7"},{"vid":"2857702","name":"Dr. Davey Muller","party":"","address":"514 E 1750 S, Orem, UT 84058","precinct":"25OR44","hd":"61","v_score":"0","decile":"2","lat":40.264957439598426,"lng":-111.68261575127266,"phone":"(544) 849-9468","sd":"23","ssbd":"12","lsbd":"School Board Timpanogos 7"},{"vid":"2857816","name":"Kali Gutkowski","party":"","address":"365 E 1780 S, Orem, UT 84058","precinct":"25OR44","hd":"61","v_score":"5.407962308","decile":"7","lat":40.26505603655837,"lng":-111.68635552957824,"phone":"(736) 371-1525","sd":"23","ssbd":"12","lsbd":"School Board Timpanogos 7"},{"vid":"2874917","name":"Stevie Rohan","party":"Rep","address":"1947 S Columbia Ln, Apt 3, Orem, UT 84097","precinct":"25OR44","hd":"61","v_score":"1.193887297","decile":"4","lat":40.26184295946831,"lng":-111.67940171160518,"phone":"(316) 777-9491","sd":"23","ssbd":"12","lsbd":"School Board Timpanogos 7"},{"vid":"2876220","name":"Kristian Raynor","party":"Rep","address":"485 E 1960 S, Orem, UT 84058","precinct":"25OR44","hd":"61","v_score":"1.193887297","decile":"4","lat":40.26162189640169,"lng":-111.68334291353091,"phone":"(231) 469-0061","sd":"23","ssbd":"12","lsbd":"School Board Timpanogos 7"},{"vid":"2883831","name":"Shiloh Mueller DDS","party":"Rep","address":"1951 Terrace Dr, Orem, UT 84097","precinct":"25OR44","hd":"61","v_score":"1.193887297","decile":"4","lat":40.26164976213601,"lng":-111.67803168827739,"phone":"(950) 143-9940","sd":"23","ssbd":"12","lsbd":"School Board Timpanogos 7"},{"vid":"2908264","name":"Dr. Brian Nitzsche","party":"Dem","address":"341 Chapel Cir, Orem, UT 84058","precinct":"25OR44","hd":"61","v_score":"0","decile":"2","lat":40.26615750697638,"lng":-111.68695435803784,"phone":"(702) 821-7099","sd":"23","ssbd":"12","lsbd":"School Board Timpanogos 7"},{"vid":"2910936","name":"Dr. Rollo Feeney","party":"","address":"331 E 1800 S, Orem, UT 84058","precinct":"25OR44","hd":"61","v_score":"0","decile":"2","lat":40.26449136680654,"lng":-111.68754624838132,"phone":"(997) 368-9081","sd":"23","ssbd":"12","lsbd":"School Board Timpanogos 7"},{"vid":"2922185","name":"Dr. Efrain Bruen MD","party":"","address":"1859 S Columbia Ln, Apt 229, Orem, UT 84097","precinct":"25OR44","hd":"61","v_score":"0","decile":"2","lat":40.2631570754494,"lng":-111.68015092070345,"phone":"(692) 685-8166","sd":"23","ssbd":"12","lsbd":"School Board Timpanogos 7"},{"vid":"2934721","name":"Tobias Johnston","party":"","address":"1947 S Columbia Ln, Apt 20, Orem, UT 84097","precinct":"25OR44","hd":"61","v_score":"0","decile":"2","lat":40.26184295946831,"lng":-111.67940171160518,"phone":"(544) 293-7459","sd":"23","ssbd":"12","lsbd":"School Board Timpanogos 7"},{"vid":"2934740","name":"Rob Moore","party":"Rep","address":"1977 S 520 E, Orem, UT 84058","precinct":"25OR44","hd":"61","v_score":"0","decile":"2","lat":40.26086042534365,"lng":-111.68241827563135,"phone":"(471) 757-9694","sd":"23","ssbd":"12","lsbd":"School Board Timpanogos 7"},{"vid":"2937831","name":"Geovanni Veum","party":"","address":"1949 S 520 E, Orem, UT 84058","precinct":"25OR44","hd":"61","v_score":"0","decile":"2","lat":40.26134177743789,"lng":-111.68204689661877,"phone":"(410) 112-8981","sd":"23","ssbd":"12","lsbd":"School Board Timpanogos 7"},{"vid":"2950688","name":"Russel Kassulke","party":"","address":"1807 S 543 E, Orem, UT 84058","precinct":"25OR44","hd":"61","v_score":"0","decile":"2","lat":40.26412411557145,"lng":-111.6818642062636,"phone":"(918) 250-7487","sd":"23","ssbd":"12","lsbd":"School Board Timpanogos 7"},{"vid":"2963019","name":"Mona Bradtke","party":"","address":"310 E 1730 S, Orem, UT 84058","precinct":"25OR44","hd":"61","v_score":"0","decile":"2","lat":40.265215308156996,"lng":-111.68701091553746,"phone":"(474) 552-3323","sd":"23","ssbd":"12","lsbd":"School Board Timpanogos 7"},{"vid":"3125573","name":"Latrice Hayes","party":"","address":"457 E 2000 S, Orem, UT 84058","precinct":"25OR44","hd":"61","v_score":"2.315214949","decile":"5","lat":40.26090309532351,"lng":-111.68403301707552,"phone":"(823) 724-6543","sd":"23","ssbd":"12","lsbd":"School Board Timpanogos 7"},{"vid":"3152155","name":"Kent Bergstrom","party":"","address":"310 E 1730 S, Orem, UT 84058","precinct":"25OR44","hd":"61","v_score":"8.280646305","decile":"8","lat":40.265215308156996,"lng":-111.68701091553746,"phone":"(288) 083-6658","sd":"23","ssbd":"12","lsbd":"School Board Timpanogos 7"},{"vid":"3329903","name":"Trevor Ritchie","party":"Dem","address":"1859 S Columbia Ln, Apt 228, Orem, UT 84097","precinct":"25OR44","hd":"61","v_score":"29.71097489","decile":"10","lat":40.2631570754494,"lng":-111.68015092070345,"phone":"(917) 435-7512","sd":"23","ssbd":"12","lsbd":"School Board Timpanogos 7"},{"vid":"3336465","name":"Jensen Tremblay","party":"Rep","address":"337 E 1730 S, Orem, UT 84058","precinct":"25OR44","hd":"61","v_score":"45.76919357","decile":"10","lat":40.26569792507763,"lng":-111.68698478221364,"phone":"(930) 212-4898","sd":"23","ssbd":"12","lsbd":"School Board Timpanogos 7"},{"vid":"3336492","name":"Miss Sherita Ledner DVM","party":"Dem","address":"337 E 1730 S, Orem, UT 84058","precinct":"25OR44","hd":"61","v_score":"37.84600495","decile":"10","lat":40.26569792507763,"lng":-111.68698478221364,"phone":"(711) 851-9630","sd":"23","ssbd":"12","lsbd":"School Board Timpanogos 7"},{"vid":"4312524","name":"Farah Mills","party":"","address":"248 E 1600 S, Orem, UT 84058","precinct":"25OR44","hd":"61","v_score":"12.07513611","decile":"9","lat":40.26758939660209,"lng":-111.68908087002558,"phone":"(997) 796-1024","sd":"23","ssbd":"12","lsbd":"School Board Timpanogos 7"},{"vid":"6028979","name":"Mrs. Anais Rowe DDS","party":"Rep","address":"493 E 2000 S, Orem, UT 84058","precinct":"25OR44","hd":"61","v_score":"3.781490609","decile":"6","lat":40.26090441795216,"lng":-111.6831918797389,"phone":"(145) 909-5058","sd":"23","ssbd":"12","lsbd":"School Board Timpanogos 7"},{"vid":"6073755","name":"Janelle O'Connell MD","party":"Dem","address":"1633 S 400 E, Orem, UT 84058","precinct":"25OR44","hd":"61","v_score":"1.193887297","decile":"4","lat":40.26732753933641,"lng":-111.68515834007549,"phone":"(107) 312-9441","sd":"23","ssbd":"12","lsbd":"School Board Timpanogos 7"},{"vid":"6201084","name":"Olive Kuvalis","party":"Rep","address":"329 E 1730 S, Orem, UT 84058","precinct":"25OR44","hd":"61","v_score":"1.193887297","decile":"4","lat":40.265719067370135,"lng":-111.68756021251275,"phone":"(595) 705-3472","sd":"23","ssbd":"12","lsbd":"School Board Timpanogos 7"},{"vid":"6209949","name":"Jalynn Grady","party":"Rep","address":"434 E 1600 S, Orem, UT 84058","precinct":"25OR44","hd":"61","v_score":"0","decile":"3","lat":40.267707307463745,"lng":-111.68471727622419,"phone":"(364) 636-0078","sd":"23","ssbd":"12","lsbd":"School Board Timpanogos 7"},{"vid":"6220722","name":"Dr. Amin Hickle","party":"Rep","address":"444 E 1800 S, Orem, UT 84058","precinct":"25OR44","hd":"61","v_score":"8.709634245","decile":"8","lat":40.26407815574444,"lng":-111.68425245447885,"phone":"(596) 924-8607","sd":"23","ssbd":"12","lsbd":"School Board Timpanogos 7"},{"vid":"6221279","name":"Lona Spinka DDS","party":"Rep","address":"475 E 1864 S, Orem, UT 84058","precinct":"25OR44","hd":"61","v_score":"36.61576923","decile":"10","lat":40.26311172763544,"lng":-111.68350335529229,"phone":"(884) 222-3177","sd":"23","ssbd":"12","lsbd":"School Board Timpanogos 7"},{"vid":"a6eb47b3deff8a7d4c281b544217d726afe16ad5ffd26dbf565d4e0aaec32a7d","name":"Chauncey Bartell","party":"Dem","address":"365 E 1655 S, Orem, UT 84058","precinct":"25OR44","hd":"61","v_score":"20.24392023","decile":"10","lat":40.26708867157893,"lng":-111.68640227047338,"phone":"(306) 694-7303","sd":"23","ssbd":"12","lsbd":"School Board Timpanogos 7"},{"vid":"6230543","name":"Newman Braun","party":"Rep","address":"444 E 1834 S, Orem, UT 84058","precinct":"25OR44","hd":"61","v_score":"45.76919357","decile":"10","lat":40.26339197204332,"lng":-111.68424480496489,"phone":"(910) 973-0776","sd":"23","ssbd":"12","lsbd":"School Board Timpanogos 7"},{"vid":"affe3e701cbaba1452c13a25271fddf20fb01386d88539f363f91ed1b7d34024","name":"Dr. Cash Stiedemann III","party":"","address":"1660 S 350 E, Orem, UT 84058","precinct":"25OR44","hd":"61","v_score":"31.95337114","decile":"10","lat":40.26656186263778,"lng":-111.68757908843264,"phone":"(727) 549-8840","sd":"23","ssbd":"12","lsbd":"School Board Timpanogos 7"},{"vid":"6235638","name":"Jonnie Prohaska Sr.","party":"","address":"1925 S Terrace Dr, Orem, UT 84097","precinct":"25OR44","hd":"61","v_score":"37.77232129","decile":"10","lat":40.26226118151835,"lng":-111.67842256884629,"phone":"(662) 373-2385","sd":"23","ssbd":"12","lsbd":"School Board Timpanogos 7"},{"vid":"6238629","name":"Brennen Frami DDS","party":"","address":"1826 S 543 E, Orem, UT 84058","precinct":"25OR44","hd":"61","v_score":"9.640097175","decile":"8","lat":40.26368066882753,"lng":-111.68222194860768,"phone":"(751) 558-0831","sd":"23","ssbd":"12","lsbd":"School Board Timpanogos 7"},{"vid":"6243537","name":"Dot Hintz-Nitzsche","party":"","address":"438 E 1910 S, Orem, UT 84058","precinct":"25OR44","hd":"61","v_score":"31.33526927","decile":"10","lat":40.26203093991612,"lng":-111.68434815829427,"phone":"(487) 736-5377","sd":"23","ssbd":"12","lsbd":"School Board Timpanogos 7"},{"vid":"6247868","name":"Mattie Greenholt-Daugherty","party":"","address":"535 E 1910 S, Orem, UT 84058","precinct":"25OR44","hd":"61","v_score":"28.96057337","decile":"10","lat":40.26231603022925,"lng":-111.68227588744956,"phone":"(251) 662-4883","sd":"23","ssbd":"12","lsbd":"School Board Timpanogos 7"},{"vid":"b6362ab89924507988896dd6e6c043e29211aa83b601fc4965035c5e51eb4c63","name":"Dr. Elizabet Beahan DVM","party":"Rep","address":"525 E 1834 S, Orem, UT 84058","precinct":"25OR44","hd":"61","v_score":"39.67753688","decile":"10","lat":40.26380899537315,"lng":-111.68254530224714,"phone":"(372) 112-8861","sd":"23","ssbd":"12","lsbd":"School Board Timpanogos 7"},{"vid":"6260017","name":"Lemuel Gibson I","party":"Dem","address":"479 E 1910 S, Orem, UT 84058","precinct":"25OR44","hd":"61","v_score":"31.78923004","decile":"10","lat":40.26242962915626,"lng":-111.6833469325502,"phone":"(455) 330-8118","sd":"23","ssbd":"12","lsbd":"School Board Timpanogos 7"},{"vid":"1f27b644d7c745e653487e6c5c40f84b0032f2a31edf5b861dba89c386549eb6","name":"Taliyah Abshire MD","party":"Dem","address":"1806 S 543 E, Orem, UT 84058","precinct":"25OR44","hd":"61","v_score":"3.93832808","decile":"6","lat":40.26412938569073,"lng":-111.68222652403107,"phone":"(362) 367-1201","sd":"23","ssbd":"12","lsbd":"School Board Timpanogos 7"},{"vid":"6264249","name":"Reatha Jacobson-Ebert","party":"Rep","address":"1862 S 543 E, Orem, UT 84058","precinct":"25OR44","hd":"61","v_score":"22.13946734","decile":"10","lat":40.26299445733394,"lng":-111.6822142852189,"phone":"(163) 876-1871","sd":"23","ssbd":"12","lsbd":"School Board Timpanogos 7"},{"vid":"6283306","name":"Johan Windler","party":"","address":"1632 S 350 E, Orem, UT 84058","precinct":"25OR44","hd":"61","v_score":"0","decile":"3","lat":40.26709871575611,"lng":-111.68771500273695,"phone":"(665) 315-1546","sd":"23","ssbd":"12","lsbd":"School Board Timpanogos 7"},{"vid":"6294295","name":"Aric Robel","party":"Rep","address":"482 E 1834 S, Orem, UT 84058","precinct":"25OR44","hd":"61","v_score":"12.79826788","decile":"9","lat":40.2633846828408,"lng":-111.68331344856661,"phone":"(663) 989-4497","sd":"23","ssbd":"12","lsbd":"School Board Timpanogos 7"},{"vid":"6294550","name":"Odette Bergnaum-Mohr","party":"","address":"434 E 1600 S, Orem, UT 84058","precinct":"25OR44","hd":"61","v_score":"0","decile":"3","lat":40.267707307463745,"lng":-111.68471727622419,"phone":"(152) 275-5470","sd":"23","ssbd":"12","lsbd":"School Board Timpanogos 7"},{"vid":"6298366","name":"Anthony McClure DVM","party":"","address":"537 E 1800 S, Orem, UT 84058","precinct":"25OR44","hd":"61","v_score":"40.28305098","decile":"10","lat":40.264360898593516,"lng":-111.68219913978895,"phone":"(915) 907-1796","sd":"23","ssbd":"12","lsbd":"School Board Timpanogos 7"},{"vid":"6324638","name":"Calla Kihn","party":"Dem","address":"365 E 1780 S, Orem, UT 84058","precinct":"25OR44","hd":"61","v_score":"37.84600495","decile":"10","lat":40.26505603655837,"lng":-111.68635552957824,"phone":"(616) 201-8227","sd":"23","ssbd":"12","lsbd":"School Board Timpanogos 7"},{"vid":"6341579","name":"Nasir Russel V","party":"","address":"1854 S 543 E, Orem, UT 84058","precinct":"25OR44","hd":"61","v_score":"42.75260232","decile":"10","lat":40.26322733291293,"lng":-111.6823539910996,"phone":"(341) 606-2613","sd":"23","ssbd":"12","lsbd":"School Board Timpanogos 7"},{"vid":"6344145","name":"Donnell Cruickshank","party":"Rep","address":"421 E 1834 S, Orem, UT 84058","precinct":"25OR44","hd":"61","v_score":"37.84600495","decile":"10","lat":40.26380699848138,"lng":-111.6846752539335,"phone":"(180) 431-4963","sd":"23","ssbd":"12","lsbd":"School Board Timpanogos 7"},{"vid":"6360845","name":"Debroah Pfeffer-Predovic","party":"Rep","address":"1760 S 340 E, Orem, UT 84058","precinct":"25OR44","hd":"61","v_score":"20.41790993","decile":"10","lat":40.265215332575515,"lng":-111.68711272825239,"phone":"(281) 197-8255","sd":"23","ssbd":"12","lsbd":"School Board Timpanogos 7"},{"vid":"0797480c39906134acd5beb8d5ee0ba48d5eedfb68adbab9ae969a96bd64801a","name":"Alexandra Kling","party":"Dem","address":"315 E 1730 S, Orem, UT 84058","precinct":"25OR44","hd":"61","v_score":"6.299555799","decile":"7","lat":40.265719039128996,"lng":-111.6878575714008,"phone":"(462) 884-9001","sd":"23","ssbd":"12","lsbd":"School Board Timpanogos 7"},{"vid":"6384985","name":"Erland Heaney","party":"Rep","address":"1826 S 543 E, Orem, UT 84058","precinct":"25OR44","hd":"61","v_score":"26.8582098","decile":"10","lat":40.26368066882753,"lng":-111.68222194860768,"phone":"(953) 965-5630","sd":"23","ssbd":"12","lsbd":"School Board Timpanogos 7"},{"vid":"6385655","name":"Lavon Huel","party":"Dem","address":"1728 S 290 E, Orem, UT 84058","precinct":"25OR44","hd":"61","v_score":"11.99259879","decile":"9","lat":40.26562002702451,"lng":-111.68839154322666,"phone":"(810) 116-3460","sd":"23","ssbd":"12","lsbd":"School Board Timpanogos 7"},{"vid":"0c0404ff247806d5bfe3bc09df493744d6538b7408b3c60f00879fd984d1ed89","name":"Dr. Octavio Torp IV","party":"","address":"1728 S 290 E, Orem, UT 84058","precinct":"25OR44","hd":"61","v_score":"10.7987115","decile":"9","lat":40.26562002702451,"lng":-111.68839154322666,"phone":"(206) 074-0554","sd":"23","ssbd":"12","lsbd":"School Board Timpanogos 7"},{"vid":"6388987","name":"Lorelei Purdy","party":"","address":"453 E 2000 S, Orem, UT 84058","precinct":"25OR44","hd":"61","v_score":"45.76919357","decile":"10","lat":40.26090293738134,"lng":-111.6841333191872,"phone":"(469) 291-9625","sd":"23","ssbd":"12","lsbd":"School Board Timpanogos 7"},{"vid":"8abf727fa6c4d7a486763360dcd4e899e1be13fe397e5a064f7e08fd4313fe0d","name":"Rustin West","party":"","address":"1863 S 543 E, Orem, UT 84058","precinct":"25OR44","hd":"61","v_score":"5.40460374","decile":"7","lat":40.26300962050017,"lng":-111.68180817800793,"phone":"(842) 946-9603","sd":"23","ssbd":"12","lsbd":"School Board Timpanogos 7"},{"vid":"6417302","name":"Dr. Math Swaniawski PhD","party":"Rep","address":"1760 S 340 E, Orem, UT 84058","precinct":"25OR44","hd":"61","v_score":"28.22984883","decile":"10","lat":40.265215332575515,"lng":-111.68711272825239,"phone":"(713) 387-1978","sd":"23","ssbd":"12","lsbd":"School Board Timpanogos 7"},{"vid":"6421062","name":"Erie Prosacco","party":"Rep","address":"458 E 1600 S, Orem, UT 84058","precinct":"25OR44","hd":"61","v_score":"0","decile":"3","lat":40.267581789668206,"lng":-111.68389924247869,"phone":"(297) 130-5742","sd":"23","ssbd":"12","lsbd":"School Board Timpanogos 7"},{"vid":"6438747","name":"Littie Lueilwitz-Grant","party":"","address":"1786 S 340 E, Orem, UT 84058","precinct":"25OR44","hd":"61","v_score":"25.9990224","decile":"10","lat":40.26472578362106,"lng":-111.68710356417884,"phone":"(606) 179-4718","sd":"23","ssbd":"12","lsbd":"School Board Timpanogos 7"},{"vid":"6446531","name":"Magen Shields-Bernier","party":"","address":"447 E 1910 S, Orem, UT 84058","precinct":"25OR44","hd":"61","v_score":"0","decile":"3","lat":40.26243327764786,"lng":-111.68404549018322,"phone":"(460) 310-4231","sd":"23","ssbd":"12","lsbd":"School Board Timpanogos 7"},{"vid":"2d86ca17d8077360d1073629caa189f6b4ee120796cd7cf4d29d2acbd9f6a332","name":"Tanisha Cremin","party":"Dem","address":"443 E 1864 S, Orem, UT 84058","precinct":"25OR44","hd":"61","v_score":"1.121327652","decile":"3","lat":40.26311718688196,"lng":-111.68420188795218,"phone":"(979) 805-3511","sd":"23","ssbd":"12","lsbd":"School Board Timpanogos 7"},{"vid":"7135a20c666ff63afe76297781348c4fb107efeb29f4ee740c69bdb9f19e70ef","name":"Roberto Thiel III","party":"Dem","address":"472 E 1864 S, Orem, UT 84058","precinct":"25OR44","hd":"61","v_score":"5.40460374","decile":"7","lat":40.262705271785165,"lng":-111.68357733209491,"phone":"(237) 994-7289","sd":"23","ssbd":"12","lsbd":"School Board Timpanogos 7"},{"vid":"6461685","name":"Ismael Erdman-Purdy","party":"Rep","address":"444 E 1834 S, Orem, UT 84058","precinct":"25OR44","hd":"61","v_score":"0","decile":"3","lat":40.26339197204332,"lng":-111.68424480496489,"phone":"(103) 317-1056","sd":"23","ssbd":"12","lsbd":"School Board Timpanogos 7"},{"vid":"6466036","name":"Kareem Gislason-Hansen","party":"","address":"365 E 1655 S, Orem, UT 84058","precinct":"25OR44","hd":"61","v_score":"3.93832808","decile":"6","lat":40.26708867157893,"lng":-111.68640227047338,"phone":"(742) 107-1447","sd":"23","ssbd":"12","lsbd":"School Board Timpanogos 7"},{"vid":"6474013","name":"Justen Bode","party":"Rep","address":"495 E 1960 S, Orem, UT 84058","precinct":"25OR44","hd":"61","v_score":"14.95117867","decile":"9","lat":40.26160735603466,"lng":-111.68305638236258,"phone":"(945) 104-0097","sd":"23","ssbd":"12","lsbd":"School Board Timpanogos 7"},{"vid":"6476449","name":"Coletta Strosin","party":"","address":"415 E 1864 S, Orem, UT 84058","precinct":"25OR44","hd":"61","v_score":"14.76227427","decile":"9","lat":40.2631226414667,"lng":-111.6849004204324,"phone":"(860) 875-8280","sd":"23","ssbd":"12","lsbd":"School Board Timpanogos 7"},{"vid":"6477713","name":"Elma Hermiston","party":"Dem","address":"415 E 1864 S, Orem, UT 84058","precinct":"25OR44","hd":"61","v_score":"15.95616156","decile":"9","lat":40.2631226414667,"lng":-111.6849004204324,"phone":"(909) 331-5212","sd":"23","ssbd":"12","lsbd":"School Board Timpanogos 7"},{"vid":"6479895","name":"Dotty Schimmel MD","party":"","address":"333 E 1730 S, Orem, UT 84058","precinct":"25OR44","hd":"61","v_score":"2.587603312","decile":"5","lat":40.26577595508813,"lng":-111.68734229529844,"phone":"(538) 141-3778","sd":"23","ssbd":"12","lsbd":"School Board Timpanogos 7"},{"vid":"6486328","name":"Messiah Bruen","party":"Dem","address":"1904 S Columbia Ln, Orem, UT 84097","precinct":"25OR44","hd":"61","v_score":"37.84600495","decile":"10","lat":40.262290538797274,"lng":-111.68097138290244,"phone":"(705) 896-4372","sd":"23","ssbd":"12","lsbd":"School Board Timpanogos 7"},{"vid":"6492583","name":"Eliezer Hoeger","party":"","address":"1909 S Terrace Dr, Orem, UT 84097","precinct":"25OR44","hd":"61","v_score":"6.954919332","decile":"8","lat":40.26242684818441,"lng":-111.67855033703763,"phone":"(707) 154-7724","sd":"23","ssbd":"12","lsbd":"School Board Timpanogos 7"},{"vid":"6494525","name":"Vance Tremblay","party":"Rep","address":"443 E 2000 S, Orem, UT 84058","precinct":"25OR44","hd":"61","v_score":"1.193887297","decile":"4","lat":40.26090262040016,"lng":-111.68433392233266,"phone":"(392) 519-0393","sd":"23","ssbd":"12","lsbd":"School Board Timpanogos 7"},{"vid":"6497728","name":"Dr. Otelia VonRueden DDS","party":"","address":"336 E 1730 S, Orem, UT 84058","precinct":"25OR44","hd":"61","v_score":"4.210716443","decile":"7","lat":40.26548035439132,"lng":-111.68702759338858,"phone":"(780) 982-4514","sd":"23","ssbd":"12","lsbd":"School Board Timpanogos 7"},{"vid":"6502502","name":"Hobson Gleason-Gerlach","party":"","address":"514 E 1750 S, Orem, UT 84058","precinct":"25OR44","hd":"61","v_score":"15.59959602","decile":"9","lat":40.264957439598426,"lng":-111.68261575127266,"phone":"(206) 947-7228","sd":"23","ssbd":"12","lsbd":"School Board Timpanogos 7"},{"vid":"f5020467e5cc55c0b114af281db240b7f370f78838663cded1907e27abd1781c","name":"Millie VonRueden","party":"Dem","address":"515 E 1834 S, Orem, UT 84058","precinct":"25OR44","hd":"61","v_score":"10.20788914","decile":"9","lat":40.26379244868117,"lng":-111.68281252945891,"phone":"(392) 217-2212","sd":"23","ssbd":"12","lsbd":"School Board Timpanogos 7"},{"vid":"6506898","name":"Arsenio Jast IV","party":"Rep","address":"447 E 1910 S, Orem, UT 84058","precinct":"25OR44","hd":"61","v_score":"3.93832808","decile":"6","lat":40.26243327764786,"lng":-111.68404549018322,"phone":"(300) 681-4907","sd":"23","ssbd":"12","lsbd":"School Board Timpanogos 7"},{"vid":"6523912","name":"Sing Reichert","party":"Rep","address":"375 E 1780 S, Orem, UT 84058","precinct":"25OR44","hd":"61","v_score":"0","decile":"3","lat":40.265039596690265,"lng":-111.68611565825655,"phone":"(388) 285-0170","sd":"23","ssbd":"12","lsbd":"School Board Timpanogos 7"},{"vid":"6532708","name":"Pinkey Ferry","party":"","address":"1768 S 400 E, Orem, UT 84058","precinct":"25OR44","hd":"61","v_score":"2.744440783","decile":"6","lat":40.26492898350367,"lng":-111.68574254861078,"phone":"(562) 191-1052","sd":"23","ssbd":"12","lsbd":"School Board Timpanogos 7"}]