[{"vid":"1033952","name":"Jethro Upton","party":"Dem","address":"306 S 230 W, Orem, UT 84058","precinct":"25OR31","hd":"57","v_score":"6.814370645","decile":"8","lat":40.29169465811472,"lng":-111.70121723024921,"phone":"(336) 094-0024","sd":"23","ssbd":"12","lsbd":"School Board Timpanogos 4"},{"vid":"1225080","name":"Ryley Leuschke","party":"Dem","address":"321 W 100 S, Orem, UT 84058","precinct":"25OR31","hd":"57","v_score":"13.5493502","decile":"9","lat":40.29514331365235,"lng":-111.70328952844406,"phone":"(889) 333-1490","sd":"23","ssbd":"12","lsbd":"School Board Timpanogos 4"},{"vid":"1230623","name":"Mr. Vergil Reilly","party":"Dem","address":"162 W 220 S, Orem, UT 84058","precinct":"25OR31","hd":"57","v_score":"4.210716443","decile":"7","lat":40.293415141953936,"lng":-111.69887462143632,"phone":"(144) 139-2392","sd":"23","ssbd":"12","lsbd":"School Board Timpanogos 4"},{"vid":"1234612","name":"Mr. Robin Brekke","party":"Rep","address":"90 W 255 S, Orem, UT 84058","precinct":"25OR31","hd":"57","v_score":"6.740427232","decile":"8","lat":40.29271171518598,"lng":-111.69762676718356,"phone":"(473) 555-5133","sd":"23","ssbd":"12","lsbd":"School Board Timpanogos 4"},{"vid":"1236418","name":"Morton Donnelly-Heaney","party":"Rep","address":"259 W 255 S, Orem, UT 84058","precinct":"25OR31","hd":"57","v_score":"0","decile":"1","lat":40.29236686572844,"lng":-111.7015035858514,"phone":"(627) 497-1077","sd":"23","ssbd":"12","lsbd":"School Board Timpanogos 4"},{"vid":"4b0ad946b2cde47b1e9f43defd99ea57b0ad7089913dc938bc3de04646fac73f","name":"Josue Borer","party":"Dem","address":"268 W 185 S, Orem, UT 84058","precinct":"25OR31","hd":"57","v_score":"1.121327652","decile":"3","lat":40.294077969479325,"lng":-111.70222846593867,"phone":"(991) 820-0071","sd":"23","ssbd":"12","lsbd":"School Board Timpanogos 4"},{"vid":"1291371","name":"Ira Morar","party":"Rep","address":"74 S 360 W, Orem, UT 84058","precinct":"25OR31","hd":"57","v_score":"2.744440783","decile":"5","lat":40.295828955883984,"lng":-111.70443968641081,"phone":"(504) 572-0324","sd":"23","ssbd":"12","lsbd":"School Board Timpanogos 4"},{"vid":"1518c0dfd7328e536dac19622f1e531d5d7377e670239fcb5709f876e92c761a","name":"Amasa Stamm","party":"Rep","address":"229 W 255 S, Orem, UT 84058","precinct":"25OR31","hd":"57","v_score":"29.32275285","decile":"10","lat":40.292354447545016,"lng":-111.70044286540472,"phone":"(674) 544-4504","sd":"23","ssbd":"12","lsbd":"School Board Timpanogos 4"},{"vid":"1297313","name":"Natalya Cartwright","party":"Dem","address":"243 S 335 W, Orem, UT 84058","precinct":"25OR31","hd":"57","v_score":"15.37637782","decile":"9","lat":40.29278941190926,"lng":-111.7033673748296,"phone":"(108) 633-0926","sd":"23","ssbd":"12","lsbd":"School Board Timpanogos 4"},{"vid":"1298876","name":"Yolonda Pfeffer","party":"","address":"62 S 360 W, Orem, UT 84058","precinct":"25OR31","hd":"57","v_score":"3.93832808","decile":"6","lat":40.296058396580385,"lng":-111.70445708037529,"phone":"(668) 083-3053","sd":"23","ssbd":"12","lsbd":"School Board Timpanogos 4"},{"vid":"1306125","name":"Miss Magdalen Larkin DDS","party":"Rep","address":"236 S 180 W, Orem, UT 84058","precinct":"25OR31","hd":"57","v_score":"11.09694254","decile":"9","lat":40.29292425848446,"lng":-111.69965788247515,"phone":"(462) 114-5096","sd":"23","ssbd":"12","lsbd":"School Board Timpanogos 4"},{"vid":"1327532","name":"Shawnee O'Reilly","party":"Dem","address":"232 S 220 W, Orem, UT 84058","precinct":"25OR31","hd":"57","v_score":"1.193887297","decile":"3","lat":40.29305894465196,"lng":-111.70039983623697,"phone":"(509) 351-1565","sd":"23","ssbd":"12","lsbd":"School Board Timpanogos 4"},{"vid":"1339765","name":"Dr. Avon VonRueden","party":"","address":"243 S 335 W, Orem, UT 84058","precinct":"25OR31","hd":"57","v_score":"19.61187125","decile":"10","lat":40.29278941190926,"lng":-111.7033673748296,"phone":"(177) 139-2940","sd":"23","ssbd":"12","lsbd":"School Board Timpanogos 4"},{"vid":"1356674","name":"Miss Jazmin Quigley PhD","party":"Dem","address":"68 S 360 W, Orem, UT 84058","precinct":"25OR31","hd":"57","v_score":"5.40460374","decile":"7","lat":40.29593985452012,"lng":-111.70452131116761,"phone":"(831) 991-7181","sd":"23","ssbd":"12","lsbd":"School Board Timpanogos 4"},{"vid":"1379376","name":"Valery Adams","party":"Rep","address":"250 W 255 S, Orem, UT 84058","precinct":"25OR31","hd":"57","v_score":"0","decile":"1","lat":40.292764907875544,"lng":-111.70127463115696,"phone":"(293) 673-9119","sd":"23","ssbd":"12","lsbd":"School Board Timpanogos 4"},{"vid":"1386960","name":"Peter Macejkovic","party":"Dem","address":"242 W 100 S, Orem, UT 84058","precinct":"25OR31","hd":"57","v_score":"3.016591252","decile":"6","lat":40.295526141458254,"lng":-111.7014363570135,"phone":"(208) 046-4341","sd":"23","ssbd":"12","lsbd":"School Board Timpanogos 4"},{"vid":"1386971","name":"Fronia Kuvalis","party":"Dem","address":"370 S 200 W, Orem, UT 84058","precinct":"25OR31","hd":"57","v_score":"8.280646305","decile":"8","lat":40.290566480587856,"lng":-111.6996046242879,"phone":"(874) 989-1585","sd":"23","ssbd":"12","lsbd":"School Board Timpanogos 4"},{"vid":"e1303300bd109f5aa918d445631050335c5c4965b421e4faac71acb658ffe5a1","name":"Carlee Hane","party":"Dem","address":"234 W 220 S, Orem, UT 84058","precinct":"25OR31","hd":"57","v_score":"5.620483348","decile":"7","lat":40.29343223179579,"lng":-111.70057285198564,"phone":"(732) 558-8157","sd":"23","ssbd":"12","lsbd":"School Board Timpanogos 4"},{"vid":"725a6de7630d726917f61ae01168f0c460b348106cdacf68d33cb1548cf0cfd9","name":"Dr. Jonatan Cronin","party":"Rep","address":"365 W 350 S, Orem, UT 84058","precinct":"25OR31","hd":"57","v_score":"48.19520036","decile":"10","lat":40.2909855311143,"lng":-111.70436813259786,"phone":"(177) 295-4194","sd":"23","ssbd":"12","lsbd":"School Board Timpanogos 4"},{"vid":"1409842","name":"Drew Kilback","party":"Rep","address":"345 W 100 S, Orem, UT 84058","precinct":"25OR31","hd":"57","v_score":"2.315214949","decile":"5","lat":40.29514784958726,"lng":-111.70385763398916,"phone":"(814) 455-2436","sd":"23","ssbd":"12","lsbd":"School Board Timpanogos 4"},{"vid":"1444394","name":"Blanche Goldner-Hudson","party":"","address":"167 S 240 W, Orem, UT 84058","precinct":"25OR31","hd":"57","v_score":"1.46627566","decile":"4","lat":40.29448964432359,"lng":-111.70115107737539,"phone":"(819) 277-5965","sd":"23","ssbd":"12","lsbd":"School Board Timpanogos 4"},{"vid":"f983a036a6fbbd37fc103c7dc9079f86a8c3b9a6db5f8a2f3c86657c2a448401","name":"Ms. Dotty Hegmann DDS","party":"","address":"230 S 50 W, Orem, UT 84058","precinct":"25OR31","hd":"57","v_score":"16.2066738","decile":"9","lat":40.29302975267336,"lng":-111.69653959803968,"phone":"(303) 062-8501","sd":"23","ssbd":"12","lsbd":"School Board Timpanogos 4"},{"vid":"1483415","name":"Norwood Jast-Corkery","party":"Dem","address":"328 W 220 S, Orem, UT 84058","precinct":"25OR31","hd":"57","v_score":"6.550708384","decile":"7","lat":40.29337024513472,"lng":-111.70341216692239,"phone":"(283) 000-5748","sd":"23","ssbd":"12","lsbd":"School Board Timpanogos 4"},{"vid":"1483707","name":"Dink Boehm","party":"Dem","address":"371 S 100 W, Orem, UT 84058","precinct":"25OR31","hd":"57","v_score":"0","decile":"1","lat":40.29043081697499,"lng":-111.69759188614007,"phone":"(298) 215-5669","sd":"23","ssbd":"12","lsbd":"School Board Timpanogos 4"},{"vid":"1484246","name":"Miss Monique Will","party":"Dem","address":"58 S 360 W, Orem, UT 84058","precinct":"25OR31","hd":"57","v_score":"3.781490609","decile":"6","lat":40.296070851676944,"lng":-111.7042877637985,"phone":"(718) 084-3324","sd":"23","ssbd":"12","lsbd":"School Board Timpanogos 4"},{"vid":"59c44a8fe85c4de188d87ef268487d1781226573f1ee8f2a53289ecc07381523","name":"Branson Stoltenberg","party":"Rep","address":"87 W 165 S, Orem, UT 84058","precinct":"25OR31","hd":"57","v_score":"5.815909755","decile":"7","lat":40.29432762543567,"lng":-111.69771702385466,"phone":"(472) 416-9915","sd":"23","ssbd":"12","lsbd":"School Board Timpanogos 4"},{"vid":"1489727","name":"Emit Okuneva","party":"","address":"52 W 220 S, Orem, UT 84058","precinct":"25OR31","hd":"57","v_score":"13.01325397","decile":"9","lat":40.29336535112047,"lng":-111.69666181810562,"phone":"(148) 737-9860","sd":"23","ssbd":"12","lsbd":"School Board Timpanogos 4"},{"vid":"1501585","name":"Colby Ebert","party":"Rep","address":"273 W 220 S, Orem, UT 84058","precinct":"25OR31","hd":"57","v_score":"3.93832808","decile":"6","lat":40.2930369439209,"lng":-111.70200450855238,"phone":"(629) 649-0974","sd":"23","ssbd":"12","lsbd":"School Board Timpanogos 4"},{"vid":"1542590","name":"Brea Klein","party":"","address":"273 W 220 S, Orem, UT 84058","precinct":"25OR31","hd":"57","v_score":"9.050194508","decile":"8","lat":40.2930369439209,"lng":-111.70200450855238,"phone":"(331) 042-2413","sd":"23","ssbd":"12","lsbd":"School Board Timpanogos 4"},{"vid":"1546523","name":"Cassandra Beer","party":"","address":"347 W 300 S, Orem, UT 84058","precinct":"25OR31","hd":"57","v_score":"3.781490609","decile":"6","lat":40.29176673119517,"lng":-111.70373905008347,"phone":"(684) 456-1031","sd":"23","ssbd":"12","lsbd":"School Board Timpanogos 4"},{"vid":"1e9c3767f68c96375792573f1c853e405b34a60a5c2461b62889fe78f9dbe898","name":"Madeline Gutmann-Boyer","party":"","address":"213 S 400 W, Orem, UT 84058","precinct":"25OR31","hd":"57","v_score":"17.89408627","decile":"10","lat":40.293452844296354,"lng":-111.7045855519793,"phone":"(448) 762-3449","sd":"23","ssbd":"12","lsbd":"School Board Timpanogos 4"},{"vid":"1565082","name":"Lanita Cole DVM","party":"Dem","address":"308 S 50 W, Orem, UT 84058","precinct":"25OR31","hd":"57","v_score":"4.210716443","decile":"7","lat":40.29158932711719,"lng":-111.69642392632721,"phone":"(227) 004-4848","sd":"23","ssbd":"12","lsbd":"School Board Timpanogos 4"},{"vid":"1586026","name":"Brooks Sanford","party":"Rep","address":"8 W 400 S, Orem, UT 84058","precinct":"25OR31","hd":"57","v_score":"0","decile":"1","lat":40.29005249642585,"lng":-111.69564424895225,"phone":"(506) 953-2803","sd":"23","ssbd":"12","lsbd":"School Board Timpanogos 4"},{"vid":"1590806","name":"Henderson Denesik-Torp","party":"Dem","address":"184 S 70 W, Orem, UT 84058","precinct":"25OR31","hd":"57","v_score":"1.623113131","decile":"4","lat":40.29379036699262,"lng":-111.69753710966881,"phone":"(784) 097-1512","sd":"23","ssbd":"12","lsbd":"School Board Timpanogos 4"},{"vid":"1592467","name":"Ms. Domonique Hyatt DDS","party":"Dem","address":"259 S 50 W, Orem, UT 84058","precinct":"25OR31","hd":"57","v_score":"8.347511332","decile":"8","lat":40.29233068471644,"lng":-111.6960535226049,"phone":"(490) 461-4759","sd":"23","ssbd":"12","lsbd":"School Board Timpanogos 4"},{"vid":"cc762289c8b16d857373aa6ed679a8f585d3396340bf327980030efef1655bb9","name":"Kathyrn Baumbach","party":"","address":"288 W 100 S, Orem, UT 84058","precinct":"25OR31","hd":"57","v_score":"21.03454587","decile":"10","lat":40.2955177124175,"lng":-111.70230715618547,"phone":"(882) 698-9576","sd":"23","ssbd":"12","lsbd":"School Board Timpanogos 4"},{"vid":"1628875","name":"Chandler Dickens","party":"Rep","address":"155 S 240 W, Orem, UT 84058","precinct":"25OR31","hd":"57","v_score":"2.315214949","decile":"5","lat":40.29469547059579,"lng":-111.70116574390615,"phone":"(973) 069-1334","sd":"23","ssbd":"12","lsbd":"School Board Timpanogos 4"},{"vid":"0db76b407f2da12382566dab85eb82a89d9d32dfabba45ee2cfbbef43cb3a3ea","name":"Jayda Considine","party":"","address":"320 W 220 S, Orem, UT 84058","precinct":"25OR31","hd":"57","v_score":"9.677383843","decile":"8","lat":40.29346385751598,"lng":-111.70315792956684,"phone":"(669) 332-4361","sd":"23","ssbd":"12","lsbd":"School Board Timpanogos 4"},{"vid":"1636676","name":"Brittny Streich MD","party":"Dem","address":"73 S 320 W, Orem, UT 84058","precinct":"25OR31","hd":"57","v_score":"25.13040659","decile":"10","lat":40.29587197978582,"lng":-111.70293587598304,"phone":"(213) 444-5730","sd":"23","ssbd":"12","lsbd":"School Board Timpanogos 4"},{"vid":"1645666","name":"Dr. Garrison Gibson","party":"Dem","address":"70 W 255 S, Orem, UT 84058","precinct":"25OR31","hd":"57","v_score":"4.210716443","decile":"7","lat":40.292702271889574,"lng":-111.69712513858643,"phone":"(256) 944-7921","sd":"23","ssbd":"12","lsbd":"School Board Timpanogos 4"},{"vid":"1647935","name":"Hamp Leannon PhD","party":"Rep","address":"80 W 255 S, Orem, UT 84058","precinct":"25OR31","hd":"57","v_score":"2.744440783","decile":"5","lat":40.292707007378816,"lng":-111.69737593851198,"phone":"(839) 753-2309","sd":"23","ssbd":"12","lsbd":"School Board Timpanogos 4"},{"vid":"1651144","name":"Camille Kshlerin","party":"Rep","address":"191 S 180 W, Orem, UT 84058","precinct":"25OR31","hd":"57","v_score":"0","decile":"1","lat":40.29387028746438,"lng":-111.69911411516567,"phone":"(521) 538-3713","sd":"23","ssbd":"12","lsbd":"School Board Timpanogos 4"},{"vid":"1656070","name":"Granville Kassulke","party":"","address":"88 S 320 W, Orem, UT 84058","precinct":"25OR31","hd":"57","v_score":"0","decile":"1","lat":40.295597156130945,"lng":-111.70357439625808,"phone":"(369) 544-2771","sd":"23","ssbd":"12","lsbd":"School Board Timpanogos 4"},{"vid":"1663489","name":"Christina Glover","party":"","address":"178 S 70 W, Orem, UT 84058","precinct":"25OR31","hd":"57","v_score":"4.069929862","decile":"6","lat":40.29396218017021,"lng":-111.69752381944352,"phone":"(648) 326-9741","sd":"23","ssbd":"12","lsbd":"School Board Timpanogos 4"},{"vid":"1676328","name":"Evelyn Schmidt","party":"Rep","address":"115 W 220 S, Orem, UT 84058","precinct":"25OR31","hd":"57","v_score":"0","decile":"1","lat":40.292941109867975,"lng":-111.69812484833365,"phone":"(352) 579-4899","sd":"23","ssbd":"12","lsbd":"School Board Timpanogos 4"},{"vid":"1722557","name":"Ayanna Lehner","party":"Dem","address":"179 W 255 S, Orem, UT 84058","precinct":"25OR31","hd":"57","v_score":"2.744440783","decile":"5","lat":40.2923368417533,"lng":-111.69921353728772,"phone":"(383) 808-2242","sd":"23","ssbd":"12","lsbd":"School Board Timpanogos 4"},{"vid":"1740564","name":"Corliss Bergstrom","party":"","address":"344 S 100 W, Orem, UT 84058","precinct":"25OR31","hd":"57","v_score":"28.05068527","decile":"10","lat":40.16181978263007,"lng":-111.61283891117195,"phone":"(736) 080-4261","sd":"23","ssbd":"12","lsbd":"School Board Timpanogos 4"},{"vid":"1746124","name":"Miss Sharla Durgan DDS","party":"Dem","address":"373 S 100 W, Orem, UT 84058","precinct":"25OR31","hd":"57","v_score":"5.273794831","decile":"7","lat":40.03865592178215,"lng":-111.73340035617164,"phone":"(221) 276-9953","sd":"23","ssbd":"12","lsbd":"School Board Timpanogos 4"},{"vid":"1748973","name":"Blair Lowe-Heidenreich","party":"","address":"391 S 400 W, Orem, UT 84058","precinct":"25OR31","hd":"57","v_score":"9.116556227","decile":"8","lat":40.29012364608268,"lng":-111.70495758081005,"phone":"(253) 366-1040","sd":"23","ssbd":"12","lsbd":"School Board Timpanogos 4"},{"vid":"1751047","name":"Eddie Kunze","party":"Dem","address":"189 W 255 S, Orem, UT 84058","precinct":"25OR31","hd":"57","v_score":"9.640097175","decile":"8","lat":40.29234146887038,"lng":-111.69946077090158,"phone":"(938) 854-2816","sd":"23","ssbd":"12","lsbd":"School Board Timpanogos 4"},{"vid":"1753828","name":"Dr. Eulah Langosh DVM","party":"Dem","address":"121 W 255 S, Orem, UT 84058","precinct":"25OR31","hd":"57","v_score":"3.93832808","decile":"6","lat":40.292354019546295,"lng":-111.69809732317302,"phone":"(875) 812-3917","sd":"23","ssbd":"12","lsbd":"School Board Timpanogos 4"},{"vid":"d0bcbd1ffca25efce9ed2d0d81474722accb1afc59db33ae69f81c635cee5b4e","name":"Cecelia O'Keefe-Williamson","party":"Rep","address":"186 S Orem Blvd, Orem, UT 84058","precinct":"25OR31","hd":"57","v_score":"3.781490609","decile":"6","lat":40.29372278931428,"lng":-111.69653413898223,"phone":"(689) 825-8333","sd":"23","ssbd":"12","lsbd":"School Board Timpanogos 4"},{"vid":"1777253","name":"Giana Buckridge","party":"Dem","address":"92 W 220 S, Orem, UT 84058","precinct":"25OR31","hd":"57","v_score":"3.93832808","decile":"6","lat":40.29340252347844,"lng":-111.69765616760553,"phone":"(472) 165-0615","sd":"23","ssbd":"12","lsbd":"School Board Timpanogos 4"},{"vid":"1794968","name":"Norris McDermott","party":"","address":"302 W 100 S, Orem, UT 84058","precinct":"25OR31","hd":"57","v_score":"1.121327652","decile":"3","lat":40.29563564046337,"lng":-111.70273076145523,"phone":"(775) 524-4529","sd":"23","ssbd":"12","lsbd":"School Board Timpanogos 4"},{"vid":"1796011","name":"Kalel Bogisich","party":"Rep","address":"266 W 400 S, Orem, UT 84058","precinct":"25OR31","hd":"57","v_score":"9.405332525","decile":"8","lat":40.29020694738265,"lng":-111.70181342346807,"phone":"(763) 806-2948","sd":"23","ssbd":"12","lsbd":"School Board Timpanogos 4"},{"vid":"1804763","name":"Izaiah Dickinson","party":"Dem","address":"183 S 70 W, Orem, UT 84058","precinct":"25OR31","hd":"57","v_score":"0","decile":"1","lat":40.29384039338198,"lng":-111.69698062391174,"phone":"(520) 903-5766","sd":"23","ssbd":"12","lsbd":"School Board Timpanogos 4"},{"vid":"1823376","name":"Mrs. Alys Graham MD","party":"Dem","address":"262 W 300 S, Orem, UT 84058","precinct":"25OR31","hd":"57","v_score":"5.40460374","decile":"7","lat":40.29201960840755,"lng":-111.70187201917443,"phone":"(882) 430-3411","sd":"23","ssbd":"12","lsbd":"School Board Timpanogos 4"},{"vid":"1830622","name":"Park Quitzon DVM","party":"Rep","address":"39 W 315 S, Orem, UT 84058","precinct":"25OR31","hd":"57","v_score":"5.258122542","decile":"7","lat":40.291246738439,"lng":-111.6957550533453,"phone":"(632) 304-2858","sd":"23","ssbd":"12","lsbd":"School Board Timpanogos 4"},{"vid":"1832572","name":"Bernie Zemlak","party":"Dem","address":"189 W 255 S, Orem, UT 84058","precinct":"25OR31","hd":"57","v_score":"5.60307055","decile":"7","lat":40.29234146887038,"lng":-111.69946077090158,"phone":"(616) 248-5211","sd":"23","ssbd":"12","lsbd":"School Board Timpanogos 4"},{"vid":"e21e29f1e1eb9384f324a0271a059a7aa776a7bce1c1365399462b0cbce2eed0","name":"Yetta Powlowski","party":"","address":"65 W 255 S, Orem, UT 84058","precinct":"25OR31","hd":"57","v_score":"23.50393489","decile":"10","lat":40.29229535569113,"lng":-111.69699220517205,"phone":"(558) 268-5733","sd":"23","ssbd":"12","lsbd":"School Board Timpanogos 4"},{"vid":"67d76d1a609649e1e22e379a821765b42b2ab4e6182296da84124e7a7615b579","name":"Ruben Quitzon","party":"Rep","address":"205 W 100 S, Orem, UT 84058","precinct":"25OR31","hd":"57","v_score":"25.64328519","decile":"10","lat":40.29510271948112,"lng":-111.70054670077008,"phone":"(952) 181-5596","sd":"23","ssbd":"12","lsbd":"School Board Timpanogos 4"},{"vid":"1856863","name":"Carmen Bernhard","party":"Rep","address":"134 W 400 S, Orem, UT 84058","precinct":"25OR31","hd":"57","v_score":"2.315214949","decile":"5","lat":40.29013788598182,"lng":-111.69859645182039,"phone":"(337) 948-9382","sd":"23","ssbd":"12","lsbd":"School Board Timpanogos 4"},{"vid":"1860205","name":"Rubi Dicki","party":"Dem","address":"315 W 255 S, Orem, UT 84058","precinct":"25OR31","hd":"57","v_score":"8.347511332","decile":"8","lat":40.292384728597064,"lng":-111.70302653442754,"phone":"(805) 735-6646","sd":"23","ssbd":"12","lsbd":"School Board Timpanogos 4"},{"vid":"7b8dda5107f21a4a91b27d1372e0e22ee468fed7150ad7c71dc57525f0747644","name":"Mr. Lavern Sporer","party":"Rep","address":"84 W 300 S, Orem, UT 84058","precinct":"25OR31","hd":"57","v_score":"2.587603312","decile":"5","lat":40.29191201662539,"lng":-111.69775836369934,"phone":"(140) 694-5073","sd":"23","ssbd":"12","lsbd":"School Board Timpanogos 4"},{"vid":"1868411","name":"Orma Armstrong","party":"Dem","address":"236 S 180 W, Orem, UT 84058","precinct":"25OR31","hd":"57","v_score":"10.95989164","decile":"9","lat":40.29292425848446,"lng":-111.69965788247515,"phone":"(906) 946-3174","sd":"23","ssbd":"12","lsbd":"School Board Timpanogos 4"},{"vid":"cf733b75c30cc572d0ef1ceac1ea9aa825620a04a321a7c9c65d7fd7ce739376","name":"Ana Gerlach","party":"","address":"67 S 320 W, Orem, UT 84058","precinct":"25OR31","hd":"57","v_score":"3.781490609","decile":"6","lat":40.29599032681732,"lng":-111.70298942417719,"phone":"(168) 373-6368","sd":"23","ssbd":"12","lsbd":"School Board Timpanogos 4"},{"vid":"1877099","name":"Dr. Gerardo Lehner Jr.","party":"","address":"331 S 150 W, Orem, UT 84058","precinct":"25OR31","hd":"57","v_score":"6.814370645","decile":"8","lat":40.29132610334374,"lng":-111.69866556379662,"phone":"(642) 789-6848","sd":"23","ssbd":"12","lsbd":"School Board Timpanogos 4"},{"vid":"1881209","name":"Reece Morissette","party":"Rep","address":"235 S 220 W, Orem, UT 84058","precinct":"25OR31","hd":"57","v_score":"1.121327652","decile":"3","lat":40.292934247296735,"lng":-111.6999411924308,"phone":"(815) 786-4700","sd":"23","ssbd":"12","lsbd":"School Board Timpanogos 4"},{"vid":"0f01c698c6455ab4d01de251a3ebcc4423bec380cff20196ddd618ea3aee645b","name":"Elsa Daugherty","party":"","address":"331 S 150 W, Orem, UT 84058","precinct":"25OR31","hd":"57","v_score":"5.693042993","decile":"7","lat":40.29132610334374,"lng":-111.69866556379662,"phone":"(736) 688-2509","sd":"23","ssbd":"12","lsbd":"School Board Timpanogos 4"},{"vid":"1887378","name":"Ms. Kylah Gutmann","party":"Dem","address":"245 W 255 S, Orem, UT 84058","precinct":"25OR31","hd":"57","v_score":"2.817000428","decile":"6","lat":40.292360671985364,"lng":-111.70097322463991,"phone":"(843) 458-6361","sd":"23","ssbd":"12","lsbd":"School Board Timpanogos 4"},{"vid":"1897561","name":"Kandace Yost","party":"","address":"356 S 50 W, Orem, UT 84058","precinct":"25OR31","hd":"57","v_score":"1.193887297","decile":"3","lat":40.29070873424485,"lng":-111.69661830353358,"phone":"(120) 182-8296","sd":"23","ssbd":"12","lsbd":"School Board Timpanogos 4"},{"vid":"1902160","name":"Caswell Bechtelar-Renner","party":"Dem","address":"282 W 255 S, Orem, UT 84058","precinct":"25OR31","hd":"57","v_score":"11.30609121","decile":"9","lat":40.29277715084903,"lng":-111.70232098556596,"phone":"(403) 449-6847","sd":"23","ssbd":"12","lsbd":"School Board Timpanogos 4"},{"vid":"6bcee814e9f579fa7e90847fdd6bf6aa6a192693267b79fcaa69329b0688d2f6","name":"Manly Runte","party":"","address":"309 S 150 W, Orem, UT 84058","precinct":"25OR31","hd":"57","v_score":"2.315214949","decile":"5","lat":40.29164683096612,"lng":-111.69867401208384,"phone":"(164) 609-0214","sd":"23","ssbd":"12","lsbd":"School Board Timpanogos 4"},{"vid":"1908861","name":"Mr. Orange Fritsch","party":"Dem","address":"38 W 355 S, Orem, UT 84058","precinct":"25OR31","hd":"57","v_score":"2.587603312","decile":"5","lat":40.29081624770196,"lng":-111.69581551994102,"phone":"(156) 603-9762","sd":"23","ssbd":"12","lsbd":"School Board Timpanogos 4"},{"vid":"1918490","name":"Bo Lynch","party":"Dem","address":"266 W 100 S, Orem, UT 84058","precinct":"25OR31","hd":"57","v_score":"8.280646305","decile":"8","lat":40.29548434873817,"lng":-111.70200506260966,"phone":"(617) 724-2975","sd":"23","ssbd":"12","lsbd":"School Board Timpanogos 4"},{"vid":"1922719","name":"Mr. Isaac Sawayn","party":"Dem","address":"361 S 100 W, Apt B, Orem, UT 84058","precinct":"25OR31","hd":"57","v_score":"4.069929862","decile":"6","lat":40.29049241918324,"lng":-111.69729964916345,"phone":"(184) 814-4933","sd":"23","ssbd":"12","lsbd":"School Board Timpanogos 4"},{"vid":"5224c77fbde88b7cc7f212cd5439c603ee5d3dd8571a767b8a40142b4852ba36","name":"Lulie McGlynn","party":"Dem","address":"247 S 180 W, Orem, UT 84058","precinct":"25OR31","hd":"57","v_score":"3.781490609","decile":"6","lat":40.29269266566236,"lng":-111.69920211237475,"phone":"(284) 372-9126","sd":"23","ssbd":"12","lsbd":"School Board Timpanogos 4"},{"vid":"1949141","name":"Rice Kuphal","party":"Rep","address":"373 S 100 W, Orem, UT 84058","precinct":"25OR31","hd":"57","v_score":"0","decile":"1","lat":40.03865592178215,"lng":-111.73340035617164,"phone":"(485) 844-1313","sd":"23","ssbd":"12","lsbd":"School Board Timpanogos 4"},{"vid":"1953755","name":"Marget Koch","party":"","address":"344 S 100 W, Orem, UT 84058","precinct":"25OR31","hd":"57","v_score":"26.84076894","decile":"10","lat":40.16181978263007,"lng":-111.61283891117195,"phone":"(490) 642-6384","sd":"23","ssbd":"12","lsbd":"School Board Timpanogos 4"},{"vid":"1968301","name":"Daquan Johnston","party":"Rep","address":"50 W 255 S, Orem, UT 84058","precinct":"25OR31","hd":"57","v_score":"1.193887297","decile":"3","lat":40.29259864996068,"lng":-111.69645336975205,"phone":"(375) 348-0702","sd":"23","ssbd":"12","lsbd":"School Board Timpanogos 4"},{"vid":"1969502","name":"Annika Turcotte","party":"","address":"337 W 350 S, Orem, UT 84058","precinct":"25OR31","hd":"57","v_score":"1.121327652","decile":"3","lat":40.29097196857242,"lng":-111.70358464621512,"phone":"(345) 281-4219","sd":"23","ssbd":"12","lsbd":"School Board Timpanogos 4"},{"vid":"1973949","name":"Lennie Wunsch","party":"","address":"85 W 255 S, Orem, UT 84058","precinct":"25OR31","hd":"57","v_score":"1.193887297","decile":"3","lat":40.29227775465755,"lng":-111.69747203830475,"phone":"(240) 396-6693","sd":"23","ssbd":"12","lsbd":"School Board Timpanogos 4"},{"vid":"1995044","name":"Laquan Keebler","party":"Rep","address":"377 W 350 S, Orem, UT 84058","precinct":"25OR31","hd":"57","v_score":"1.121327652","decile":"3","lat":40.290932675495576,"lng":-111.70461274978223,"phone":"(273) 340-5836","sd":"23","ssbd":"12","lsbd":"School Board Timpanogos 4"},{"vid":"2003583","name":"Rohan Emard","party":"Dem","address":"305 S 50 W, Orem, UT 84058","precinct":"25OR31","hd":"57","v_score":"5.40460374","decile":"7","lat":40.29159417598381,"lng":-111.69601083785204,"phone":"(871) 111-1863","sd":"23","ssbd":"12","lsbd":"School Board Timpanogos 4"},{"vid":"2003640","name":"Cassidy Carter-Hammes","party":"Rep","address":"331 S 50 W, Orem, UT 84058","precinct":"25OR31","hd":"57","v_score":"1.46627566","decile":"4","lat":40.291268966098336,"lng":-111.6960584936143,"phone":"(286) 203-2180","sd":"23","ssbd":"12","lsbd":"School Board Timpanogos 4"},{"vid":"2019583","name":"Agustus Jacobs","party":"","address":"375 W 300 S, Orem, UT 84058","precinct":"25OR31","hd":"57","v_score":"11.02844566","decile":"9","lat":40.29164729416366,"lng":-111.70468577803364,"phone":"(506) 177-4715","sd":"23","ssbd":"12","lsbd":"School Board Timpanogos 4"},{"vid":"2021621","name":"Demarcus Dach","party":"","address":"55 W 350 S, Orem, UT 84058","precinct":"25OR31","hd":"57","v_score":"0","decile":"1","lat":40.29089504522137,"lng":-111.6971689031343,"phone":"(650) 063-2285","sd":"23","ssbd":"12","lsbd":"School Board Timpanogos 4"},{"vid":"ef69bebd255ef6207f351436cb361a2c772fe5aa7f68cc37b3ef75c61e600951","name":"Octave Herman","party":"Rep","address":"185 S 70 W, Orem, UT 84058","precinct":"25OR31","hd":"57","v_score":"5.40460374","decile":"7","lat":40.29378329327435,"lng":-111.69695346195174,"phone":"(756) 073-9483","sd":"23","ssbd":"12","lsbd":"School Board Timpanogos 4"},{"vid":"2027469","name":"Duwayne Berge-Strosin","party":"Dem","address":"274 W 255 S, Orem, UT 84058","precinct":"25OR31","hd":"57","v_score":"1.121327652","decile":"3","lat":40.292774091613275,"lng":-111.702059424542,"phone":"(446) 790-4190","sd":"23","ssbd":"12","lsbd":"School Board Timpanogos 4"},{"vid":"2028610","name":"Margot Fadel","party":"Rep","address":"366 W 350 S, Orem, UT 84058","precinct":"25OR31","hd":"57","v_score":"6.027167436","decile":"7","lat":40.29128881893623,"lng":-111.70440208133125,"phone":"(454) 104-5671","sd":"23","ssbd":"12","lsbd":"School Board Timpanogos 4"},{"vid":"2029314","name":"Abril Yost","party":"Dem","address":"365 S 100 W, Apt A, Orem, UT 84058","precinct":"25OR31","hd":"57","v_score":"2.315214949","decile":"5","lat":40.29046219570262,"lng":-111.69690552154573,"phone":"(444) 662-9748","sd":"23","ssbd":"12","lsbd":"School Board Timpanogos 4"},{"vid":"1f2a1ef1151cbcb33eea526a8ec0541e4b7a361173ecf8dbfb70b752cc7c617f","name":"Missy Morissette-Torphy","party":"Dem","address":"262 W 300 S, Orem, UT 84058","precinct":"25OR31","hd":"57","v_score":"14.40879056","decile":"9","lat":40.29201960840755,"lng":-111.70187201917443,"phone":"(772) 276-6056","sd":"23","ssbd":"12","lsbd":"School Board Timpanogos 4"},{"vid":"2055944","name":"Terence Walter","party":"Dem","address":"194 W 300 S, Orem, UT 84058","precinct":"25OR31","hd":"57","v_score":"14.31864359","decile":"9","lat":40.29206218817757,"lng":-111.70007464525109,"phone":"(720) 063-5525","sd":"23","ssbd":"12","lsbd":"School Board Timpanogos 4"},{"vid":"2065342","name":"Levina Wilkinson DDS","party":"Dem","address":"342 S 150 W, Orem, UT 84058","precinct":"25OR31","hd":"57","v_score":"1.121327652","decile":"3","lat":40.291046869731176,"lng":-111.69912920740143,"phone":"(223) 016-5645","sd":"23","ssbd":"12","lsbd":"School Board Timpanogos 4"},{"vid":"2073150","name":"Cicero Howe-Conn","party":"","address":"339 W 100 S, Orem, UT 84058","precinct":"25OR31","hd":"57","v_score":"38.24567755","decile":"10","lat":40.2951470019001,"lng":-111.70374038102739,"phone":"(885) 911-5494","sd":"23","ssbd":"12","lsbd":"School Board Timpanogos 4"},{"vid":"f214f6fcc822690d1fffa7575de3a7ecd76b542d9dd23a62ee68b11bd000b2cb","name":"Ashly Weimann","party":"","address":"357 S 280 W, Orem, UT 84058","precinct":"25OR31","hd":"57","v_score":"8.347511332","decile":"8","lat":40.29071861306571,"lng":-111.70189341390117,"phone":"(608) 814-4362","sd":"23","ssbd":"12","lsbd":"School Board Timpanogos 4"},{"vid":"2079108","name":"Leonce Swift","party":"","address":"371 S 100 W, Orem, UT 84058","precinct":"25OR31","hd":"57","v_score":"2.315214949","decile":"5","lat":40.29043081697499,"lng":-111.69759188614007,"phone":"(288) 293-7918","sd":"23","ssbd":"12","lsbd":"School Board Timpanogos 4"},{"vid":"dbfa210649eed30c3fa8d3c2f8acaa8717ad81c7cccff035326151a9e7208622","name":"Dr. Scarlett Pollich PhD","party":"","address":"309 S 150 W, Orem, UT 84058","precinct":"25OR31","hd":"57","v_score":"28.9661873","decile":"10","lat":40.29164683096612,"lng":-111.69867401208384,"phone":"(400) 469-4591","sd":"23","ssbd":"12","lsbd":"School Board Timpanogos 4"},{"vid":"2087188","name":"Burnell Morissette V","party":"","address":"318 W 255 S, Orem, UT 84058","precinct":"25OR31","hd":"57","v_score":"10.02942871","decile":"9","lat":40.29278635486671,"lng":-111.70310577913065,"phone":"(483) 322-0130","sd":"23","ssbd":"12","lsbd":"School Board Timpanogos 4"},{"vid":"2100041","name":"Ms. Ellyn Blick","party":"","address":"114 W 300 S, Orem, UT 84058","precinct":"25OR31","hd":"57","v_score":"1.193887297","decile":"3","lat":40.29192004749084,"lng":-111.698113480876,"phone":"(493) 669-0679","sd":"23","ssbd":"12","lsbd":"School Board Timpanogos 4"},{"vid":"770182f12586f89246b92fc2479d46c31883e44831b1117d487ec5223bb8080e","name":"Dr. Janae Abshire","party":"Dem","address":"21 W 270 S, Orem, UT 84058","precinct":"25OR31","hd":"57","v_score":"1.193887297","decile":"3","lat":40.292045512268366,"lng":-111.6958143185807,"phone":"(700) 601-7883","sd":"23","ssbd":"12","lsbd":"School Board Timpanogos 4"},{"vid":"3b6a07ad4b5795c029cd031808e802d1ab0fd38dc623fd4ae5f68ba9f4cf431e","name":"Ridge Nitzsche-Dickens","party":"","address":"182 W 300 S, Orem, UT 84058","precinct":"25OR31","hd":"57","v_score":"8.347511332","decile":"8","lat":40.29208038865472,"lng":-111.69983961665775,"phone":"(767) 847-5456","sd":"23","ssbd":"12","lsbd":"School Board Timpanogos 4"},{"vid":"2123068","name":"Isreal Bogan IV","party":"Dem","address":"316 S 150 W, Orem, UT 84058","precinct":"25OR31","hd":"57","v_score":"6.881235673","decile":"8","lat":40.291649777336794,"lng":-111.69906998556453,"phone":"(529) 002-8681","sd":"23","ssbd":"12","lsbd":"School Board Timpanogos 4"},{"vid":"2131773","name":"Mr. Gabe Fritsch II","party":"Rep","address":"262 W 300 S, Orem, UT 84058","precinct":"25OR31","hd":"57","v_score":"5.40460374","decile":"7","lat":40.29201960840755,"lng":-111.70187201917443,"phone":"(690) 857-0398","sd":"23","ssbd":"12","lsbd":"School Board Timpanogos 4"},{"vid":"2132393","name":"Alesha Botsford PhD","party":"Rep","address":"249 S 50 W, Orem, UT 84058","precinct":"25OR31","hd":"57","v_score":"8.347511332","decile":"8","lat":40.29267413812831,"lng":-111.69590434967489,"phone":"(994) 234-1418","sd":"23","ssbd":"12","lsbd":"School Board Timpanogos 4"},{"vid":"2132838","name":"Osie Marvin Jr.","party":"Dem","address":"189 W 255 S, Orem, UT 84058","precinct":"25OR31","hd":"57","v_score":"8.016984044","decile":"8","lat":40.29234146887038,"lng":-111.69946077090158,"phone":"(741) 797-8336","sd":"23","ssbd":"12","lsbd":"School Board Timpanogos 4"},{"vid":"2142058","name":"Dr. Dion Conroy","party":"","address":"56 W 350 S, Orem, UT 84058","precinct":"25OR31","hd":"57","v_score":"1.193887297","decile":"3","lat":40.29112132863625,"lng":-111.6971439964003,"phone":"(622) 688-9220","sd":"23","ssbd":"12","lsbd":"School Board Timpanogos 4"},{"vid":"2152911","name":"Fulton Treutel","party":"Rep","address":"61 W 220 S, Orem, UT 84058","precinct":"25OR31","hd":"57","v_score":"2.315214949","decile":"5","lat":40.292998587174985,"lng":-111.69688613506773,"phone":"(688) 799-3848","sd":"23","ssbd":"12","lsbd":"School Board Timpanogos 4"},{"vid":"2153739","name":"Mr. Fuller Johnson","party":"","address":"65 W 255 S, Orem, UT 84058","precinct":"25OR31","hd":"57","v_score":"30.61533869","decile":"10","lat":40.29229535569113,"lng":-111.69699220517205,"phone":"(231) 457-1481","sd":"23","ssbd":"12","lsbd":"School Board Timpanogos 4"},{"vid":"2126c678f1077e38be2e223862a2ed21dee9a78236dbcb59859aee00ccda15b7","name":"Jace Koelpin","party":"Rep","address":"249 S 50 W, Orem, UT 84058","precinct":"25OR31","hd":"57","v_score":"8.347511332","decile":"8","lat":40.29267413812831,"lng":-111.69590434967489,"phone":"(111) 038-2867","sd":"23","ssbd":"12","lsbd":"School Board Timpanogos 4"},{"vid":"2169149","name":"Rosa Berge","party":"","address":"249 S 50 W, Orem, UT 84058","precinct":"25OR31","hd":"57","v_score":"5.40460374","decile":"7","lat":40.29267413812831,"lng":-111.69590434967489,"phone":"(129) 945-6977","sd":"23","ssbd":"12","lsbd":"School Board Timpanogos 4"},{"vid":"2169719","name":"Dr. Mateo Gislason Sr.","party":"","address":"240 W 220 S, Orem, UT 84058","precinct":"25OR31","hd":"57","v_score":"0","decile":"1","lat":40.29343604127735,"lng":-111.70088243622604,"phone":"(572) 302-5055","sd":"23","ssbd":"12","lsbd":"School Board Timpanogos 4"},{"vid":"2173513","name":"Mr. Raekwon Mann PhD","party":"Rep","address":"333 W 100 S, Orem, UT 84058","precinct":"25OR31","hd":"57","v_score":"6.481563075","decile":"7","lat":40.29514576558687,"lng":-111.70358984584367,"phone":"(298) 968-1048","sd":"23","ssbd":"12","lsbd":"School Board Timpanogos 4"},{"vid":"b46df66c6ba3497f78404ebd444222a4d3e6ab89db9c1d4d2d81cd9602de20a7","name":"Ms. Iza Marquardt","party":"","address":"128 W 300 S, Orem, UT 84058","precinct":"25OR31","hd":"57","v_score":"0","decile":"1","lat":40.29203503847015,"lng":-111.69857308358559,"phone":"(671) 610-4317","sd":"23","ssbd":"12","lsbd":"School Board Timpanogos 4"},{"vid":"2193772","name":"Suzann Schumm","party":"","address":"306 S 230 W, Orem, UT 84058","precinct":"25OR31","hd":"57","v_score":"1.121327652","decile":"3","lat":40.29169465811472,"lng":-111.70121723024921,"phone":"(724) 643-1953","sd":"23","ssbd":"12","lsbd":"School Board Timpanogos 4"},{"vid":"5829800f7a1024e1477ec4971cf5cf99b3228e03efdfbda837c122d87fc0d793","name":"Elba Kertzmann","party":"Dem","address":"70 S 220 W, Orem, UT 84058","precinct":"25OR31","hd":"57","v_score":"0","decile":"1","lat":40.295809553587276,"lng":-111.70099904299758,"phone":"(127) 488-6452","sd":"23","ssbd":"12","lsbd":"School Board Timpanogos 4"},{"vid":"2198141","name":"Mr. Rey Kemmer","party":"Rep","address":"247 S 180 W, Orem, UT 84058","precinct":"25OR31","hd":"57","v_score":"1.121327652","decile":"3","lat":40.29269266566236,"lng":-111.69920211237475,"phone":"(319) 007-8549","sd":"23","ssbd":"12","lsbd":"School Board Timpanogos 4"},{"vid":"2199922","name":"Mr. Byron Stroman MD","party":"Rep","address":"310 W 220 S, Orem, UT 84058","precinct":"25OR31","hd":"57","v_score":"1.121327652","decile":"3","lat":40.29346068895614,"lng":-111.70289994743096,"phone":"(444) 824-4289","sd":"23","ssbd":"12","lsbd":"School Board Timpanogos 4"},{"vid":"11973c046df1438da4087259cbb5f2339a42ce3cb8680a99448ee3a3a872ada6","name":"Tammi Bins","party":"","address":"39 W 315 S, Orem, UT 84058","precinct":"25OR31","hd":"57","v_score":"2.315214949","decile":"5","lat":40.291246738439,"lng":-111.6957550533453,"phone":"(743) 562-0982","sd":"23","ssbd":"12","lsbd":"School Board Timpanogos 4"},{"vid":"8dc7345766b7804dde07830d2e57f4ac73638277cd652add0d9b3096b07325ad","name":"Gerhard Hoppe-Mante","party":"Rep","address":"36 W 315 S, Orem, UT 84058","precinct":"25OR31","hd":"57","v_score":"9.426618751","decile":"8","lat":40.29141758853838,"lng":-111.69578462310933,"phone":"(301) 241-7791","sd":"23","ssbd":"12","lsbd":"School Board Timpanogos 4"},{"vid":"e826fe72c7e1cb5cf269d60d96d5f12cba68bf675fd95b757290aca7c133c1e7","name":"Flora Macejkovic","party":"","address":"79 W 165 S, Orem, UT 84058","precinct":"25OR31","hd":"57","v_score":"2.817000428","decile":"6","lat":40.29433745520413,"lng":-111.69743568656516,"phone":"(641) 652-2822","sd":"23","ssbd":"12","lsbd":"School Board Timpanogos 4"},{"vid":"7a64e83af9bdde88b5c9ae48b7fa025c26f2706bcf812d77196cb03abb3ebab9","name":"Miss Jennette Mayert DVM","party":"","address":"179 W 255 S, Orem, UT 84058","precinct":"25OR31","hd":"57","v_score":"36.22444185","decile":"10","lat":40.2923368417533,"lng":-111.69921353728772,"phone":"(688) 339-5187","sd":"23","ssbd":"12","lsbd":"School Board Timpanogos 4"},{"vid":"2216794","name":"Hugo Ziemann","party":"Dem","address":"267 W 185 S, Orem, UT 84058","precinct":"25OR31","hd":"57","v_score":"10.06441387","decile":"9","lat":40.29380017573954,"lng":-111.70217900058387,"phone":"(387) 081-9883","sd":"23","ssbd":"12","lsbd":"School Board Timpanogos 4"},{"vid":"2216887","name":"Burnice Keebler","party":"","address":"217 W 100 S, Orem, UT 84058","precinct":"25OR31","hd":"57","v_score":"0","decile":"1","lat":40.29516147835335,"lng":-111.70087258749447,"phone":"(805) 208-9448","sd":"23","ssbd":"12","lsbd":"School Board Timpanogos 4"},{"vid":"2216900","name":"Wava Nitzsche","party":"Dem","address":"213 S 260 W, Orem, UT 84058","precinct":"25OR31","hd":"57","v_score":"0","decile":"1","lat":40.2934364966305,"lng":-111.70158238704343,"phone":"(183) 363-0189","sd":"23","ssbd":"12","lsbd":"School Board Timpanogos 4"},{"vid":"584126af2a19911ae1e271ddcfe192ded46abcfc7765f6a595238a58b18a66a4","name":"Miss Citlali Fritsch","party":"","address":"380 W 400 S, Orem, UT 84058","precinct":"25OR31","hd":"57","v_score":"1.121327652","decile":"3","lat":40.29021569817663,"lng":-111.70420062388006,"phone":"(614) 590-5292","sd":"23","ssbd":"12","lsbd":"School Board Timpanogos 4"},{"vid":"2242914","name":"Mr. Ernesto Purdy","party":"","address":"65 S 360 W, Orem, UT 84058","precinct":"25OR31","hd":"57","v_score":"0","decile":"1","lat":40.29599104817921,"lng":-111.70397662762993,"phone":"(364) 294-1001","sd":"23","ssbd":"12","lsbd":"School Board Timpanogos 4"},{"vid":"3eb3f35adba196cc91b2e66682940378cfd8fd3f4cfd4dc4e5e9e87a05f57844","name":"Mr. Emiliano Prosacco PhD","party":"Rep","address":"274 W 255 S, Orem, UT 84058","precinct":"25OR31","hd":"57","v_score":"2.315214949","decile":"5","lat":40.292774091613275,"lng":-111.702059424542,"phone":"(224) 552-1878","sd":"23","ssbd":"12","lsbd":"School Board Timpanogos 4"},{"vid":"2249881","name":"Melisa Williamson","party":"Dem","address":"174 S 180 W, Orem, UT 84058","precinct":"25OR31","hd":"57","v_score":"29.19593211","decile":"10","lat":40.29447162697532,"lng":-111.69952321331358,"phone":"(683) 187-8043","sd":"23","ssbd":"12","lsbd":"School Board Timpanogos 4"},{"vid":"1dea8329e9930a71d8a6477cd09c85b0f2fe06092179d50edad3bf75d793fba5","name":"Rutha Waters-Dickens","party":"","address":"329 S 100 W, Orem, UT 84058","precinct":"25OR31","hd":"57","v_score":"0","decile":"1","lat":40.291121000645745,"lng":-111.69766938792948,"phone":"(571) 674-8411","sd":"23","ssbd":"12","lsbd":"School Board Timpanogos 4"},{"vid":"2254649","name":"Dr. Freddy Lind","party":"Dem","address":"104 W 220 S, Orem, UT 84058","precinct":"25OR31","hd":"57","v_score":"1.121327652","decile":"3","lat":40.29340510675727,"lng":-111.69789985359266,"phone":"(619) 115-9650","sd":"23","ssbd":"12","lsbd":"School Board Timpanogos 4"},{"vid":"2255104","name":"Arch Bosco","party":"","address":"92 W 220 S, Orem, UT 84058","precinct":"25OR31","hd":"57","v_score":"5.258122542","decile":"7","lat":40.29340252347844,"lng":-111.69765616760553,"phone":"(300) 889-9368","sd":"23","ssbd":"12","lsbd":"School Board Timpanogos 4"},{"vid":"7ef0daa5da540628efd2456c4a581e674a9d473e0308530606eae5ccbe53db27","name":"Amiyah Bergstrom","party":"Rep","address":"196 S 165 W, Orem, UT 84058","precinct":"25OR31","hd":"57","v_score":"8.670935747","decile":"8","lat":40.293822132946,"lng":-111.69873839946933,"phone":"(314) 072-1096","sd":"23","ssbd":"12","lsbd":"School Board Timpanogos 4"},{"vid":"2260156","name":"Oris Jones","party":"","address":"92 W 220 S, Orem, UT 84058","precinct":"25OR31","hd":"57","v_score":"7.650280567","decile":"8","lat":40.29340252347844,"lng":-111.69765616760553,"phone":"(554) 515-8790","sd":"23","ssbd":"12","lsbd":"School Board Timpanogos 4"},{"vid":"d22be2c4a01c1556ca6e1a1f8c90b77df995f4d12223d3d72d17413b5f3e5694","name":"Isaias Mraz","party":"Dem","address":"160 W 255 S, Orem, UT 84058","precinct":"25OR31","hd":"57","v_score":"9.40499548","decile":"8","lat":40.29273529368398,"lng":-111.69888088700576,"phone":"(125) 573-7572","sd":"23","ssbd":"12","lsbd":"School Board Timpanogos 4"},{"vid":"07b7cb2975298d6a0c1320cb615220d38b2a42963a3f1a7c59fd4f20d6592651","name":"Alto Dickinson-Spencer","party":"Rep","address":"305 S 50 W, Orem, UT 84058","precinct":"25OR31","hd":"57","v_score":"2.744440783","decile":"5","lat":40.29159417598381,"lng":-111.69601083785204,"phone":"(470) 677-7194","sd":"23","ssbd":"12","lsbd":"School Board Timpanogos 4"},{"vid":"2270996","name":"Bart Gutkowski","party":"Dem","address":"217 W 100 S, Orem, UT 84058","precinct":"25OR31","hd":"57","v_score":"0","decile":"1","lat":40.29516147835335,"lng":-111.70087258749447,"phone":"(124) 317-1131","sd":"23","ssbd":"12","lsbd":"School Board Timpanogos 4"},{"vid":"5d2ecc35ad743c189d6b9ed199e735514553b2ff6000bc1d412f27fa23b1aae2","name":"Karlene Hettinger","party":"Dem","address":"306 S 230 W, Orem, UT 84058","precinct":"25OR31","hd":"57","v_score":"5.191257514","decile":"7","lat":40.29169465811472,"lng":-111.70121723024921,"phone":"(556) 275-2870","sd":"23","ssbd":"12","lsbd":"School Board Timpanogos 4"},{"vid":"5f16d65207f03d629883e50091f5bef57056a91c42c613f82bee179ffcba26e2","name":"Rafe Zboncak","party":"Dem","address":"232 S 220 W, Orem, UT 84058","precinct":"25OR31","hd":"57","v_score":"0","decile":"1","lat":40.29305894465196,"lng":-111.70039983623697,"phone":"(439) 954-2779","sd":"23","ssbd":"12","lsbd":"School Board Timpanogos 4"},{"vid":"2287627","name":"Mr. Tilden Hayes Sr.","party":"","address":"250 W 255 S, Orem, UT 84058","precinct":"25OR31","hd":"57","v_score":"4.069929862","decile":"6","lat":40.292764907875544,"lng":-111.70127463115696,"phone":"(408) 806-9490","sd":"23","ssbd":"12","lsbd":"School Board Timpanogos 4"},{"vid":"95e1d46a7eefd283ff5960b7d0a1d1d010b4b17b8d2a39707d24c41a0688f8e6","name":"Harvie Schuster-Cassin","party":"Rep","address":"145 W 220 S, Orem, UT 84058","precinct":"25OR31","hd":"57","v_score":"5.258122542","decile":"7","lat":40.293003724802844,"lng":-111.69862561688375,"phone":"(735) 483-0299","sd":"23","ssbd":"12","lsbd":"School Board Timpanogos 4"},{"vid":"5439c8793f5990bbddc80f9b6de77001a64e01f21967a77d27eea1134d26ffe1","name":"Josie Ortiz PhD","party":"","address":"226 W 220 S, Orem, UT 84058","precinct":"25OR31","hd":"57","v_score":"0","decile":"1","lat":40.29332174921641,"lng":-111.7003261729732,"phone":"(792) 874-9626","sd":"23","ssbd":"12","lsbd":"School Board Timpanogos 4"},{"vid":"2320762","name":"Ms. Girtha Cruickshank","party":"Dem","address":"174 S 180 W, Orem, UT 84058","precinct":"25OR31","hd":"57","v_score":"19.07349948","decile":"10","lat":40.29447162697532,"lng":-111.69952321331358,"phone":"(789) 263-5294","sd":"23","ssbd":"12","lsbd":"School Board Timpanogos 4"},{"vid":"2326386","name":"Pauletta Yundt","party":"","address":"332 S 230 W, Orem, UT 84058","precinct":"25OR31","hd":"57","v_score":"12.08307454","decile":"9","lat":40.29115258888602,"lng":-111.70140182713871,"phone":"(560) 605-4392","sd":"23","ssbd":"12","lsbd":"School Board Timpanogos 4"},{"vid":"2331880","name":"Delma Crist","party":"","address":"290 W 220 S, Orem, UT 84058","precinct":"25OR31","hd":"57","v_score":"0","decile":"1","lat":40.29345440473213,"lng":-111.70238391219229,"phone":"(676) 739-7551","sd":"23","ssbd":"12","lsbd":"School Board Timpanogos 4"},{"vid":"2332023","name":"Mr. Allyn Zemlak","party":"Rep","address":"231 S 180 W, Orem, UT 84058","precinct":"25OR31","hd":"57","v_score":"0","decile":"1","lat":40.29305034435498,"lng":-111.69919094441477,"phone":"(831) 824-1706","sd":"23","ssbd":"12","lsbd":"School Board Timpanogos 4"},{"vid":"2343050","name":"Julius DuBuque","party":"Rep","address":"76 S 270 W, Orem, UT 84058","precinct":"25OR31","hd":"57","v_score":"0","decile":"1","lat":40.295795835521766,"lng":-111.70242855347556,"phone":"(313) 055-4465","sd":"23","ssbd":"12","lsbd":"School Board Timpanogos 4"},{"vid":"2343192","name":"Colton Kris-Kshlerin","party":"","address":"213 S 260 W, Orem, UT 84058","precinct":"25OR31","hd":"57","v_score":"0","decile":"1","lat":40.2934364966305,"lng":-111.70158238704343,"phone":"(187) 840-4343","sd":"23","ssbd":"12","lsbd":"School Board Timpanogos 4"},{"vid":"2348007","name":"Reubin Grady Jr.","party":"Rep","address":"75 W 300 S, Orem, UT 84058","precinct":"25OR31","hd":"57","v_score":"6.481563075","decile":"7","lat":39.97030098064841,"lng":-111.78672081801362,"phone":"(287) 536-2032","sd":"23","ssbd":"12","lsbd":"School Board Timpanogos 4"},{"vid":"2353930","name":"Harley Hoppe-Hoeger","party":"Dem","address":"338 S 100 W, Orem, UT 84058","precinct":"25OR31","hd":"57","v_score":"1.193887297","decile":"3","lat":40.29104002492001,"lng":-111.69823118981901,"phone":"(558) 072-1683","sd":"23","ssbd":"12","lsbd":"School Board Timpanogos 4"},{"vid":"2356979","name":"Tristin Greenholt","party":"Dem","address":"180 S 70 W, Orem, UT 84058","precinct":"25OR31","hd":"57","v_score":"1.121327652","decile":"3","lat":40.29391379918023,"lng":-111.69751915961265,"phone":"(876) 171-0510","sd":"23","ssbd":"12","lsbd":"School Board Timpanogos 4"},{"vid":"2359396","name":"Kaye Kirlin","party":"","address":"188 S 70 W, Orem, UT 84058","precinct":"25OR31","hd":"57","v_score":"1.121327652","decile":"3","lat":40.29367692156149,"lng":-111.6975368936739,"phone":"(207) 964-5625","sd":"23","ssbd":"12","lsbd":"School Board Timpanogos 4"},{"vid":"2366663","name":"Reinhold Little","party":"Dem","address":"189 W 255 S, Orem, UT 84058","precinct":"25OR31","hd":"57","v_score":"6.979934218","decile":"8","lat":40.29234146887038,"lng":-111.69946077090158,"phone":"(412) 974-2567","sd":"23","ssbd":"12","lsbd":"School Board Timpanogos 4"},{"vid":"2386052","name":"Mr. Milburn Pouros MD","party":"Dem","address":"124 W 400 S, Orem, UT 84058","precinct":"25OR31","hd":"57","v_score":"11.04986408","decile":"9","lat":40.29020940967661,"lng":-111.69834379956873,"phone":"(949) 417-9969","sd":"23","ssbd":"12","lsbd":"School Board Timpanogos 4"},{"vid":"2388959","name":"Meyer Blanda","party":"Dem","address":"199 S 180 W, Orem, UT 84058","precinct":"25OR31","hd":"57","v_score":"23.86036318","decile":"10","lat":40.29367268106915,"lng":-111.69911550521874,"phone":"(920) 526-3526","sd":"23","ssbd":"12","lsbd":"School Board Timpanogos 4"},{"vid":"2392309","name":"Dr. Marlena McDermott MD","party":"Rep","address":"365 W 350 S, Orem, UT 84058","precinct":"25OR31","hd":"57","v_score":"8.284004873","decile":"8","lat":40.2909855311143,"lng":-111.70436813259786,"phone":"(577) 005-3541","sd":"23","ssbd":"12","lsbd":"School Board Timpanogos 4"},{"vid":"2400922","name":"Phyllis Ziemann","party":"Dem","address":"276 W 400 S, Orem, UT 84058","precinct":"25OR31","hd":"57","v_score":"10.71705651","decile":"9","lat":40.29014601004659,"lng":-111.70207842139497,"phone":"(948) 577-2525","sd":"23","ssbd":"12","lsbd":"School Board Timpanogos 4"},{"vid":"2404644","name":"Page Moore","party":"Rep","address":"196 W 400 S, Orem, UT 84058","precinct":"25OR31","hd":"57","v_score":"1.193887297","decile":"3","lat":40.29015177276306,"lng":-111.70006959689884,"phone":"(907) 687-5461","sd":"23","ssbd":"12","lsbd":"School Board Timpanogos 4"},{"vid":"2410550","name":"Campbell Harris","party":"Dem","address":"80 W 255 S, Orem, UT 84058","precinct":"25OR31","hd":"57","v_score":"2.744440783","decile":"5","lat":40.292707007378816,"lng":-111.69737593851198,"phone":"(271) 095-2705","sd":"23","ssbd":"12","lsbd":"School Board Timpanogos 4"},{"vid":"2411243","name":"Shyann Zboncak","party":"","address":"189 S 70 W, Orem, UT 84058","precinct":"25OR31","hd":"57","v_score":"1.121327652","decile":"3","lat":40.293669634778176,"lng":-111.69693967316147,"phone":"(945) 940-6665","sd":"23","ssbd":"12","lsbd":"School Board Timpanogos 4"},{"vid":"2418598","name":"Miss Sunday Deckow DDS","party":"Dem","address":"341 S 340 W, Orem, UT 84058","precinct":"25OR31","hd":"57","v_score":"10.66687182","decile":"9","lat":40.291259204737116,"lng":-111.70347702253056,"phone":"(900) 808-9028","sd":"23","ssbd":"12","lsbd":"School Board Timpanogos 4"},{"vid":"2419795","name":"Kayleen Jast","party":"","address":"80 W 255 S, Orem, UT 84058","precinct":"25OR31","hd":"57","v_score":"1.121327652","decile":"3","lat":40.292707007378816,"lng":-111.69737593851198,"phone":"(335) 095-5630","sd":"23","ssbd":"12","lsbd":"School Board Timpanogos 4"},{"vid":"2422345","name":"Clarisa Reinger","party":"","address":"372 S 150 W, Orem, UT 84058","precinct":"25OR31","hd":"57","v_score":"3.93832808","decile":"6","lat":40.290525550418955,"lng":-111.69911661787205,"phone":"(511) 630-7291","sd":"23","ssbd":"12","lsbd":"School Board Timpanogos 4"},{"vid":"2430049","name":"Felicia Moen-Bartoletti","party":"","address":"134 W 400 S, Orem, UT 84058","precinct":"25OR31","hd":"57","v_score":"2.315214949","decile":"5","lat":40.29013788598182,"lng":-111.69859645182039,"phone":"(722) 381-8217","sd":"23","ssbd":"12","lsbd":"School Board Timpanogos 4"},{"vid":"2431654","name":"Ollie Blick","party":"Rep","address":"77 W 165 S, Orem, UT 84058","precinct":"25OR31","hd":"57","v_score":"2.315214949","decile":"5","lat":40.29432263028765,"lng":-111.69736707390679,"phone":"(209) 519-8411","sd":"23","ssbd":"12","lsbd":"School Board Timpanogos 4"},{"vid":"2436445","name":"Marco Daniel","party":"Dem","address":"92 W 220 S, Orem, UT 84058","precinct":"25OR31","hd":"57","v_score":"2.315214949","decile":"5","lat":40.29340252347844,"lng":-111.69765616760553,"phone":"(906) 980-3527","sd":"23","ssbd":"12","lsbd":"School Board Timpanogos 4"},{"vid":"2446650","name":"Ruffus Pfeffer","party":"Rep","address":"359 W 300 S, Orem, UT 84058","precinct":"25OR31","hd":"57","v_score":"1.121327652","decile":"3","lat":40.29163417351652,"lng":-111.70407593035243,"phone":"(481) 776-0370","sd":"23","ssbd":"12","lsbd":"School Board Timpanogos 4"},{"vid":"2447649","name":"Bernardine Blick","party":"Rep","address":"72 S 220 W, Orem, UT 84058","precinct":"25OR31","hd":"57","v_score":"1.121327652","decile":"3","lat":40.29574794879617,"lng":-111.70123087402706,"phone":"(484) 444-7219","sd":"23","ssbd":"12","lsbd":"School Board Timpanogos 4"},{"vid":"2460896","name":"Mrs. Caitlyn Bauch","party":"","address":"279 S 280 W, Orem, UT 84058","precinct":"25OR31","hd":"57","v_score":"1.193887297","decile":"3","lat":40.2920345368934,"lng":-111.70218751892443,"phone":"(188) 656-8694","sd":"23","ssbd":"12","lsbd":"School Board Timpanogos 4"},{"vid":"2468372","name":"Amie Parisian","party":"","address":"188 S 70 W, Orem, UT 84058","precinct":"25OR31","hd":"57","v_score":"0","decile":"1","lat":40.29367692156149,"lng":-111.6975368936739,"phone":"(349) 783-6094","sd":"23","ssbd":"12","lsbd":"School Board Timpanogos 4"},{"vid":"2469903","name":"Cheri Shanahan-Tromp","party":"Dem","address":"290 W 220 S, Orem, UT 84058","precinct":"25OR31","hd":"57","v_score":"1.193887297","decile":"3","lat":40.29345440473213,"lng":-111.70238391219229,"phone":"(999) 486-6198","sd":"23","ssbd":"12","lsbd":"School Board Timpanogos 4"},{"vid":"2471010","name":"Clell O'Reilly","party":"","address":"242 W 100 S, Orem, UT 84058","precinct":"25OR31","hd":"57","v_score":"9.119914795","decile":"8","lat":40.295526141458254,"lng":-111.7014363570135,"phone":"(367) 069-6761","sd":"23","ssbd":"12","lsbd":"School Board Timpanogos 4"},{"vid":"2472539","name":"Dr. Gianni Keeling Jr.","party":"Dem","address":"243 W 100 S, Orem, UT 84058","precinct":"25OR31","hd":"57","v_score":"16.18372391","decile":"9","lat":40.29512573297913,"lng":-111.7014760745865,"phone":"(544) 460-9790","sd":"23","ssbd":"12","lsbd":"School Board Timpanogos 4"},{"vid":"2473452","name":"Ms. Rosalind Terry PhD","party":"","address":"338 S 100 W, Orem, UT 84058","precinct":"25OR31","hd":"57","v_score":"0","decile":"1","lat":40.29104002492001,"lng":-111.69823118981901,"phone":"(942) 211-2711","sd":"23","ssbd":"12","lsbd":"School Board Timpanogos 4"},{"vid":"2476155","name":"Zion Luettgen-Greenholt","party":"Dem","address":"72 S 220 W, Orem, UT 84058","precinct":"25OR31","hd":"57","v_score":"6.372115444","decile":"7","lat":40.29574794879617,"lng":-111.70123087402706,"phone":"(216) 932-6184","sd":"23","ssbd":"12","lsbd":"School Board Timpanogos 4"},{"vid":"2479335","name":"Mr. Bruno Jones","party":"","address":"222 W 300 S, Orem, UT 84058","precinct":"25OR31","hd":"57","v_score":"3.711952487","decile":"6","lat":40.29200881417977,"lng":-111.70082192427122,"phone":"(823) 287-3684","sd":"23","ssbd":"12","lsbd":"School Board Timpanogos 4"},{"vid":"2488064","name":"Dinah Hauck","party":"Dem","address":"282 W 255 S, Orem, UT 84058","precinct":"25OR31","hd":"57","v_score":"2.817000428","decile":"6","lat":40.29277715084903,"lng":-111.70232098556596,"phone":"(782) 788-0788","sd":"23","ssbd":"12","lsbd":"School Board Timpanogos 4"},{"vid":"2491716","name":"Dr. Devon Kemmer","party":"","address":"240 W 220 S, Orem, UT 84058","precinct":"25OR31","hd":"57","v_score":"1.193887297","decile":"3","lat":40.29343604127735,"lng":-111.70088243622604,"phone":"(590) 043-5014","sd":"23","ssbd":"12","lsbd":"School Board Timpanogos 4"},{"vid":"2514909","name":"Jimmie Hilpert","party":"Dem","address":"357 S 280 W, Orem, UT 84058","precinct":"25OR31","hd":"57","v_score":"2.817000428","decile":"6","lat":40.29071861306571,"lng":-111.70189341390117,"phone":"(869) 323-7463","sd":"23","ssbd":"12","lsbd":"School Board Timpanogos 4"},{"vid":"2518281","name":"Ciara Monahan","party":"Rep","address":"325 S 280 W, Orem, UT 84058","precinct":"25OR31","hd":"57","v_score":"0","decile":"1","lat":40.291190566614965,"lng":-111.70190332716967,"phone":"(209) 483-5113","sd":"23","ssbd":"12","lsbd":"School Board Timpanogos 4"},{"vid":"2522305","name":"Samiyah Schulist","party":"Rep","address":"218 W 220 S, Orem, UT 84058","precinct":"25OR31","hd":"57","v_score":"1.193887297","decile":"4","lat":40.29331448482985,"lng":-111.70010453415331,"phone":"(852) 857-3548","sd":"23","ssbd":"12","lsbd":"School Board Timpanogos 4"},{"vid":"2530145","name":"Kade Schneider","party":"Rep","address":"189 S 70 W, Orem, UT 84058","precinct":"25OR31","hd":"57","v_score":"7.781882349","decile":"8","lat":40.293669634778176,"lng":-111.69693967316147,"phone":"(201) 602-3928","sd":"23","ssbd":"12","lsbd":"School Board Timpanogos 4"},{"vid":"2531121","name":"Cinnamon Wintheiser","party":"Dem","address":"104 W 220 S, Orem, UT 84058","precinct":"25OR31","hd":"57","v_score":"0","decile":"1","lat":40.29340510675727,"lng":-111.69789985359266,"phone":"(719) 770-5307","sd":"23","ssbd":"12","lsbd":"School Board Timpanogos 4"},{"vid":"2532855","name":"Jack Hartmann","party":"","address":"231 W 100 S, Orem, UT 84058","precinct":"25OR31","hd":"57","v_score":"0","decile":"1","lat":40.29515275533195,"lng":-111.70112645256386,"phone":"(776) 963-5277","sd":"23","ssbd":"12","lsbd":"School Board Timpanogos 4"},{"vid":"2532990","name":"Derrick VonRueden","party":"Dem","address":"365 W 350 S, Orem, UT 84058","precinct":"25OR31","hd":"57","v_score":"0","decile":"1","lat":40.2909855311143,"lng":-111.70436813259786,"phone":"(367) 658-8548","sd":"23","ssbd":"12","lsbd":"School Board Timpanogos 4"},{"vid":"2536036","name":"Jaimee Parisian-Murray","party":"Dem","address":"310 W 220 S, Orem, UT 84058","precinct":"25OR31","hd":"57","v_score":"0","decile":"1","lat":40.29346068895614,"lng":-111.70289994743096,"phone":"(395) 479-3034","sd":"23","ssbd":"12","lsbd":"School Board Timpanogos 4"},{"vid":"2557352","name":"Dimitrios Olson-Harris","party":"Dem","address":"39 W 315 S, Orem, UT 84058","precinct":"25OR31","hd":"57","v_score":"0","decile":"1","lat":40.291246738439,"lng":-111.6957550533453,"phone":"(534) 036-6647","sd":"23","ssbd":"12","lsbd":"School Board Timpanogos 4"},{"vid":"2557914","name":"Leatrice Kuvalis-Wisozk","party":"","address":"345 S 280 W, Orem, UT 84058","precinct":"25OR31","hd":"57","v_score":"1.623113131","decile":"5","lat":40.29100056764749,"lng":-111.70200974626948,"phone":"(405) 426-5014","sd":"23","ssbd":"12","lsbd":"School Board Timpanogos 4"},{"vid":"2558785","name":"Shanon Leuschke-Konopelski","party":"","address":"357 S 280 W, Orem, UT 84058","precinct":"25OR31","hd":"57","v_score":"1.193887297","decile":"4","lat":40.29071861306571,"lng":-111.70189341390117,"phone":"(741) 893-0851","sd":"23","ssbd":"12","lsbd":"School Board Timpanogos 4"},{"vid":"2563300","name":"Nancie Sawayn","party":"Rep","address":"339 W 100 S, Orem, UT 84058","precinct":"25OR31","hd":"57","v_score":"2.817000428","decile":"6","lat":40.2951470019001,"lng":-111.70374038102739,"phone":"(191) 927-2315","sd":"23","ssbd":"12","lsbd":"School Board Timpanogos 4"},{"vid":"2576052","name":"Eddie Schmidt","party":"Dem","address":"332 S 230 W, Orem, UT 84058","precinct":"25OR31","hd":"57","v_score":"5.693042993","decile":"7","lat":40.29115258888602,"lng":-111.70140182713871,"phone":"(803) 029-5697","sd":"23","ssbd":"12","lsbd":"School Board Timpanogos 4"},{"vid":"2604378","name":"Lucindy Morissette","party":"","address":"334 W 300 S, Orem, UT 84058","precinct":"25OR31","hd":"57","v_score":"1.623113131","decile":"5","lat":40.29194824687115,"lng":-111.70346858403059,"phone":"(102) 584-9205","sd":"23","ssbd":"12","lsbd":"School Board Timpanogos 4"},{"vid":"2606320","name":"Adrienne Conn PhD","party":"","address":"232 W 100 S, Orem, UT 84058","precinct":"25OR31","hd":"57","v_score":"0","decile":"1","lat":40.29546573863769,"lng":-111.7010623337644,"phone":"(864) 529-1153","sd":"23","ssbd":"12","lsbd":"School Board Timpanogos 4"},{"vid":"2612045","name":"Dr. Canyon Runolfsson I","party":"Rep","address":"172 W 400 S, Orem, UT 84058","precinct":"25OR31","hd":"57","v_score":"1.193887297","decile":"4","lat":40.29018107661029,"lng":-111.69945793020406,"phone":"(606) 003-4302","sd":"23","ssbd":"12","lsbd":"School Board Timpanogos 4"},{"vid":"2616705","name":"Miss Isobel Bernier","party":"","address":"225 S 220 W, Orem, UT 84058","precinct":"25OR31","hd":"57","v_score":"0","decile":"1","lat":40.29311786522094,"lng":-111.70009116483453,"phone":"(697) 127-1631","sd":"23","ssbd":"12","lsbd":"School Board Timpanogos 4"},{"vid":"2616769","name":"Shelia Gleason","party":"","address":"75 W 300 S, Orem, UT 84058","precinct":"25OR31","hd":"57","v_score":"1.193887297","decile":"4","lat":39.97030098064841,"lng":-111.78672081801362,"phone":"(392) 416-2235","sd":"23","ssbd":"12","lsbd":"School Board Timpanogos 4"},{"vid":"2630879","name":"Lamonte Stanton","party":"","address":"345 S 280 W, Orem, UT 84058","precinct":"25OR31","hd":"57","v_score":"14.13760315","decile":"9","lat":40.29100056764749,"lng":-111.70200974626948,"phone":"(462) 160-4859","sd":"23","ssbd":"12","lsbd":"School Board Timpanogos 4"},{"vid":"2642219","name":"Eugenio Dietrich","party":"","address":"341 S 340 W, Orem, UT 84058","precinct":"25OR31","hd":"57","v_score":"1.623113131","decile":"5","lat":40.291259204737116,"lng":-111.70347702253056,"phone":"(795) 308-5457","sd":"23","ssbd":"12","lsbd":"School Board Timpanogos 4"},{"vid":"2647942","name":"Mr. Evertt Fay","party":"Dem","address":"88 S 320 W, Orem, UT 84058","precinct":"25OR31","hd":"57","v_score":"1.193887297","decile":"4","lat":40.295597156130945,"lng":-111.70357439625808,"phone":"(428) 092-1347","sd":"23","ssbd":"12","lsbd":"School Board Timpanogos 4"},{"vid":"2651521","name":"Dr. Alvina Altenwerth DVM","party":"Dem","address":"65 S 360 W, Orem, UT 84058","precinct":"25OR31","hd":"57","v_score":"0","decile":"1","lat":40.29599104817921,"lng":-111.70397662762993,"phone":"(934) 334-9052","sd":"23","ssbd":"12","lsbd":"School Board Timpanogos 4"},{"vid":"2651818","name":"Gussie Mante","party":"Rep","address":"92 W 220 S, Orem, UT 84058","precinct":"25OR31","hd":"57","v_score":"1.193887297","decile":"4","lat":40.29340252347844,"lng":-111.69765616760553,"phone":"(553) 001-2013","sd":"23","ssbd":"12","lsbd":"School Board Timpanogos 4"},{"vid":"2655508","name":"Leopold Schaefer I","party":"Dem","address":"341 S 340 W, Orem, UT 84058","precinct":"25OR31","hd":"57","v_score":"4.214075011","decile":"7","lat":40.291259204737116,"lng":-111.70347702253056,"phone":"(427) 106-5492","sd":"23","ssbd":"12","lsbd":"School Board Timpanogos 4"},{"vid":"2658256","name":"Mr. Fleet Kertzmann Sr.","party":"Dem","address":"70 S 220 W, Orem, UT 84058","precinct":"25OR31","hd":"57","v_score":"0","decile":"1","lat":40.295809553587276,"lng":-111.70099904299758,"phone":"(289) 188-4756","sd":"23","ssbd":"12","lsbd":"School Board Timpanogos 4"},{"vid":"2660954","name":"Desmond Schuster","party":"Rep","address":"361 S 100 W, Apt B, Orem, UT 84058","precinct":"25OR31","hd":"57","v_score":"9.338633761","decile":"8","lat":40.29049241918324,"lng":-111.69729964916345,"phone":"(173) 773-6868","sd":"23","ssbd":"12","lsbd":"School Board Timpanogos 4"},{"vid":"2663467","name":"Jermain Barton","party":"","address":"61 W 220 S, Orem, UT 84058","precinct":"25OR31","hd":"57","v_score":"0","decile":"1","lat":40.292998587174985,"lng":-111.69688613506773,"phone":"(545) 284-9743","sd":"23","ssbd":"12","lsbd":"School Board Timpanogos 4"},{"vid":"2664109","name":"Cilla Walsh MD","party":"Rep","address":"310 W 220 S, Orem, UT 84058","precinct":"25OR31","hd":"57","v_score":"0","decile":"1","lat":40.29346068895614,"lng":-111.70289994743096,"phone":"(210) 978-3221","sd":"23","ssbd":"12","lsbd":"School Board Timpanogos 4"},{"vid":"2668857","name":"Eryn Schoen-Schroeder","party":"Rep","address":"318 W 255 S, Orem, UT 84058","precinct":"25OR31","hd":"57","v_score":"1.193887297","decile":"4","lat":40.29278635486671,"lng":-111.70310577913065,"phone":"(334) 661-4884","sd":"23","ssbd":"12","lsbd":"School Board Timpanogos 4"},{"vid":"2674512","name":"Dawson Smith","party":"Rep","address":"320 S 50 W, Orem, UT 84058","precinct":"25OR31","hd":"57","v_score":"0","decile":"2","lat":40.29130808543038,"lng":-111.69661267906181,"phone":"(356) 114-6139","sd":"23","ssbd":"12","lsbd":"School Board Timpanogos 4"},{"vid":"2679177","name":"Rosie Kautzer","party":"Dem","address":"279 S 280 W, Orem, UT 84058","precinct":"25OR31","hd":"57","v_score":"0","decile":"2","lat":40.2920345368934,"lng":-111.70218751892443,"phone":"(976) 205-6413","sd":"23","ssbd":"12","lsbd":"School Board Timpanogos 4"},{"vid":"2682124","name":"Kristin Waters","party":"Dem","address":"320 S 50 W, Orem, UT 84058","precinct":"25OR31","hd":"57","v_score":"1.193887297","decile":"4","lat":40.29130808543038,"lng":-111.69661267906181,"phone":"(112) 633-4261","sd":"23","ssbd":"12","lsbd":"School Board Timpanogos 4"},{"vid":"2682881","name":"Alla Abshire DDS","party":"Dem","address":"145 W 220 S, Orem, UT 84058","precinct":"25OR31","hd":"57","v_score":"0","decile":"2","lat":40.293003724802844,"lng":-111.69862561688375,"phone":"(486) 688-7244","sd":"23","ssbd":"12","lsbd":"School Board Timpanogos 4"},{"vid":"2690186","name":"Tari Mraz","party":"","address":"76 S 270 W, Orem, UT 84058","precinct":"25OR31","hd":"57","v_score":"0","decile":"2","lat":40.295795835521766,"lng":-111.70242855347556,"phone":"(688) 300-7919","sd":"23","ssbd":"12","lsbd":"School Board Timpanogos 4"},{"vid":"2694753","name":"Alvin Padberg MD","party":"","address":"185 S 70 W, Orem, UT 84058","precinct":"25OR31","hd":"57","v_score":"1.193887297","decile":"4","lat":40.29378329327435,"lng":-111.69695346195174,"phone":"(629) 520-1562","sd":"23","ssbd":"12","lsbd":"School Board Timpanogos 4"},{"vid":"2701452","name":"Beverlee Steuber","party":"","address":"61 W 165 S, Orem, UT 84058","precinct":"25OR31","hd":"57","v_score":"9.638447451","decile":"8","lat":40.294300406659254,"lng":-111.69687229247836,"phone":"(985) 066-0504","sd":"23","ssbd":"12","lsbd":"School Board Timpanogos 4"},{"vid":"2705175","name":"Alanna Goldner","party":"","address":"226 W 220 S, Orem, UT 84058","precinct":"25OR31","hd":"57","v_score":"4.069929862","decile":"7","lat":40.29332174921641,"lng":-111.7003261729732,"phone":"(647) 392-4002","sd":"23","ssbd":"12","lsbd":"School Board Timpanogos 4"},{"vid":"2705176","name":"Amy Ferry","party":"","address":"226 W 220 S, Orem, UT 84058","precinct":"25OR31","hd":"57","v_score":"4.069929862","decile":"7","lat":40.29332174921641,"lng":-111.7003261729732,"phone":"(527) 902-2309","sd":"23","ssbd":"12","lsbd":"School Board Timpanogos 4"},{"vid":"2706596","name":"Whitley Williamson","party":"Rep","address":"366 W 350 S, Orem, UT 84058","precinct":"25OR31","hd":"57","v_score":"3.711952487","decile":"6","lat":40.29128881893623,"lng":-111.70440208133125,"phone":"(849) 081-4662","sd":"23","ssbd":"12","lsbd":"School Board Timpanogos 4"},{"vid":"2711857","name":"Hakeem Kautzer","party":"Dem","address":"38 W 355 S, Orem, UT 84058","precinct":"25OR31","hd":"57","v_score":"1.193887297","decile":"4","lat":40.29081624770196,"lng":-111.69581551994102,"phone":"(445) 053-9726","sd":"23","ssbd":"12","lsbd":"School Board Timpanogos 4"},{"vid":"2723006","name":"Stephany Reilly-Bailey","party":"Dem","address":"72 S 220 W, Orem, UT 84058","precinct":"25OR31","hd":"57","v_score":"11.99595736","decile":"9","lat":40.29574794879617,"lng":-111.70123087402706,"phone":"(798) 607-0752","sd":"23","ssbd":"12","lsbd":"School Board Timpanogos 4"},{"vid":"2734553","name":"Hope Kshlerin","party":"","address":"231 W 100 S, Orem, UT 84058","precinct":"25OR31","hd":"57","v_score":"0","decile":"2","lat":40.29515275533195,"lng":-111.70112645256386,"phone":"(944) 973-8744","sd":"23","ssbd":"12","lsbd":"School Board Timpanogos 4"},{"vid":"2735281","name":"Nallely Hamill-Sawayn","party":"Dem","address":"274 W 255 S, Orem, UT 84058","precinct":"25OR31","hd":"57","v_score":"1.193887297","decile":"4","lat":40.292774091613275,"lng":-111.702059424542,"phone":"(775) 661-4836","sd":"23","ssbd":"12","lsbd":"School Board Timpanogos 4"},{"vid":"2749012","name":"Mrs. Margretta Larson MD","party":"","address":"365 W 350 S, Orem, UT 84058","precinct":"25OR31","hd":"57","v_score":"8.284004873","decile":"8","lat":40.2909855311143,"lng":-111.70436813259786,"phone":"(821) 133-5927","sd":"23","ssbd":"12","lsbd":"School Board Timpanogos 4"},{"vid":"2762767","name":"Farrell Breitenberg","party":"Dem","address":"365 W 350 S, Orem, UT 84058","precinct":"25OR31","hd":"57","v_score":"7.090117576","decile":"8","lat":40.2909855311143,"lng":-111.70436813259786,"phone":"(165) 987-2595","sd":"23","ssbd":"12","lsbd":"School Board Timpanogos 4"},{"vid":"2767432","name":"Mr. Finn Walker","party":"","address":"362 W 300 S, Orem, UT 84058","precinct":"25OR31","hd":"57","v_score":"1.193887297","decile":"4","lat":40.2920788145006,"lng":-111.70432812586354,"phone":"(333) 848-9496","sd":"23","ssbd":"12","lsbd":"School Board Timpanogos 4"},{"vid":"2769815","name":"Janessa Anderson","party":"","address":"356 S 50 W, Orem, UT 84058","precinct":"25OR31","hd":"57","v_score":"1.193887297","decile":"4","lat":40.29070873424485,"lng":-111.69661830353358,"phone":"(138) 816-9038","sd":"23","ssbd":"12","lsbd":"School Board Timpanogos 4"},{"vid":"2782632","name":"Mayra Considine","party":"Rep","address":"59 W 165 S, Orem, UT 84058","precinct":"25OR31","hd":"57","v_score":"0","decile":"2","lat":40.2943126183504,"lng":-111.69679444627248,"phone":"(948) 859-5077","sd":"23","ssbd":"12","lsbd":"School Board Timpanogos 4"},{"vid":"2785719","name":"Emanuel Gibson","party":"","address":"217 S 400 W, Orem, UT 84058","precinct":"25OR31","hd":"57","v_score":"5.407962308","decile":"7","lat":40.29337850505118,"lng":-111.7044962607576,"phone":"(614) 609-0031","sd":"23","ssbd":"12","lsbd":"School Board Timpanogos 4"},{"vid":"2786358","name":"Bonny Stracke","party":"Dem","address":"56 W 300 S, Orem, UT 84058","precinct":"25OR31","hd":"57","v_score":"0","decile":"2","lat":40.292006030358706,"lng":-111.69700730333669,"phone":"(917) 627-6019","sd":"23","ssbd":"12","lsbd":"School Board Timpanogos 4"},{"vid":"2787042","name":"Tory McKenzie DDS","party":"","address":"243 W 100 S, Orem, UT 84058","precinct":"25OR31","hd":"57","v_score":"4.069929862","decile":"7","lat":40.29512573297913,"lng":-111.7014760745865,"phone":"(508) 167-8572","sd":"23","ssbd":"12","lsbd":"School Board Timpanogos 4"},{"vid":"2790516","name":"Miss Shelba Hills","party":"","address":"160 W 255 S, Orem, UT 84058","precinct":"25OR31","hd":"57","v_score":"1.193887297","decile":"4","lat":40.29273529368398,"lng":-111.69888088700576,"phone":"(135) 424-2201","sd":"23","ssbd":"12","lsbd":"School Board Timpanogos 4"},{"vid":"2794874","name":"Landan Kiehn","party":"","address":"357 S 280 W, Orem, UT 84058","precinct":"25OR31","hd":"57","v_score":"1.193887297","decile":"4","lat":40.29071861306571,"lng":-111.70189341390117,"phone":"(167) 195-6385","sd":"23","ssbd":"12","lsbd":"School Board Timpanogos 4"},{"vid":"2795100","name":"Mr. Val Little II","party":"Dem","address":"172 W 400 S, Orem, UT 84058","precinct":"25OR31","hd":"57","v_score":"0","decile":"2","lat":40.29018107661029,"lng":-111.69945793020406,"phone":"(678) 512-6279","sd":"23","ssbd":"12","lsbd":"School Board Timpanogos 4"},{"vid":"2795783","name":"Lurline Eichmann DVM","party":"","address":"367 W 300 S, Orem, UT 84058","precinct":"25OR31","hd":"57","v_score":"1.193887297","decile":"4","lat":40.29175608749707,"lng":-111.70437059109103,"phone":"(856) 496-5903","sd":"23","ssbd":"12","lsbd":"School Board Timpanogos 4"},{"vid":"2810212","name":"Art Deckow","party":"","address":"357 S 280 W, Orem, UT 84058","precinct":"25OR31","hd":"57","v_score":"0","decile":"2","lat":40.29071861306571,"lng":-111.70189341390117,"phone":"(782) 927-4553","sd":"23","ssbd":"12","lsbd":"School Board Timpanogos 4"},{"vid":"2810905","name":"Mr. Cameron Okuneva","party":"","address":"321 W 100 S, Orem, UT 84058","precinct":"25OR31","hd":"57","v_score":"1.193887297","decile":"4","lat":40.29514331365235,"lng":-111.70328952844406,"phone":"(297) 643-8601","sd":"23","ssbd":"12","lsbd":"School Board Timpanogos 4"},{"vid":"2820727","name":"Ozella Lesch","party":"Dem","address":"121 W 255 S, Orem, UT 84058","precinct":"25OR31","hd":"57","v_score":"1.193887297","decile":"4","lat":40.292354019546295,"lng":-111.69809732317302,"phone":"(713) 617-6210","sd":"23","ssbd":"12","lsbd":"School Board Timpanogos 4"},{"vid":"2827837","name":"Mr. Adelard Friesen PhD","party":"","address":"196 S 165 W, Orem, UT 84058","precinct":"25OR31","hd":"57","v_score":"1.193887297","decile":"4","lat":40.293822132946,"lng":-111.69873839946933,"phone":"(323) 571-5845","sd":"23","ssbd":"12","lsbd":"School Board Timpanogos 4"},{"vid":"2840851","name":"Jerimiah Dooley","party":"Rep","address":"178 S 70 W, Orem, UT 84058","precinct":"25OR31","hd":"57","v_score":"4.069929862","decile":"7","lat":40.29396218017021,"lng":-111.69752381944352,"phone":"(403) 192-6710","sd":"23","ssbd":"12","lsbd":"School Board Timpanogos 4"},{"vid":"2844703","name":"Vennie Bogisich","party":"","address":"263 S 100 W, Orem, UT 84058","precinct":"25OR31","hd":"57","v_score":"1.193887297","decile":"4","lat":40.29234716531081,"lng":-111.697775974231,"phone":"(946) 984-8672","sd":"23","ssbd":"12","lsbd":"School Board Timpanogos 4"},{"vid":"2849858","name":"Stafford Hessel","party":"Dem","address":"388 W 100 S, Orem, UT 84058","precinct":"25OR31","hd":"57","v_score":"1.193887297","decile":"4","lat":40.29546896706801,"lng":-111.70500620571964,"phone":"(947) 372-1708","sd":"23","ssbd":"12","lsbd":"School Board Timpanogos 4"},{"vid":"2855893","name":"Mardell Nolan MD","party":"Dem","address":"349 W 350 S, Orem, UT 84058","precinct":"25OR31","hd":"57","v_score":"1.193887297","decile":"4","lat":40.290970390949106,"lng":-111.70385346814187,"phone":"(393) 470-7782","sd":"23","ssbd":"12","lsbd":"School Board Timpanogos 4"},{"vid":"2860271","name":"Glynda Gottlieb MD","party":"","address":"50 W 255 S, Orem, UT 84058","precinct":"25OR31","hd":"57","v_score":"1.193887297","decile":"4","lat":40.29259864996068,"lng":-111.69645336975205,"phone":"(267) 942-3342","sd":"23","ssbd":"12","lsbd":"School Board Timpanogos 4"},{"vid":"2860424","name":"Myrna Hamill","party":"Dem","address":"56 W 350 S, Apt 56, Orem, UT 84058","precinct":"25OR31","hd":"57","v_score":"0","decile":"2","lat":40.29112132863625,"lng":-111.6971439964003,"phone":"(532) 803-4698","sd":"23","ssbd":"12","lsbd":"School Board Timpanogos 4"},{"vid":"2863083","name":"Dr. Skyler Daugherty DVM","party":"Rep","address":"142 W 300 S, Orem, UT 84058","precinct":"25OR31","hd":"57","v_score":"0","decile":"2","lat":40.1627477859519,"lng":-111.61315895577627,"phone":"(675) 635-7841","sd":"23","ssbd":"12","lsbd":"School Board Timpanogos 4"},{"vid":"2877929","name":"Darryle Bednar","party":"","address":"60 W 255 S, Orem, UT 84058","precinct":"25OR31","hd":"57","v_score":"1.193887297","decile":"4","lat":40.29269756353357,"lng":-111.69687431027417,"phone":"(791) 571-5747","sd":"23","ssbd":"12","lsbd":"School Board Timpanogos 4"},{"vid":"2881026","name":"Keyla Collins DDS","party":"","address":"240 W 220 S, Orem, UT 84058","precinct":"25OR31","hd":"57","v_score":"1.193887297","decile":"4","lat":40.29343604127735,"lng":-111.70088243622604,"phone":"(456) 837-5377","sd":"23","ssbd":"12","lsbd":"School Board Timpanogos 4"},{"vid":"2884174","name":"Paityn Emmerich","party":"Rep","address":"236 S 180 W, Orem, UT 84058","precinct":"25OR31","hd":"57","v_score":"0","decile":"2","lat":40.29292425848446,"lng":-111.69965788247515,"phone":"(148) 583-2213","sd":"23","ssbd":"12","lsbd":"School Board Timpanogos 4"},{"vid":"af4d054343d0030436c4f65b9554eb003b8b5ab66ade796dc54b8dc74b202da2","name":"Corda Satterfield","party":"Rep","address":"36 W 315 S, Orem, UT 84058","precinct":"25OR31","hd":"57","v_score":"1.193887297","decile":"4","lat":40.29141758853838,"lng":-111.69578462310933,"phone":"(932) 697-5365","sd":"23","ssbd":"12","lsbd":"School Board Timpanogos 4"},{"vid":"2889717","name":"Sigurd Klein Sr.","party":"Dem","address":"267 W 255 S, Orem, UT 84058","precinct":"25OR31","hd":"57","v_score":"1.193887297","decile":"4","lat":40.29236997527586,"lng":-111.70176876600799,"phone":"(810) 235-8559","sd":"23","ssbd":"12","lsbd":"School Board Timpanogos 4"},{"vid":"2902764","name":"Senora King","party":"Rep","address":"267 W 255 S, Orem, UT 84058","precinct":"25OR31","hd":"57","v_score":"0","decile":"2","lat":40.29236997527586,"lng":-111.70176876600799,"phone":"(929) 374-7084","sd":"23","ssbd":"12","lsbd":"School Board Timpanogos 4"},{"vid":"2904164","name":"Joesph Emard","party":"Rep","address":"249 S 50 W, Orem, UT 84058","precinct":"25OR31","hd":"57","v_score":"0","decile":"2","lat":40.29267413812831,"lng":-111.69590434967489,"phone":"(829) 081-9955","sd":"23","ssbd":"12","lsbd":"School Board Timpanogos 4"},{"vid":"2905902","name":"Kyrie Carroll","party":"","address":"76 S 270 W, Orem, UT 84058","precinct":"25OR31","hd":"57","v_score":"0","decile":"2","lat":40.295795835521766,"lng":-111.70242855347556,"phone":"(712) 422-0045","sd":"23","ssbd":"12","lsbd":"School Board Timpanogos 4"},{"vid":"2905935","name":"Mr. Archer Rippin","party":"Rep","address":"76 S 270 W, Orem, UT 84058","precinct":"25OR31","hd":"57","v_score":"0","decile":"2","lat":40.295795835521766,"lng":-111.70242855347556,"phone":"(594) 241-5506","sd":"23","ssbd":"12","lsbd":"School Board Timpanogos 4"},{"vid":"2921155","name":"Ms. Cannie White DDS","party":"Rep","address":"321 W 100 S, Orem, UT 84058","precinct":"25OR31","hd":"57","v_score":"0","decile":"2","lat":40.29514331365235,"lng":-111.70328952844406,"phone":"(685) 571-3618","sd":"23","ssbd":"12","lsbd":"School Board Timpanogos 4"},{"vid":"2922173","name":"Dr. Orlo Cruickshank III","party":"Dem","address":"303 W 220 S, Orem, UT 84058","precinct":"25OR31","hd":"57","v_score":"4.214075011","decile":"7","lat":40.29303736959838,"lng":-111.70268474014296,"phone":"(583) 919-2539","sd":"23","ssbd":"12","lsbd":"School Board Timpanogos 4"},{"vid":"2929349","name":"Mae Corkery","party":"","address":"70 W 350 S, Orem, UT 84058","precinct":"25OR31","hd":"57","v_score":"0","decile":"2","lat":40.29116906192752,"lng":-111.69732301358675,"phone":"(370) 950-5063","sd":"23","ssbd":"12","lsbd":"School Board Timpanogos 4"},{"vid":"2933000","name":"Steven Jaskolski","party":"Rep","address":"391 W 100 S, Orem, UT 84058","precinct":"25OR31","hd":"57","v_score":"0","decile":"2","lat":40.295230296627366,"lng":-111.7050060260522,"phone":"(653) 415-8709","sd":"23","ssbd":"12","lsbd":"School Board Timpanogos 4"},{"vid":"2933920","name":"Marcel Steuber","party":"","address":"96 W 400 S, Orem, UT 84058","precinct":"25OR31","hd":"57","v_score":"0","decile":"2","lat":40.290006857379616,"lng":-111.6977168052748,"phone":"(578) 204-2051","sd":"23","ssbd":"12","lsbd":"School Board Timpanogos 4"},{"vid":"2936949","name":"Dr. Lorin Koepp I","party":"Rep","address":"181 S 70 W, Orem, UT 84058","precinct":"25OR31","hd":"57","v_score":"0","decile":"2","lat":40.29389713988922,"lng":-111.69698134376172,"phone":"(289) 433-9621","sd":"23","ssbd":"12","lsbd":"School Board Timpanogos 4"},{"vid":"2936980","name":"Rocco Medhurst","party":"Dem","address":"381 S 100 W, Orem, UT 84058","precinct":"25OR31","hd":"57","v_score":"2.876042565","decile":"6","lat":40.38341671512978,"lng":-111.85029432354673,"phone":"(990) 180-8797","sd":"23","ssbd":"12","lsbd":"School Board Timpanogos 4"},{"vid":"2940287","name":"Harry VonRueden DVM","party":"","address":"342 W 255 S, Orem, UT 84058","precinct":"25OR31","hd":"57","v_score":"0","decile":"2","lat":40.292738153697584,"lng":-111.70379973207966,"phone":"(355) 681-3047","sd":"23","ssbd":"12","lsbd":"School Board Timpanogos 4"},{"vid":"2942808","name":"Emmaline Moen","party":"Dem","address":"251 W 255 S, Orem, UT 84058","precinct":"25OR31","hd":"57","v_score":"4.214075011","decile":"7","lat":40.29236378304052,"lng":-111.70123840497617,"phone":"(487) 068-2052","sd":"23","ssbd":"12","lsbd":"School Board Timpanogos 4"},{"vid":"2945671","name":"Jory Goldner","party":"Dem","address":"206 W 100 S, Orem, UT 84058","precinct":"25OR31","hd":"57","v_score":"0","decile":"2","lat":40.2954053444937,"lng":-111.70075844053815,"phone":"(641) 516-3306","sd":"23","ssbd":"12","lsbd":"School Board Timpanogos 4"},{"vid":"2947722","name":"Patrice Mills","party":"Rep","address":"202 S 165 W, Orem, UT 84058","precinct":"25OR31","hd":"57","v_score":"0","decile":"2","lat":40.293620992841745,"lng":-111.69863622451714,"phone":"(103) 546-1993","sd":"23","ssbd":"12","lsbd":"School Board Timpanogos 4"},{"vid":"2951181","name":"Zeb Batz PhD","party":"Rep","address":"267 W 255 S, Orem, UT 84058","precinct":"25OR31","hd":"57","v_score":"0","decile":"2","lat":40.29236997527586,"lng":-111.70176876600799,"phone":"(528) 347-8520","sd":"23","ssbd":"12","lsbd":"School Board Timpanogos 4"},{"vid":"2955839","name":"Rory Dooley PhD","party":"","address":"178 S Orem Blvd, Orem, UT 84058","precinct":"25OR31","hd":"57","v_score":"0","decile":"2","lat":40.29395337510825,"lng":-111.69655071434293,"phone":"(950) 363-8089","sd":"23","ssbd":"12","lsbd":"School Board Timpanogos 4"},{"vid":"2958630","name":"Koby Turcotte","party":"","address":"329 W 350 S, Orem, UT 84058","precinct":"25OR31","hd":"57","v_score":"2.876042565","decile":"6","lat":40.290910770685365,"lng":-111.7032594533873,"phone":"(585) 512-5850","sd":"23","ssbd":"12","lsbd":"School Board Timpanogos 4"},{"vid":"2970698","name":"Lonzo McLaughlin Sr.","party":"","address":"42 W 220 S, Orem, UT 84058","precinct":"25OR31","hd":"57","v_score":"0","decile":"2","lat":40.29328273421521,"lng":-111.69643710759333,"phone":"(563) 003-4012","sd":"23","ssbd":"12","lsbd":"School Board Timpanogos 4"},{"vid":"2972073","name":"Miss Josefa Nolan DDS","party":"","address":"361 S 100 W, Apt A, Orem, UT 84058","precinct":"25OR31","hd":"57","v_score":"0","decile":"2","lat":40.29049241918324,"lng":-111.69729964916345,"phone":"(561) 035-2534","sd":"23","ssbd":"12","lsbd":"School Board Timpanogos 4"},{"vid":"2974127","name":"Leroy Wisozk","party":"Dem","address":"366 W 350 S, Orem, UT 84058","precinct":"25OR31","hd":"57","v_score":"0","decile":"2","lat":40.29128881893623,"lng":-111.70440208133125,"phone":"(366) 235-2930","sd":"23","ssbd":"12","lsbd":"School Board Timpanogos 4"},{"vid":"2975814","name":"Jamarcus Parker","party":"","address":"366 W 350 S, Orem, UT 84058","precinct":"25OR31","hd":"57","v_score":"0","decile":"2","lat":40.29128881893623,"lng":-111.70440208133125,"phone":"(995) 080-2963","sd":"23","ssbd":"12","lsbd":"School Board Timpanogos 4"},{"vid":"2982844","name":"Mrs. Michaela Schoen MD","party":"Dem","address":"162 W 300 S, Orem, UT 84058","precinct":"25OR31","hd":"57","v_score":"0","decile":"2","lat":40.162782173072785,"lng":-111.61347915140443,"phone":"(219) 776-3329","sd":"23","ssbd":"12","lsbd":"School Board Timpanogos 4"},{"vid":"2984434","name":"Jaylin O'Keefe","party":"Dem","address":"243 W 100 S, Orem, UT 84058","precinct":"25OR31","hd":"57","v_score":"0","decile":"2","lat":40.29512573297913,"lng":-111.7014760745865,"phone":"(133) 695-2951","sd":"23","ssbd":"12","lsbd":"School Board Timpanogos 4"},{"vid":"2986246","name":"Emily Crooks","party":"","address":"310 S 100 W, Orem, UT 84058","precinct":"25OR31","hd":"57","v_score":"0","decile":"2","lat":40.384066229895154,"lng":-111.85087563868336,"phone":"(911) 263-0680","sd":"23","ssbd":"12","lsbd":"School Board Timpanogos 4"},{"vid":"3011431","name":"Daniela Daugherty PhD","party":"Dem","address":"61 W 165 S, Orem, UT 84058","precinct":"25OR31","hd":"57","v_score":"1.193887297","decile":"4","lat":40.294300406659254,"lng":-111.69687229247836,"phone":"(629) 127-6344","sd":"23","ssbd":"12","lsbd":"School Board Timpanogos 4"},{"vid":"3172619","name":"Madilyn Wisoky-Cummings","party":"Dem","address":"86 S 360 W, Orem, UT 84058","precinct":"25OR31","hd":"57","v_score":"1.193887297","decile":"4","lat":40.29560992465804,"lng":-111.70456550349857,"phone":"(593) 209-0820","sd":"23","ssbd":"12","lsbd":"School Board Timpanogos 4"},{"vid":"3313902","name":"Pedro Wolff","party":"Rep","address":"370 W 300 S, Orem, UT 84058","precinct":"25OR31","hd":"57","v_score":"0","decile":"2","lat":40.29203929637328,"lng":-111.7045636283023,"phone":"(414) 069-4108","sd":"23","ssbd":"12","lsbd":"School Board Timpanogos 4"},{"vid":"3337109","name":"Elle Kirlin-Dickens","party":"Rep","address":"367 W 300 S, Orem, UT 84058","precinct":"25OR31","hd":"57","v_score":"7.111403802","decile":"8","lat":40.29175608749707,"lng":-111.70437059109103,"phone":"(762) 325-4399","sd":"23","ssbd":"12","lsbd":"School Board Timpanogos 4"},{"vid":"3423768","name":"Kenji Ziemann-Murazik","party":"Rep","address":"58 W 400 S, Orem, UT 84058","precinct":"25OR31","hd":"57","v_score":"0","decile":"2","lat":40.290122621683594,"lng":-111.69694088783345,"phone":"(584) 612-6068","sd":"23","ssbd":"12","lsbd":"School Board Timpanogos 4"},{"vid":"e20113b8dec204a725cd5ceb39e575d78c4cad194525a2f866e8546f9e00a7f0","name":"Jill Lindgren","party":"Rep","address":"391 W 350 S, Orem, UT 84058","precinct":"25OR31","hd":"57","v_score":"17.28363314","decile":"9","lat":40.29086517448683,"lng":-111.70492732548706,"phone":"(726) 754-2400","sd":"23","ssbd":"12","lsbd":"School Board Timpanogos 4"},{"vid":"5877040","name":"Olivine Roob","party":"","address":"124 W 400 S, Orem, UT 84058","precinct":"25OR31","hd":"57","v_score":"33.69318103","decile":"10","lat":40.29020940967661,"lng":-111.69834379956873,"phone":"(408) 808-5383","sd":"23","ssbd":"12","lsbd":"School Board Timpanogos 4"},{"vid":"6d90aa6989cf65f719ca66130e68c4153f17696371e274b5af57356555938166","name":"Jerica Bergstrom","party":"","address":"357 W 100 S, Orem, UT 84058","precinct":"25OR31","hd":"57","v_score":"16.60969033","decile":"9","lat":40.29515031440273,"lng":-111.70415869986508,"phone":"(201) 599-5055","sd":"23","ssbd":"12","lsbd":"School Board Timpanogos 4"},{"vid":"6153784","name":"Jakayla Lakin","party":"","address":"262 W 300 S, Orem, UT 84058","precinct":"25OR31","hd":"57","v_score":"5.40460374","decile":"7","lat":40.29201960840755,"lng":-111.70187201917443,"phone":"(305) 864-9601","sd":"23","ssbd":"12","lsbd":"School Board Timpanogos 4"},{"vid":"b8bacba3ebd943e7c0d51b87f0d4936d07c581aee722707d9febda786131fd4c","name":"Windy Ledner","party":"Dem","address":"181 S 70 W, Orem, UT 84058","precinct":"25OR31","hd":"57","v_score":"10.22509301","decile":"9","lat":40.29389713988922,"lng":-111.69698134376172,"phone":"(414) 584-9849","sd":"23","ssbd":"12","lsbd":"School Board Timpanogos 4"},{"vid":"6182977","name":"Ruffin Walter","party":"Rep","address":"306 S 230 W, Orem, UT 84058","precinct":"25OR31","hd":"57","v_score":"1.46627566","decile":"4","lat":40.29169465811472,"lng":-111.70121723024921,"phone":"(912) 483-8897","sd":"23","ssbd":"12","lsbd":"School Board Timpanogos 4"},{"vid":"6200601","name":"Anjali Bruen","party":"Rep","address":"36 W 355 S, Orem, UT 84058","precinct":"25OR31","hd":"57","v_score":"28.10869664","decile":"10","lat":40.290637691774954,"lng":-111.6957748719894,"phone":"(469) 162-5143","sd":"23","ssbd":"12","lsbd":"School Board Timpanogos 4"},{"vid":"6200931","name":"Deedee Hermiston","party":"","address":"201 S 165 W, Orem, UT 84058","precinct":"25OR31","hd":"57","v_score":"40.78891255","decile":"10","lat":40.29360159238223,"lng":-111.69827035666577,"phone":"(888) 346-0368","sd":"23","ssbd":"12","lsbd":"School Board Timpanogos 4"},{"vid":"6206541","name":"Jonnie Senger","party":"","address":"213 S 260 W, Orem, UT 84058","precinct":"25OR31","hd":"57","v_score":"8.280646305","decile":"8","lat":40.2934364966305,"lng":-111.70158238704343,"phone":"(453) 195-2282","sd":"23","ssbd":"12","lsbd":"School Board Timpanogos 4"},{"vid":"6206544","name":"Lucio Moen","party":"Dem","address":"213 S 260 W, Orem, UT 84058","precinct":"25OR31","hd":"57","v_score":"11.99259879","decile":"9","lat":40.2934364966305,"lng":-111.70158238704343,"phone":"(692) 257-7728","sd":"23","ssbd":"12","lsbd":"School Board Timpanogos 4"},{"vid":"14575a51b8d0fece16d4c49ff2dfa94e8b34707d8ba18d1212cc68671719a4d7","name":"Mrs. Aryana Baumbach","party":"Dem","address":"267 W 100 S, Orem, UT 84058","precinct":"25OR31","hd":"57","v_score":"15.53273099","decile":"9","lat":40.29518439447043,"lng":-111.70200002026296,"phone":"(191) 364-4064","sd":"23","ssbd":"12","lsbd":"School Board Timpanogos 4"},{"vid":"6211646","name":"Dr. Gus Dare","party":"","address":"267 W 100 S, Orem, UT 84058","precinct":"25OR31","hd":"57","v_score":"34.09285363","decile":"10","lat":40.29518439447043,"lng":-111.70200002026296,"phone":"(302) 503-0339","sd":"23","ssbd":"12","lsbd":"School Board Timpanogos 4"},{"vid":"6213766","name":"Burnice Murazik","party":"Rep","address":"345 S 280 W, Orem, UT 84058","precinct":"25OR31","hd":"57","v_score":"16.72520646","decile":"9","lat":40.29100056764749,"lng":-111.70200974626948,"phone":"(487) 051-7659","sd":"23","ssbd":"12","lsbd":"School Board Timpanogos 4"},{"vid":"6216285","name":"Alpha Kuhlman","party":"Dem","address":"83 S 360 W, Orem, UT 84058","precinct":"25OR31","hd":"57","v_score":"42.66649422","decile":"10","lat":40.295646531848256,"lng":-111.70390343549225,"phone":"(965) 410-6399","sd":"23","ssbd":"12","lsbd":"School Board Timpanogos 4"},{"vid":"6218217","name":"Dave Bahringer","party":"","address":"77 S 400 W, Orem, UT 84058","precinct":"25OR31","hd":"57","v_score":"0","decile":"3","lat":40.295763702504715,"lng":-111.70490380050057,"phone":"(859) 120-2844","sd":"23","ssbd":"12","lsbd":"School Board Timpanogos 4"},{"vid":"6223500","name":"Alivia Haley","party":"","address":"230 W 400 S, Orem, UT 84058","precinct":"25OR31","hd":"57","v_score":"11.99259879","decile":"9","lat":40.29013388363145,"lng":-111.70076933527751,"phone":"(885) 113-2588","sd":"23","ssbd":"12","lsbd":"School Board Timpanogos 4"},{"vid":"6234903","name":"Mr. Lary Hauck I","party":"Rep","address":"172 S 165 W, Orem, UT 84058","precinct":"25OR31","hd":"57","v_score":"36.63608863","decile":"10","lat":40.29446872999108,"lng":-111.6985841345702,"phone":"(423) 691-6093","sd":"23","ssbd":"12","lsbd":"School Board Timpanogos 4"},{"vid":"c1928046fd9e8366cb15849729f91bd18292fdf30d96635028af4d97fdf79d6f","name":"Georgiana Koelpin-Batz","party":"Dem","address":"317 S 340 W, Orem, UT 84058","precinct":"25OR31","hd":"57","v_score":"5.40460374","decile":"7","lat":40.29176126680651,"lng":-111.70349149777327,"phone":"(766) 011-3642","sd":"23","ssbd":"12","lsbd":"School Board Timpanogos 4"},{"vid":"6238561","name":"Volney Schmitt","party":"Rep","address":"201 S 165 W, Orem, UT 84058","precinct":"25OR31","hd":"57","v_score":"45.76919357","decile":"10","lat":40.29360159238223,"lng":-111.69827035666577,"phone":"(720) 466-7759","sd":"23","ssbd":"12","lsbd":"School Board Timpanogos 4"},{"vid":"6244234","name":"Mr. Gaston Trantow","party":"","address":"336 W 220 S, Orem, UT 84058","precinct":"25OR31","hd":"57","v_score":"23.26455041","decile":"10","lat":40.29336560311707,"lng":-111.70370828144996,"phone":"(973) 509-6728","sd":"23","ssbd":"12","lsbd":"School Board Timpanogos 4"},{"vid":"6268336","name":"Desean Brekke","party":"Dem","address":"160 W 255 S, Orem, UT 84058","precinct":"25OR31","hd":"57","v_score":"29.29899487","decile":"10","lat":40.29273529368398,"lng":-111.69888088700576,"phone":"(670) 380-1027","sd":"23","ssbd":"12","lsbd":"School Board Timpanogos 4"},{"vid":"6268339","name":"Jerri Thiel","party":"Rep","address":"160 W 255 S, Orem, UT 84058","precinct":"25OR31","hd":"57","v_score":"29.29899487","decile":"10","lat":40.29273529368398,"lng":-111.69888088700576,"phone":"(195) 476-4862","sd":"23","ssbd":"12","lsbd":"School Board Timpanogos 4"},{"vid":"6274163","name":"Mr. Pete Abbott","party":"","address":"71 S 400 W, Orem, UT 84058","precinct":"25OR31","hd":"57","v_score":"35.30276996","decile":"10","lat":40.295876214748624,"lng":-111.70490574685036,"phone":"(717) 259-7631","sd":"23","ssbd":"12","lsbd":"School Board Timpanogos 4"},{"vid":"6289131","name":"Harvy O'Conner","party":"Dem","address":"333 W 100 S, Orem, UT 84058","precinct":"25OR31","hd":"57","v_score":"37.84600495","decile":"10","lat":40.29514576558687,"lng":-111.70358984584367,"phone":"(402) 642-7432","sd":"23","ssbd":"12","lsbd":"School Board Timpanogos 4"},{"vid":"6208722961fa57050ac2f21bc05a335108a06eb8422cde661bd3fecc8d38b4ec","name":"Hayward Schimmel","party":"","address":"168 S 240 W, Orem, UT 84058","precinct":"25OR31","hd":"57","v_score":"34.45938705","decile":"10","lat":40.29449227022683,"lng":-111.70155550692411,"phone":"(710) 409-1390","sd":"23","ssbd":"12","lsbd":"School Board Timpanogos 4"},{"vid":"6295960","name":"Brynn Homenick DVM","party":"Rep","address":"236 S 180 W, Orem, UT 84058","precinct":"25OR31","hd":"57","v_score":"20.33220369","decile":"10","lat":40.29292425848446,"lng":-111.69965788247515,"phone":"(589) 584-3066","sd":"23","ssbd":"12","lsbd":"School Board Timpanogos 4"},{"vid":"6297719","name":"London Schiller","party":"","address":"315 W 255 S, Orem, UT 84058","precinct":"25OR31","hd":"57","v_score":"11.2235539","decile":"9","lat":40.292384728597064,"lng":-111.70302653442754,"phone":"(280) 542-4303","sd":"23","ssbd":"12","lsbd":"School Board Timpanogos 4"},{"vid":"6302313","name":"Berniece Casper DVM","party":"","address":"146 W 255 S, Orem, UT 84058","precinct":"25OR31","hd":"57","v_score":"0","decile":"3","lat":40.292730588756235,"lng":-111.6986300459374,"phone":"(423) 044-8858","sd":"23","ssbd":"12","lsbd":"School Board Timpanogos 4"},{"vid":"6302805","name":"Deforest Carter","party":"","address":"310 W 220 S, Orem, UT 84058","precinct":"25OR31","hd":"57","v_score":"1.121327652","decile":"3","lat":40.29346068895614,"lng":-111.70289994743096,"phone":"(195) 921-3715","sd":"23","ssbd":"12","lsbd":"School Board Timpanogos 4"},{"vid":"6304342","name":"Drew Paucek","party":"","address":"265 W 220 S, Orem, UT 84058","precinct":"25OR31","hd":"57","v_score":"5.40460374","decile":"7","lat":40.29303385605611,"lng":-111.70174294573178,"phone":"(372) 777-5340","sd":"23","ssbd":"12","lsbd":"School Board Timpanogos 4"},{"vid":"6306614","name":"Blanch Trantow","party":"","address":"199 S 180 W, Orem, UT 84058","precinct":"25OR31","hd":"57","v_score":"33.69318103","decile":"10","lat":40.29367268106915,"lng":-111.69911550521874,"phone":"(351) 085-2723","sd":"23","ssbd":"12","lsbd":"School Board Timpanogos 4"},{"vid":"6308172","name":"Britany Hansen PhD","party":"Dem","address":"75 W 255 S, Orem, UT 84058","precinct":"25OR31","hd":"57","v_score":"5.40460374","decile":"7","lat":40.29231761300529,"lng":-111.6972518097252,"phone":"(317) 948-8695","sd":"23","ssbd":"12","lsbd":"School Board Timpanogos 4"},{"vid":"6319984","name":"Dr. Shanta Pfannerstill","party":"Dem","address":"268 W 185 S, Orem, UT 84058","precinct":"25OR31","hd":"57","v_score":"8.445971984","decile":"8","lat":40.294077969479325,"lng":-111.70222846593867,"phone":"(349) 374-6453","sd":"23","ssbd":"12","lsbd":"School Board Timpanogos 4"},{"vid":"6322119","name":"Cristofer Wisoky","party":"Dem","address":"289 W 100 S, Orem, UT 84058","precinct":"25OR31","hd":"57","v_score":"8.085704327","decile":"8","lat":40.29516671768095,"lng":-111.70262252090141,"phone":"(443) 040-3243","sd":"23","ssbd":"12","lsbd":"School Board Timpanogos 4"},{"vid":"86e54fb6b09e9ce583b5f03df599fa98cf6e0c031b6655d53b587ab804c6600c","name":"Brandon Quigley","party":"Dem","address":"379 W 255 S, Orem, UT 84058","precinct":"25OR31","hd":"57","v_score":"28.19136616","decile":"10","lat":40.29243136725866,"lng":-111.70470023522037,"phone":"(253) 745-3143","sd":"23","ssbd":"12","lsbd":"School Board Timpanogos 4"},{"vid":"6336401","name":"Mrs. Misti Wilderman","party":"Dem","address":"242 W 400 S, Orem, UT 84058","precinct":"25OR31","hd":"57","v_score":"15.05924254","decile":"9","lat":40.29023542108353,"lng":-111.7010648806766,"phone":"(359) 398-7346","sd":"23","ssbd":"12","lsbd":"School Board Timpanogos 4"},{"vid":"6342627","name":"Essie Ferry","party":"","address":"289 W 100 S, Orem, UT 84058","precinct":"25OR31","hd":"57","v_score":"27.45629497","decile":"10","lat":40.29516671768095,"lng":-111.70262252090141,"phone":"(494) 758-4207","sd":"23","ssbd":"12","lsbd":"School Board Timpanogos 4"},{"vid":"6345494","name":"Randel Stokes","party":"Rep","address":"180 S Orem Blvd, Orem, UT 84058","precinct":"25OR31","hd":"57","v_score":"19.74179771","decile":"10","lat":40.293893487202546,"lng":-111.69653879472577,"phone":"(753) 134-3559","sd":"23","ssbd":"12","lsbd":"School Board Timpanogos 4"},{"vid":"6347718","name":"Miss Claudia Dickens","party":"Dem","address":"62 W 220 S, Orem, UT 84058","precinct":"25OR31","hd":"57","v_score":"9.116556227","decile":"8","lat":40.29339497618157,"lng":-111.69692513192236,"phone":"(141) 898-3507","sd":"23","ssbd":"12","lsbd":"School Board Timpanogos 4"},{"vid":"6349855","name":"Lorrie Marks PhD","party":"","address":"352 W 400 S, Orem, UT 84058","precinct":"25OR31","hd":"57","v_score":"24.08893072","decile":"10","lat":40.2901810928499,"lng":-111.70377680573587,"phone":"(259) 894-5249","sd":"23","ssbd":"12","lsbd":"School Board Timpanogos 4"},{"vid":"4f74df010be73bc750fbb0c5540bb0afea7ba540b68314d31d0ff5e5851c6a33","name":"Amberly Flatley","party":"Dem","address":"211 S 180 W, Orem, UT 84058","precinct":"25OR31","hd":"57","v_score":"20.18590886","decile":"10","lat":40.29335268445258,"lng":-111.69918787482862,"phone":"(709) 375-1065","sd":"23","ssbd":"12","lsbd":"School Board Timpanogos 4"},{"vid":"6363141","name":"Edmond Nienow","party":"Rep","address":"332 W 100 S, Orem, UT 84058","precinct":"25OR31","hd":"57","v_score":"33.55824628","decile":"10","lat":40.295433965848986,"lng":-111.70344214993528,"phone":"(679) 302-8943","sd":"23","ssbd":"12","lsbd":"School Board Timpanogos 4"},{"vid":"6363331","name":"Alijah Schneider","party":"Rep","address":"317 W 220 S, Orem, UT 84058","precinct":"25OR31","hd":"57","v_score":"12.01543255","decile":"9","lat":40.29304918081546,"lng":-111.70305090356524,"phone":"(419) 238-6345","sd":"23","ssbd":"12","lsbd":"School Board Timpanogos 4"},{"vid":"6366040","name":"Mr. Chin Kuhn III","party":"Rep","address":"172 S 165 W, Orem, UT 84058","precinct":"25OR31","hd":"57","v_score":"41.90479252","decile":"10","lat":40.29446872999108,"lng":-111.6985841345702,"phone":"(123) 468-7273","sd":"23","ssbd":"12","lsbd":"School Board Timpanogos 4"},{"vid":"6370202","name":"Coleton Ward","party":"Dem","address":"243 W 100 S, Orem, UT 84058","precinct":"25OR31","hd":"57","v_score":"28.87284927","decile":"10","lat":40.29512573297913,"lng":-111.7014760745865,"phone":"(634) 736-8212","sd":"23","ssbd":"12","lsbd":"School Board Timpanogos 4"},{"vid":"6375309","name":"Aric Breitenberg-Boehm","party":"Dem","address":"365 W 350 S, Orem, UT 84058","precinct":"25OR31","hd":"57","v_score":"28.19136616","decile":"10","lat":40.2909855311143,"lng":-111.70436813259786,"phone":"(731) 490-8613","sd":"23","ssbd":"12","lsbd":"School Board Timpanogos 4"},{"vid":"6386293","name":"Miss Zula Mante","party":"Rep","address":"345 S 280 W, Orem, UT 84058","precinct":"25OR31","hd":"57","v_score":"15.2589308","decile":"9","lat":40.29100056764749,"lng":-111.70200974626948,"phone":"(338) 083-7116","sd":"23","ssbd":"12","lsbd":"School Board Timpanogos 4"},{"vid":"6388976","name":"Verner Kilback","party":"Rep","address":"315 W 255 S, Orem, UT 84058","precinct":"25OR31","hd":"57","v_score":"1.46627566","decile":"4","lat":40.292384728597064,"lng":-111.70302653442754,"phone":"(790) 018-8888","sd":"23","ssbd":"12","lsbd":"School Board Timpanogos 4"},{"vid":"5b2559041785469dbaa95fc045fec78a832f98e210fd620f4c01b534900e2b6c","name":"Audry O'Conner","party":"Dem","address":"327 W 255 S, Orem, UT 84058","precinct":"25OR31","hd":"57","v_score":"3.781490609","decile":"6","lat":40.2924062017462,"lng":-111.70336011230987,"phone":"(379) 625-4203","sd":"23","ssbd":"12","lsbd":"School Board Timpanogos 4"},{"vid":"6395982","name":"Benito Hintz","party":"Rep","address":"289 W 100 S, Orem, UT 84058","precinct":"25OR31","hd":"57","v_score":"15.02598214","decile":"9","lat":40.29516671768095,"lng":-111.70262252090141,"phone":"(176) 141-8825","sd":"23","ssbd":"12","lsbd":"School Board Timpanogos 4"},{"vid":"6396034","name":"Rory Kirlin","party":"Dem","address":"8 W 400 S, Orem, UT 84058","precinct":"25OR31","hd":"57","v_score":"3.781490609","decile":"6","lat":40.29005249642585,"lng":-111.69564424895225,"phone":"(818) 886-5984","sd":"23","ssbd":"12","lsbd":"School Board Timpanogos 4"},