[{"id":"17","name":"Leonel Jacobi","party":"Dem","address":"1157 N 185 W, Orem, UT 84057","precinct":"25OR12","hd":"56","v_score":"22.04691019","decile":"10","lat":40.31845901228,"lng":-111.700318648597},{"id":"669","name":"Verlene Prohaska","party":"Dem","address":"29 E 925 N, Orem, UT 84057","precinct":"25OR12","hd":"56","v_score":"3.93832808","decile":"6","lat":40.314234172019,"lng":-111.695654739898},{"id":"1550","name":"Raelynn Sipes-Kessler","party":"","address":"60 E 1340 N, Orem, UT 84057","precinct":"25OR12","hd":"56","v_score":"2.587603312","decile":"5","lat":40.321959262813,"lng":-111.694757255361},{"id":"2003","name":"Baldwin Gulgowski","party":"Dem","address":"1084 N 75 E, Orem, UT 84057","precinct":"25OR12","hd":"56","v_score":"26.84076894","decile":"10","lat":40.317164880251,"lng":-111.693521569086},{"id":"2369","name":"Red Morissette","party":"Dem","address":"1248 Farm Lane Cir, Orem, UT 84057","precinct":"25OR12","hd":"56","v_score":"9.116556227","decile":"8","lat":40.320406274847,"lng":-111.693477724796},{"id":"2419","name":"Caesar Smith","party":"","address":"1032 N 50 W, Orem, UT 84057","precinct":"25OR12","hd":"56","v_score":"20.7369877","decile":"10","lat":40.316025109691,"lng":-111.696917823864},{"id":"2639","name":"Sariah McGlynn","party":"Rep","address":"957 N 100 W, Orem, UT 84057","precinct":"25OR12","hd":"56","v_score":"0","decile":"1","lat":40.314905171492,"lng":-111.698331597605},{"id":"3096","name":"Adrien Walter PhD","party":"Dem","address":"844 Memmo Dr, Orem, UT 84057","precinct":"25OR12","hd":"56","v_score":"1.121327652","decile":"3","lat":40.31249370232,"lng":-111.692931016873},{"id":"3559","name":"Mr. Beryl Kertzmann","party":"Dem","address":"1129 N Main St, Orem, UT 84057","precinct":"25OR12","hd":"56","v_score":"6.724398202","decile":"7","lat":40.317927099931,"lng":-111.69597873814},{"id":"3561","name":"Ms. Ozie Davis DDS","party":"Dem","address":"64 W 1160 N, Orem, UT 84057","precinct":"25OR12","hd":"56","v_score":"25.06350144","decile":"10","lat":40.318553937648,"lng":-111.697808262275},{"id":"4564","name":"Demi Smith-Crooks","party":"Dem","address":"286 W 1040 N, Orem, UT 84057","precinct":"25OR12","hd":"56","v_score":"0","decile":"1","lat":40.316406293965,"lng":-111.701986967071},{"id":"4625","name":"Marry Zboncak","party":"Dem","address":"1092 N 75 E, Orem, UT 84057","precinct":"25OR12","hd":"56","v_score":"17.76342521","decile":"10","lat":40.317312454455,"lng":-111.693566002643},{"id":"4708","name":"Miss Sunny Reichel DVM","party":"Rep","address":"1028 N 185 W, Orem, UT 84057","precinct":"25OR12","hd":"56","v_score":"4.224027","decile":"7","lat":40.316262374093,"lng":-111.700164324132},{"id":"5230","name":"Miss Amina Langworth","party":"Dem","address":"1190 N 50 E, Orem, UT 84057","precinct":"25OR12","hd":"56","v_score":"21.01746175","decile":"10","lat":40.319051847494,"lng":-111.694677888443},{"id":"5345","name":"Dr. Hattie Gorczany DVM","party":"Dem","address":"59 E 980 N, Orem, UT 84057","precinct":"25OR12","hd":"56","v_score":"1.121327652","decile":"3","lat":40.315308293562,"lng":-111.695085511823},{"id":"5395","name":"Brandon Spinka","party":"Rep","address":"115 E 1200 N, Orem, UT 84057","precinct":"25OR12","hd":"56","v_score":"9.616113056","decile":"8","lat":40.319304292974,"lng":-111.693347613071},{"id":"5619","name":"Albertus Quigley","party":"Dem","address":"1284 Farm Lane Cir, Orem, UT 84057","precinct":"25OR12","hd":"56","v_score":"7.650280567","decile":"8","lat":40.320616636591,"lng":-111.693506813144},{"id":"5693","name":"Dr. Hal Runolfsson MD","party":"Rep","address":"878 N 60 E, Orem, UT 84057","precinct":"25OR12","hd":"56","v_score":"3.781490609","decile":"6","lat":40.313218453302,"lng":-111.694413987779},{"id":"6242","name":"Sal Effertz","party":"","address":"28 W 990 N, Orem, UT 84057","precinct":"25OR12","hd":"56","v_score":"5.926494964","decile":"7","lat":40.315641293608,"lng":-111.696190987335},{"id":"6332","name":"Ms. Dusty Brekke DVM","party":"","address":"858 N 60 E, Orem, UT 84057","precinct":"25OR12","hd":"56","v_score":"4.064235245","decile":"6","lat":40.312889118126,"lng":-111.694408279346},{"id":"6901","name":"Olena Schuppe","party":"","address":"33 W 1200 N, Orem, UT 84057","precinct":"25OR12","hd":"56","v_score":"2.315214949","decile":"5","lat":40.319189701849,"lng":-111.696739086774},{"id":"6919","name":"Ila Bernhard","party":"","address":"1118 N 50 W, Orem, UT 84057","precinct":"25OR12","hd":"56","v_score":"25.14617095","decile":"10","lat":40.317442990772,"lng":-111.69695469817},{"id":"7028","name":"Mayo Hayes I","party":"Rep","address":"126 W 930 N, Orem, UT 84057","precinct":"25OR12","hd":"56","v_score":"2.587603312","decile":"5","lat":40.314174293983,"lng":-111.698898000238},{"id":"7190","name":"Shaniece Daniel","party":"","address":"65 W 1160 N, Orem, UT 84057","precinct":"25OR12","hd":"56","v_score":"9.677720888","decile":"8","lat":40.318440147049,"lng":-111.697828296056},{"id":"7261","name":"Charleen Kulas","party":"Rep","address":"114 W 975 N, Orem, UT 84057","precinct":"25OR12","hd":"56","v_score":"4.15282392","decile":"7","lat":40.315194604626,"lng":-111.698586986811},{"id":"7273","name":"Dr. Aron Predovic DVM","party":"","address":"24 E 1340 N, Orem, UT 84057","precinct":"25OR12","hd":"56","v_score":"7.47704845","decile":"8","lat":40.321957206176,"lng":-111.695553896008},{"id":"7427","name":"Ms. Fronnie O'Keefe DVM","party":"Dem","address":"894 N 160 W, Orem, UT 84057","precinct":"25OR12","hd":"56","v_score":"1.193887297","decile":"3","lat":40.313319148662,"lng":-111.699655722839},{"id":"7736","name":"Miss Rochelle Langworth","party":"Rep","address":"1276 N 50 E, Orem, UT 84057","precinct":"25OR12","hd":"56","v_score":"26.9144526","decile":"10","lat":40.32082149468,"lng":-111.69471059182},{"id":"7873","name":"Lessie Larkin","party":"","address":"1050 N 100 W, Orem, UT 84057","precinct":"25OR12","hd":"56","v_score":"1.46627566","decile":"4","lat":40.316648226541,"lng":-111.698207071463},{"id":"7989","name":"Dr. Iva Konopelski","party":"Dem","address":"848 N 60 E, Orem, UT 84057","precinct":"25OR12","hd":"56","v_score":"36.85952137","decile":"10","lat":40.312724450538,"lng":-111.69440542513},{"id":"8131","name":"Mahalia Sipes","party":"","address":"1160 N 150 W, Orem, UT 84057","precinct":"25OR12","hd":"56","v_score":"2.744440783","decile":"5","lat":40.318563996879,"lng":-111.699186950435},{"id":"8445","name":"Sydell Conroy","party":"","address":"901 N 60 E, Orem, UT 84057","precinct":"25OR12","hd":"56","v_score":"8.280646305","decile":"8","lat":40.313579207555,"lng":-111.694570530964},{"id":"10347","name":"Shawnee Harvey-Wisozk","party":"","address":"997 N 75 E, Orem, UT 84057","precinct":"25OR12","hd":"56","v_score":"19.1495814","decile":"10","lat":40.315510399565,"lng":-111.693736726329},{"id":"11064","name":"Jada Parisian","party":"","address":"921 N 75 E, Orem, UT 84057","precinct":"25OR12","hd":"56","v_score":"0","decile":"1","lat":40.314151386247,"lng":-111.693708641665},{"id":"11110","name":"Jeannine Schroeder","party":"","address":"1051 N 220 W, Orem, UT 84057","precinct":"25OR12","hd":"56","v_score":"5.919699776","decile":"7","lat":40.316896389676,"lng":-111.700928330236},{"id":"11131","name":"Lyndsey Erdman","party":"Dem","address":"231 W 1030 N, Orem, UT 84057","precinct":"25OR12","hd":"56","v_score":"2.315214949","decile":"5","lat":40.316131819236,"lng":-111.701156041485},{"id":"11133","name":"Mr. Rex Homenick II","party":"Rep","address":"1011 N 50 W, Orem, UT 84057","precinct":"25OR12","hd":"56","v_score":"1.121327652","decile":"3","lat":40.315971431546,"lng":-111.697074541668},{"id":"12089","name":"Sid Lemke","party":"Dem","address":"49 W 990 N, Orem, UT 84057","precinct":"25OR12","hd":"56","v_score":"9.405332525","decile":"8","lat":40.31552670224,"lng":-111.696397134214},{"id":"12396","name":"Hermine Jacobi","party":"Dem","address":"257 W 1140 N, Orem, UT 84057","precinct":"25OR12","hd":"56","v_score":"4.064235245","decile":"6","lat":40.317661058193,"lng":-111.701783473437},{"id":"12467","name":"Augustus Gusikowski","party":"Dem","address":"280 W 1040 N, Orem, UT 84057","precinct":"25OR12","hd":"56","v_score":"14.32303921","decile":"9","lat":40.316406293957,"lng":-111.701881341534},{"id":"13087","name":"Phillis Terry-Conn","party":"","address":"848 N 60 E, Orem, UT 84057","precinct":"25OR12","hd":"56","v_score":"30.57016229","decile":"10","lat":40.312724450538,"lng":-111.69440542513},{"id":"13175","name":"Mr. Orvin Toy III","party":"Rep","address":"1003 N 100 W, Orem, UT 84057","precinct":"25OR12","hd":"56","v_score":"9.600440767","decile":"8","lat":40.315662114195,"lng":-111.698351612275},{"id":"13197","name":"Michel O'Connell","party":"","address":"60 E 1085 N, Orem, UT 84057","precinct":"25OR12","hd":"56","v_score":"18.27552205","decile":"10","lat":40.316766465106,"lng":-111.694028164384},{"id":"13340","name":"Elia Corkery","party":"Dem","address":"72 W 940 N, Orem, UT 84057","precinct":"25OR12","hd":"56","v_score":"1.46627566","decile":"4","lat":40.314514591596,"lng":-111.69757231615},{"id":"13372","name":"Loree Schoen","party":"","address":"1136 N 75 E, Orem, UT 84057","precinct":"25OR12","hd":"56","v_score":"35.30276996","decile":"10","lat":40.318082702662,"lng":-111.693610939584},{"id":"13526","name":"Marylin Skiles","party":"Dem","address":"27 W 1200 N, Orem, UT 84057","precinct":"25OR12","hd":"56","v_score":"14.46680193","decile":"9","lat":40.319189701839,"lng":-111.696601165994},{"id":"13688","name":"Guadalupe Wolff","party":"Rep","address":"866 N 100 W, Orem, UT 84057","precinct":"25OR12","hd":"56","v_score":"1.121327652","decile":"3","lat":40.313079484753,"lng":-111.698141324148},{"id":"14161","name":"Armani Torp","party":"","address":"51 W 1160 N, Orem, UT 84057","precinct":"25OR12","hd":"56","v_score":"2.315214949","decile":"5","lat":40.31843011342,"lng":-111.697644680934},{"id":"15078","name":"Joshua Baumbach Jr.","party":"","address":"241 W 1140 N, Orem, UT 84057","precinct":"25OR12","hd":"56","v_score":"0","decile":"1","lat":40.317655866562,"lng":-111.701540303605},{"id":"15131","name":"Fount Lang","party":"","address":"1145 N Main St, Orem, UT 84057","precinct":"25OR12","hd":"56","v_score":"16.79607692","decile":"9","lat":40.318215492404,"lng":-111.695984505951},{"id":"15648","name":"Gaylen Schuppe-Okuneva","party":"Rep","address":"1285 N 50 E, Orem, UT 84057","precinct":"25OR12","hd":"56","v_score":"23.17240261","decile":"10","lat":40.320979601338,"lng":-111.69486364813},{"id":"16071","name":"Jaylynn Ziemann","party":"Dem","address":"23 W 1070 N, Orem, UT 84057","precinct":"25OR12","hd":"56","v_score":"0","decile":"1","lat":40.316781577722,"lng":-111.696173306271},{"id":"16554","name":"Allene Deckow","party":"","address":"1298 N Main St, Orem, UT 84057","precinct":"25OR12","hd":"56","v_score":"1.121327652","decile":"3","lat":40.321269822725,"lng":-111.695928272141},{"id":"17414","name":"Deann Johnston-Blick","party":"","address":"1134 N 50 W, Orem, UT 84057","precinct":"25OR12","hd":"56","v_score":"1.193887297","decile":"3","lat":40.317627567658,"lng":-111.696957494765},{"id":"17510","name":"Keyon Bergnaum","party":"Rep","address":"65 E 1340 N, Orem, UT 84057","precinct":"25OR12","hd":"56","v_score":"8.280646305","decile":"8","lat":40.322072472849,"lng":-111.694564541914},{"id":"17696","name":"Haiden Homenick","party":"","address":"49 W 990 N, Orem, UT 84057","precinct":"25OR12","hd":"56","v_score":"5.191257514","decile":"7","lat":40.31552670224,"lng":-111.696397134214},{"id":"17926","name":"Mrs. Siddie Green PhD","party":"","address":"23 W 940 N, Orem, UT 84057","precinct":"25OR12","hd":"56","v_score":"5.40460374","decile":"7","lat":40.314423101344,"lng":-111.696415381934},{"id":"18207","name":"Dell Tillman","party":"Dem","address":"847 N 60 E, Orem, UT 84057","precinct":"25OR12","hd":"56","v_score":"16.72520646","decile":"9","lat":40.31269000258,"lng":-111.694555118195},{"id":"18225","name":"Porsche Krajcik","party":"Rep","address":"961 N 40 W, Orem, UT 84057","precinct":"25OR12","hd":"56","v_score":"3.781490609","decile":"6","lat":40.314741339034,"lng":-111.696859498459},{"id":"18467","name":"Senora Wilderman","party":"","address":"955 N 40 W, Orem, UT 84057","precinct":"25OR12","hd":"56","v_score":"9.772950527","decile":"8","lat":40.31472023697,"lng":-111.696857636515},{"id":"18529","name":"Mr. Irl Wisozk Jr.","party":"","address":"1109 N 220 W, Orem, UT 84057","precinct":"25OR12","hd":"56","v_score":"0","decile":"1","lat":40.317465069932,"lng":-111.700930225763},{"id":"18720","name":"Mireya Weimann PhD","party":"","address":"1293 N 50 E, Orem, UT 84057","precinct":"25OR12","hd":"56","v_score":"15.95616156","decile":"9","lat":40.321139227334,"lng":-111.694866424213},{"id":"18771","name":"Miss Mariel Deckow","party":"","address":"888 N Main St, Orem, UT 84057","precinct":"25OR12","hd":"56","v_score":"7.650280567","decile":"8","lat":40.313407509869,"lng":-111.695756644732},{"id":"19879","name":"Jazmyn Batz","party":"","address":"36 E 980 N, Orem, UT 84057","precinct":"25OR12","hd":"56","v_score":"2.315214949","decile":"5","lat":40.315193702199,"lng":-111.695368509197},{"id":"19971","name":"Emely Abshire","party":"","address":"1349 N 40 E, Orem, UT 84057","precinct":"25OR12","hd":"56","v_score":"0","decile":"1","lat":40.322326542929,"lng":-111.695155468154},{"id":"20124","name":"Honora Thiel","party":"","address":"10 E 1300 N, Orem, UT 84057","precinct":"25OR12","hd":"56","v_score":"2.587603312","decile":"5","lat":40.321260262901,"lng":-111.69487024077},{"id":"20199","name":"Brittnie McLaughlin","party":"","address":"828 N 60 E, Orem, UT 84057","precinct":"25OR12","hd":"56","v_score":"1.46627566","decile":"4","lat":40.312395115361,"lng":-111.694399716697},{"id":"20326","name":"Conard Aufderhar","party":"Dem","address":"1090 N 100 W, Orem, UT 84057","precinct":"25OR12","hd":"56","v_score":"1.193887297","decile":"3","lat":40.317236971947,"lng":-111.698220683996},{"id":"20541","name":"Doug Dooley","party":"","address":"999 N 185 W, Orem, UT 84057","precinct":"25OR12","hd":"56","v_score":"1.46627566","decile":"4","lat":40.315655478348,"lng":-111.700277047885},{"id":"20559","name":"Dr. Reginal Wilderman III","party":"","address":"987 N 185 W, Orem, UT 84057","precinct":"25OR12","hd":"56","v_score":"5.530510904","decile":"7","lat":40.315602722712,"lng":-111.700276642079},{"id":"20610","name":"Dr. Carrol Larson I","party":"Rep","address":"61 E 1085 N, Orem, UT 84057","precinct":"25OR12","hd":"56","v_score":"36.44782433","decile":"10","lat":40.316880894244,"lng":-111.694017022806},{"id":"21043","name":"Ozell Stark","party":"Rep","address":"275 W 1200 N, Orem, UT 84057","precinct":"25OR12","hd":"56","v_score":"10.87722212","decile":"9","lat":40.319189702308,"lng":-111.702737246295},{"id":"21169","name":"Cecile Breitenberg-Wolff","party":"Rep","address":"999 N 100 W, Orem, UT 84057","precinct":"25OR12","hd":"56","v_score":"1.193887297","decile":"3","lat":40.315603073072,"lng":-111.6983513639},{"id":"21218","name":"Lionel Deckow","party":"","address":"1051 N 220 W, Orem, UT 84057","precinct":"25OR12","hd":"56","v_score":"5.40460374","decile":"7","lat":40.316896389676,"lng":-111.700928330236},{"id":"21357","name":"Monnie Lesch","party":"Dem","address":"243 W 1140 N, Orem, UT 84057","precinct":"25OR12","hd":"56","v_score":"0","decile":"1","lat":40.317656495873,"lng":-111.701570667743},{"id":"21508","name":"Shelbi Crooks","party":"Rep","address":"1247 Farm Lane Cir, Orem, UT 84057","precinct":"25OR12","hd":"56","v_score":"2.587603312","decile":"5","lat":40.320655456428,"lng":-111.69366381607},{"id":"21574","name":"Axel Farrell","party":"","address":"1170 N MAIN St, Orem, UT 84057","precinct":"25OR12","hd":"56","v_score":"6.462591196","decile":"7","lat":40.318685788391,"lng":-111.695843188195},{"id":"21673","name":"Tamya Parker","party":"Rep","address":"848 Memmo Dr, Orem, UT 84057","precinct":"25OR12","hd":"56","v_score":"19.60612512","decile":"10","lat":40.312493702316,"lng":-111.692874456941},{"id":"21895","name":"Deon Hamill Jr.","party":"Rep","address":"1352 N 40 E, Orem, UT 84057","precinct":"25OR12","hd":"56","v_score":"2.876042565","decile":"6","lat":40.322342787813,"lng":-111.695004232171},{"id":"22269","name":"Mr. Nathanael Heidenreich PhD","party":"","address":"41 W 1200 N, Orem, UT 84057","precinct":"25OR12","hd":"56","v_score":"1.121327652","decile":"3","lat":40.319189701863,"lng":-111.696922981148},{"id":"22526","name":"Mrs. Shawnda Ankunding","party":"Rep","address":"212 W 1030 N, Orem, UT 84057","precinct":"25OR12","hd":"56","v_score":"0","decile":"1","lat":40.316252274473,"lng":-111.700793826102},{"id":"22600","name":"Ciera Anderson","party":"","address":"268 W 1040 N, Orem, UT 84057","precinct":"25OR12","hd":"56","v_score":"4.409183253","decile":"7","lat":40.316406293941,"lng":-111.701670090462},{"id":"23036","name":"Felipe Swaniawski II","party":"Dem","address":"876 N Main St, Orem, UT 84057","precinct":"25OR12","hd":"56","v_score":"1.121327652","decile":"3","lat":40.313253240639,"lng":-111.695753411565},{"id":"23284","name":"Ms. Geraldine Muller","party":"","address":"1148 N 50 W, Orem, UT 84057","precinct":"25OR12","hd":"56","v_score":"2.744440783","decile":"5","lat":40.317789072433,"lng":-111.696959941786},{"id":"23928","name":"Jacquline Block","party":"Dem","address":"990 N 185 W, Orem, UT 84057","precinct":"25OR12","hd":"56","v_score":"1.193887297","decile":"3","lat":40.315669570738,"lng":-111.700126869138},{"id":"23983","name":"Mireya Stehr","party":"Dem","address":"1150 N 75 E, Orem, UT 84057","precinct":"25OR12","hd":"56","v_score":"40.57147386","decile":"10","lat":40.318332795952,"lng":-111.693614113324},{"id":"24232","name":"Jonah DuBuque","party":"Dem","address":"953 N MAIN St, Orem, UT 84057","precinct":"25OR12","hd":"56","v_score":"5.40460374","decile":"7","lat":40.314936454863,"lng":-111.695933115631},{"id":"24247","name":"Brinley Kassulke","party":"Dem","address":"132 W 1090 N, Orem, UT 84057","precinct":"25OR12","hd":"56","v_score":"0","decile":"1","lat":40.317461911667,"lng":-111.698642215568},{"id":"24285","name":"Chancy Weber","party":"Dem","address":"1158 N 185 W, Orem, UT 84057","precinct":"25OR12","hd":"56","v_score":"8.489090786","decile":"8","lat":40.318502247369,"lng":-111.700168441254},{"id":"24536","name":"Lexie Wilkinson","party":"","address":"997 N 100 W, Orem, UT 84057","precinct":"25OR12","hd":"56","v_score":"0","decile":"1","lat":40.315575543724,"lng":-111.698350639447},{"id":"25198","name":"Elena Parker","party":"","address":"1099 N 300 W, Orem, UT 84057","precinct":"25OR12","hd":"56","v_score":"0","decile":"1","lat":40.317016042601,"lng":-111.702537760495},{"id":"25428","name":"Alphonso Will","party":"Dem","address":"28 W 990 N, Orem, UT 84057","precinct":"25OR12","hd":"56","v_score":"7.320210979","decile":"8","lat":40.315641293608,"lng":-111.696190987335},{"id":"25528","name":"Hester Mueller-Harber","party":"Rep","address":"1084 N 75 E, Orem, UT 84057","precinct":"25OR12","hd":"56","v_score":"0","decile":"1","lat":40.317164880251,"lng":-111.693521569086},{"id":"26233","name":"Dr. Leo Armstrong MD","party":"Dem","address":"139 W 870 N, Orem, UT 84057","precinct":"25OR12","hd":"56","v_score":"6.657533174","decile":"7","lat":40.313141702684,"lng":-111.69864927178},{"id":"26279","name":"Barrett McGlynn","party":"Rep","address":"143 W 1200 N, Orem, UT 84057","precinct":"25OR12","hd":"56","v_score":"0","decile":"1","lat":40.319180702083,"lng":-111.699788008503},{"id":"26552","name":"Carleigh Bednar","party":"","address":"1101 N 185 W, Orem, UT 84057","precinct":"25OR12","hd":"56","v_score":"2.315214949","decile":"5","lat":40.317482657262,"lng":-111.700316853955},{"id":"26609","name":"Mrs. Damaris Casper","party":"","address":"227 W 1030 N, Orem, UT 84057","precinct":"25OR12","hd":"56","v_score":"0","decile":"1","lat":40.316131317115,"lng":-111.701143765013},{"id":"27373","name":"Eden Considine MD","party":"","address":"1146 N 185 W, Orem, UT 84057","precinct":"25OR12","hd":"56","v_score":"2.744440783","decile":"5","lat":40.318295489835,"lng":-111.700168061212},{"id":"27536","name":"Dr. Carlos Reilly","party":"Rep","address":"130 W 870 N, Orem, UT 84057","precinct":"25OR12","hd":"56","v_score":"2.587603312","decile":"5","lat":40.313256294062,"lng":-111.698574478311},{"id":"27665","name":"Stacie Terry","party":"","address":"1089 N 50 W, Orem, UT 84057","precinct":"25OR12","hd":"56","v_score":"8.347511332","decile":"8","lat":40.317095585372,"lng":-111.697099732775},{"id":"27811","name":"Samson Parisian","party":"Dem","address":"856 N Main St, Orem, UT 84057","precinct":"25OR12","hd":"56","v_score":"22.63170223","decile":"10","lat":40.312996125254,"lng":-111.695748022953},{"id":"28607","name":"Renae Purdy","party":"Dem","address":"1123 N 75 E, Orem, UT 84057","precinct":"25OR12","hd":"56","v_score":"0","decile":"1","lat":40.317831500646,"lng":-111.693758048301},{"id":"28650","name":"Marin Kulas","party":"Rep","address":"121 W 905 N, Orem, UT 84057","precinct":"25OR12","hd":"56","v_score":"8.94332411","decile":"8","lat":40.313715331896,"lng":-111.698558471403},{"id":"28920","name":"Maida Krajcik","party":"Rep","address":"1072 N 185 W, Orem, UT 84057","precinct":"25OR12","hd":"56","v_score":"2.315214949","decile":"5","lat":40.317020485048,"lng":-111.70016571762},{"id":"28976","name":"Alethea Stracke","party":"Dem","address":"272 W 1040 N, Orem, UT 84057","precinct":"25OR12","hd":"56","v_score":"4.009510655","decile":"6","lat":40.316406293946,"lng":-111.701740507486},{"id":"29038","name":"Debera Kreiger","party":"Dem","address":"176 W 930 N, Orem, UT 84057","precinct":"25OR12","hd":"56","v_score":"1.193887297","decile":"3","lat":40.314174294069,"lng":-111.70003357039},{"id":"29634","name":"Dr. Shiela Kulas DDS","party":"Dem","address":"219 W 1030 N, Orem, UT 84057","precinct":"25OR12","hd":"56","v_score":"0","decile":"1","lat":40.316132272151,"lng":-111.701090999046},{"id":"30091","name":"Sherron Marquardt PhD","party":"","address":"953 N Main St, Orem, UT 84057","precinct":"25OR12","hd":"56","v_score":"16.21228774","decile":"9","lat":40.314936454863,"lng":-111.695933115631},{"id":"30654","name":"Marylouise Harris","party":"Rep","address":"933 N 75 E, Orem, UT 84057","precinct":"25OR12","hd":"56","v_score":"3.089388791","decile":"6","lat":40.314365972955,"lng":-111.693713043415},{"id":"30897","name":"Silas Fritsch","party":"Rep","address":"1131 N 220 W, Apt I1131, Orem, UT 84057","precinct":"25OR12","hd":"56","v_score":"5.69030266","decile":"7","lat":40.316406148076,"lng":-111.700926696162},{"id":"31075","name":"Wanda Rutherford","party":"","address":"152 W 975 N, Orem, UT 84057","precinct":"25OR12","hd":"56","v_score":"5.191257514","decile":"7","lat":40.315201518731,"lng":-111.699262835483},{"id":"31477","name":"Amado Heathcote-Harris","party":"Rep","address":"72 W 940 N, Orem, UT 84057","precinct":"25OR12","hd":"56","v_score":"5.60307055","decile":"7","lat":40.314514591596,"lng":-111.69757231615},{"id":"32226","name":"Mr. Albion Keebler Jr.","party":"","address":"10 W 990 N, Orem, UT 84057","precinct":"25OR12","hd":"56","v_score":"6.884189957","decile":"8","lat":40.315641293595,"lng":-111.696014461575},{"id":"33619","name":"Dr. Alex Kuvalis","party":"Rep","address":"948 N 60 E, Orem, UT 84057","precinct":"25OR12","hd":"56","v_score":"1.46627566","decile":"4","lat":40.314371126418,"lng":-111.694433967294},{"id":"33623","name":"Noemie Ritchie","party":"Rep","address":"33 W 1200 N, Orem, UT 84057","precinct":"25OR12","hd":"56","v_score":"2.315214949","decile":"5","lat":40.319189701849,"lng":-111.696739086774},{"id":"33910","name":"Brandyn Senger","party":"","address":"1121 N 300 W, Orem, UT 84057","precinct":"25OR12","hd":"56","v_score":"0","decile":"1","lat":40.317100063803,"lng":-111.702507659189},{"id":"34063","name":"Mr. Winfred Adams","party":"Rep","address":"1037 N 100 W, Orem, UT 84057","precinct":"25OR12","hd":"56","v_score":"2.587603312","decile":"5","lat":40.316288053187,"lng":-111.698349053042},{"id":"34114","name":"Kameron Veum","party":"Dem","address":"1062 N 75 E, Orem, UT 84057","precinct":"25OR12","hd":"56","v_score":"6.814370645","decile":"8","lat":40.316674696885,"lng":-111.693540250853},{"id":"34121","name":"Jarrad Littel V","party":"Rep","address":"1127 N 220 W, Orem, UT 84057","precinct":"25OR12","hd":"56","v_score":"9.699007114","decile":"8","lat":40.317641556908,"lng":-111.700930814029},{"id":"34124","name":"Celestia Carroll","party":"Dem","address":"1032 N 50 W, Orem, UT 84057","precinct":"25OR12","hd":"56","v_score":"1.121327652","decile":"3","lat":40.316025109691,"lng":-111.696917823864},{"id":"34465","name":"Jordi Schmidt-Schiller","party":"Rep","address":"1090 N 100 W, Orem, UT 84057","precinct":"25OR12","hd":"56","v_score":"1.193887297","decile":"3","lat":40.317236971947,"lng":-111.698220683996},{"id":"34622","name":"Mrs. Rose Auer","party":"Dem","address":"57 E 1200 N, Orem, UT 84057","precinct":"25OR12","hd":"56","v_score":"6.657533174","decile":"7","lat":40.319304293067,"lng":-111.694569815272},{"id":"34668","name":"Ceylon Crooks","party":"","address":"1094 N 300 W, Orem, UT 84057","precinct":"25OR12","hd":"56","v_score":"0","decile":"1","lat":40.316982654175,"lng":-111.702395987089},{"id":"35067","name":"Mr. Malaki Windler","party":"Rep","address":"956 N 75 E, Orem, UT 84057","precinct":"25OR12","hd":"56","v_score":"2.315214949","decile":"5","lat":40.314630037731,"lng":-111.693568161094},{"id":"36157","name":"Mr. Lawyer Smitham","party":"Dem","address":"857 N 60 E, Orem, UT 84057","precinct":"25OR12","hd":"56","v_score":"12.58300477","decile":"9","lat":40.312854670168,"lng":-111.694557972411},{"id":"36704","name":"Rodney Ratke","party":"Rep","address":"1081 N 220 W, Orem, UT 84057","precinct":"25OR12","hd":"56","v_score":"2.587603312","decile":"5","lat":40.317190534636,"lng":-111.700929310681},{"id":"36764","name":"Arther Torp","party":"","address":"240 W 1040 N, Orem, UT 84057","precinct":"25OR12","hd":"56","v_score":"1.121327652","decile":"3","lat":40.3164062939,"lng":-111.701136255796},{"id":"37009","name":"Dr. Goebel Harris IV","party":"","address":"25 W 990 N, Orem, UT 84057","precinct":"25OR12","hd":"56","v_score":"43.51438145","decile":"10","lat":40.315526702222,"lng":-111.696166569955},{"id":"38558","name":"Kerry Heaney","party":"","address":"72 W 940 N, Orem, UT 84057","precinct":"25OR12","hd":"56","v_score":"8.016984044","decile":"8","lat":40.314514591596,"lng":-111.69757231615},{"id":"38766","name":"Marilynn Carroll","party":"Dem","address":"1140 N Main St, Orem, UT 84057","precinct":"25OR12","hd":"56","v_score":"10.38488476","decile":"9","lat":40.318145141526,"lng":-111.695832792219},{"id":"38991","name":"Essie Hickle","party":"Dem","address":"878 N Main St, Orem, UT 84057","precinct":"25OR12","hd":"56","v_score":"1.121327652","decile":"3","lat":40.313278952177,"lng":-111.695753950426},{"id":"39287","name":"Dr. Kanesha Bernhard","party":"","address":"1123 N 75 E, Orem, UT 84057","precinct":"25OR12","hd":"56","v_score":"0","decile":"1","lat":40.317831500646,"lng":-111.693758048301},{"id":"39296","name":"Dr. Camren Harris II","party":"Rep","address":"1135 N 300 W, Orem, UT 84057","precinct":"25OR12","hd":"56","v_score":"3.93832808","decile":"6","lat":40.317173712465,"lng":-111.702488019538},{"id":"39573","name":"Laurie Leuschke","party":"Dem","address":"1099 N 300 W, Orem, UT 84057","precinct":"25OR12","hd":"56","v_score":"1.121327652","decile":"3","lat":40.317016042601,"lng":-111.702537760495},{"id":"40050","name":"Lemon Tromp","party":"Rep","address":"1102 N 75 E, Orem, UT 84057","precinct":"25OR12","hd":"56","v_score":"8.280646305","decile":"8","lat":40.317475333243,"lng":-111.69360323193},{"id":"40186","name":"Vira Tremblay","party":"Rep","address":"1105 N 220 W, Orem, UT 84057","precinct":"25OR12","hd":"56","v_score":"9.653407732","decile":"8","lat":40.317425850604,"lng":-111.700930095037},{"id":"41429","name":"Crockett Stoltenberg","party":"","address":"1129 N 300 W, Orem, UT 84057","precinct":"25OR12","hd":"56","v_score":"1.121327652","decile":"3","lat":40.317142148753,"lng":-111.702496436531},{"id":"41843","name":"Mr. Chauncy Keeling","party":"Rep","address":"23 W 940 N, Orem, UT 84057","precinct":"25OR12","hd":"56","v_score":"27.97970372","decile":"10","lat":40.314423101344,"lng":-111.696415381934},{"id":"42154","name":"Devin Purdy DDS","party":"","address":"1133 N 185 W, Orem, UT 84057","precinct":"25OR12","hd":"56","v_score":"6.954919332","decile":"8","lat":40.318040574415,"lng":-111.700317879464},{"id":"42253","name":"Joeseph Gottlieb","party":"","address":"1077 N 185 W, Orem, UT 84057","precinct":"25OR12","hd":"56","v_score":"1.121327652","decile":"3","lat":40.317064219397,"lng":-111.700316084822},{"id":"42277","name":"Lannie O'Kon Sr.","party":"Dem","address":"77 W 1200 N, Orem, UT 84057","precinct":"25OR12","hd":"56","v_score":"39.08952591","decile":"10","lat":40.319189701926,"lng":-111.697750505828},{"id":"42729","name":"Dr. Tavaris Hessel DDS","party":"Dem","address":"256 W 1040 N, Orem, UT 84057","precinct":"25OR12","hd":"56","v_score":"1.121327652","decile":"3","lat":40.316406293924,"lng":-111.701458839389},{"id":"42734","name":"Shelly Gleichner","party":"Rep","address":"956 N 75 E, Orem, UT 84057","precinct":"25OR12","hd":"56","v_score":"6.657533174","decile":"7","lat":40.314630037731,"lng":-111.693568161094},{"id":"42753","name":"Alby Kuvalis","party":"","address":"948 N 60 E, Orem, UT 84057","precinct":"25OR12","hd":"56","v_score":"0","decile":"1","lat":40.314371126418,"lng":-111.694433967294},{"id":"42811","name":"Clint Kuhlman","party":"","address":"23 E 1100 N, Orem, UT 84057","precinct":"25OR12","hd":"56","v_score":"4.566020724","decile":"7","lat":40.317439495899,"lng":-111.695590606959},{"id":"43665","name":"Selina Rath","party":"","address":"288 W 1040 N, Orem, UT 84057","precinct":"25OR12","hd":"56","v_score":"1.121327652","decile":"3","lat":40.316406293968,"lng":-111.702022175583},{"id":"43862","name":"Mrs. Cherrie Mitchell DVM","party":"","address":"175 W 975 N, Orem, UT 84057","precinct":"25OR12","hd":"56","v_score":"1.121327652","decile":"3","lat":40.315084140391,"lng":-111.698991422159},{"id":"44263","name":"Santiago Davis-Will","party":"Rep","address":"177 W 975 N, Orem, UT 84057","precinct":"25OR12","hd":"56","v_score":"1.121327652","decile":"3","lat":40.315084320503,"lng":-111.699009027999},{"id":"44355","name":"Daisie Prosacco","party":"Dem","address":"1221 N 50 E, Orem, UT 84057","precinct":"25OR12","hd":"56","v_score":"2.744440783","decile":"5","lat":40.319702593367,"lng":-111.694841439465},{"id":"44380","name":"Pershing Grimes","party":"Dem","address":"1050 N 100 W, Orem, UT 84057","precinct":"25OR12","hd":"56","v_score":"14.63972567","decile":"9","lat":40.316648226541,"lng":-111.698207071463},{"id":"44572","name":"Jonah Gibson-Bins","party":"Dem","address":"1312 N Main St, Orem, UT 84057","precinct":"25OR12","hd":"56","v_score":"9.99960731","decile":"9","lat":40.321563679853,"lng":-111.695932836824},{"id":"44683","name":"Demarco Bartell","party":"Dem","address":"171 W 975 N, Orem, UT 84057","precinct":"25OR12","hd":"56","v_score":"3.781490609","decile":"6","lat":40.315083780166,"lng":-111.698956210479},{"id":"44744","name":"Jerrod Bogisich III","party":"Rep","address":"177 W 930 N, Orem, UT 84057","precinct":"25OR12","hd":"56","v_score":"0","decile":"1","lat":40.314059702685,"lng":-111.700033570405},{"id":"44960","name":"Reynold Orn","party":"Rep","address":"207 W 975 N, Orem, UT 84057","precinct":"25OR12","hd":"56","v_score":"1.121327652","decile":"3","lat":40.315087022187,"lng":-111.699273115598},{"id":"45227","name":"Mr. Maxx Mann II","party":"Dem","address":"1145 N 185 W, Orem, UT 84057","precinct":"25OR12","hd":"56","v_score":"0","decile":"1","lat":40.318249793347,"lng":-111.700318264031},{"id":"45402","name":"Keanu Cremin","party":"Rep","address":"1105 N 300 W, Apt B1105, Orem, UT 84057","precinct":"25OR12","hd":"56","v_score":"0","decile":"1","lat":40.317029690458,"lng":-111.702533032855},{"id":"45629","name":"Scot O'Hara","party":"","address":"1075 N 50 W, Orem, UT 84057","precinct":"25OR12","hd":"56","v_score":"15.53259879","decile":"9","lat":40.316934080597,"lng":-111.697097285755},{"id":"46162","name":"Kazuko Beier PhD","party":"Dem","address":"1142 N 185 W, Orem, UT 84057","precinct":"25OR12","hd":"56","v_score":"1.121327652","decile":"3","lat":40.318226570658,"lng":-111.700167934531},{"id":"46199","name":"Angella Swaniawski-Kuphal","party":"Rep","address":"836 N MAIN St, Orem, UT 84057","precinct":"25OR12","hd":"56","v_score":"6.881235673","decile":"8","lat":40.312739009869,"lng":-111.695742634342},{"id":"46201","name":"Kiara Effertz DDS","party":"","address":"840 N 50 W, Orem, UT 84057","precinct":"25OR12","hd":"56","v_score":"3.93832808","decile":"6","lat":40.312863565413,"lng":-111.696972963077},{"id":"46653","name":"Kassidy Klocko-Price","party":"Rep","address":"1064 N 300 W, Orem, UT 84057","precinct":"25OR12","hd":"56","v_score":"7.934314529","decile":"8","lat":40.316880967699,"lng":-111.702448653882},{"id":"47759","name":"Mrs. Jaleesa Feest MD","party":"","address":"1161 N Main St, Orem, UT 84057","precinct":"25OR12","hd":"56","v_score":"0","decile":"1","lat":40.3185039788,"lng":-111.695990247304},{"id":"47807","name":"Mr. Valentin Grady DVM","party":"Dem","address":"82 W 940 N, Orem, UT 84057","precinct":"25OR12","hd":"56","v_score":"5.530510904","decile":"7","lat":40.314509014448,"lng":-111.69780167706},{"id":"47900","name":"Violette Dooley-Crist","party":"","address":"126 W 870 N, Orem, UT 84057","precinct":"25OR12","hd":"56","v_score":"0","decile":"1","lat":40.31325629406,"lng":-111.698537081584},{"id":"48120","name":"Miss Lida Jacobson DDS","party":"","address":"43 W 1070 N, Orem, UT 84057","precinct":"25OR12","hd":"56","v_score":"10.13721141","decile":"9","lat":40.316778146132,"lng":-111.696362044507},{"id":"48240","name":"Kent Sauer-Olson","party":"","address":"861 N 100 W, Orem, UT 84057","precinct":"25OR12","hd":"56","v_score":"7.234402762","decile":"8","lat":40.313116297433,"lng":-111.698292357347},{"id":"48386","name":"Miss Rayne Lakin","party":"","address":"1072 N 185 W, Orem, UT 84057","precinct":"25OR12","hd":"56","v_score":"0","decile":"1","lat":40.317020485048,"lng":-111.70016571762},{"id":"48717","name":"Keisha Berge","party":"Dem","address":"270 W 1040 N, Orem, UT 84057","precinct":"25OR12","hd":"56","v_score":"1.121327652","decile":"3","lat":40.316406293943,"lng":-111.701705298974},{"id":"49213","name":"Jovani Hirthe Sr.","party":"Dem","address":"141 W 905 N, Orem, UT 84057","precinct":"25OR12","hd":"56","v_score":"6.724398202","decile":"8","lat":40.313713489742,"lng":-111.698819138988},{"id":"49283","name":"Ms. Janey Cormier DVM","party":"Dem","address":"1022 N 185 W, Orem, UT 84057","precinct":"25OR12","hd":"56","v_score":"6.753951438","decile":"8","lat":40.316053928284,"lng":-111.700148894057},{"id":"49317","name":"Mrs. Lesia Koss DDS","party":"","address":"139 W 870 N, Orem, UT 84057","precinct":"25OR12","hd":"56","v_score":"6.657533174","decile":"7","lat":40.313141702684,"lng":-111.69864927178},{"id":"49662","name":"Rogers Block","party":"Dem","address":"986 N 185 W, Orem, UT 84057","precinct":"25OR12","hd":"56","v_score":"0","decile":"1","lat":40.315649825938,"lng":-111.700126717257},{"id":"49986","name":"Dorr Kreiger Sr.","party":"Dem","address":"1063 N 150 W, Orem, UT 84057","precinct":"25OR12","hd":"56","v_score":"5.130838307","decile":"7","lat":40.317043006313,"lng":-111.699333914627},{"id":"50375","name":"Joann Hand-Jacobs","party":"","address":"1093 N 50 E, Orem, UT 84057","precinct":"25OR12","hd":"56","v_score":"6.724398202","decile":"8","lat":40.317341589615,"lng":-111.694783325564},{"id":"51190","name":"Dr. Dillard West","party":"","address":"33 W 1070 N, Orem, UT 84057","precinct":"25OR12","hd":"56","v_score":"1.46627566","decile":"4","lat":40.316779861927,"lng":-111.696267675389},{"id":"51216","name":"Brenton Ruecker","party":"Rep","address":"832 N 100 W, Orem, UT 84057","precinct":"25OR12","hd":"56","v_score":"0","decile":"1","lat":40.312472777753,"lng":-111.698128156953},{"id":"51617","name":"Gustave Rogahn III","party":"Rep","address":"1110 N 50 W, Orem, UT 84057","precinct":"25OR12","hd":"56","v_score":"8.280646305","decile":"8","lat":40.317350702329,"lng":-111.696953299872},{"id":"51619","name":"Saige Collier","party":"Rep","address":"876 N 100 W, Orem, UT 84057","precinct":"25OR12","hd":"56","v_score":"2.315214949","decile":"5","lat":40.313257431979,"lng":-111.698145245484},{"id":"51733","name":"Karl Lueilwitz IV","party":"","address":"314 W 1040 N, Orem, UT 84057","precinct":"25OR12","hd":"56","v_score":"4.064235245","decile":"6","lat":40.316403488306,"lng":-111.702504029484},{"id":"52650","name":"Marlene Berge","party":"Rep","address":"1116 N 185 W, Orem, UT 84057","precinct":"25OR12","hd":"56","v_score":"5.40460374","decile":"7","lat":40.317778596002,"lng":-111.700167111107},{"id":"53094","name":"Luna Stark","party":"Dem","address":"1349 N 40 E, Orem, UT 84057","precinct":"25OR12","hd":"56","v_score":"0","decile":"1","lat":40.322326542929,"lng":-111.695155468154},{"id":"53128","name":"Jerimiah Stehr","party":"Dem","address":"987 N 185 W, Orem, UT 84057","precinct":"25OR12","hd":"56","v_score":"1.193887297","decile":"3","lat":40.315602722712,"lng":-111.700276642079},{"id":"53256","name":"Inell Lockman-Wehner","party":"","address":"24 E 1100 N, Orem, UT 84057","precinct":"25OR12","hd":"56","v_score":"3.781490609","decile":"6","lat":40.317325440028,"lng":-111.695575306115},{"id":"53519","name":"Pansy Feil","party":"Rep","address":"1069 N 220 W, Apt 1069, Orem, UT 84057","precinct":"25OR12","hd":"56","v_score":"3.781490609","decile":"6","lat":40.317072876652,"lng":-111.700928918503},{"id":"53888","name":"Elza Ferry","party":"","address":"97 E 1200 N, Orem, UT 84057","precinct":"25OR12","hd":"56","v_score":"18.07129544","decile":"10","lat":40.319304293009,"lng":-111.693813809982},{"id":"53932","name":"Kaylene Wintheiser","party":"Rep","address":"280 W 1040 N, Orem, UT 84057","precinct":"25OR12","hd":"56","v_score":"7.242212711","decile":"8","lat":40.316406293957,"lng":-111.701881341534},{"id":"54480","name":"Ainsley Hand","party":"","address":"904 N 75 E, Orem, UT 84057","precinct":"25OR12","hd":"56","v_score":"11.11672911","decile":"9","lat":40.313622672354,"lng":-111.693547497322},{"id":"54960","name":"Vince Feest","party":"Rep","address":"865 N 75 E, Orem, UT 84057","precinct":"25OR12","hd":"56","v_score":"0","decile":"1","lat":40.313084745967,"lng":-111.693692930282},{"id":"55590","name":"Mr. Eddie Feil","party":"Dem","address":"1081 N 220 W, Apt K1081, Orem, UT 84057","precinct":"25OR12","hd":"56","v_score":"0","decile":"1","lat":40.317190534636,"lng":-111.700929310681},{"id":"55657","name":"Dr. Brandon Jaskolski MD","party":"Rep","address":"82 E 1340 N, Orem, UT 84057","precinct":"25OR12","hd":"56","v_score":"1.121327652","decile":"3","lat":40.321955778524,"lng":-111.694272944352},{"id":"56175","name":"Sunny Emard MD","party":"","address":"1028 N 50 W, Orem, UT 84057","precinct":"25OR12","hd":"56","v_score":"0","decile":"1","lat":40.316013608642,"lng":-111.696919088981},{"id":"56207","name":"Shawnna Kerluke","party":"","address":"114 W 870 N, Orem, UT 84057","precinct":"25OR12","hd":"56","v_score":"5.273794831","decile":"7","lat":40.313256294051,"lng":-111.698424891404},{"id":"56227","name":"Noel Balistreri-Bradtke","party":"","address":"1050 N 100 W, Orem, UT 84057","precinct":"25OR12","hd":"56","v_score":"2.315214949","decile":"5","lat":40.316648226541,"lng":-111.698207071463},{"id":"57119","name":"Ignatz Luettgen-Beer","party":"Rep","address":"1150 N 75 E, Orem, UT 84057","precinct":"25OR12","hd":"56","v_score":"12.51949831","decile":"9","lat":40.318332795952,"lng":-111.693614113324},{"id":"57299","name":"Jaycee Pfannerstill","party":"Dem","address":"1040 N 185 W, Orem, UT 84057","precinct":"25OR12","hd":"56","v_score":"0","decile":"1","lat":40.316469131626,"lng":-111.700164704174},{"id":"57664","name":"Hardy Rutherford","party":"Dem","address":"113 W 1090 N, Orem, UT 84057","precinct":"25OR12","hd":"56","v_score":"0","decile":"1","lat":40.317350455048,"lng":-111.698472663934},{"id":"58616","name":"Mimi Spinka","party":"","address":"1099 N 220 W, Orem, UT 84057","precinct":"25OR12","hd":"56","v_score":"1.121327652","decile":"3","lat":40.317367021612,"lng":-111.700929898948},{"id":"58806","name":"Mrs. Edra Lemke DDS","party":"","address":"271 W 1200 N, Orem, UT 84057","precinct":"25OR12","hd":"56","v_score":"0","decile":"1","lat":40.319189702304,"lng":-111.702681507925},{"id":"59175","name":"Karina Gottlieb","party":"","address":"892 N Main St, Orem, UT 84057","precinct":"25OR12","hd":"56","v_score":"0","decile":"1","lat":40.313458932946,"lng":-111.695757722454},{"id":"59610","name":"Mandy Christiansen-Gerlach","party":"Rep","address":"1089 N 185 W, Orem, UT 84057","precinct":"25OR12","hd":"56","v_score":"0","decile":"1","lat":40.31727343833,"lng":-111.700316469388},{"id":"59752","name":"Marcy Homenick","party":"Dem","address":"1164 N 50 E, Orem, UT 84057","precinct":"25OR12","hd":"56","v_score":"7.848747377","decile":"8","lat":40.318599916264,"lng":-111.694665583445},{"id":"59902","name":"Derick Marks Sr.","party":"Dem","address":"870 N 160 W, Orem, UT 84057","precinct":"25OR12","hd":"56","v_score":"0","decile":"1","lat":40.313241058154,"lng":-111.699655722849},{"id":"59968","name":"Jeanne Schoen","party":"Rep","address":"852 N Main St, Orem, UT 84057","precinct":"25OR12","hd":"56","v_score":"5.331806201","decile":"7","lat":40.312944702177,"lng":-111.695746945231},{"id":"59995","name":"Mrs. Corliss Price MD","party":"Dem","address":"1137 N 220 W, Orem, UT 84057","precinct":"25OR12","hd":"56","v_score":"2.315214949","decile":"5","lat":40.316515154737,"lng":-111.700927059503},{"id":"60118","name":"Mrs. Madalyn Stehr DVM","party":"Rep","address":"249 W 1140 N, # G249, Orem, UT 84057","precinct":"25OR12","hd":"56","v_score":"0","decile":"1","lat":40.317658383806,"lng":-111.701661760155},{"id":"60301","name":"Lelia Okuneva","party":"","address":"269 W 1140 N, Orem, UT 84057","precinct":"25OR12","hd":"56","v_score":"1.121327652","decile":"3","lat":40.317665319412,"lng":-111.701965639893},{"id":"60359","name":"Jenna Gaylord","party":"Rep","address":"1098 N 50 E, Orem, UT 84057","precinct":"25OR12","hd":"56","v_score":"2.315214949","decile":"5","lat":40.317372044208,"lng":-111.694633272711},{"id":"60417","name":"Susanne Kub","party":"Dem","address":"894 N 160 W, Orem, UT 84057","precinct":"25OR12","hd":"56","v_score":"2.315214949","decile":"5","lat":40.313319148662,"lng":-111.699655722839},{"id":"60752","name":"Fred Kerluke","party":"Rep","address":"234 W 1040 N, Orem, UT 84057","precinct":"25OR12","hd":"56","v_score":"0","decile":"1","lat":40.316406293897,"lng":-111.70110479324},{"id":"61185","name":"Jaslene DuBuque-Robel","party":"","address":"1379 N 40 E, Orem, UT 84057","precinct":"25OR12","hd":"56","v_score":"17.59830555","decile":"9","lat":40.322481592155,"lng":-111.695147603319},{"id":"61705","name":"Sonny Wisoky","party":"","address":"1094 N 300 W, Orem, UT 84057","precinct":"25OR12","hd":"56","v_score":"1.193887297","decile":"3","lat":40.316982654175,"lng":-111.702395987089},{"id":"61815","name":"Milda Kiehn DVM","party":"Dem","address":"16 E 925 N, Orem, UT 84057","precinct":"25OR12","hd":"56","v_score":"2.315214949","decile":"5","lat":40.314120516663,"lng":-111.695712543057},{"id":"61933","name":"Selina Luettgen","party":"Rep","address":"269 W 1140 N, Orem, UT 84057","precinct":"25OR12","hd":"56","v_score":"0","decile":"1","lat":40.317665319412,"lng":-111.701965639893},{"id":"62111","name":"Tariq Lockman","party":"Dem","address":"1089 N 50 W, Orem, UT 84057","precinct":"25OR12","hd":"56","v_score":"1.121327652","decile":"3","lat":40.317095585372,"lng":-111.697099732775},{"id":"62482","name":"Carmen Yundt","party":"Rep","address":"952 N Main St, Orem, UT 84057","precinct":"25OR12","hd":"56","v_score":"0","decile":"1","lat":40.314771961714,"lng":-111.695778938199},{"id":"63037","name":"Jakob Williamson","party":"","address":"76 E 1300 N, Orem, UT 84057","precinct":"25OR12","hd":"56","v_score":"2.315214949","decile":"5","lat":40.321259701408,"lng":-111.694060830805},{"id":"63144","name":"Dr. Lacey Wintheiser I","party":"Dem","address":"139 W 930 N, Orem, UT 84057","precinct":"25OR12","hd":"56","v_score":"5.258122542","decile":"7","lat":40.314059702619,"lng":-111.69917053709},{"id":"63217","name":"Olie Hessel","party":"","address":"282 W 1040 N, Apt 282, Orem, UT 84057","precinct":"25OR12","hd":"56","v_score":"0","decile":"1","lat":40.31640629396,"lng":-111.701916550047},{"id":"63587","name":"Citlalli Reynolds PhD","party":"Rep","address":"1256 N 50 E, Orem, UT 84057","precinct":"25OR12","hd":"56","v_score":"1.193887297","decile":"3","lat":40.320422429689,"lng":-111.694703651612},{"id":"63871","name":"Jerimiah Lynch","party":"Rep","address":"1097 N Main St, Orem, UT 84057","precinct":"25OR12","hd":"56","v_score":"1.121327652","decile":"3","lat":40.317279601393,"lng":-111.695967506863},{"id":"63889","name":"Reginal Langworth","party":"Dem","address":"1145 N 185 W, Orem, UT 84057","precinct":"25OR12","hd":"56","v_score":"0","decile":"1","lat":40.318249793347,"lng":-111.700318264031},{"id":"63923","name":"Elouise Bednar","party":"Dem","address":"1145 N 185 W, Orem, UT 84057","precinct":"25OR12","hd":"56","v_score":"0","decile":"1","lat":40.318249793347,"lng":-111.700318264031},{"id":"64044","name":"Canyon Dare","party":"","address":"187 W 975 N, Orem, UT 84057","precinct":"25OR12","hd":"56","v_score":"1.121327652","decile":"3","lat":40.315085221064,"lng":-111.699097057198},{"id":"64058","name":"Shreya Reichert","party":"","address":"122 W 975 N, Orem, UT 84057","precinct":"25OR12","hd":"56","v_score":"1.193887297","decile":"3","lat":40.315196060227,"lng":-111.698729270742},{"id":"64235","name":"Aurthur Sauer","party":"Rep","address":"165 W 930 N, Orem, UT 84057","precinct":"25OR12","hd":"56","v_score":"0","decile":"1","lat":40.314059702664,"lng":-111.699761033569},{"id":"64366","name":"Sean Hintz PhD","party":"Rep","address":"1115 N 220 W, Orem, UT 84057","precinct":"25OR12","hd":"56","v_score":"0","decile":"1","lat":40.317523898924,"lng":-111.700930421852},{"id":"64391","name":"Vicky Conroy PhD","party":"","address":"894 N 50 W, Orem, UT 84057","precinct":"25OR12","hd":"56","v_score":"4.064235245","decile":"6","lat":40.313608770759,"lng":-111.696977534792},{"id":"64608","name":"Tobie Skiles-O'Conner","party":"Dem","address":"1290 N 50 E, Orem, UT 84057","precinct":"25OR12","hd":"56","v_score":"3.93832808","decile":"6","lat":40.321100840174,"lng":-111.694715449966},{"id":"65065","name":"Braden Williamson","party":"","address":"28 E 1200 N, Orem, UT 84057","precinct":"25OR12","hd":"56","v_score":"6.881235673","decile":"8","lat":40.319189701737,"lng":-111.695276860094},{"id":"65507","name":"Jaymes Lubowitz","party":"Dem","address":"1123 N 75 E, Orem, UT 84057","precinct":"25OR12","hd":"56","v_score":"1.121327652","decile":"3","lat":40.317831500646,"lng":-111.693758048301},{"id":"65638","name":"Jean Skiles","party":"Dem","address":"51 W 1160 N, Orem, UT 84057","precinct":"25OR12","hd":"56","v_score":"2.315214949","decile":"5","lat":40.31843011342,"lng":-111.697644680934},{"id":"65987","name":"Shane West","party":"Rep","address":"314 W 1040 N, Orem, UT 84057","precinct":"25OR12","hd":"56","v_score":"2.744440783","decile":"5","lat":40.316403488306,"lng":-111.702504029484},{"id":"66418","name":"Beatrice Orn-Cassin","party":"Dem","address":"1052 N 150 W, Orem, UT 84057","precinct":"25OR12","hd":"56","v_score":"10.52632313","decile":"9","lat":40.31675350106,"lng":-111.699180236777},{"id":"67187","name":"Maribeth Champlin","party":"Rep","address":"1346 N 90 E, Orem, UT 84057","precinct":"25OR12","hd":"56","v_score":"2.744440783","decile":"5","lat":40.32213394958,"lng":-111.693814162334},{"id":"67451","name":"Gale Labadie","party":"Rep","address":"1091 N 220 W, Apt J1091, Orem, UT 84057","precinct":"25OR12","hd":"56","v_score":"1.193887297","decile":"3","lat":40.317288582956,"lng":-111.700929637496},{"id":"68399","name":"Mrs. Monna Stokes","party":"","address":"1075 N 50 W, Orem, UT 84057","precinct":"25OR12","hd":"56","v_score":"2.817000428","decile":"6","lat":40.316934080597,"lng":-111.697097285755},{"id":"68576","name":"Lelah Hoeger","party":"","address":"1101 N 50 W, Orem, UT 84057","precinct":"25OR12","hd":"56","v_score":"2.315214949","decile":"5","lat":40.317234018037,"lng":-111.697101830222},{"id":"69188","name":"Izabelle Krajcik","party":"Rep","address":"1032 N 50 W, Orem, UT 84057","precinct":"25OR12","hd":"56","v_score":"0","decile":"1","lat":40.316025109691,"lng":-111.696917823864},{"id":"69189","name":"Darby Jaskolski","party":"","address":"137 W 1015 N, Orem, UT 84057","precinct":"25OR12","hd":"56","v_score":"2.315214949","decile":"5","lat":40.315796702406,"lng":-111.69896204091},{"id":"69349","name":"Arron Shanahan","party":"","address":"269 W 1140 N, Orem, UT 84057","precinct":"25OR12","hd":"56","v_score":"2.315214949","decile":"5","lat":40.317665319412,"lng":-111.701965639893},{"id":"69394","name":"Wesley Anderson","party":"","address":"49 W 990 N, Orem, UT 84057","precinct":"25OR12","hd":"56","v_score":"12.94512768","decile":"9","lat":40.31552670224,"lng":-111.696397134214},{"id":"69410","name":"Emilia Wilderman-Kiehn","party":"Dem","address":"57 E 1200 N, Orem, UT 84057","precinct":"25OR12","hd":"56","v_score":"1.121327652","decile":"3","lat":40.319304293067,"lng":-111.694569815272},{"id":"69945","name":"Dr. Burley O'Connell I","party":"","address":"1024 N 185 W, Orem, UT 84057","precinct":"25OR12","hd":"56","v_score":"0","decile":"1","lat":40.316103076332,"lng":-111.700153808855},{"id":"70134","name":"Hadley Rodriguez PhD","party":"","address":"882 N 160 W, Orem, UT 84057","precinct":"25OR12","hd":"56","v_score":"21.39002488","decile":"10","lat":40.313280103408,"lng":-111.699655722844},{"id":"70619","name":"Latisha Grady","party":"","address":"1185 N 50 E, Orem, UT 84057","precinct":"25OR12","hd":"56","v_score":"1.121327652","decile":"3","lat":40.318945177237,"lng":-111.694825305844},{"id":"70880","name":"Dianna Halvorson","party":"Dem","address":"260 W 1040 N, Apt N260, Orem, UT 84057","precinct":"25OR12","hd":"56","v_score":"2.744440783","decile":"5","lat":40.31640629393,"lng":-111.701529256413},{"id":"71324","name":"Joi Dach","party":"","address":"1154 N 50 E, Orem, UT 84057","precinct":"25OR12","hd":"56","v_score":"0","decile":"1","lat":40.31842609656,"lng":-111.694660850754},{"id":"71394","name":"Talan Huels","party":"Rep","address":"1109 N 220 W, # J1109, Orem, UT 84057","precinct":"25OR12","hd":"56","v_score":"0","decile":"1","lat":40.317465069932,"lng":-111.700930225763},{"id":"71725","name":"Reagan Smith-Moen","party":"Dem","address":"76 W 900 N, Orem, UT 84057","precinct":"25OR12","hd":"56","v_score":"1.193887297","decile":"3","lat":40.313775917856,"lng":-111.697365001786},{"id":"71751","name":"Letty Runolfsson","party":"Dem","address":"34 E 1430 N, Orem, UT 84057","precinct":"25OR12","hd":"56","v_score":"5.191257514","decile":"7","lat":40.323236691115,"lng":-111.695625756744},{"id":"71781","name":"Kelly Bailey-Gorczany","party":"","address":"1121 N 185 W, Orem, UT 84057","precinct":"25OR12","hd":"56","v_score":"0","decile":"1","lat":40.317831355483,"lng":-111.700317494898},{"id":"71928","name":"Dr. Westin Russel Jr.","party":"Dem","address":"856 N 100 W, Orem, UT 84057","precinct":"25OR12","hd":"56","v_score":"0","decile":"1","lat":40.312883451562,"lng":-111.69813721588},{"id":"71939","name":"Emerson Stroman","party":"Rep","address":"1098 N 50 E, Orem, UT 84057","precinct":"25OR12","hd":"56","v_score":"6.52928996","decile":"7","lat":40.317372044208,"lng":-111.694633272711},{"id":"72318","name":"Karsyn Bashirian","party":"","address":"1091 N 150 W, Orem, UT 84057","precinct":"25OR12","hd":"56","v_score":"1.121327652","decile":"3","lat":40.317596695684,"lng":-111.699339827219},{"id":"72454","name":"Karly Ruecker","party":"Rep","address":"977 N Main St, Orem, UT 84057","precinct":"25OR12","hd":"56","v_score":"3.93832808","decile":"6","lat":40.315172973761,"lng":-111.69593868075},{"id":"72792","name":"Demonte Bosco","party":"Dem","address":"1183 N 75 E, Orem, UT 84057","precinct":"25OR12","hd":"56","v_score":"2.315214949","decile":"5","lat":40.318903329032,"lng":-111.693771650042},{"id":"72793","name":"Jasmyne Tromp","party":"Dem","address":"1183 N 75 E, Orem, UT 84057","precinct":"25OR12","hd":"56","v_score":"2.315214949","decile":"5","lat":40.318903329032,"lng":-111.693771650042},{"id":"72804","name":"Camilo Hessel","party":"Rep","address":"1174 N 185 W, Orem, UT 84057","precinct":"25OR12","hd":"56","v_score":"11.16899434","decile":"9","lat":40.318787811745,"lng":-111.700209296737},{"id":"72849","name":"Mrs. Chyna Bogan","party":"Rep","address":"1077 N 185 W, Orem, UT 84057","precinct":"25OR12","hd":"56","v_score":"1.193887297","decile":"3","lat":40.317064219397,"lng":-111.700316084822},{"id":"73224","name":"Arnett Anderson","party":"Dem","address":"1145 N 100 W, Orem, UT 84057","precinct":"25OR12","hd":"56","v_score":"2.315214949","decile":"5","lat":40.318151614947,"lng":-111.698405903846},{"id":"73545","name":"Elenora Abernathy","party":"Rep","address":"1064 N 150 W, Orem, UT 84057","precinct":"25OR12","hd":"56","v_score":"0","decile":"1","lat":40.316947739196,"lng":-111.699182508543},{"id":"73547","name":"Karel Bailey","party":"Rep","address":"851 N 75 E, Orem, UT 84057","precinct":"25OR12","hd":"56","v_score":"3.93832808","decile":"6","lat":40.312843433884,"lng":-111.693691686437},{"id":"74118","name":"Denzil Mertz-Kovacek","party":"","address":"1145 N Main St, Orem, UT 84057","precinct":"25OR12","hd":"56","v_score":"0","decile":"1","lat":40.318215492404,"lng":-111.695984505951},{"id":"74246","name":"Kelby Abernathy","party":"Dem","address":"70 E 1430 N, Orem, UT 84057","precinct":"25OR12","hd":"56","v_score":"1.121327652","decile":"3","lat":40.323233895172,"lng":-111.695227339205},{"id":"74327","name":"Kelley Emard","party":"","address":"1272 Farm Lane Cir, Orem, UT 84057","precinct":"25OR12","hd":"56","v_score":"19.47300581","decile":"10","lat":40.320547255871,"lng":-111.693496534529},{"id":"74364","name":"Mr. Amos Turner","party":"Dem","address":"965 N MAIN St, Orem, UT 84057","precinct":"25OR12","hd":"56","v_score":"6.814370645","decile":"8","lat":40.315054714312,"lng":-111.69593589819},{"id":"75099","name":"Kerri Jakubowski","party":"Dem","address":"110 W 930 N, Orem, UT 84057","precinct":"25OR12","hd":"56","v_score":"13.11728501","decile":"9","lat":40.314174293955,"lng":-111.698534617789},{"id":"75101","name":"Johnny Auer-Zboncak","party":"Rep","address":"110 W 930 N, Orem, UT 84057","precinct":"25OR12","hd":"56","v_score":"9.047355149","decile":"8","lat":40.314174293955,"lng":-111.698534617789},{"id":"75113","name":"Friend Bahringer","party":"Dem","address":"130 W 930 N, Orem, UT 84057","precinct":"25OR12","hd":"56","v_score":"2.315214949","decile":"5","lat":40.314174293989,"lng":-111.69898884585},{"id":"75200","name":"Kirt Barton Sr.","party":"Rep","address":"960 N 60 E, Orem, UT 84057","precinct":"25OR12","hd":"56","v_score":"7.047822616","decile":"8","lat":40.314568727524,"lng":-111.694437392354},{"id":"75294","name":"Miss Alysa Kihn PhD","party":"Dem","address":"1110 N 50 W, Orem, UT 84057","precinct":"25OR12","hd":"56","v_score":"12.38288823","decile":"9","lat":40.317350702329,"lng":-111.696953299872},{"id":"75359","name":"Dr. Toni Murray","party":"","address":"888 N 60 E, Orem, UT 84057","precinct":"25OR12","hd":"56","v_score":"0","decile":"1","lat":40.31338312089,"lng":-111.694416841995},{"id":"75572","name":"Carmela Steuber-Kozey","party":"Dem","address":"147 W 905 N, Orem, UT 84057","precinct":"25OR12","hd":"56","v_score":"3.93832808","decile":"6","lat":40.313712937095,"lng":-111.698897339264},{"id":"75714","name":"Lexie Batz","party":"Rep","address":"1101 N 50 W, Orem, UT 84057","precinct":"25OR12","hd":"56","v_score":"1.121327652","decile":"3","lat":40.317234018037,"lng":-111.697101830222},{"id":"76138","name":"Gail Schmitt","party":"Dem","address":"249 W 1140 N, Apt G-249, Orem, UT 84057","precinct":"25OR12","hd":"56","v_score":"2.315214949","decile":"5","lat":40.317658383806,"lng":-111.701661760155},{"id":"76268","name":"Vertie Terry","party":"Dem","address":"968 N 185 W, Orem, UT 84057","precinct":"25OR12","hd":"56","v_score":"2.744440783","decile":"5","lat":40.31556097434,"lng":-111.700126033795},{"id":"76329","name":"Lolla Parker MD","party":"","address":"153 W 930 N, Orem, UT 84057","precinct":"25OR12","hd":"56","v_score":"3.93832808","decile":"6","lat":40.314059702644,"lng":-111.699488496732},{"id":"76669","name":"Myrtle Mante","party":"Dem","address":"853 Memmo Dr, Orem, UT 84057","precinct":"25OR12","hd":"56","v_score":"1.193887297","decile":"3","lat":40.312612128722,"lng":-111.692844835323},{"id":"77077","name":"Dora Steuber","party":"Rep","address":"229 W 1030 N, Orem, UT 84057","precinct":"25OR12","hd":"56","v_score":"2.817000428","decile":"6","lat":40.316131078356,"lng":-111.701156956505},{"id":"77097","name":"Dr. Regis Koepp","party":"Rep","address":"147 W 905 N, Orem, UT 84057","precinct":"25OR12","hd":"56","v_score":"3.93832808","decile":"6","lat":40.313712937095,"lng":-111.698897339264},{"id":"77250","name":"Maxine Murray","party":"","address":"947 N 75 E, Orem, UT 84057","precinct":"25OR12","hd":"56","v_score":"1.121327652","decile":"3","lat":40.314616324113,"lng":-111.69371817879},{"id":"77360","name":"Miss Viola Morissette MD","party":"Rep","address":"966 N Main St, Orem, UT 84057","precinct":"25OR12","hd":"56","v_score":"2.315214949","decile":"5","lat":40.314999611153,"lng":-111.695784294627},{"id":"77488","name":"Ima Schiller","party":"","address":"226 W 1040 N, Orem, UT 84057","precinct":"25OR12","hd":"56","v_score":"1.193887297","decile":"3","lat":40.316406293894,"lng":-111.701062843165},{"id":"78280","name":"Dequan Aufderhar","party":"","address":"1148 N 50 W, Orem, UT 84057","precinct":"25OR12","hd":"56","v_score":"6.481563075","decile":"7","lat":40.317789072433,"lng":-111.696959941786},{"id":"78394","name":"Mr. Mitchell Christiansen","party":"Rep","address":"1118 N 185 W, Orem, UT 84057","precinct":"25OR12","hd":"56","v_score":"0","decile":"1","lat":40.317813055591,"lng":-111.700167174447},{"id":"79478","name":"Dontae Steuber","party":"","address":"1150 N 75 E, Orem, UT 84057","precinct":"25OR12","hd":"56","v_score":"13.57168065","decile":"9","lat":40.318332795952,"lng":-111.693614113324},{"id":"79506","name":"Ms. Renee Langworth","party":"Rep","address":"1190 N 50 E, Orem, UT 84057","precinct":"25OR12","hd":"56","v_score":"3.93832808","decile":"6","lat":40.319051847494,"lng":-111.694677888443},{"id":"79657","name":"Kendrick Hartmann","party":"Dem","address":"1112 N 300 W, Orem, UT 84057","precinct":"25OR12","hd":"56","v_score":"3.93832808","decile":"6","lat":40.317078233486,"lng":-111.70236011695},{"id":"79686","name":"Sal Kirlin","party":"Dem","address":"1002 N 185 W, Orem, UT 84057","precinct":"25OR12","hd":"56","v_score":"4.137918904","decile":"7","lat":40.315728805136,"lng":-111.700127324779},{"id":"79737","name":"Mrs. Glenna Little MD","party":"","address":"141 W 1015 N, Orem, UT 84057","precinct":"25OR12","hd":"56","v_score":"1.121327652","decile":"3","lat":40.315796702411,"lng":-111.69903126707},{"id":"80073","name":"Kalene Reichel DVM","party":"Rep","address":"1131 N 300 W, Orem, UT 84057","precinct":"25OR12","hd":"56","v_score":"2.744440783","decile":"5","lat":40.31715266999,"lng":-111.702493630867},{"id":"80801","name":"Emma Feil","party":"Rep","address":"1131 N 300 W, Orem, UT 84057","precinct":"25OR12","hd":"56","v_score":"0","decile":"1","lat":40.31715266999,"lng":-111.702493630867},{"id":"81248","name":"Dr. August Anderson III","party":"","address":"24 E 980 N, Orem, UT 84057","precinct":"25OR12","hd":"56","v_score":"0","decile":"1","lat":40.315193702211,"lng":-111.695517348595},{"id":"81392","name":"Dr. Hilliard Casper","party":"","address":"173 W 975 N, Orem, UT 84057","precinct":"25OR12","hd":"56","v_score":"1.193887297","decile":"3","lat":40.315083960278,"lng":-111.698973816319},{"id":"81631","name":"Carolann Zieme PhD","party":"","address":"1137 N 220 W, Orem, UT 84057","precinct":"25OR12","hd":"56","v_score":"3.016591252","decile":"6","lat":40.316515154737,"lng":-111.700927059503},{"id":"81814","name":"Von Bode","party":"Rep","address":"161 W 930 N, Orem, UT 84057","precinct":"25OR12","hd":"56","v_score":"1.193887297","decile":"3","lat":40.314059702658,"lng":-111.699670187956},{"id":"82087","name":"Mr. Ewing Parker III","party":"Rep","address":"895 N 50 W, Orem, UT 84057","precinct":"25OR12","hd":"56","v_score":"0","decile":"1","lat":40.313608234707,"lng":-111.697127811021},{"id":"82473","name":"Luella Jacobson","party":"Rep","address":"1176 N 75 E, Orem, UT 84057","precinct":"25OR12","hd":"56","v_score":"4.905839784","decile":"7","lat":40.318797254919,"lng":-111.693620007412},{"id":"82803","name":"Arvil Langosh","party":"Rep","address":"137 W 1090 N, Orem, UT 84057","precinct":"25OR12","hd":"56","v_score":"0","decile":"1","lat":40.317346734648,"lng":-111.698671706125},{"id":"83214","name":"Celia Schulist PhD","party":"Rep","address":"1063 N 300 W, Orem, UT 84057","precinct":"25OR12","hd":"56","v_score":"1.193887297","decile":"3","lat":40.316747654411,"lng":-111.702516572566},{"id":"83229","name":"Keandre Lemke","party":"","address":"956 N 75 E, Orem, UT 84057","precinct":"25OR12","hd":"56","v_score":"1.623113131","decile":"5","lat":40.314630037731,"lng":-111.693568161094},{"id":"83665","name":"Hazen Grady","party":"Dem","address":"1113 N 220 W, Apt J1113, Orem, UT 84057","precinct":"25OR12","hd":"56","v_score":"0","decile":"1","lat":40.31750428926,"lng":-111.700930356489},{"id":"83672","name":"Mr. Vaughn Oberbrunner","party":"Dem","address":"1063 N 300 W, Orem, UT 84057","precinct":"25OR12","hd":"56","v_score":"1.193887297","decile":"3","lat":40.316747654411,"lng":-111.702516572566},{"id":"83695","name":"Brendan Ernser I","party":"Rep","address":"1100 N 300 W, Orem, UT 84057","precinct":"25OR12","hd":"56","v_score":"0","decile":"1","lat":40.317009281155,"lng":-111.702380454681},{"id":"83889","name":"Tavares Hessel","party":"Rep","address":"147 W 905 N, Orem, UT 84057","precinct":"25OR12","hd":"56","v_score":"0","decile":"1","lat":40.313712937095,"lng":-111.698897339264},{"id":"84273","name":"Miss Betsey Auer PhD","party":"","address":"1009 N 235 W, Orem, UT 84057","precinct":"25OR12","hd":"56","v_score":"8.284004873","decile":"8","lat":40.315833901664,"lng":-111.701287185677},{"id":"84334","name":"Valencia Kshlerin","party":"","address":"1059 N 220 W, Apt L1059, Orem, UT 84057","precinct":"25OR12","hd":"56","v_score":"0","decile":"1","lat":40.316974828332,"lng":-111.700928591688},{"id":"84432","name":"Governor Spinka-Balistreri","party":"Dem","address":"914 N Main St, Orem, UT 84057","precinct":"25OR12","hd":"56","v_score":"0","decile":"1","lat":40.313831706921,"lng":-111.695764305992},{"id":"85028","name":"Alannah Kilback","party":"","address":"32 E 925 N, Orem, UT 84057","precinct":"25OR12","hd":"56","v_score":"5.693042993","decile":"7","lat":40.314119434009,"lng":-111.695647584119},{"id":"85309","name":"Michell McCullough","party":"","address":"1349 N 40 E, Orem, UT 84057","precinct":"25OR12","hd":"56","v_score":"0","decile":"1","lat":40.322326542929,"lng":-111.695155468154},{"id":"85825","name":"Elise Hills","party":"Rep","address":"865 Memo Dr, Orem, UT 84057","precinct":"25OR12","hd":"56","v_score":"0","decile":"1","lat":40.312657094172,"lng":-111.692735259789},{"id":"86222","name":"Ms. Destinee Schiller","party":"Dem","address":"933 N 75 E, Orem, UT 84057","precinct":"25OR12","hd":"56","v_score":"2.817000428","decile":"6","lat":40.314365972955,"lng":-111.693713043415},{"id":"86606","name":"Diya Bechtelar","party":"","address":"1150 N 75 E, Orem, UT 84057","precinct":"25OR12","hd":"56","v_score":"0","decile":"1","lat":40.318332795952,"lng":-111.693614113324},{"id":"87441","name":"Mr. Orval Durgan DDS","party":"","address":"173 W 975 N, Orem, UT 84057","precinct":"25OR12","hd":"56","v_score":"1.193887297","decile":"4","lat":40.315083960278,"lng":-111.698973816319},{"id":"87454","name":"Efrem Prosacco","party":"","address":"902 N 60 E, Orem, UT 84057","precinct":"25OR12","hd":"56","v_score":"0","decile":"1","lat":40.313613655513,"lng":-111.694420837898},{"id":"88252","name":"Mrs. Ardella Hodkiewicz MD","party":"Dem","address":"1049 N 300 W, Apt C1049, Orem, UT 84057","precinct":"25OR12","hd":"56","v_score":"0","decile":"1","lat":40.316666618475,"lng":-111.702474959534},{"id":"88257","name":"Jenniffer Weissnat","party":"","address":"268 W 1040 N, Orem, UT 84057","precinct":"25OR12","hd":"56","v_score":"0","decile":"1","lat":40.316406293941,"lng":-111.701670090462},{"id":"88705","name":"Azaria Pacocha MD","party":"","address":"1098 N 300 W, Orem, UT 84057","precinct":"25OR12","hd":"56","v_score":"0","decile":"1","lat":40.317000405495,"lng":-111.702385632151},{"id":"88707","name":"Minda Mosciski-Spinka","party":"Dem","address":"1044 N 185 W, Orem, UT 84057","precinct":"25OR12","hd":"56","v_score":"2.817000428","decile":"6","lat":40.316538050803,"lng":-111.700164830855},{"id":"88743","name":"Alphonsine Schneider PhD","party":"","address":"49 W 990 N, Orem, UT 84057","precinct":"25OR12","hd":"56","v_score":"0","decile":"1","lat":40.31552670224,"lng":-111.696397134214},{"id":"89325","name":"Emile Ledner Jr.","party":"Rep","address":"267 W 1200 N, Orem, UT 84057","precinct":"25OR12","hd":"56","v_score":"0","decile":"1","lat":40.319189702288,"lng":-111.702477796659},{"id":"89453","name":"Herma Jones","party":"","address":"1365 N 90 E, Orem, UT 84057","precinct":"25OR12","hd":"56","v_score":"1.193887297","decile":"4","lat":40.322382614369,"lng":-111.694066274454},{"id":"89990","name":"Leslie Larson","party":"","address":"47 E 980 N, Orem, UT 84057","precinct":"25OR12","hd":"56","v_score":"1.193887297","decile":"4","lat":40.315308293573,"lng":-111.695231313683},{"id":"90028","name":"Abbey Grimes-Farrell","party":"","address":"47 E 980 N, Orem, UT 84057","precinct":"25OR12","hd":"56","v_score":"1.193887297","decile":"4","lat":40.315308293573,"lng":-111.695231313683},{"id":"90625","name":"Tomasa Welch","party":"","address":"1078 N 100 W, Orem, UT 84057","precinct":"25OR12","hd":"56","v_score":"1.193887297","decile":"4","lat":40.317060348326,"lng":-111.698216600236},{"id":"90628","name":"Leeann Krajcik","party":"Rep","address":"1078 N 100 W, Orem, UT 84057","precinct":"25OR12","hd":"56","v_score":"0","decile":"1","lat":40.317060348326,"lng":-111.698216600236},{"id":"91638","name":"Dillard McLaughlin","party":"Dem","address":"1100 N 100 W, Orem, UT 84057","precinct":"25OR12","hd":"56","v_score":"0","decile":"1","lat":40.31747008401,"lng":-111.698227141639},{"id":"91700","name":"Ronnie Bins PhD","party":"","address":"260 W 1040 N, Apt N260, Orem, UT 84057","precinct":"25OR12","hd":"56","v_score":"1.623113131","decile":"5","lat":40.31640629393,"lng":-111.701529256413},{"id":"91780","name":"Ronal Block","party":"","address":"836 N 50 W, Orem, UT 84057","precinct":"25OR12","hd":"56","v_score":"6.528952915","decile":"7","lat":40.312808365017,"lng":-111.696972624432},{"id":"92052","name":"Alfonzo Marquardt","party":"","address":"157 W 1015 N, Orem, UT 84057","precinct":"25OR12","hd":"56","v_score":"0","decile":"1","lat":40.315795052653,"lng":-111.699420102461},{"id":"92061","name":"Rosalind Reynolds DDS","party":"","address":"81 W 940 N, Orem, UT 84057","precinct":"25OR12","hd":"56","v_score":"0","decile":"1","lat":40.314394949017,"lng":-111.697777650307},{"id":"92259","name":"Calhoun Hegmann-Osinski","party":"Rep","address":"974 N 100 W, Orem, UT 84057","precinct":"25OR12","hd":"56","v_score":"0","decile":"1","lat":40.31519243173,"lng":-111.698190243069},{"id":"92894","name":"Julianna Hodkiewicz","party":"Rep","address":"253 W 1140 N, Orem, UT 84057","precinct":"25OR12","hd":"56","v_score":"0","decile":"1","lat":40.317659642428,"lng":-111.701722488429},{"id":"93141","name":"Mrs. Stephani O'Connell DVM","party":"Dem","address":"1185 N 50 E, Orem, UT 84057","precinct":"25OR12","hd":"56","v_score":"6.355720798","decile":"7","lat":40.318945177237,"lng":-111.694825305844},{"id":"93663","name":"Bebe McKenzie","party":"","address":"295 W 1140 N, Orem, UT 84057","precinct":"25OR12","hd":"56","v_score":"0","decile":"1","lat":40.317674552051,"lng":-111.702360333883},{"id":"93743","name":"Quint Quitzon","party":"","address":"1379 N 40 E, Orem, UT 84057","precinct":"25OR12","hd":"56","v_score":"8.284004873","decile":"8","lat":40.322481592155,"lng":-111.695147603319},{"id":"93768","name":"Rafe Brakus-Hintz","party":"","address":"1070 N 300 W, Apt P-1070, Orem, UT 84057","precinct":"25OR12","hd":"56","v_score":"0","decile":"1","lat":40.316916925682,"lng":-111.702511103229},{"id":"93852","name":"Deborrah Swift","party":"Dem","address":"1056 N 100 W, Orem, UT 84057","precinct":"25OR12","hd":"56","v_score":"0","decile":"1","lat":40.316736538352,"lng":-111.698209113343},{"id":"94409","name":"Keila Stamm","party":"Dem","address":"1161 N 150 W, Orem, UT 84057","precinct":"25OR12","hd":"56","v_score":"1.193887297","decile":"4","lat":40.318631894347,"lng":-111.699325682679},{"id":"94526","name":"Libbie Schroeder","party":"Rep","address":"1097 N MAIN St, Orem, UT 84057","precinct":"25OR12","hd":"56","v_score":"0","decile":"1","lat":40.317279601393,"lng":-111.695967506863},{"id":"95145","name":"Dr. Lafe Ebert III","party":"Rep","address":"1352 N 40 E, Orem, UT 84057","precinct":"25OR12","hd":"56","v_score":"9.40499548","decile":"8","lat":40.322342787813,"lng":-111.695004232171},{"id":"95316","name":"Nasir Beier","party":"","address":"1081 N 150 W, Orem, UT 84057","precinct":"25OR12","hd":"56","v_score":"0","decile":"1","lat":40.317449902268,"lng":-111.699338516583},{"id":"95821","name":"Sarahi Pfeffer","party":"","address":"91 W 940 N, Orem, UT 84057","precinct":"25OR12","hd":"56","v_score":"1.193887297","decile":"4","lat":40.314389731685,"lng":-111.697992213739},{"id":"95913","name":"Marva Turcotte","party":"Dem","address":"1056 N 100 W, Orem, UT 84057","precinct":"25OR12","hd":"56","v_score":"0","decile":"1","lat":40.316736538352,"lng":-111.698209113343},{"id":"96028","name":"Sandie Mann","party":"Dem","address":"267 W 1200 N, Orem, UT 84057","precinct":"25OR12","hd":"56","v_score":"0","decile":"1","lat":40.319189702288,"lng":-111.702477796659},{"id":"96129","name":"Mr. Brad McGlynn I","party":"Rep","address":"23 W 1070 N, Orem, UT 84057","precinct":"25OR12","hd":"56","v_score":"1.193887297","decile":"4","lat":40.316781577722,"lng":-111.696173306271},{"id":"96357","name":"Ed O'Hara","party":"Rep","address":"1379 N 40 E, Orem, UT 84057","precinct":"25OR12","hd":"56","v_score":"9.907118004","decile":"8","lat":40.322481592155,"lng":-111.695147603319},{"id":"96830","name":"Joan Hauck","party":"Rep","address":"1110 N 50 W, Orem, UT 84057","precinct":"25OR12","hd":"56","v_score":"5.335065618","decile":"7","lat":40.317350702329,"lng":-111.696953299872},{"id":"97071","name":"Jaylynn Kassulke","party":"Dem","address":"26 W 1070 N, Apt B, Orem, UT 84057","precinct":"25OR12","hd":"56","v_score":"1.193887297","decile":"4","lat":40.316895707608,"lng":-111.696200481239},{"id":"97110","name":"Gibson Kertzmann Sr.","party":"","address":"1023 N 50 W, Orem, UT 84057","precinct":"25OR12","hd":"56","v_score":"0","decile":"1","lat":40.316005934693,"lng":-111.697070746318},{"id":"97165","name":"Estefani Hilpert","party":"Rep","address":"1212 N Main St, Orem, UT 84057","precinct":"25OR12","hd":"56","v_score":"0","decile":"1","lat":40.319532000391,"lng":-111.695867035892},{"id":"97231","name":"Haskell Mayer","party":"","address":"11 W 1200 N, Orem, UT 84057","precinct":"25OR12","hd":"56","v_score":"0","decile":"1","lat":40.31918970181,"lng":-111.696233377247},{"id":"97869","name":"Eden Hermiston","party":"","address":"832 N 100 W, Orem, UT 84057","precinct":"25OR12","hd":"56","v_score":"1.193887297","decile":"4","lat":40.312472777753,"lng":-111.698128156953},{"id":"98161","name":"Dondre Stanton","party":"Dem","address":"70 E 1430 N, Orem, UT 84057","precinct":"25OR12","hd":"56","v_score":"8.119049786","decile":"8","lat":40.323233895172,"lng":-111.695227339205},{"id":"98204","name":"Mychal Tremblay-Schoen","party":"","address":"932 N 60 E, Orem, UT 84057","precinct":"25OR12","hd":"56","v_score":"2.817000428","decile":"6","lat":40.314107658277,"lng":-111.694429400548},{"id":"98477","name":"Kelsi Torphy DDS","party":"","address":"1058 N 185 W, Orem, UT 84057","precinct":"25OR12","hd":"56","v_score":"1.193887297","decile":"4","lat":40.316779267926,"lng":-111.700165274237},{"id":"98782","name":"Mellie Harber","party":"Rep","address":"1072 N 185 W, Orem, UT 84057","precinct":"25OR12","hd":"56","v_score":"1.193887297","decile":"4","lat":40.317020485048,"lng":-111.70016571762},{"id":"99096","name":"Della Schneider","party":"Rep","address":"882 Memo Dr, Orem, UT 84057","precinct":"25OR12","hd":"56","v_score":"0","decile":"1","lat":40.312814704701,"lng":-111.692565641018},{"id":"99527","name":"Alvah Corwin","party":"Dem","address":"64 W 1160 N, Orem, UT 84057","precinct":"25OR12","hd":"56","v_score":"0","decile":"1","lat":40.318553937648,"lng":-111.697808262275},{"id":"99682","name":"Mintie Johnston","party":"","address":"324 W 1040 N, Orem, UT 84057","precinct":"25OR12","hd":"56","v_score":"0","decile":"1","lat":40.316402143956,"lng":-111.702614266827},{"id":"99712","name":"Joanne Anderson","party":"Rep","address":"16 E 925 N, Orem, UT 84057","precinct":"25OR12","hd":"56","v_score":"1.193887297","decile":"4","lat":40.314120516663,"lng":-111.695712543057},{"id":"100340","name":"Shanta Powlowski","party":"Dem","address":"895 N 50 W, Orem, UT 84057","precinct":"25OR12","hd":"56","v_score":"0","decile":"1","lat":40.313608234707,"lng":-111.697127811021},{"id":"101040","name":"Dr. Talen Collins","party":"Dem","address":"1312 N Main St, Orem, UT 84057","precinct":"25OR12","hd":"56","v_score":"1.193887297","decile":"4","lat":40.321563679853,"lng":-111.695932836824},{"id":"101243","name":"Hence Batz","party":"Dem","address":"1093 N 300 W, Orem, UT 84057","precinct":"25OR12","hd":"56","v_score":"0","decile":"2","lat":40.316992279149,"lng":-111.70256627664},{"id":"101755","name":"Dr. John King MD","party":"Dem","address":"187 W 975 N, Orem, UT 84057","precinct":"25OR12","hd":"56","v_score":"0","decile":"2","lat":40.315085221064,"lng":-111.699097057198},{"id":"101895","name":"Abigale Leannon-Gislason","party":"","address":"1103 N 185 W, Orem, UT 84057","precinct":"25OR12","hd":"56","v_score":"5.926494964","decile":"7","lat":40.317517527084,"lng":-111.700316918049},{"id":"103468","name":"Louetta Champlin","party":"","address":"851 N 75 E, Orem, UT 84057","precinct":"25OR12","hd":"56","v_score":"0","decile":"2","lat":40.312843433884,"lng":-111.693691686437},{"id":"103616","name":"Mr. Gordon Brakus","party":"","address":"51 W 1160 N, Orem, UT 84057","precinct":"25OR12","hd":"56","v_score":"1.193887297","decile":"4","lat":40.31843011342,"lng":-111.697644680934},{"id":"104029","name":"Jame Hauck","party":"Dem","address":"278 W 1040 N, Orem, UT 84057","precinct":"25OR12","hd":"56","v_score":"0","decile":"2","lat":40.316406293954,"lng":-111.701846133022},{"id":"104097","name":"Hermann Green","party":"","address":"862 Memmo Dr, Orem, UT 84057","precinct":"25OR12","hd":"56","v_score":"0","decile":"2","lat":40.312561516729,"lng":-111.692650408703},{"id":"104717","name":"Blossom Johns","party":"","address":"1005 N 235 W, Orem, UT 84057","precinct":"25OR12","hd":"56","v_score":"1.193887297","decile":"4","lat":40.315829303369,"lng":-111.701286822654},{"id":"104832","name":"Luciano Mertz-Olson","party":"Dem","address":"896 N 100 W, Orem, UT 84057","precinct":"25OR12","hd":"56","v_score":"0","decile":"2","lat":40.313619642544,"lng":-111.698154777293},{"id":"104952","name":"Hilma Becker","party":"Dem","address":"852 N 75 E, Orem, UT 84057","precinct":"25OR12","hd":"56","v_score":"0","decile":"2","lat":40.312828430793,"lng":-111.693541329268},{"id":"105110","name":"Dedrick Paucek","party":"Dem","address":"976 N 40 W, Orem, UT 84057","precinct":"25OR12","hd":"56","v_score":"0","decile":"2","lat":40.314805303492,"lng":-111.696714519801},{"id":"105372","name":"Olie Jerde-O'Connell","party":"Dem","address":"976 N 40 W, Orem, UT 84057","precinct":"25OR12","hd":"56","v_score":"1.193887297","decile":"4","lat":40.314805303492,"lng":-111.696714519801},{"id":"105407","name":"Dionicio Heidenreich","party":"","address":"75 W 1160 N, Orem, UT 84057","precinct":"25OR12","hd":"56","v_score":"0","decile":"2","lat":40.318441159908,"lng":-111.697952385228},{"id":"105623","name":"Dorsey Wyman","party":"","address":"999 N 185 W, Orem, UT 84057","precinct":"25OR12","hd":"56","v_score":"1.193887297","decile":"4","lat":40.315655478348,"lng":-111.700277047885},{"id":"106034","name":"Mrs. Daisha Pagac DVM","party":"Rep","address":"985 N 185 W, Orem, UT 84057","precinct":"25OR12","hd":"56","v_score":"0","decile":"2","lat":40.315593930106,"lng":-111.700276574445},{"id":"106076","name":"Mr. Erasmus Wisoky PhD","party":"Dem","address":"229 W 1030 N, Orem, UT 84057","precinct":"25OR12","hd":"56","v_score":"1.193887297","decile":"4","lat":40.316131078356,"lng":-111.701156956505},{"id":"106403","name":"Graves Crist DDS","party":"","address":"1276 N 50 E, Orem, UT 84057","precinct":"25OR12","hd":"56","v_score":"4.214075011","decile":"7","lat":40.32082149468,"lng":-111.69471059182},{"id":"106471","name":"Shanelle Rau","party":"Rep","address":"1081 N 150 W, Orem, UT 84057","precinct":"25OR12","hd":"56","v_score":"0","decile":"2","lat":40.317449902268,"lng":-111.699338516583},{"id":"106510","name":"Ms. Magdalene McLaughlin DDS","party":"Dem","address":"1102 N 185 W, Orem, UT 84057","precinct":"25OR12","hd":"56","v_score":"1.193887297","decile":"4","lat":40.31753737888,"lng":-111.700166667724},{"id":"107136","name":"Azaria Waters","party":"Rep","address":"977 N 75 E, Orem, UT 84057","precinct":"25OR12","hd":"56","v_score":"0","decile":"2","lat":40.315152790882,"lng":-111.693729183166},{"id":"107440","name":"Shiela Rodriguez","party":"","address":"128 W 870 N, Orem, UT 84057","precinct":"25OR12","hd":"56","v_score":"1.193887297","decile":"4","lat":40.313256294061,"lng":-111.698555779948},{"id":"107516","name":"Zenas Flatley","party":"","address":"147 W 930 N, Orem, UT 84057","precinct":"25OR12","hd":"56","v_score":"0","decile":"2","lat":40.314059702633,"lng":-111.699352228314},{"id":"107668","name":"Ibrahim Emmerich","party":"","address":"878 N MAIN St, Orem, UT 84057","precinct":"25OR12","hd":"56","v_score":"4.064235245","decile":"6","lat":40.313278952177,"lng":-111.695753950426},{"id":"108005","name":"Joni Hagenes","party":"","address":"1065 N 100 W, Orem, UT 84057","precinct":"25OR12","hd":"56","v_score":"0","decile":"2","lat":40.316768861936,"lng":-111.698360169944},{"id":"108316","name":"Nelda Ziemann","party":"Rep","address":"1103 N 300 W, Orem, UT 84057","precinct":"25OR12","hd":"56","v_score":"0","decile":"2","lat":40.317019880519,"lng":-111.702538755321},{"id":"108381","name":"Chaya Stroman","party":"","address":"1009 N 185 W, Orem, UT 84057","precinct":"25OR12","hd":"56","v_score":"0","decile":"2","lat":40.315699441379,"lng":-111.700277386056},{"id":"108551","name":"Danica Dietrich","party":"","address":"1089 N 50 W, Orem, UT 84057","precinct":"25OR12","hd":"56","v_score":"1.193887297","decile":"4","lat":40.317095585372,"lng":-111.697099732775},{"id":"108900","name":"Yehuda Rohan IV","party":"Rep","address":"1093 N 300 W, Orem, UT 84057","precinct":"25OR12","hd":"56","v_score":"1.193887297","decile":"4","lat":40.316992279149,"lng":-111.70256627664},{"id":"108985","name":"Nyah Leannon","party":"Rep","address":"332 W 1040 N, Orem, UT 84057","precinct":"25OR12","hd":"56","v_score":"0","decile":"2","lat":40.316401068477,"lng":-111.702702456701},{"id":"109374","name":"Lura Brakus","party":"","address":"946 N 75 E, Orem, UT 84057","precinct":"25OR12","hd":"56","v_score":"1.193887297","decile":"4","lat":40.31443631362,"lng":-111.693564187292},{"id":"109734","name":"Kaia Mohr-Stoltenberg","party":"","address":"128 W 870 N, Orem, UT 84057","precinct":"25OR12","hd":"56","v_score":"0","decile":"2","lat":40.313256294061,"lng":-111.698555779948},{"id":"109811","name":"Tammie Hahn PhD","party":"","address":"263 W 1200 N, Orem, UT 84057","precinct":"25OR12","hd":"56","v_score":"0","decile":"2","lat":40.31918970228,"lng":-111.702370961002},{"id":"110074","name":"Lottie Bahringer","party":"Dem","address":"32 E 925 N, Orem, UT 84057","precinct":"25OR12","hd":"56","v_score":"0","decile":"2","lat":40.314119434009,"lng":-111.695647584119},{"id":"110092","name":"Anjelica Veum","party":"","address":"141 W 870 N, Orem, UT 84057","precinct":"25OR12","hd":"56","v_score":"0","decile":"2","lat":40.313141702685,"lng":-111.698667970143},{"id":"110172","name":"Tyson Bosco-Emard","party":"Dem","address":"266 W 1040 N, Orem, UT 84057","precinct":"25OR12","hd":"56","v_score":"1.193887297","decile":"4","lat":40.316406293938,"lng":-111.701634881949},{"id":"110283","name":"Jacquelin Fritsch","party":"Rep","address":"113 W 1090 N, Orem, UT 84057","precinct":"25OR12","hd":"56","v_score":"0","decile":"2","lat":40.317350455048,"lng":-111.698472663934},{"id":"110313","name":"Eligah Feest Jr.","party":"Dem","address":"128 W 870 N, Orem, UT 84057","precinct":"25OR12","hd":"56","v_score":"1.193887297","decile":"4","lat":40.313256294061,"lng":-111.698555779948},{"id":"110791","name":"Caesar Altenwerth","party":"Rep","address":"1209 N 50 E, Orem, UT 84057","precinct":"25OR12","hd":"56","v_score":"0","decile":"2","lat":40.319463154372,"lng":-111.69483727534},{"id":"111113","name":"Clare Murray","party":"Dem","address":"326 W 1040 N, Apt D326, Orem, UT 84057","precinct":"25OR12","hd":"56","v_score":"0","decile":"2","lat":40.316401875086,"lng":-111.702636314295},{"id":"111114","name":"Ms. Theresia O'Keefe DVM","party":"Rep","address":"326 W 1040 N, Apt D326, Orem, UT 84057","precinct":"25OR12","hd":"56","v_score":"0","decile":"2","lat":40.316401875086,"lng":-111.702636314295},{"id":"111115","name":"Rhiannon Dare","party":"","address":"326 W 1040 N, Orem, UT 84057","precinct":"25OR12","hd":"56","v_score":"1.193887297","decile":"4","lat":40.316401875086,"lng":-111.702636314295},{"id":"111477","name":"Dr. Ernest Bahringer Sr.","party":"Dem","address":"28 E 1200 N, Orem, UT 84057","precinct":"25OR12","hd":"56","v_score":"1.193887297","decile":"4","lat":40.319189701737,"lng":-111.695276860094},{"id":"111509","name":"Alf Hermiston","party":"","address":"1080 N 300 W, Apt P1050, Orem, UT 84057","precinct":"25OR12","hd":"56","v_score":"0","decile":"2","lat":40.316911907191,"lng":-111.702459018574},{"id":"111942","name":"Toney Ferry III","party":"Rep","address":"1049 N 300 W, Orem, UT 84057","precinct":"25OR12","hd":"56","v_score":"0","decile":"2","lat":40.316666618475,"lng":-111.702474959534},{"id":"111943","name":"Tanja Christiansen-Schiller","party":"Rep","address":"1097 N 300 W, Unit B1097, Orem, UT 84057","precinct":"25OR12","hd":"56","v_score":"0","decile":"2","lat":40.31700812145,"lng":-111.702547265877},{"id":"111990","name":"Clarance Mosciski","party":"Dem","address":"1011 N 50 W, Orem, UT 84057","precinct":"25OR12","hd":"56","v_score":"0","decile":"2","lat":40.315971431546,"lng":-111.697074541668},{"id":"112046","name":"Dr. Josette Quitzon DVM","party":"","address":"1119 N 300 W, Orem, UT 84057","precinct":"25OR12","hd":"56","v_score":"0","decile":"2","lat":40.317089542566,"lng":-111.702510464854},{"id":"112144","name":"Khloe Mosciski","party":"","address":"1065 N 300 W, Apt C1065, Orem, UT 84057","precinct":"25OR12","hd":"56","v_score":"1.193887297","decile":"4","lat":40.316759230973,"lng":-111.702522517285},{"id":"112300","name":"Kayli Ruecker","party":"","address":"271 W 1200 N, Orem, UT 84057","precinct":"25OR12","hd":"56","v_score":"1.193887297","decile":"4","lat":40.319189702304,"lng":-111.702681507925},{"id":"112583","name":"Ples Wilkinson","party":"","address":"1042 N 150 W, Orem, UT 84057","precinct":"25OR12","hd":"56","v_score":"1.193887297","decile":"4","lat":40.316591635947,"lng":-111.69917834364},{"id":"112845","name":"Latonya Ortiz","party":"Dem","address":"293 W 1200 N, Orem, UT 84057","precinct":"25OR12","hd":"56","v_score":"0","decile":"2","lat":40.319189702328,"lng":-111.702988068961},{"id":"112964","name":"Beckham Cassin MD","party":"","address":"1145 N 100 W, Orem, UT 84057","precinct":"25OR12","hd":"56","v_score":"0","decile":"2","lat":40.318151614947,"lng":-111.698405903846},{"id":"113160","name":"Jesus Price","party":"","address":"1161 N 150 W, Orem, UT 84057","precinct":"25OR12","hd":"56","v_score":"1.193887297","decile":"4","lat":40.318631894347,"lng":-111.699325682679},{"id":"113734","name":"Buena Ortiz","party":"Dem","address":"1103 N 185 W, Orem, UT 84057","precinct":"25OR12","hd":"56","v_score":"1.193887297","decile":"4","lat":40.317517527084,"lng":-111.700316918049},{"id":"114043","name":"Baldwin Weber","party":"Rep","address":"67 W 1200 N, Orem, UT 84057","precinct":"25OR12","hd":"56","v_score":"0","decile":"2","lat":40.319189701909,"lng":-111.697520637861},{"id":"114247","name":"Douglas Collier","party":"Rep","address":"114 W 975 N, Orem, UT 84057","precinct":"25OR12","hd":"56","v_score":"0","decile":"2","lat":40.315194604626,"lng":-111.698586986811},{"id":"114619","name":"Lyman Hartmann","party":"Rep","address":"1134 N 50 W, Orem, UT 84057","precinct":"25OR12","hd":"56","v_score":"1.193887297","decile":"4","lat":40.317627567658,"lng":-111.696957494765},{"id":"114823","name":"Miss Blossom Dietrich PhD","party":"","address":"1098 N 50 E, Orem, UT 84057","precinct":"25OR12","hd":"56","v_score":"5.407962308","decile":"7","lat":40.317372044208,"lng":-111.694633272711},{"id":"115183","name":"Charles Kulas","party":"","address":"931 N 60 E, Orem, UT 84057","precinct":"25OR12","hd":"56","v_score":"0","decile":"2","lat":40.314073210319,"lng":-111.694579093613},{"id":"115294","name":"Kaaren McClure","party":"","address":"942 N 75 E, Orem, UT 84057","precinct":"25OR12","hd":"56","v_score":"0","decile":"2","lat":40.314358823975,"lng":-111.693562597771},{"id":"115542","name":"Norbert Goldner-Gerhold","party":"Rep","address":"292 W 1040 N, Orem, UT 84057","precinct":"25OR12","hd":"56","v_score":"0","decile":"2","lat":40.316406293973,"lng":-111.702092592607},{"id":"115820","name":"Dr. Nicholaus Bode II","party":"","address":"1047 N 300 W, Orem, UT 84057","precinct":"25OR12","hd":"56","v_score":"1.193887297","decile":"4","lat":40.316655041913,"lng":-111.702469014815},{"id":"116462","name":"Kamari Gulgowski","party":"","address":"1009 N 235 W, Orem, UT 84057","precinct":"25OR12","hd":"56","v_score":"8.284004873","decile":"8","lat":40.315833901664,"lng":-111.701287185677},{"id":"117424","name":"Welton Schmidt","party":"","address":"965 N 75 E, Orem, UT 84057","precinct":"25OR12","hd":"56","v_score":"0","decile":"2","lat":40.314938204174,"lng":-111.693724781416},{"id":"117629","name":"Achsah Heathcote-Kuhlman","party":"Rep","address":"844 Memmo Dr, Orem, UT 84057","precinct":"25OR12","hd":"56","v_score":"1.193887297","decile":"4","lat":40.31249370232,"lng":-111.692931016873},{"id":"117919","name":"Mr. Atlas Franecki","party":"Dem","address":"985 N 185 W, Orem, UT 84057","precinct":"25OR12","hd":"56","v_score":"1.193887297","decile":"4","lat":40.315593930106,"lng":-111.700276574445},{"id":"118052","name":"Adelbert Monahan","party":"Rep","address":"876 Memmo Dr, Orem, UT 84057","precinct":"25OR12","hd":"56","v_score":"1.193887297","decile":"4","lat":40.312746065142,"lng":-111.692544269308},{"id":"118073","name":"Regenia Ward-Grant","party":"","address":"890 N 50 W, Orem, UT 84057","precinct":"25OR12","hd":"56","v_score":"1.193887297","decile":"4","lat":40.313553570363,"lng":-111.696977196146},{"id":"118102","name":"Isreal Windler DDS","party":"Dem","address":"67 W 1200 N, Orem, UT 84057","precinct":"25OR12","hd":"56","v_score":"0","decile":"2","lat":40.319189701909,"lng":-111.697520637861},{"id":"118207","name":"Dr. Maynard Thiel","party":"","address":"1052 N 300 W, Orem, UT 84057","precinct":"25OR12","hd":"56","v_score":"1.193887297","decile":"4","lat":40.316783149282,"lng":-111.702373402877},{"id":"118693","name":"Coolidge Pagac","party":"Rep","address":"1075 N 50 W, Orem, UT 84057","precinct":"25OR12","hd":"56","v_score":"1.193887297","decile":"4","lat":40.316934080597,"lng":-111.697097285755},{"id":"118700","name":"Torrie Russel-Hackett","party":"Rep","address":"904 N 75 E, Orem, UT 84057","precinct":"25OR12","hd":"56","v_score":"1.193887297","decile":"4","lat":40.313622672354,"lng":-111.693547497322},{"id":"119094","name":"Mr. Burke Fahey","party":"Rep","address":"1093 N 50 E, Orem, UT 84057","precinct":"25OR12","hd":"56","v_score":"0","decile":"2","lat":40.317341589615,"lng":-111.694783325564},{"id":"119151","name":"Miss Doreen Wiegand DDS","party":"","address":"51 W 1160 N, Orem, UT 84057","precinct":"25OR12","hd":"56","v_score":"1.193887297","decile":"4","lat":40.31843011342,"lng":-111.697644680934},{"id":"119344","name":"Mr. Murray Torp","party":"","address":"1125 N 300 W, Orem, UT 84057","precinct":"25OR12","hd":"56","v_score":"0","decile":"2","lat":40.317121106278,"lng":-111.70250204786},{"id":"119412","name":"Bunk Beer","party":"Dem","address":"137 W 1090 N, Orem, UT 84057","precinct":"25OR12","hd":"56","v_score":"0","decile":"2","lat":40.317346734648,"lng":-111.698671706125},{"id":"119753","name":"Chanie Aufderhar","party":"","address":"1064 N 185 W, Orem, UT 84057","precinct":"25OR12","hd":"56","v_score":"1.193887297","decile":"4","lat":40.316882646692,"lng":-111.700165464258},{"id":"120050","name":"Jacque Conroy","party":"Rep","address":"998 N 235 W, Orem, UT 84057","precinct":"25OR12","hd":"56","v_score":"0","decile":"2","lat":40.315829291473,"lng":-111.701136264226},{"id":"120709","name":"Leonora Spencer","party":"","address":"1106 N 185 W, Orem, UT 84057","precinct":"25OR12","hd":"56","v_score":"0","decile":"2","lat":40.317606298058,"lng":-111.700166794405},{"id":"120776","name":"Raquel Grant","party":"","address":"61 W 940 N, Orem, UT 84057","precinct":"25OR12","hd":"56","v_score":"1.193887297","decile":"4","lat":40.314405383681,"lng":-111.697348523442},{"id":"120947","name":"Worley O'Reilly","party":"Rep","address":"1090 N 100 W, Orem, UT 84057","precinct":"25OR12","hd":"56","v_score":"0","decile":"2","lat":40.317236971947,"lng":-111.698220683996},{"id":"120972","name":"Carlisle Kohler","party":"Rep","address":"97 E 1200 N, Orem, UT 84057","precinct":"25OR12","hd":"56","v_score":"1.193887297","decile":"4","lat":40.319304293009,"lng":-111.693813809982},{"id":"120979","name":"Billie Frami","party":"Rep","address":"30 E 925 N, Orem, UT 84057","precinct":"25OR12","hd":"56","v_score":"1.193887297","decile":"4","lat":40.314119569341,"lng":-111.695655703987},{"id":"121433","name":"Hjalmar Goldner Jr.","party":"Rep","address":"143 W 1200 N, Orem, UT 84057","precinct":"25OR12","hd":"56","v_score":"0","decile":"2","lat":40.319180702083,"lng":-111.699788008503},{"id":"121537","name":"Lidia Fisher","party":"","address":"1043 N 150 W, Orem, UT 84057","precinct":"25OR12","hd":"56","v_score":"1.193887297","decile":"4","lat":40.316677772211,"lng":-111.699329642931},{"id":"121769","name":"Mr. Damarion Bradtke","party":"","address":"1221 N 50 E, Orem, UT 84057","precinct":"25OR12","hd":"56","v_score":"1.193887297","decile":"4","lat":40.319702593367,"lng":-111.694841439465},{"id":"121907","name":"Penelope Kautzer-Roberts","party":"Rep","address":"1068 N 300 W, Orem, UT 84057","precinct":"25OR12","hd":"56","v_score":"1.193887297","decile":"4","lat":40.316900139884,"lng":-111.702477412151},{"id":"122544","name":"Donna Mills-Hyatt","party":"","address":"1234 N 50 E, Orem, UT 84057","precinct":"25OR12","hd":"56","v_score":"1.193887297","decile":"4","lat":40.319983458199,"lng":-111.694696017383},{"id":"123256","name":"Daquan Boehm","party":"","address":"954 N 100 W, Orem, UT 84057","precinct":"25OR12","hd":"56","v_score":"1.193887297","decile":"4","lat":40.314499694356,"lng":-111.69816810403},{"id":"123385","name":"Dagny Hilll MD","party":"Dem","address":"997 N 185 W, Orem, UT 84057","precinct":"25OR12","hd":"56","v_score":"1.193887297","decile":"4","lat":40.315646685742,"lng":-111.700276980251},{"id":"123685","name":"Burney Casper","party":"Dem","address":"1103 N 220 W, Apt J1103, Orem, UT 84057","precinct":"25OR12","hd":"56","v_score":"1.193887297","decile":"4","lat":40.31740624094,"lng":-111.700930029674},{"id":"123872","name":"Dr. Wright Denesik MD","party":"Dem","address":"820 Memmo Dr, Orem, UT 84057","precinct":"25OR12","hd":"56","v_score":"1.193887297","decile":"4","lat":40.312553570533,"lng":-111.693273481178},{"id":"123897","name":"Mr. Zion Bergnaum DVM","party":"Rep","address":"44 E 1200 N, Orem, UT 84057","precinct":"25OR12","hd":"56","v_score":"1.193887297","decile":"4","lat":40.31918970171,"lng":-111.694922179633},{"id":"124616","name":"Alethea Bechtelar","party":"","address":"1104 N 50 E, Orem, UT 84057","precinct":"25OR12","hd":"56","v_score":"0","decile":"2","lat":40.317556998041,"lng":-111.694637187296},{"id":"124634","name":"Alize White","party":"","address":"57 E 1200 N, Orem, UT 84057","precinct":"25OR12","hd":"56","v_score":"7.090117576","decile":"8","lat":40.319304293067,"lng":-111.694569815272},{"id":"124707","name":"Mrs. Lula Turner PhD","party":"Dem","address":"91 W 940 N, Orem, UT 84057","precinct":"25OR12","hd":"56","v_score":"0","decile":"2","lat":40.314389731685,"lng":-111.697992213739},{"id":"124933","name":"Miss Josefa Schowalter MD","party":"","address":"76 W 900 N, Orem, UT 84057","precinct":"25OR12","hd":"56","v_score":"0","decile":"2","lat":40.313775917856,"lng":-111.697365001786},{"id":"124939","name":"Destini Altenwerth","party":"","address":"1042 N 150 W, Orem, UT 84057","precinct":"25OR12","hd":"56","v_score":"0","decile":"2","lat":40.316591635947,"lng":-111.69917834364},{"id":"125040","name":"Laddie Hansen","party":"","address":"1142 N 185 W, Orem, UT 84057","precinct":"25OR12","hd":"56","v_score":"0","decile":"2","lat":40.318226570658,"lng":-111.700167934531},{"id":"125460","name":"Mrs. Tasha Walsh","party":"Dem","address":"17 W 900 N, Orem, UT 84057","precinct":"25OR12","hd":"56","v_score":"0","decile":"2","lat":40.313663702442,"lng":-111.696268410076},{"id":"125501","name":"Jaxson Greenfelder","party":"","address":"820 Memmo Dr, Orem, UT 84057","precinct":"25OR12","hd":"56","v_score":"0","decile":"2","lat":40.312553570533,"lng":-111.693273481178},{"id":"125847","name":"Kathie Herman-Walsh","party":"Dem","address":"865 N 50 W, Orem, UT 84057","precinct":"25OR12","hd":"56","v_score":"0","decile":"2","lat":40.313194231737,"lng":-111.69712527118},{"id":"126622","name":"Tracey Pagac","party":"","address":"1043 N 150 W, Orem, UT 84057","precinct":"25OR12","hd":"56","v_score":"0","decile":"2","lat":40.316677772211,"lng":-111.699329642931},{"id":"127051","name":"Chanda Jaskolski MD","party":"Rep","address":"912 N 60 E, Orem, UT 84057","precinct":"25OR12","hd":"56","v_score":"0","decile":"2","lat":40.313778323101,"lng":-111.694423692115},{"id":"128245","name":"Esco Jerde-Hudson","party":"","address":"1178 N 185 W, Orem, UT 84057","precinct":"25OR12","hd":"56","v_score":"7.090117576","decile":"8","lat":40.318854801187,"lng":-111.70023053728},{"id":"128436","name":"Adrain Becker","party":"Dem","address":"1097 N MAIN St, Orem, UT 84057","precinct":"25OR12","hd":"56","v_score":"0","decile":"2","lat":40.317279601393,"lng":-111.695967506863},{"id":"128912","name":"Hyrum Lakin Jr.","party":"Rep","address":"832 N 100 W, Orem, UT 84057","precinct":"25OR12","hd":"56","v_score":"0","decile":"2","lat":40.312472777753,"lng":-111.698128156953},{"id":"129942","name":"Mr. Tahj Wolf","party":"Dem","address":"1065 N 220 W, Apt L1065, Orem, UT 84057","precinct":"25OR12","hd":"56","v_score":"2.876042565","decile":"6","lat":40.317033657324,"lng":-111.700928787777},{"id":"130264","name":"Forrest Willms-Bayer","party":"","address":"997 N 185 W, Orem, UT 84057","precinct":"25OR12","hd":"56","v_score":"0","decile":"2","lat":40.315646685742,"lng":-111.700276980251},{"id":"130755","name":"Dominic Rutherford","party":"","address":"118 W 930 N, Orem, UT 84057","precinct":"25OR12","hd":"56","v_score":"0","decile":"2","lat":40.314174293969,"lng":-111.698716309014},{"id":"130932","name":"Perla Wunsch","party":"Dem","address":"225 W 1200 N, Orem, UT 84057","precinct":"25OR12","hd":"56","v_score":"0","decile":"2","lat":40.319189702203,"lng":-111.701356022264},{"id":"131141","name":"Rosina Zulauf","party":"","address":"1032 N 50 W, Orem, UT 84057","precinct":"25OR12","hd":"56","v_score":"0","decile":"2","lat":40.316025109691,"lng":-111.696917823864},{"id":"131159","name":"Myrl Grady","party":"","address":"872 N MAIN St, Orem, UT 84057","precinct":"25OR12","hd":"56","v_score":"0","decile":"2","lat":40.313201817562,"lng":-111.695752333843},{"id":"131603","name":"Beatriz McGlynn DDS","party":"Dem","address":"921 N 75 E, Orem, UT 84057","precinct":"25OR12","hd":"56","v_score":"0","decile":"2","lat":40.314151386247,"lng":-111.693708641665},{"id":"131717","name":"Lessie Schroeder","party":"","address":"35 E 980 N, Orem, UT 84057","precinct":"25OR12","hd":"56","v_score":"0","decile":"2","lat":40.315308293584,"lng":-111.695377115542},{"id":"131979","name":"Milford Kling","party":"","address":"976 N 40 W, Orem, UT 84057","precinct":"25OR12","hd":"56","v_score":"0","decile":"2","lat":40.314805303492,"lng":-111.696714519801},{"id":"132454","name":"Rory Emard","party":"Dem","address":"1028 N 185 W, Orem, UT 84057","precinct":"25OR12","hd":"56","v_score":"0","decile":"2","lat":40.316262374093,"lng":-111.700164324132},{"id":"132796","name":"Lura Howell","party":"Dem","address":"1066 N 300 W, Orem, UT 84057","precinct":"25OR12","hd":"56","v_score":"2.876042565","decile":"6","lat":40.316890553791,"lng":-111.702463033016},{"id":"132891","name":"Tyrik Trantow","party":"","address":"1026 N 185 W, Orem, UT 84057","precinct":"25OR12","hd":"56","v_score":"0","decile":"2","lat":40.31615222438,"lng":-111.700158723653},{"id":"133445","name":"Braulio Kihn","party":"","address":"1110 N 50 W, Orem, UT 84057","precinct":"25OR12","hd":"56","v_score":"0","decile":"2","lat":40.317350702329,"lng":-111.696953299872},{"id":"133509","name":"Ms. Clevie Reilly","party":"Rep","address":"912 N 60 E, Orem, UT 84057","precinct":"25OR12","hd":"56","v_score":"0","decile":"2","lat":40.313778323101,"lng":-111.694423692115},{"id":"133740","name":"Gaither Skiles-Cummerata","party":"Dem","address":"154 W 975 N, Orem, UT 84057","precinct":"25OR12","hd":"56","v_score":"0","decile":"2","lat":40.315201882631,"lng":-111.699298406466},{"id":"134375","name":"Trena Abshire","party":"Rep","address":"1134 N 185 W, Orem, UT 84057","precinct":"25OR12","hd":"56","v_score":"0","decile":"2","lat":40.318088732302,"lng":-111.70016768117},{"id":"134397","name":"Ned Murazik","party":"Dem","address":"1107 N 220 W, # J1107, Orem, UT 84057","precinct":"25OR12","hd":"56","v_score":"0","decile":"2","lat":40.317445460268,"lng":-111.7009301604},{"id":"134775","name":"Dr. Bunk Paucek I","party":"Dem","address":"1086 N Main St, Orem, UT 84057","precinct":"25OR12","hd":"56","v_score":"30.57016229","decile":"10","lat":40.317134098326,"lng":-111.695817218793},{"id":"134903","name":"Glenna Graham-Abbott","party":"Dem","address":"112 W 870 N, Orem, UT 84057","precinct":"25OR12","hd":"56","v_score":"3.93832808","decile":"6","lat":40.313256294049,"lng":-111.698406193041},