[{"id":"725","name":"Bennie Grimes","party":"","address":"875 S 700 E, Apt 409, Orem, UT 84097","precinct":"25OR40","hd":"57","v_score":"7.650280567","decile":"8","lat":40.281759678022,"lng":-111.678469123099},{"id":"807","name":"Valentine Adams","party":"","address":"730 E 950 S, Apt A205, Orem, UT 84097","precinct":"25OR40","hd":"57","v_score":"5.40460374","decile":"7","lat":40.314641217488,"lng":-111.678508511089},{"id":"1222","name":"Cuba Rosenbaum","party":"","address":"730 E 950 S, Apt C417, Orem, UT 84097","precinct":"25OR40","hd":"57","v_score":"1.121327652","decile":"3","lat":40.314641217488,"lng":-111.678508511089},{"id":"1283","name":"Dr. Sylvan Thompson PhD","party":"","address":"706 S 630 E, Orem, UT 84097","precinct":"25OR40","hd":"57","v_score":"5.693042993","decile":"7","lat":40.284475428781,"lng":-111.680305644591},{"id":"1501","name":"Harry Smitham","party":"","address":"425 E 1070 S, Orem, UT 84097","precinct":"25OR40","hd":"57","v_score":"8.280646305","decile":"8","lat":40.277497029785,"lng":-111.684612121577},{"id":"1746","name":"Shiela Kunde","party":"Dem","address":"426 E 900 S, Orem, UT 84097","precinct":"25OR40","hd":"57","v_score":"6.954919332","decile":"8","lat":40.280507705381,"lng":-111.685294423123},{"id":"1749","name":"Gerry Hickle MD","party":"Dem","address":"450 E 850 S, Orem, UT 84097","precinct":"25OR40","hd":"57","v_score":"14.13760315","decile":"9","lat":40.281263705265,"lng":-111.684906004535},{"id":"1974","name":"Camille Nienow-Considine","party":"Dem","address":"446 E 900 S, Orem, UT 84097","precinct":"25OR40","hd":"57","v_score":"10.19351556","decile":"9","lat":40.280507705366,"lng":-111.685099159375},{"id":"2171","name":"Adison Williamson DVM","party":"","address":"730 E 950 S, A507, Orem, UT 84097","precinct":"25OR40","hd":"57","v_score":"1.193887297","decile":"3","lat":40.314641217488,"lng":-111.678508511089},{"id":"3279","name":"Mrs. Dolly Gleason PhD","party":"Rep","address":"651 S 590 E, Orem, UT 84097","precinct":"25OR40","hd":"57","v_score":"0","decile":"1","lat":40.285089354033,"lng":-111.681059216521},{"id":"3487","name":"Loyal Cassin-Schiller","party":"Dem","address":"875 S 700 E, Apt 520, Orem, UT 84097","precinct":"25OR40","hd":"57","v_score":"35.12606409","decile":"10","lat":40.281759678022,"lng":-111.678469123099},{"id":"3499","name":"Bernadine Fay-Brown","party":"","address":"845 S 750 E, Apt A429, Orem, UT 84097","precinct":"25OR40","hd":"57","v_score":"2.817000428","decile":"6","lat":40.281901994119,"lng":-111.677275029019},{"id":"4253","name":"Franklyn Medhurst","party":"Rep","address":"730 E 950 S, Apt D429, Orem, UT 84097","precinct":"25OR40","hd":"57","v_score":"2.315214949","decile":"5","lat":40.314641217488,"lng":-111.678508511089},{"id":"4452","name":"Manson Connelly","party":"Rep","address":"730 E 950 S, Apt C238, Orem, UT 84097","precinct":"25OR40","hd":"57","v_score":"20.49533263","decile":"10","lat":40.314641217488,"lng":-111.678508511089},{"id":"4847","name":"Chana Pfannerstill","party":"Dem","address":"978 S 450 E, Orem, UT 84097","precinct":"25OR40","hd":"57","v_score":"25.1747749","decile":"10","lat":40.278951595873,"lng":-111.684559470433},{"id":"5156","name":"Gusta Wilderman","party":"Dem","address":"676 E 400 S, Orem, UT 84097","precinct":"25OR40","hd":"57","v_score":"4.283276088","decile":"7","lat":40.289547879337,"lng":-111.679242815295},{"id":"5240","name":"Shaniece Auer DVM","party":"Rep","address":"909 S 550 E, Orem, UT 84097","precinct":"25OR40","hd":"57","v_score":"21.89181036","decile":"10","lat":40.280359598042,"lng":-111.682010083094},{"id":"5449","name":"Ova Bins","party":"Rep","address":"845 S 550 E, Orem, UT 84097","precinct":"25OR40","hd":"57","v_score":"11.23922619","decile":"9","lat":40.281071910048,"lng":-111.682028036763},{"id":"5452","name":"Kale Dickens","party":"Rep","address":"845 S 550 E, Orem, UT 84097","precinct":"25OR40","hd":"57","v_score":"11.23922619","decile":"9","lat":40.281071910048,"lng":-111.682028036763},{"id":"5455","name":"Lon Homenick","party":"","address":"845 S 550 E, Orem, UT 84097","precinct":"25OR40","hd":"57","v_score":"11.23922619","decile":"9","lat":40.281071910048,"lng":-111.682028036763},{"id":"7001","name":"Erin Rosenbaum","party":"","address":"875 S 700 E, Orem, UT 84097","precinct":"25OR40","hd":"57","v_score":"6.724398202","decile":"8","lat":40.281759678022,"lng":-111.678469123099},{"id":"8289","name":"Kathlyn Corkery","party":"","address":"966 S 500 E, Orem, UT 84097","precinct":"25OR40","hd":"57","v_score":"3.93832808","decile":"6","lat":40.279373588149,"lng":-111.683429568457},{"id":"8528","name":"Vernell Weissnat","party":"","address":"730 E 950 S, Apt B313, Orem, UT 84097","precinct":"25OR40","hd":"57","v_score":"0","decile":"1","lat":40.314641217488,"lng":-111.678508511089},{"id":"9015","name":"Campbell Lockman","party":"","address":"464 E 1010 S, Orem, UT 84097","precinct":"25OR40","hd":"57","v_score":"3.781490609","decile":"6","lat":40.27823970556,"lng":-111.684247349434},{"id":"9828","name":"Clint Wunsch","party":"Rep","address":"730 E 950 S, Apt C409, Orem, UT 84097","precinct":"25OR40","hd":"57","v_score":"9.640097175","decile":"8","lat":40.314641217488,"lng":-111.678508511089},{"id":"10121","name":"Tyreek Schmeler III","party":"Dem","address":"925 S 500 E, Orem, UT 84097","precinct":"25OR40","hd":"57","v_score":"20.12211688","decile":"10","lat":40.280082412771,"lng":-111.683293379965},{"id":"10576","name":"Damion Wisoky","party":"Dem","address":"730 E 950 S, Apt B234, Orem, UT 84097","precinct":"25OR40","hd":"57","v_score":"5.40460374","decile":"7","lat":40.314641217488,"lng":-111.678508511089},{"id":"11289","name":"Monica Oberbrunner","party":"","address":"895 S 500 E, Orem, UT 84097","precinct":"25OR40","hd":"57","v_score":"8.280646305","decile":"8","lat":40.280683064352,"lng":-111.683305612303},{"id":"12064","name":"Harrold Gottlieb MD","party":"Rep","address":"940 S 450 E, Orem, UT 84097","precinct":"25OR40","hd":"57","v_score":"15.61526831","decile":"9","lat":40.279709281211,"lng":-111.684574503773},{"id":"12117","name":"Jermaine Kutch","party":"","address":"463 S 750 E, Orem, UT 84097","precinct":"25OR40","hd":"57","v_score":"1.121327652","decile":"3","lat":40.283547296406,"lng":-111.684956337818},{"id":"12470","name":"Anton Kris","party":"","address":"400 E 1010 S, Orem, UT 84097","precinct":"25OR40","hd":"57","v_score":"17.44846579","decile":"9","lat":40.278231316952,"lng":-111.685506976014},{"id":"12488","name":"Shelia Murphy MD","party":"Rep","address":"845 S 750 E, Apt B323, Orem, UT 84097","precinct":"25OR40","hd":"57","v_score":"0","decile":"1","lat":40.281901994119,"lng":-111.677275029019},{"id":"14588","name":"Courtney Heathcote","party":"Dem","address":"925 S 500 E, Orem, UT 84097","precinct":"25OR40","hd":"57","v_score":"16.74428883","decile":"9","lat":40.280082412771,"lng":-111.683293379965},{"id":"14858","name":"Dr. Charls Bartoletti MD","party":"Rep","address":"838 S 550 E, Orem, UT 84097","precinct":"25OR40","hd":"57","v_score":"22.78340385","decile":"10","lat":40.281120671489,"lng":-111.68217943201},{"id":"15002","name":"Media Swaniawski","party":"Rep","address":"875 S 700 E, Apt 409, Orem, UT 84097","precinct":"25OR40","hd":"57","v_score":"9.116556227","decile":"8","lat":40.281759678022,"lng":-111.678469123099},{"id":"15020","name":"Davy Wunsch-Prosacco","party":"Dem","address":"730 E 950 S, Apt A504, Orem, UT 84097","precinct":"25OR40","hd":"57","v_score":"2.587603312","decile":"5","lat":40.314641217488,"lng":-111.678508511089},{"id":"15212","name":"Dr. Carlene Harber DDS","party":"","address":"653 S 670 E, Orem, UT 84097","precinct":"25OR40","hd":"57","v_score":"17.32816772","decile":"9","lat":40.285169683455,"lng":-111.679290976617},{"id":"15572","name":"Guss Zieme","party":"","address":"730 E 950 S, Apt B422, Orem, UT 84097","precinct":"25OR40","hd":"57","v_score":"1.46627566","decile":"4","lat":40.314641217488,"lng":-111.678508511089},{"id":"15744","name":"Carlie Parisian PhD","party":"","address":"855 S 550 E, Orem, UT 84097","precinct":"25OR40","hd":"57","v_score":"15.7013764","decile":"9","lat":40.280987172558,"lng":-111.682026019214},{"id":"15762","name":"Casey Bashirian","party":"","address":"875 S 700 E, Apt 208, Orem, UT 84097","precinct":"25OR40","hd":"57","v_score":"6.798081861","decile":"8","lat":40.281759678022,"lng":-111.678469123099},{"id":"15838","name":"Anfernee Tremblay","party":"Dem","address":"845 S 750 E, Apt B411, Orem, UT 84097","precinct":"25OR40","hd":"57","v_score":"2.315214949","decile":"5","lat":40.281901994119,"lng":-111.677275029019},{"id":"16320","name":"Ms. Laisha Jakubowski DVM","party":"","address":"730 E 950 S, Apt A422, Orem, UT 84097","precinct":"25OR40","hd":"57","v_score":"5.356821087","decile":"7","lat":40.314641217488,"lng":-111.678508511089},{"id":"17040","name":"Carson Leffler DDS","party":"Rep","address":"634 S 700 E, Orem, UT 84097","precinct":"25OR40","hd":"57","v_score":"1.193887297","decile":"3","lat":40.310288701631,"lng":-111.68064690766},{"id":"17053","name":"Laquan Walter","party":"Dem","address":"875 S 700 E, Apt 502, Orem, UT 84097","precinct":"25OR40","hd":"57","v_score":"0","decile":"1","lat":40.281759678022,"lng":-111.678469123099},{"id":"17262","name":"Samira Beer-Collier","party":"","address":"875 S 700 E, Apt 511, Orem, UT 84097","precinct":"25OR40","hd":"57","v_score":"5.331806201","decile":"7","lat":40.281759678022,"lng":-111.678469123099},{"id":"17355","name":"Zachariah Spencer","party":"","address":"669 S 630 E, Orem, UT 84097","precinct":"25OR40","hd":"57","v_score":"2.587603312","decile":"5","lat":40.284961319837,"lng":-111.680165356957},{"id":"17828","name":"North Braun","party":"Rep","address":"730 E 950 S, Apt C240, Orem, UT 84097","precinct":"25OR40","hd":"57","v_score":"12.6552766","decile":"9","lat":40.314641217488,"lng":-111.678508511089},{"id":"18161","name":"Mrs. Coletta Rippin DVM","party":"Rep","address":"452 S 750 E, Orem, UT 84097","precinct":"25OR40","hd":"57","v_score":"2.315214949","decile":"5","lat":40.28343270503,"lng":-111.685059222456},{"id":"18387","name":"Percy Torphy","party":"","address":"719 S 590 E, Orem, UT 84097","precinct":"25OR40","hd":"57","v_score":"2.660162957","decile":"5","lat":40.28384436979,"lng":-111.681036752341},{"id":"18744","name":"Alferd Jakubowski","party":"","address":"465 S 650 E, Orem, UT 84097","precinct":"25OR40","hd":"57","v_score":"2.315214949","decile":"5","lat":40.288473911805,"lng":-111.679805286957},{"id":"18775","name":"Andrew Raynor","party":"Dem","address":"875 S 700 E, Apt 511, Orem, UT 84097","precinct":"25OR40","hd":"57","v_score":"6.798081861","decile":"8","lat":40.281759678022,"lng":-111.678469123099},{"id":"19115","name":"Godfrey Balistreri","party":"","address":"637 S 700 E, Orem, UT 84097","precinct":"25OR40","hd":"57","v_score":"2.315214949","decile":"5","lat":40.310403293012,"lng":-111.680606623986},{"id":"19298","name":"Erasmus Gleichner-Weimann","party":"Dem","address":"730 E 950 S, Apt B233, Orem, UT 84097","precinct":"25OR40","hd":"57","v_score":"2.315214949","decile":"5","lat":40.314641217488,"lng":-111.678508511089},{"id":"19424","name":"Mrs. Rosemary Kris","party":"Rep","address":"875 S 700 E, Apt 502, Orem, UT 84097","precinct":"25OR40","hd":"57","v_score":"0","decile":"1","lat":40.281759678022,"lng":-111.678469123099},{"id":"19735","name":"Ms. Cordella Gislason","party":"","address":"730 E 950 S, Apt C434, Orem, UT 84097","precinct":"25OR40","hd":"57","v_score":"0","decile":"1","lat":40.314641217488,"lng":-111.678508511089},{"id":"19806","name":"Eleanore Olson","party":"","address":"730 E 950 S, Apt D219, Orem, UT 84097","precinct":"25OR40","hd":"57","v_score":"2.315214949","decile":"5","lat":40.314641217488,"lng":-111.678508511089},{"id":"20057","name":"Kylan Weber-Graham","party":"Rep","address":"875 S 700 E, Apt 509, Orem, UT 84097","precinct":"25OR40","hd":"57","v_score":"11.30609121","decile":"9","lat":40.281759678022,"lng":-111.678469123099},{"id":"20104","name":"Lawton Klocko","party":"","address":"1133 S State St, Orem, UT 84097","precinct":"25OR40","hd":"57","v_score":"2.315214949","decile":"5","lat":40.276685952558,"lng":-111.685932407583},{"id":"20301","name":"Dr. Raphael Macejkovic","party":"Dem","address":"730 E 950 S, Apt A303, Orem, UT 84097","precinct":"25OR40","hd":"57","v_score":"6.881235673","decile":"8","lat":40.314641217488,"lng":-111.678508511089},{"id":"20620","name":"Tia Lakin","party":"","address":"730 E 950 S, Apt D313, Orem, UT 84097","precinct":"25OR40","hd":"57","v_score":"1.121327652","decile":"3","lat":40.314641217488,"lng":-111.678508511089},{"id":"20914","name":"Dr. Gabriel Williamson MD","party":"Rep","address":"430 E 850 S, Orem, UT 84097","precinct":"25OR40","hd":"57","v_score":"1.121327652","decile":"3","lat":40.281263705285,"lng":-111.685168308743},{"id":"21671","name":"Mr. Ryland Carroll","party":"","address":"730 E 950 S, Apt D340, Orem, UT 84097","precinct":"25OR40","hd":"57","v_score":"2.744440783","decile":"5","lat":40.314641217488,"lng":-111.678508511089},{"id":"21712","name":"Avis Gibson","party":"Rep","address":"515 S 630 E, Orem, UT 84097","precinct":"25OR40","hd":"57","v_score":"15.2589308","decile":"9","lat":40.286817672987,"lng":-111.680205466483},{"id":"21722","name":"Audrey Jakubowski","party":"Rep","address":"572 S 700 E, Orem, UT 84097","precinct":"25OR40","hd":"57","v_score":"16.59976258","decile":"9","lat":40.284167593464,"lng":-111.68171412317},{"id":"21943","name":"Aspen Russel","party":"Rep","address":"404 E 1010 S, Orem, UT 84097","precinct":"25OR40","hd":"57","v_score":"7.153624035","decile":"8","lat":40.278231872937,"lng":-111.685438311308},{"id":"21947","name":"Ms. Danielle Gottlieb MD","party":"Dem","address":"1013 S 545 E, Orem, UT 84097","precinct":"25OR40","hd":"57","v_score":"2.315214949","decile":"5","lat":40.278476203466,"lng":-111.682132657742},{"id":"21952","name":"Carey Lind","party":"Rep","address":"963 S 450 E, Orem, UT 84097","precinct":"25OR40","hd":"57","v_score":"3.781490609","decile":"6","lat":40.279272355599,"lng":-111.684415610054},{"id":"22456","name":"Bode Gutmann","party":"Rep","address":"425 E 900 S, Orem, UT 84097","precinct":"25OR40","hd":"57","v_score":"12.05946382","decile":"9","lat":40.280622296753,"lng":-111.68513821211},{"id":"22924","name":"Dallas Ruecker","party":"Dem","address":"385 E 1010 S, Orem, UT 84097","precinct":"25OR40","hd":"57","v_score":"0","decile":"1","lat":40.278345297063,"lng":-111.685796585085},{"id":"23623","name":"Gwen Hintz","party":"Dem","address":"646 S 700 E, Orem, UT 84097","precinct":"25OR40","hd":"57","v_score":"1.121327652","decile":"3","lat":40.310288701613,"lng":-111.680405205707},{"id":"25491","name":"Bryana Turner","party":"Rep","address":"465 E 850 S, Orem, UT 84097","precinct":"25OR40","hd":"57","v_score":"38.40546931","decile":"10","lat":40.281378296635,"lng":-111.684722391575},{"id":"25740","name":"Kimball Goyette","party":"","address":"875 S 700 E, Apt 305, Orem, UT 84097","precinct":"25OR40","hd":"57","v_score":"1.193887297","decile":"3","lat":40.281759678022,"lng":-111.678469123099},{"id":"26188","name":"Shaquille Brekke","party":"","address":"875 S 700 E, Apt 521, Orem, UT 84097","precinct":"25OR40","hd":"57","v_score":"0","decile":"1","lat":40.281759678022,"lng":-111.678469123099},{"id":"26375","name":"Ulysses Jenkins-Fadel","party":"Dem","address":"730 E 950 S, Apt D301, Orem, UT 84097","precinct":"25OR40","hd":"57","v_score":"29.15089296","decile":"10","lat":40.314641217488,"lng":-111.678508511089},{"id":"27072","name":"Dr. Edris Weissnat DDS","party":"Dem","address":"730 E 950 S, Orem, UT 84097","precinct":"25OR40","hd":"57","v_score":"0","decile":"1","lat":40.314641217488,"lng":-111.678508511089},{"id":"27166","name":"Ryker Heathcote DVM","party":"Rep","address":"730 E 950 S, Apt B203, Orem, UT 84097","precinct":"25OR40","hd":"57","v_score":"1.121327652","decile":"3","lat":40.314641217488,"lng":-111.678508511089},{"id":"27289","name":"Dr. India Rau","party":"","address":"951 S 450 E, Orem, UT 84097","precinct":"25OR40","hd":"57","v_score":"5.40460374","decile":"7","lat":40.279511624653,"lng":-111.684420357424},{"id":"27383","name":"Mr. Kiyoshi Prohaska","party":"Dem","address":"730 E 950 S, Apt A315, Orem, UT 84097","precinct":"25OR40","hd":"57","v_score":"2.744440783","decile":"5","lat":40.314641217488,"lng":-111.678508511089},{"id":"28262","name":"Mayme Rowe","party":"Dem","address":"925 S 550 E, Orem, UT 84097","precinct":"25OR40","hd":"57","v_score":"0","decile":"1","lat":40.280078834994,"lng":-111.682001984197},{"id":"28585","name":"Leroy McDermott","party":"Dem","address":"474 S 750 E, Orem, UT 84097","precinct":"25OR40","hd":"57","v_score":"2.315214949","decile":"5","lat":40.283428439167,"lng":-111.684846389898},{"id":"28757","name":"Destry Gislason","party":"Dem","address":"611 E 800 S, Orem, UT 84097","precinct":"25OR40","hd":"57","v_score":"0","decile":"1","lat":40.282404296205,"lng":-111.680629207047},{"id":"28948","name":"Zeb Fadel DVM","party":"Rep","address":"730 E 950 S, Apt B403, Orem, UT 84097","precinct":"25OR40","hd":"57","v_score":"1.193887297","decile":"3","lat":40.314641217488,"lng":-111.678508511089},{"id":"29185","name":"Keli Schmeler DDS","party":"Rep","address":"908 S 400 E, Orem, UT 84097","precinct":"25OR40","hd":"57","v_score":"0","decile":"1","lat":40.280419562843,"lng":-111.685695893486},{"id":"29290","name":"Tandy Durgan","party":"Rep","address":"719 S 590 E, Orem, UT 84097","precinct":"25OR40","hd":"57","v_score":"1.193887297","decile":"3","lat":40.28384436979,"lng":-111.681036752341},{"id":"29710","name":"Ruth Feil DDS","party":"Dem","address":"655 S 700 E, Orem, UT 84097","precinct":"25OR40","hd":"57","v_score":"3.781490609","decile":"6","lat":40.310403292985,"lng":-111.680244071057},{"id":"29916","name":"Caron Moore","party":"Dem","address":"875 S 700 E, Apt 513, Orem, UT 84097","precinct":"25OR40","hd":"57","v_score":"2.587603312","decile":"5","lat":40.281759678022,"lng":-111.678469123099},{"id":"30309","name":"Brynn McGlynn","party":"","address":"730 E 950 S, C227, Orem, UT 84097","precinct":"25OR40","hd":"57","v_score":"1.193887297","decile":"3","lat":40.314641217488,"lng":-111.678508511089},{"id":"30984","name":"Amin Pfannerstill","party":"Rep","address":"963 S 450 E, Orem, UT 84097","precinct":"25OR40","hd":"57","v_score":"1.193887297","decile":"3","lat":40.279272355599,"lng":-111.684415610054},{"id":"31023","name":"Vesta Hintz-Strosin","party":"","address":"699 S 590 E, Orem, UT 84097","precinct":"25OR40","hd":"57","v_score":"4.064235245","decile":"6","lat":40.284277067205,"lng":-111.681044785136},{"id":"31341","name":"Dr. Jeffrey Brekke","party":"Rep","address":"890 S 500 E, Orem, UT 84097","precinct":"25OR40","hd":"57","v_score":"6.814370645","decile":"8","lat":40.280749890617,"lng":-111.683457349401},{"id":"31663","name":"Seldon Fay","party":"Dem","address":"1013 S 545 E, Orem, UT 84097","precinct":"25OR40","hd":"57","v_score":"1.193887297","decile":"3","lat":40.278476203466,"lng":-111.682132657742},{"id":"31844","name":"Mr. Emmett Bergstrom","party":"","address":"951 S 450 E, # 2, Orem, UT 84097","precinct":"25OR40","hd":"57","v_score":"7.047822616","decile":"8","lat":40.279511624653,"lng":-111.684420357424},{"id":"32057","name":"Oland Rath","party":"","address":"730 E 950 S, Apt D313, Orem, UT 84097","precinct":"25OR40","hd":"57","v_score":"0","decile":"1","lat":40.314641217488,"lng":-111.678508511089},{"id":"32265","name":"Mr. Kwame Leuschke","party":"Rep","address":"875 S 700 E, Apt 209, Orem, UT 84097","precinct":"25OR40","hd":"57","v_score":"2.587603312","decile":"5","lat":40.281759678022,"lng":-111.678469123099},{"id":"32508","name":"Duane Erdman","party":"Dem","address":"730 E 950 S, Apt D212, Orem, UT 84097","precinct":"25OR40","hd":"57","v_score":"1.623113131","decile":"4","lat":40.314641217488,"lng":-111.678508511089},{"id":"32542","name":"Miss Jannie Mills PhD","party":"","address":"730 E 950 S, Apt B435, Orem, UT 84097","precinct":"25OR40","hd":"57","v_score":"0","decile":"1","lat":40.314641217488,"lng":-111.678508511089},{"id":"32952","name":"Ever Ward","party":"Dem","address":"837 S 500 E, Orem, UT 84097","precinct":"25OR40","hd":"57","v_score":"16.36864091","decile":"9","lat":40.281680560953,"lng":-111.683328055844},{"id":"33199","name":"Mr. Caleb Keebler","party":"Dem","address":"1015 S 500 E, Orem, UT 84097","precinct":"25OR40","hd":"57","v_score":"1.193887297","decile":"3","lat":40.278355618987,"lng":-111.683255042715},{"id":"33528","name":"Thyra Mayert","party":"Rep","address":"730 E 950 S, Apt A317, Orem, UT 84097","precinct":"25OR40","hd":"57","v_score":"1.193887297","decile":"3","lat":40.314641217488,"lng":-111.678508511089},{"id":"33571","name":"Jenna Medhurst","party":"Rep","address":"730 E 950 S, Apt A239, Orem, UT 84097","precinct":"25OR40","hd":"57","v_score":"21.22486546","decile":"10","lat":40.314641217488,"lng":-111.678508511089},{"id":"33854","name":"Maryjane Waelchi","party":"","address":"730 E 950 S, Apt B311, Orem, UT 84097","precinct":"25OR40","hd":"57","v_score":"0","decile":"1","lat":40.314641217488,"lng":-111.678508511089},{"id":"33899","name":"Dawna Hoppe-Hegmann","party":"","address":"730 E 950 S, Apt D423, Orem, UT 84097","precinct":"25OR40","hd":"57","v_score":"31.13427375","decile":"10","lat":40.314641217488,"lng":-111.678508511089},{"id":"33986","name":"Clarice Hills","party":"","address":"426 E 1070 S, Orem, UT 84097","precinct":"25OR40","hd":"57","v_score":"1.193887297","decile":"3","lat":40.277382625575,"lng":-111.684563724884},{"id":"34305","name":"Emmons Koepp","party":"Dem","address":"511 S 750 E, Orem, UT 84097","precinct":"25OR40","hd":"57","v_score":"15.53259879","decile":"9","lat":40.283311951185,"lng":-111.680966554153},{"id":"34311","name":"Fredric Greenfelder DDS","party":"","address":"452 S 750 E, Orem, UT 84097","precinct":"25OR40","hd":"57","v_score":"2.315214949","decile":"5","lat":40.28343270503,"lng":-111.685059222456},{"id":"34371","name":"Chin Wilderman-Hansen","party":"","address":"845 S 750 E, Apt B421, Orem, UT 84097","precinct":"25OR40","hd":"57","v_score":"0","decile":"1","lat":40.281901994119,"lng":-111.677275029019},{"id":"34555","name":"Dyllan Zieme","party":"","address":"730 E 950 S, Apt C411, Orem, UT 84097","precinct":"25OR40","hd":"57","v_score":"6.753951438","decile":"8","lat":40.314641217488,"lng":-111.678508511089},{"id":"34691","name":"Jan Conroy","party":"Rep","address":"730 E 950 S, Apt D417, Orem, UT 84097","precinct":"25OR40","hd":"57","v_score":"8.347511332","decile":"8","lat":40.314641217488,"lng":-111.678508511089},{"id":"35079","name":"Ramiro Macejkovic","party":"Dem","address":"966 S 500 E, Orem, UT 84097","precinct":"25OR40","hd":"57","v_score":"5.40460374","decile":"7","lat":40.279373588149,"lng":-111.683429568457},{"id":"35543","name":"Richard Graham","party":"","address":"875 S 700 E, Apt 534, Orem, UT 84097","precinct":"25OR40","hd":"57","v_score":"18.45422016","decile":"10","lat":40.281759678022,"lng":-111.678469123099},{"id":"35640","name":"Davonta Towne","party":"Dem","address":"845 S 750 E, Apt B321, Orem, UT 84097","precinct":"25OR40","hd":"57","v_score":"0","decile":"1","lat":40.281901994119,"lng":-111.677275029019},{"id":"35752","name":"Robbie Boyer","party":"Dem","address":"730 E 950 S, Apt D525, Orem, UT 84097","precinct":"25OR40","hd":"57","v_score":"0","decile":"1","lat":40.314641217488,"lng":-111.678508511089},{"id":"36938","name":"Verle Schowalter","party":"Rep","address":"448 S 800 E, Orem, UT 84097","precinct":"25OR40","hd":"57","v_score":"5.356821087","decile":"7","lat":40.288672624099,"lng":-111.676332028855},{"id":"37337","name":"Ms. Brooke Johnston","party":"","address":"972 S 500 E, Orem, UT 84097","precinct":"25OR40","hd":"57","v_score":"1.193887297","decile":"3","lat":40.27927138286,"lng":-111.683427544604},{"id":"37703","name":"Mrs. Girtha Rice PhD","party":"Rep","address":"657 S 630 E, Orem, UT 84097","precinct":"25OR40","hd":"57","v_score":"7.781882349","decile":"8","lat":40.285114193916,"lng":-111.680168487464},{"id":"37843","name":"Lorene Dibbert","party":"Dem","address":"730 E 950 S, Apt C239, Orem, UT 84097","precinct":"25OR40","hd":"57","v_score":"5.530510904","decile":"7","lat":40.314641217488,"lng":-111.678508511089},{"id":"38291","name":"Dr. Durwood Grimes","party":"","address":"951 S 450 E, Orem, UT 84097","precinct":"25OR40","hd":"57","v_score":"8.507303088","decile":"8","lat":40.279511624653,"lng":-111.684420357424},{"id":"38532","name":"Orion Vandervort","party":"Dem","address":"875 S 700 E, Apt 434, Orem, UT 84097","precinct":"25OR40","hd":"57","v_score":"6.814370645","decile":"8","lat":40.281759678022,"lng":-111.678469123099},{"id":"38548","name":"Rosie Swaniawski","party":"Dem","address":"850 S 550 E, Orem, UT 84097","precinct":"25OR40","hd":"57","v_score":"2.315214949","decile":"5","lat":40.281018986501,"lng":-111.682177010953},{"id":"38742","name":"Marti Weissnat","party":"Dem","address":"662 S 630 E, Orem, UT 84097","precinct":"25OR40","hd":"57","v_score":"8.232731454","decile":"8","lat":40.285035967069,"lng":-111.680317123116},{"id":"39014","name":"Haven Aufderhar-Jenkins","party":"","address":"733 E 575 S, Orem, UT 84097","precinct":"25OR40","hd":"57","v_score":"8.091152","decile":"8","lat":40.286370510591,"lng":-111.677101338581},{"id":"39022","name":"Alyvia Turner","party":"Rep","address":"515 S 630 E, Orem, UT 84097","precinct":"25OR40","hd":"57","v_score":"6.814370645","decile":"8","lat":40.286817672987,"lng":-111.680205466483},{"id":"39563","name":"Earl Spencer","party":"Rep","address":"385 E 1010 S, Orem, UT 84097","precinct":"25OR40","hd":"57","v_score":"0","decile":"1","lat":40.278345297063,"lng":-111.685796585085},{"id":"39605","name":"Crystal Effertz","party":"Rep","address":"474 S 750 E, Orem, UT 84097","precinct":"25OR40","hd":"57","v_score":"5.687348376","decile":"7","lat":40.283428439167,"lng":-111.684846389898},{"id":"39679","name":"Corrine Quigley","party":"Dem","address":"730 E 950 S, Apt B431, Orem, UT 84097","precinct":"25OR40","hd":"57","v_score":"2.315214949","decile":"5","lat":40.314641217488,"lng":-111.678508511089},{"id":"39882","name":"Lavona Gibson DVM","party":"","address":"612 E 750 S, Orem, UT 84097","precinct":"25OR40","hd":"57","v_score":"0","decile":"1","lat":40.283191599368,"lng":-111.680394384193},{"id":"40756","name":"Garett McDermott","party":"","address":"545 E University Pkwy, # 200, Orem, UT 84097","precinct":"25OR40","hd":"57","v_score":"3.089388791","decile":"6","lat":40.273510254634,"lng":-111.682601699417},{"id":"41319","name":"Mr. Amasa Schultz III","party":"","address":"730 E 950 S, Apt D441, Orem, UT 84097","precinct":"25OR40","hd":"57","v_score":"2.315214949","decile":"5","lat":40.314641217488,"lng":-111.678508511089},{"id":"41385","name":"Mr. Darrius Skiles IV","party":"","address":"845 S 750 E, Apt B403, Orem, UT 84097","precinct":"25OR40","hd":"57","v_score":"1.193887297","decile":"3","lat":40.281901994119,"lng":-111.677275029019},{"id":"41619","name":"Scott Mosciski","party":"","address":"730 E 950 S, Apt C213, Orem, UT 84097","precinct":"25OR40","hd":"57","v_score":"1.46627566","decile":"4","lat":40.314641217488,"lng":-111.678508511089},{"id":"41653","name":"Kendra Jacobi-Wilderman","party":"","address":"634 S 700 E, Orem, UT 84097","precinct":"25OR40","hd":"57","v_score":"1.121327652","decile":"3","lat":40.310288701631,"lng":-111.68064690766},{"id":"41725","name":"Tanesha Strosin PhD","party":"Dem","address":"465 S 650 E, Orem, UT 84097","precinct":"25OR40","hd":"57","v_score":"0","decile":"1","lat":40.288473911805,"lng":-111.679805286957},{"id":"42057","name":"Katherine Gaylord-Fisher","party":"Rep","address":"875 S 700 E, Apt 220, Orem, UT 84097","precinct":"25OR40","hd":"57","v_score":"2.587603312","decile":"5","lat":40.281759678022,"lng":-111.678469123099},{"id":"42240","name":"Mrs. Nora Fadel","party":"Rep","address":"435 E 900 S, Orem, UT 84097","precinct":"25OR40","hd":"57","v_score":"0","decile":"1","lat":40.28062229674,"lng":-111.684967356331},{"id":"42383","name":"Candida Mann","party":"Rep","address":"634 S 700 E, Orem, UT 84097","precinct":"25OR40","hd":"57","v_score":"2.315214949","decile":"5","lat":40.310288701631,"lng":-111.68064690766},{"id":"42542","name":"Acey Gottlieb","party":"Dem","address":"400 E 1010 S, Orem, UT 84097","precinct":"25OR40","hd":"57","v_score":"15.97183385","decile":"9","lat":40.278231316952,"lng":-111.685506976014},{"id":"42793","name":"Mrs. Miley Gleason","party":"","address":"436 E 1010 S, Orem, UT 84097","precinct":"25OR40","hd":"57","v_score":"6.954919332","decile":"8","lat":40.278236320811,"lng":-111.684888993668},{"id":"43045","name":"Rhys Raynor-Howell","party":"Dem","address":"730 E 950 S, Apt D537, Orem, UT 84097","precinct":"25OR40","hd":"57","v_score":"2.315214949","decile":"5","lat":40.314641217488,"lng":-111.678508511089},{"id":"43257","name":"Miss Adrianne Beahan","party":"Dem","address":"730 E 950 S, Apt B413, Orem, UT 84097","precinct":"25OR40","hd":"57","v_score":"2.315214949","decile":"5","lat":40.314641217488,"lng":-111.678508511089},{"id":"43570","name":"Gaetano O'Keefe","party":"Rep","address":"895 S 500 E, Orem, UT 84097","precinct":"25OR40","hd":"57","v_score":"2.315214949","decile":"5","lat":40.280683064352,"lng":-111.683305612303},{"id":"43737","name":"Cedric Goyette-Feest","party":"Dem","address":"730 E 950 S, Apt A415, Orem, UT 84097","precinct":"25OR40","hd":"57","v_score":"1.193887297","decile":"3","lat":40.314641217488,"lng":-111.678508511089},{"id":"43890","name":"Mr. Sharif Zulauf Sr.","party":"Rep","address":"875 S 700 E, Apt 233, Orem, UT 84097","precinct":"25OR40","hd":"57","v_score":"0","decile":"1","lat":40.281759678022,"lng":-111.678469123099},{"id":"44227","name":"Mr. Tito Collins","party":"Dem","address":"730 E 950 S, Apt C338, Orem, UT 84097","precinct":"25OR40","hd":"57","v_score":"5.703020665","decile":"7","lat":40.314641217488,"lng":-111.678508511089},{"id":"44404","name":"Gee Flatley","party":"Dem","address":"845 S 750 E, Apt A311, Orem, UT 84097","precinct":"25OR40","hd":"57","v_score":"0","decile":"1","lat":40.281901994119,"lng":-111.677275029019},{"id":"44755","name":"Ms. Margie Torp","party":"Dem","address":"695 S 630 E, Orem, UT 84097","precinct":"25OR40","hd":"57","v_score":"5.620483348","decile":"7","lat":40.284630092666,"lng":-111.680158574192},{"id":"44926","name":"Deven Zulauf","party":"","address":"730 E 950 S, Apt D511, Orem, UT 84097","precinct":"25OR40","hd":"57","v_score":"30.08550586","decile":"10","lat":40.314641217488,"lng":-111.678508511089},{"id":"45294","name":"Carly Kerluke","party":"","address":"970 S 400 E, Orem, UT 84097","precinct":"25OR40","hd":"57","v_score":"2.817000428","decile":"6","lat":40.279742441771,"lng":-111.68568384992},{"id":"45459","name":"Cherry Carroll","party":"Dem","address":"474 S 750 E, Orem, UT 84097","precinct":"25OR40","hd":"57","v_score":"5.335402662","decile":"7","lat":40.283428439167,"lng":-111.684846389898},{"id":"45492","name":"Arron Kassulke","party":"Dem","address":"892 S 550 E, Orem, UT 84097","precinct":"25OR40","hd":"57","v_score":"2.315214949","decile":"5","lat":40.28066308904,"lng":-111.682168537251},{"id":"45605","name":"Mrs. Angelita Marks DVM","party":"Dem","address":"730 E 950 S, Apt C236, Orem, UT 84097","precinct":"25OR40","hd":"57","v_score":"7.425774504","decile":"8","lat":40.314641217488,"lng":-111.678508511089},{"id":"45894","name":"Andrea Wiza","party":"Rep","address":"1048 S 545 E, Orem, UT 84097","precinct":"25OR40","hd":"57","v_score":"6.812986877","decile":"8","lat":40.277858838743,"lng":-111.682272016523},{"id":"46030","name":"Kellen Deckow Sr.","party":"Rep","address":"462 E 1010 S, Orem, UT 84097","precinct":"25OR40","hd":"57","v_score":"1.193887297","decile":"3","lat":40.278239705564,"lng":-111.684296989304},{"id":"46061","name":"Jolene Stracke","party":"","address":"655 E 600 S, Orem, UT 84097","precinct":"25OR40","hd":"57","v_score":"2.315214949","decile":"5","lat":40.285941295733,"lng":-111.679722083252},{"id":"46748","name":"Nevaeh Buckridge","party":"","address":"875 S 700 E, Apt 303, Orem, UT 84097","precinct":"25OR40","hd":"57","v_score":"2.315214949","decile":"5","lat":40.281759678022,"lng":-111.678469123099},{"id":"47412","name":"Jamari Wisoky","party":"Rep","address":"496 S 750 E, Orem, UT 84097","precinct":"25OR40","hd":"57","v_score":"6.550708384","decile":"7","lat":40.283423704996,"lng":-111.684607553414},{"id":"47967","name":"Mr. Osborne Paucek","party":"Dem","address":"1001 S 400 E, Orem, UT 84097","precinct":"25OR40","hd":"57","v_score":"2.315214949","decile":"5","lat":40.279416357295,"lng":-111.685527828802},{"id":"48033","name":"Jaxen Runolfsson","party":"","address":"733 E 575 S, Orem, UT 84097","precinct":"25OR40","hd":"57","v_score":"2.315214949","decile":"5","lat":40.286370510591,"lng":-111.677101338581},{"id":"48058","name":"Eden Koepp DDS","party":"Rep","address":"471 E 900 S, Orem, UT 84097","precinct":"25OR40","hd":"57","v_score":"6.724398202","decile":"8","lat":40.280619356129,"lng":-111.68414400192},{"id":"48390","name":"Eathel Schmeler","party":"Dem","address":"978 S 450 E, Orem, UT 84097","precinct":"25OR40","hd":"57","v_score":"19.32083959","decile":"10","lat":40.278951595873,"lng":-111.684559470433},{"id":"48471","name":"Demonte Collins-Cormier","party":"Dem","address":"730 E 950 S, Apt A335, Orem, UT 84097","precinct":"25OR40","hd":"57","v_score":"3.781490609","decile":"6","lat":40.314641217488,"lng":-111.678508511089},{"id":"48487","name":"Corrie Stamm","party":"","address":"845 S 750 E, Apt B403, Orem, UT 84097","precinct":"25OR40","hd":"57","v_score":"2.315214949","decile":"5","lat":40.281901994119,"lng":-111.677275029019},{"id":"48561","name":"Kristin Wisoky","party":"Rep","address":"875 S 700 E, Apt 419, Orem, UT 84097","precinct":"25OR40","hd":"57","v_score":"1.46627566","decile":"4","lat":40.281759678022,"lng":-111.678469123099},{"id":"48737","name":"Dorian Hoppe","party":"","address":"1015 S 500 E, Orem, UT 84097","precinct":"25OR40","hd":"57","v_score":"4.210716443","decile":"7","lat":40.278355618987,"lng":-111.683255042715},{"id":"49281","name":"Belle Feil","party":"Dem","address":"730 E 950 S, Apt D429, Orem, UT 84097","precinct":"25OR40","hd":"57","v_score":"1.193887297","decile":"3","lat":40.314641217488,"lng":-111.678508511089},{"id":"49358","name":"Talmage Pagac","party":"Rep","address":"730 E 950 S, Apt B438, Orem, UT 84097","precinct":"25OR40","hd":"57","v_score":"4.064235245","decile":"6","lat":40.314641217488,"lng":-111.678508511089},{"id":"49854","name":"June Feest","party":"Dem","address":"845 S 550 E, Orem, UT 84097","precinct":"25OR40","hd":"57","v_score":"6.896907962","decile":"8","lat":40.281071910048,"lng":-111.682028036763},{"id":"50096","name":"Elaina Russel-Predovic","party":"","address":"1000 S 400 E, Orem, UT 84097","precinct":"25OR40","hd":"57","v_score":"0","decile":"1","lat":40.279414802543,"lng":-111.685678022388},{"id":"50200","name":"Kamari Quitzon","party":"Dem","address":"733 E 575 S, Orem, UT 84097","precinct":"25OR40","hd":"57","v_score":"1.193887297","decile":"3","lat":40.286370510591,"lng":-111.677101338581},{"id":"50976","name":"Elsie Leannon","party":"Rep","address":"875 S 700 E, Apt 433, Orem, UT 84097","precinct":"25OR40","hd":"57","v_score":"5.258122542","decile":"7","lat":40.281759678022,"lng":-111.678469123099},{"id":"51883","name":"Brain Heller","party":"","address":"730 E 950 S, Apt B217, Orem, UT 84097","precinct":"25OR40","hd":"57","v_score":"3.93832808","decile":"6","lat":40.314641217488,"lng":-111.678508511089},{"id":"52767","name":"Primus Vandervort","party":"Dem","address":"1048 S 545 E, Orem, UT 84097","precinct":"25OR40","hd":"57","v_score":"7.934314529","decile":"8","lat":40.277858838743,"lng":-111.682272016523},{"id":"53110","name":"Kristal Pacocha","party":"","address":"890 S 500 E, Orem, UT 84097","precinct":"25OR40","hd":"57","v_score":"6.814370645","decile":"8","lat":40.280749890617,"lng":-111.683457349401},{"id":"53278","name":"Gilberto Kuphal","party":"","address":"725 E 550 S, Orem, UT 84097","precinct":"25OR40","hd":"57","v_score":"9.99652547","decile":"9","lat":40.311339468821,"lng":-111.682457098836},{"id":"53645","name":"Mr. Gottlieb Fritsch","party":"","address":"539 S 590 E, Orem, UT 84097","precinct":"25OR40","hd":"57","v_score":"26.89878031","decile":"10","lat":40.287092957263,"lng":-111.681094327423},{"id":"54046","name":"Dickie King-Ortiz","party":"","address":"612 S 700 E, Orem, UT 84097","precinct":"25OR40","hd":"57","v_score":"3.781490609","decile":"6","lat":40.310288701665,"lng":-111.681090027906},{"id":"54260","name":"Mikalah Kertzmann DDS","party":"","address":"875 S 700 E, Apt 307, Orem, UT 84097","precinct":"25OR40","hd":"57","v_score":"7.226183681","decile":"8","lat":40.281759678022,"lng":-111.678469123099},{"id":"54416","name":"Mr. Parker Towne Sr.","party":"Dem","address":"730 E 950 S, Apt B323, Orem, UT 84097","precinct":"25OR40","hd":"57","v_score":"1.121327652","decile":"3","lat":40.314641217488,"lng":-111.678508511089},{"id":"54455","name":"Mrs. Bettylou O'Connell PhD","party":"","address":"395 E 1010 S, Orem, UT 84097","precinct":"25OR40","hd":"57","v_score":"0","decile":"1","lat":40.278345297056,"lng":-111.685697575144},{"id":"54683","name":"Jewell Hirthe","party":"","address":"515 S 630 E, Orem, UT 84097","precinct":"25OR40","hd":"57","v_score":"14.13760315","decile":"9","lat":40.286817672987,"lng":-111.680205466483},{"id":"54920","name":"Leesa Gerhold-Lueilwitz","party":"Dem","address":"730 E 950 S, Apt D512, Orem, UT 84097","precinct":"25OR40","hd":"57","v_score":"0","decile":"1","lat":40.314641217488,"lng":-111.678508511089},{"id":"55104","name":"Dr. Damien Metz III","party":"Dem","address":"730 E 950 S, Apt D443, Orem, UT 84097","precinct":"25OR40","hd":"57","v_score":"1.193887297","decile":"3","lat":40.314641217488,"lng":-111.678508511089},{"id":"55263","name":"Gibson Donnelly","party":"","address":"744 E 400 S, Orem, UT 84097","precinct":"25OR40","hd":"57","v_score":"0","decile":"1","lat":40.289527437447,"lng":-111.677600191355},{"id":"55808","name":"Leroy Cruickshank-O'Conner","party":"","address":"658 S 700 E, Orem, UT 84097","precinct":"25OR40","hd":"57","v_score":"6.528952915","decile":"7","lat":40.310288701594,"lng":-111.680163503755},{"id":"56223","name":"Marti Lindgren","party":"","address":"730 E 950 S, Apt B222, Orem, UT 84097","precinct":"25OR40","hd":"57","v_score":"1.121327652","decile":"3","lat":40.314641217488,"lng":-111.678508511089},{"id":"56611","name":"Sheryll Baumbach","party":"Rep","address":"730 E 950 S, Apt C322, Orem, UT 84097","precinct":"25OR40","hd":"57","v_score":"5.360235423","decile":"7","lat":40.314641217488,"lng":-111.678508511089},{"id":"56793","name":"Donnell Murray","party":"Dem","address":"685 S 670 E, Orem, UT 84097","precinct":"25OR40","hd":"57","v_score":"0","decile":"1","lat":40.284764935717,"lng":-111.679284585916},{"id":"57092","name":"Sylvan Skiles DVM","party":"","address":"452 S 750 E, Orem, UT 84097","precinct":"25OR40","hd":"57","v_score":"0","decile":"1","lat":40.28343270503,"lng":-111.685059222456},{"id":"57199","name":"Norton Halvorson","party":"","address":"552 S 630 E, Orem, UT 84097","precinct":"25OR40","hd":"57","v_score":"0","decile":"1","lat":40.28641967572,"lng":-111.680346667787},{"id":"57365","name":"Ova Rogahn","party":"","address":"730 E 950 S, Apt B433, Orem, UT 84097","precinct":"25OR40","hd":"57","v_score":"1.121327652","decile":"3","lat":40.314641217488,"lng":-111.678508511089},{"id":"57368","name":"Ricki Sporer","party":"","address":"728 E 600 S, Orem, UT 84097","precinct":"25OR40","hd":"57","v_score":"24.51674595","decile":"10","lat":40.285830941111,"lng":-111.679162436761},{"id":"57700","name":"Dr. Keli Kshlerin","party":"Rep","address":"730 E 950 S, Apt C213, Orem, UT 84097","precinct":"25OR40","hd":"57","v_score":"0","decile":"1","lat":40.314641217488,"lng":-111.678508511089},{"id":"57747","name":"Dr. Jaxson Keebler I","party":"Rep","address":"730 E 950 S, Apt B206, Orem, UT 84097","precinct":"25OR40","hd":"57","v_score":"2.315214949","decile":"5","lat":40.314641217488,"lng":-111.678508511089},{"id":"57780","name":"Mr. Shea Rodriguez","party":"Rep","address":"551 S 590 E, Orem, UT 84097","precinct":"25OR40","hd":"57","v_score":"0","decile":"1","lat":40.286884375416,"lng":-111.681090713409},{"id":"58288","name":"Mr. Sumner Kunde DDS","party":"","address":"845 S 750 E, Apt A132, Orem, UT 84097","precinct":"25OR40","hd":"57","v_score":"0","decile":"1","lat":40.281901994119,"lng":-111.677275029019},{"id":"58329","name":"Skyler Larkin-Huel","party":"Rep","address":"730 E 950 S, Apt A303, Orem, UT 84097","precinct":"25OR40","hd":"57","v_score":"1.121327652","decile":"3","lat":40.314641217488,"lng":-111.678508511089},{"id":"58444","name":"Courtney Considine","party":"Dem","address":"730 E 950 S, Apt C215, Orem, UT 84097","precinct":"25OR40","hd":"57","v_score":"1.193887297","decile":"3","lat":40.314641217488,"lng":-111.678508511089},{"id":"58518","name":"Tennessee Wiza MD","party":"Rep","address":"730 E 950 S, Apt C441, Orem, UT 84097","precinct":"25OR40","hd":"57","v_score":"2.315214949","decile":"5","lat":40.314641217488,"lng":-111.678508511089},{"id":"58612","name":"Dr. Dario Larkin PhD","party":"Dem","address":"612 E 750 S, Orem, UT 84097","precinct":"25OR40","hd":"57","v_score":"0","decile":"1","lat":40.283191599368,"lng":-111.680394384193},{"id":"58697","name":"Ludwig Gusikowski","party":"","address":"847 S 500 E, Orem, UT 84097","precinct":"25OR40","hd":"57","v_score":"9.968733675","decile":"9","lat":40.281508578781,"lng":-111.683324186268},{"id":"59138","name":"Lou Beer-Wunsch","party":"","address":"1048 S 545 E, Orem, UT 84097","precinct":"25OR40","hd":"57","v_score":"2.315214949","decile":"5","lat":40.277858838743,"lng":-111.682272016523},{"id":"59191","name":"Roxane Bernhard","party":"Dem","address":"534 E 1000 S, Orem, UT 84097","precinct":"25OR40","hd":"57","v_score":"1.623113131","decile":"5","lat":40.278680705377,"lng":-111.682510039676},{"id":"59770","name":"Ms. Jayme Jerde DVM","party":"Rep","address":"875 S 700 E, Apt 414, Orem, UT 84097","precinct":"25OR40","hd":"57","v_score":"1.193887297","decile":"3","lat":40.281759678022,"lng":-111.678469123099},{"id":"59793","name":"Lourdes Howe","party":"","address":"1001 S 450 E, Orem, UT 84097","precinct":"25OR40","hd":"57","v_score":"5.191257514","decile":"7","lat":40.278514670261,"lng":-111.684400576714},{"id":"59870","name":"Mr. Ryker Quigley","party":"","address":"875 S 700 E, Apt 414, Orem, UT 84097","precinct":"25OR40","hd":"57","v_score":"5.83359168","decile":"7","lat":40.281759678022,"lng":-111.678469123099},{"id":"60369","name":"Lawanda Kassulke","party":"Rep","address":"957 S 550 E, Orem, UT 84097","precinct":"25OR40","hd":"57","v_score":"17.06573246","decile":"9","lat":40.279510976933,"lng":-111.681982930272},{"id":"60449","name":"Dr. Charlie Purdy DVM","party":"","address":"730 E 950 S, Apt B225, Orem, UT 84097","precinct":"25OR40","hd":"57","v_score":"5.331806201","decile":"7","lat":40.314641217488,"lng":-111.678508511089},{"id":"60493","name":"Aleen Johnson-O'Reilly","party":"Dem","address":"836 S 500 E, Orem, UT 84097","precinct":"25OR40","hd":"57","v_score":"1.193887297","decile":"3","lat":40.281678594349,"lng":-111.683478245112},{"id":"60500","name":"Bev Predovic DDS","party":"","address":"557 S 670 E, Orem, UT 84097","precinct":"25OR40","hd":"57","v_score":"10.06908511","decile":"9","lat":40.286377621833,"lng":-111.679308399462},{"id":"60559","name":"Alexia Leffler","party":"","address":"845 S 750 E, Apt B314, Orem, UT 84097","precinct":"25OR40","hd":"57","v_score":"9.612074184","decile":"8","lat":40.281901994119,"lng":-111.677275029019},{"id":"60759","name":"Immanuel Bins-Turcotte","party":"Dem","address":"565 E 900 S, Orem, UT 84097","precinct":"25OR40","hd":"57","v_score":"0","decile":"1","lat":40.280610355274,"lng":-111.68179478793},{"id":"61550","name":"Francisco Cormier","party":"Dem","address":"471 S 750 E, Orem, UT 84097","precinct":"25OR40","hd":"57","v_score":"6.881235673","decile":"8","lat":40.2835472964,"lng":-111.684874030121},{"id":"61643","name":"Elwood Krajcik-Blanda","party":"Rep","address":"730 E 950 S, Apt A435, Orem, UT 84097","precinct":"25OR40","hd":"57","v_score":"7.583918848","decile":"8","lat":40.314641217488,"lng":-111.678508511089},{"id":"61898","name":"Ebenezer Schimmel-Romaguera","party":"Dem","address":"730 E 950 S, Apt B413, Orem, UT 84097","precinct":"25OR40","hd":"57","v_score":"1.193887297","decile":"3","lat":40.314641217488,"lng":-111.678508511089},{"id":"62360","name":"Paisley Morar-Veum","party":"Rep","address":"845 S 750 E, Apt B403, Orem, UT 84097","precinct":"25OR40","hd":"57","v_score":"1.121327652","decile":"3","lat":40.281901994119,"lng":-111.677275029019},{"id":"62393","name":"Adam Wiegand","party":"","address":"730 E 950 S, Apt B307, Orem, UT 84097","precinct":"25OR40","hd":"57","v_score":"8.134165107","decile":"8","lat":40.314641217488,"lng":-111.678508511089},{"id":"62999","name":"Mr. Hoy Schmeler I","party":"Rep","address":"730 E 950 S, Apt A429, Orem, UT 84097","precinct":"25OR40","hd":"57","v_score":"2.315214949","decile":"5","lat":40.314641217488,"lng":-111.678508511089},{"id":"63581","name":"Shae Kuhic","party":"Rep","address":"730 E 950 S, Apt B240, Orem, UT 84097","precinct":"25OR40","hd":"57","v_score":"2.315214949","decile":"5","lat":40.314641217488,"lng":-111.678508511089},{"id":"64072","name":"Jacky Feest Sr.","party":"Rep","address":"730 E 950 S, Apt A240, Orem, UT 84097","precinct":"25OR40","hd":"57","v_score":"1.121327652","decile":"3","lat":40.314641217488,"lng":-111.678508511089},{"id":"64081","name":"Dr. Exa Mayert DDS","party":"Rep","address":"730 E 950 S, Apt A501, Orem, UT 84097","precinct":"25OR40","hd":"57","v_score":"1.121327652","decile":"3","lat":40.314641217488,"lng":-111.678508511089},{"id":"64159","name":"Kassandra Jakubowski","party":"","address":"730 E 950 S, Apt D303, Orem, UT 84097","precinct":"25OR40","hd":"57","v_score":"1.121327652","decile":"3","lat":40.314641217488,"lng":-111.678508511089},{"id":"64281","name":"Alanzo Schuppe Jr.","party":"Rep","address":"845 S 750 E, Apt B321, Orem, UT 84097","precinct":"25OR40","hd":"57","v_score":"1.121327652","decile":"3","lat":40.281901994119,"lng":-111.677275029019},{"id":"64670","name":"Nathanael Crooks-Grimes","party":"Rep","address":"657 E 750 S, Orem, UT 84097","precinct":"25OR40","hd":"57","v_score":"10.01174678","decile":"9","lat":40.283311525083,"lng":-111.679859402354},{"id":"64733","name":"Verl Wisoky","party":"Dem","address":"875 S 700 E, Apt 534, Orem, UT 84097","precinct":"25OR40","hd":"57","v_score":"11.02844566","decile":"9","lat":40.281759678022,"lng":-111.678469123099},{"id":"64775","name":"Paxton Ruecker Sr.","party":"Dem","address":"565 E 900 S, Orem, UT 84097","precinct":"25OR40","hd":"57","v_score":"0","decile":"1","lat":40.280610355274,"lng":-111.68179478793},{"id":"64986","name":"Vonnie Vandervort","party":"Rep","address":"456 E 1010 S, Orem, UT 84097","precinct":"25OR40","hd":"57","v_score":"10.52632313","decile":"9","lat":40.278239100733,"lng":-111.684545670142},{"id":"65260","name":"Meaghan Kautzer","party":"","address":"890 S 500 E, Orem, UT 84097","precinct":"25OR40","hd":"57","v_score":"2.817000428","decile":"6","lat":40.280749890617,"lng":-111.683457349401},{"id":"65458","name":"Dr. Dorothy Zieme DVM","party":"","address":"875 S 700 E, Apt 229, Orem, UT 84097","precinct":"25OR40","hd":"57","v_score":"0","decile":"1","lat":40.281759678022,"lng":-111.678469123099},{"id":"65582","name":"Gonzalo Schultz","party":"","address":"539 S 590 E, Orem, UT 84097","precinct":"25OR40","hd":"57","v_score":"25.96860089","decile":"10","lat":40.287092957263,"lng":-111.681094327423},{"id":"65615","name":"Trinity Walker-McLaughlin","party":"","address":"730 E 950 S, Apt A540, Orem, UT 84097","precinct":"25OR40","hd":"57","v_score":"1.121327652","decile":"3","lat":40.314641217488,"lng":-111.678508511089},{"id":"65764","name":"Arkie Koelpin","party":"Dem","address":"845 S 750 E, Apt B321, Orem, UT 84097","precinct":"25OR40","hd":"57","v_score":"2.942907593","decile":"6","lat":40.281901994119,"lng":-111.677275029019},{"id":"66049","name":"Reatha Sawayn","party":"","address":"845 S 750 E, Apt A423, Orem, UT 84097","precinct":"25OR40","hd":"57","v_score":"17.17366959","decile":"9","lat":40.281901994119,"lng":-111.677275029019},{"id":"66300","name":"Miss Geralyn Herman","party":"Dem","address":"875 S 700 E, Apt 527, Orem, UT 84097","precinct":"25OR40","hd":"57","v_score":"1.121327652","decile":"3","lat":40.281759678022,"lng":-111.678469123099},{"id":"66414","name":"Ms. Laurie Schinner DVM","party":"","address":"495 E 1010 S, Orem, UT 84097","precinct":"25OR40","hd":"57","v_score":"2.315214949","decile":"5","lat":40.278354296886,"lng":-111.68348620475},{"id":"66672","name":"Elia Morissette","party":"Dem","address":"495 E 1010 S, Orem, UT 84097","precinct":"25OR40","hd":"57","v_score":"2.315214949","decile":"5","lat":40.278354296886,"lng":-111.68348620475},{"id":"67078","name":"Olie DuBuque","party":"","address":"845 S 750 E, Apt B403, Orem, UT 84097","precinct":"25OR40","hd":"57","v_score":"2.315214949","decile":"5","lat":40.281901994119,"lng":-111.677275029019},{"id":"67175","name":"Catina Kozey","party":"Rep","address":"730 E 950 S, Apt A406, Orem, UT 84097","precinct":"25OR40","hd":"57","v_score":"1.121327652","decile":"3","lat":40.314641217488,"lng":-111.678508511089},{"id":"67537","name":"Perri Rutherford","party":"Dem","address":"551 S 590 E, Orem, UT 84097","precinct":"25OR40","hd":"57","v_score":"0","decile":"1","lat":40.286884375416,"lng":-111.681090713409},{"id":"67549","name":"Naomi Prosacco","party":"Dem","address":"729 E 550 S, Orem, UT 84097","precinct":"25OR40","hd":"57","v_score":"2.315214949","decile":"5","lat":40.311366752418,"lng":-111.682458039646},{"id":"67769","name":"Aditya Breitenberg","party":"Rep","address":"730 E 950 S, Apt D241, Orem, UT 84097","precinct":"25OR40","hd":"57","v_score":"1.121327652","decile":"3","lat":40.314641217488,"lng":-111.678508511089},{"id":"67960","name":"Dr. Tristian Hartmann Sr.","party":"Dem","address":"730 E 950 S, Apt A519, Orem, UT 84097","precinct":"25OR40","hd":"57","v_score":"9.472984522","decile":"8","lat":40.314641217488,"lng":-111.678508511089},{"id":"68003","name":"Carmen Fay","party":"Rep","address":"955 S 450 E, Orem, UT 84097","precinct":"25OR40","hd":"57","v_score":"7.650280567","decile":"8","lat":40.279431868302,"lng":-111.684418774967},{"id":"68236","name":"Aric Flatley","party":"Dem","address":"1048 S 545 E, Orem, UT 84097","precinct":"25OR40","hd":"57","v_score":"1.193887297","decile":"3","lat":40.277858838743,"lng":-111.682272016523},{"id":"68474","name":"Refugio Wintheiser","party":"","address":"970 S 400 E, Orem, UT 84097","precinct":"25OR40","hd":"57","v_score":"5.837188142","decile":"7","lat":40.279742441771,"lng":-111.68568384992},{"id":"68613","name":"Hayes Ebert","party":"Rep","address":"730 E 950 S, Apt B222, Orem, UT 84097","precinct":"25OR40","hd":"57","v_score":"1.121327652","decile":"3","lat":40.314641217488,"lng":-111.678508511089},{"id":"69058","name":"Dorian Sauer","party":"","address":"845 S 750 E, Apt A304, Orem, UT 84097","precinct":"25OR40","hd":"57","v_score":"7.090117576","decile":"8","lat":40.281901994119,"lng":-111.677275029019},{"id":"69223","name":"Alonso Kuphal","party":"","address":"730 E 950 S, Orem, UT 84097","precinct":"25OR40","hd":"57","v_score":"1.193887297","decile":"3","lat":40.314641217488,"lng":-111.678508511089},{"id":"69553","name":"Dionicio Schmeler-Schuster","party":"Dem","address":"730 E 950 S, Apt D235, Orem, UT 84097","precinct":"25OR40","hd":"57","v_score":"1.121327652","decile":"3","lat":40.314641217488,"lng":-111.678508511089},{"id":"69706","name":"Jami Mante","party":"","address":"730 E 950 S, Apt A315, Orem, UT 84097","precinct":"25OR40","hd":"57","v_score":"2.315214949","decile":"5","lat":40.314641217488,"lng":-111.678508511089},{"id":"69809","name":"Bonnie Kilback","party":"Dem","address":"730 E 950 S, Orem, UT 84097","precinct":"25OR40","hd":"57","v_score":"1.121327652","decile":"3","lat":40.314641217488,"lng":-111.678508511089},{"id":"69840","name":"Miss Consuelo Pacocha MD","party":"","address":"875 S 700 E, Apt 135, Orem, UT 84097","precinct":"25OR40","hd":"57","v_score":"9.405332525","decile":"8","lat":40.281759678022,"lng":-111.678469123099},{"id":"70793","name":"Plummer Bahringer","party":"","address":"644 E 750 S, Orem, UT 84097","precinct":"25OR40","hd":"57","v_score":"3.93832808","decile":"6","lat":40.283193613864,"lng":-111.6800167035},{"id":"70873","name":"Dagmar Emard-Volkman","party":"Dem","address":"730 E 950 S, Apt C404, Orem, UT 84097","precinct":"25OR40","hd":"57","v_score":"2.315214949","decile":"5","lat":40.314641217488,"lng":-111.678508511089},{"id":"71859","name":"Stevie Abernathy","party":"Rep","address":"875 S 700 E, Apt 405, Orem, UT 84097","precinct":"25OR40","hd":"57","v_score":"2.315214949","decile":"5","lat":40.281759678022,"lng":-111.678469123099},{"id":"71913","name":"Clearence Nader","party":"","address":"730 E 950 S, Apt D221, Orem, UT 84097","precinct":"25OR40","hd":"57","v_score":"1.193887297","decile":"3","lat":40.314641217488,"lng":-111.678508511089},{"id":"72099","name":"Cael Hills","party":"","address":"875 S 700 E, Apt 114, Orem, UT 84097","precinct":"25OR40","hd":"57","v_score":"2.744440783","decile":"5","lat":40.281759678022,"lng":-111.678469123099},{"id":"72121","name":"Elois Upton PhD","party":"","address":"730 E 950 S, Apt A242, Orem, UT 84097","precinct":"25OR40","hd":"57","v_score":"1.121327652","decile":"3","lat":40.314641217488,"lng":-111.678508511089},{"id":"72156","name":"Miss Brynn Mueller DVM","party":"","address":"979 S 450 E, Orem, UT 84097","precinct":"25OR40","hd":"57","v_score":"3.93832808","decile":"6","lat":40.278953330194,"lng":-111.684409280227},{"id":"72422","name":"Belinda Spencer","party":"","address":"946 S 500 E, Orem, UT 84097","precinct":"25OR40","hd":"57","v_score":"2.315214949","decile":"5","lat":40.279714272446,"lng":-111.683436314636},{"id":"72852","name":"Stephen Ritchie","party":"Dem","address":"730 E 950 S, Apt A212, Orem, UT 84097","precinct":"25OR40","hd":"57","v_score":"2.315214949","decile":"5","lat":40.314641217488,"lng":-111.678508511089},{"id":"72930","name":"Tyson Heaney","party":"Dem","address":"875 S 700 E, Apt 214, Orem, UT 84097","precinct":"25OR40","hd":"57","v_score":"2.315214949","decile":"5","lat":40.281759678022,"lng":-111.678469123099},{"id":"72982","name":"Drew Mraz","party":"","address":"447 E 900 S, Orem, UT 84097","precinct":"25OR40","hd":"57","v_score":"1.121327652","decile":"3","lat":40.280622296725,"lng":-111.684762329396},{"id":"73367","name":"Haven Rutherford","party":"Rep","address":"875 S 700 E, Apt 405, Orem, UT 84097","precinct":"25OR40","hd":"57","v_score":"11.02844566","decile":"9","lat":40.281759678022,"lng":-111.678469123099},{"id":"73434","name":"Kylan Feeney","party":"","address":"730 E 950 S, Apt D339, Orem, UT 84097","precinct":"25OR40","hd":"57","v_score":"1.121327652","decile":"3","lat":40.314641217488,"lng":-111.678508511089},{"id":"73852","name":"Reno Abernathy","party":"","address":"1027 S 545 E, Orem, UT 84097","precinct":"25OR40","hd":"57","v_score":"19.11644026","decile":"10","lat":40.278236715076,"lng":-111.682128445666},{"id":"74153","name":"Miss Siobhan Gaylord","party":"Dem","address":"730 E 950 S, Apt B240, Orem, UT 84097","precinct":"25OR40","hd":"57","v_score":"1.121327652","decile":"3","lat":40.314641217488,"lng":-111.678508511089},{"id":"74654","name":"Allyssa Mueller","party":"Rep","address":"730 E 950 S, Apt D315, Orem, UT 84097","precinct":"25OR40","hd":"57","v_score":"0","decile":"1","lat":40.314641217488,"lng":-111.678508511089},{"id":"74891","name":"Arely Harvey PhD","party":"","address":"895 S 500 E, Orem, UT 84097","precinct":"25OR40","hd":"57","v_score":"2.315214949","decile":"5","lat":40.280683064352,"lng":-111.683305612303},{"id":"75116","name":"Jacquline Murphy","party":"","address":"658 S 700 E, Orem, UT 84097","precinct":"25OR40","hd":"57","v_score":"7.650280567","decile":"8","lat":40.310288701594,"lng":-111.680163503755},{"id":"75118","name":"Norita Kertzmann-Reichert","party":"Dem","address":"1054 S 500 E, Orem, UT 84097","precinct":"25OR40","hd":"57","v_score":"1.121327652","decile":"3","lat":40.277872606595,"lng":-111.683389949448},{"id":"75495","name":"Zettie Altenwerth-Schiller","party":"","address":"420 E 850 S, Orem, UT 84097","precinct":"25OR40","hd":"57","v_score":"0","decile":"1","lat":40.281263705295,"lng":-111.685299460846},{"id":"75511","name":"Cheyenne Nolan","party":"","address":"730 E 950 S, Apt B240, Orem, UT 84097","precinct":"25OR40","hd":"57","v_score":"6.979934218","decile":"8","lat":40.314641217488,"lng":-111.678508511089},{"id":"75810","name":"Miss Ernestina Grant DVM","party":"","address":"730 E 950 S, Apt B203, Orem, UT 84097","precinct":"25OR40","hd":"57","v_score":"1.121327652","decile":"3","lat":40.314641217488,"lng":-111.678508511089},{"id":"75891","name":"Mr. Mason Reynolds Sr.","party":"Dem","address":"496 S 750 E, Orem, UT 84097","precinct":"25OR40","hd":"57","v_score":"18.62547835","decile":"10","lat":40.283423704996,"lng":-111.684607553414},{"id":"76360","name":"Verna Langworth-Tromp","party":"Rep","address":"730 E 950 S, Apt B310, Orem, UT 84097","precinct":"25OR40","hd":"57","v_score":"26.7250905","decile":"10","lat":40.314641217488,"lng":-111.678508511089},{"id":"76807","name":"Mr. Ellison Padberg Jr.","party":"Dem","address":"730 E 950 S, Apt A217, Orem, UT 84097","precinct":"25OR40","hd":"57","v_score":"0","decile":"1","lat":40.314641217488,"lng":-111.678508511089},{"id":"76913","name":"Reginald Cole PhD","party":"","address":"845 S 750 E, Apt B325, Orem, UT 84097","precinct":"25OR40","hd":"57","v_score":"1.121327652","decile":"3","lat":40.281901994119,"lng":-111.677275029019},{"id":"77203","name":"Yulisa Schmidt","party":"Dem","address":"730 E 950 S, Apt C439, Orem, UT 84097","precinct":"25OR40","hd":"57","v_score":"3.93832808","decile":"6","lat":40.314641217488,"lng":-111.678508511089},{"id":"77538","name":"Conley Koch","party":"Rep","address":"730 E 950 S, Apt D515, Orem, UT 84097","precinct":"25OR40","hd":"57","v_score":"2.315214949","decile":"5","lat":40.314641217488,"lng":-111.678508511089},{"id":"77883","name":"Karlie Lang","party":"Rep","address":"730 E 950 S, Apt C441, Orem, UT 84097","precinct":"25OR40","hd":"57","v_score":"2.315214949","decile":"5","lat":40.314641217488,"lng":-111.678508511089},{"id":"78617","name":"Laddie Robel MD","party":"Rep","address":"962 S 400 E, Orem, UT 84097","precinct":"25OR40","hd":"57","v_score":"12.42192378","decile":"9","lat":40.279829812232,"lng":-111.685685403928},{"id":"78816","name":"Tristian Ernser-Schmeler","party":"Rep","address":"612 S 700 E, Orem, UT 84097","precinct":"25OR40","hd":"57","v_score":"1.121327652","decile":"3","lat":40.310288701665,"lng":-111.681090027906},{"id":"78982","name":"Madyson O'Conner","party":"","address":"957 S 500 E, Orem, UT 84097","precinct":"25OR40","hd":"57","v_score":"6.814370645","decile":"8","lat":40.27952619351,"lng":-111.683282365796},{"id":"79234","name":"Mrs. Lucinda Stokes","party":"","address":"730 E 950 S, Apt A235, Orem, UT 84097","precinct":"25OR40","hd":"57","v_score":"1.121327652","decile":"3","lat":40.314641217488,"lng":-111.678508511089},{"id":"79390","name":"Dr. Merna Zboncak","party":"Dem","address":"875 S 700 E, Apt 405, Orem, UT 84097","precinct":"25OR40","hd":"57","v_score":"2.315214949","decile":"5","lat":40.281759678022,"lng":-111.678469123099},{"id":"79581","name":"Jarret Kautzer","party":"","address":"730 E 950 S, Apt D204, Orem, UT 84097","precinct":"25OR40","hd":"57","v_score":"6.027167436","decile":"7","lat":40.314641217488,"lng":-111.678508511089},{"id":"79649","name":"Dr. Bishop Kuhn Sr.","party":"Dem","address":"730 E 950 S, Orem, UT 84097","precinct":"25OR40","hd":"57","v_score":"2.315214949","decile":"5","lat":40.314641217488,"lng":-111.678508511089},{"id":"79839","name":"Miss Gianna Volkman DDS","party":"","address":"730 E 950 S, Apt C212, Orem, UT 84097","precinct":"25OR40","hd":"57","v_score":"1.121327652","decile":"3","lat":40.314641217488,"lng":-111.678508511089},{"id":"79909","name":"Damari Bailey","party":"Dem","address":"730 E 950 S, Apt A313, Orem, UT 84097","precinct":"25OR40","hd":"57","v_score":"1.121327652","decile":"3","lat":40.314641217488,"lng":-111.678508511089},{"id":"80231","name":"Cordaro Toy-Schaefer","party":"","address":"730 E 950 S, Apt B429, Orem, UT 84097","precinct":"25OR40","hd":"57","v_score":"2.315214949","decile":"5","lat":40.314641217488,"lng":-111.678508511089},{"id":"80577","name":"Scott Zulauf","party":"","address":"730 E 950 S, Apt B440, Orem, UT 84097","precinct":"25OR40","hd":"57","v_score":"2.315214949","decile":"5","lat":40.314641217488,"lng":-111.678508511089},{"id":"80594","name":"Dr. Jett Kuhic","party":"","address":"436 E 1010 S, Orem, UT 84097","precinct":"25OR40","hd":"57","v_score":"9.380926125","decile":"8","lat":40.278236320811,"lng":-111.684888993668},{"id":"80802","name":"Dr. Latosha Emard","party":"Dem","address":"730 E 950 S, Apt B204, Orem, UT 84097","precinct":"25OR40","hd":"57","v_score":"0","decile":"1","lat":40.314641217488,"lng":-111.678508511089},{"id":"80958","name":"Haruko Wyman","party":"","address":"875 S 700 E, Apt 331, Orem, UT 84097","precinct":"25OR40","hd":"57","v_score":"0","decile":"1","lat":40.281759678022,"lng":-111.678469123099},{"id":"81207","name":"Winford Mayert","party":"","address":"711 S 630 E, Orem, UT 84097","precinct":"25OR40","hd":"57","v_score":"18.35167816","decile":"10","lat":40.284426260561,"lng":-111.680154400182},{"id":"81242","name":"Jule Prosacco MD","party":"","address":"845 S 750 E, Apt B401, Orem, UT 84097","precinct":"25OR40","hd":"57","v_score":"1.193887297","decile":"3","lat":40.281901994119,"lng":-111.677275029019},{"id":"81738","name":"Dr. Deven Bernhard Sr.","party":"","address":"875 S 700 E, Apt 308, Orem, UT 84097","precinct":"25OR40","hd":"57","v_score":"0","decile":"1","lat":40.281759678022,"lng":-111.678469123099},{"id":"82618","name":"Stefani Schuster-Schuppe","party":"Rep","address":"730 E 950 S, Apt A331, Orem, UT 84097","precinct":"25OR40","hd":"57","v_score":"4.069929862","decile":"6","lat":40.314641217488,"lng":-111.678508511089},{"id":"82872","name":"Goldia Schneider","party":"Rep","address":"875 S 700 E, Apt 232, Orem, UT 84097","precinct":"25OR40","hd":"57","v_score":"10.12812725","decile":"9","lat":40.281759678022,"lng":-111.678469123099},{"id":"83165","name":"Mr. Captain Ondricka","party":"","address":"875 S 700 E, Apt 107, Orem, UT 84097","precinct":"25OR40","hd":"57","v_score":"0","decile":"1","lat":40.281759678022,"lng":-111.678469123099},{"id":"83319","name":"Cailyn Bauch","party":"Rep","address":"730 E 950 S, Apt C211, Orem, UT 84097","precinct":"25OR40","hd":"57","v_score":"0","decile":"1","lat":40.314641217488,"lng":-111.678508511089},{"id":"83590","name":"Mr. Amit Koepp","party":"Rep","address":"730 E 950 S, Apt A342, Orem, UT 84097","precinct":"25OR40","hd":"57","v_score":"0","decile":"1","lat":40.314641217488,"lng":-111.678508511089},{"id":"83639","name":"Hjalmer Cummings","party":"Rep","address":"711 S 630 E, Orem, UT 84097","precinct":"25OR40","hd":"57","v_score":"20.87115518","decile":"10","lat":40.284426260561,"lng":-111.680154400182},{"id":"84018","name":"Carlota Mraz","party":"","address":"730 E 950 S, Apt A540, Orem, UT 84097","precinct":"25OR40","hd":"57","v_score":"0","decile":"1","lat":40.314641217488,"lng":-111.678508511089},{"id":"84039","name":"Iona Littel MD","party":"Rep","address":"875 S 700 E, Apt 311, Orem, UT 84097","precinct":"25OR40","hd":"57","v_score":"0","decile":"1","lat":40.281759678022,"lng":-111.678469123099},{"id":"84418","name":"Mr. Jan Collins I","party":"Dem","address":"730 E 950 S, Apt A417, Orem, UT 84097","precinct":"25OR40","hd":"57","v_score":"1.193887297","decile":"3","lat":40.314641217488,"lng":-111.678508511089},{"id":"84530","name":"Mr. Gilmore Emard","party":"Rep","address":"875 S 700 E, Apt 420, Orem, UT 84097","precinct":"25OR40","hd":"57","v_score":"16.23080237","decile":"9","lat":40.281759678022,"lng":-111.678469123099},{"id":"84725","name":"Dr. Talmadge Roberts","party":"","address":"957 S 550 E, Orem, UT 84097","precinct":"25OR40","hd":"57","v_score":"8.444560154","decile":"8","lat":40.279510976933,"lng":-111.681982930272},{"id":"84888","name":"Wanita Hilll PhD","party":"Dem","address":"730 E 950 S, Apt D440, Orem, UT 84097","precinct":"25OR40","hd":"57","v_score":"16.23145079","decile":"9","lat":40.314641217488,"lng":-111.678508511089},{"id":"85066","name":"Barnard Reilly","party":"","address":"730 E 950 S, Apt B338, Orem, UT 84097","precinct":"25OR40","hd":"57","v_score":"1.193887297","decile":"3","lat":40.314641217488,"lng":-111.678508511089},{"id":"85179","name":"Mrs. Eleonora Howe","party":"Rep","address":"730 E 950 S, Apt D443, Orem, UT 84097","precinct":"25OR40","hd":"57","v_score":"1.193887297","decile":"3","lat":40.314641217488,"lng":-111.678508511089},{"id":"85349","name":"Miss Leafy Schowalter","party":"Dem","address":"730 E 950 S, Apt D523, Orem, UT 84097","precinct":"25OR40","hd":"57","v_score":"14.67369938","decile":"9","lat":40.314641217488,"lng":-111.678508511089},{"id":"85386","name":"Kaylin Gaylord","party":"","address":"730 E 950 S, Orem, UT 84097","precinct":"25OR40","hd":"57","v_score":"1.193887297","decile":"3","lat":40.314641217488,"lng":-111.678508511089},{"id":"85468","name":"Glenn Doyle","party":"Dem","address":"909 S 550 E, Orem, UT 84097","precinct":"25OR40","hd":"57","v_score":"21.89181036","decile":"10","lat":40.280359598042,"lng":-111.682010083094},{"id":"85706","name":"Dickie Denesik-Dooley","party":"Rep","address":"908 S 400 E, Orem, UT 84097","precinct":"25OR40","hd":"57","v_score":"0","decile":"1","lat":40.280419562843,"lng":-111.685695893486},{"id":"85777","name":"Wiliam Stracke","party":"Rep","address":"730 E 950 S, Apt A529, Orem, UT 84097","precinct":"25OR40","hd":"57","v_score":"0","decile":"1","lat":40.314641217488,"lng":-111.678508511089},{"id":"85801","name":"Dr. Rand Bernier","party":"Dem","address":"540 S 630 E, Orem, UT 84097","precinct":"25OR40","hd":"57","v_score":"11.32201455","decile":"9","lat":40.286544731816,"lng":-111.680349509954},{"id":"86052","name":"Cristi Friesen","party":"Rep","address":"540 S 630 E, Orem, UT 84097","precinct":"25OR40","hd":"57","v_score":"9.638447451","decile":"8","lat":40.286544731816,"lng":-111.680349509954},{"id":"86118","name":"Ennis Fisher","party":"Dem","address":"908 S 400 E, Orem, UT 84097","precinct":"25OR40","hd":"57","v_score":"4.639704383","decile":"7","lat":40.280419562843,"lng":-111.685695893486},{"id":"86229","name":"China Romaguera","party":"","address":"962 S 450 E, Orem, UT 84097","precinct":"25OR40","hd":"57","v_score":"0","decile":"1","lat":40.279270621278,"lng":-111.68456580026},{"id":"86280","name":"Mrs. Albertha Wyman","party":"Rep","address":"730 E 950 S, Apt A203, Orem, UT 84097","precinct":"25OR40","hd":"57","v_score":"0","decile":"1","lat":40.314641217488,"lng":-111.678508511089},{"id":"86653","name":"Mr. Don Towne V","party":"Rep","address":"773 S 590 E, Orem, UT 84097","precinct":"25OR40","hd":"57","v_score":"1.193887297","decile":"4","lat":40.282833911587,"lng":-111.681091258764},{"id":"86705","name":"Dr. Conard Luettgen V","party":"Rep","address":"728 E 600 S, Orem, UT 84097","precinct":"25OR40","hd":"57","v_score":"14.90715135","decile":"9","lat":40.285830941111,"lng":-111.679162436761},{"id":"86923","name":"Ireland Douglas","party":"Rep","address":"730 E 950 S, B443, Orem, UT 84097","precinct":"25OR40","hd":"57","v_score":"0","decile":"1","lat":40.314641217488,"lng":-111.678508511089},{"id":"87251","name":"Don Wilkinson","party":"","address":"730 E 950 S, Apt A441, Orem, UT 84097","precinct":"25OR40","hd":"57","v_score":"5.83359168","decile":"7","lat":40.314641217488,"lng":-111.678508511089},{"id":"87387","name":"Winifred Wisoky","party":"Dem","address":"730 E 950 S, Apt A331, Orem, UT 84097","precinct":"25OR40","hd":"57","v_score":"4.069929862","decile":"6","lat":40.314641217488,"lng":-111.678508511089},{"id":"87487","name":"Mr. Sherrill Grant","party":"Rep","address":"875 S 700 E, Apt 229, Orem, UT 84097","precinct":"25OR40","hd":"57","v_score":"1.193887297","decile":"4","lat":40.281759678022,"lng":-111.678469123099},{"id":"87530","name":"Margery Renner","party":"","address":"730 E 950 S, Apt D419, Orem, UT 84097","precinct":"25OR40","hd":"57","v_score":"0","decile":"1","lat":40.314641217488,"lng":-111.678508511089},{"id":"87691","name":"Mario Bechtelar Jr.","party":"Rep","address":"730 E 950 S, Apt A343, Orem, UT 84097","precinct":"25OR40","hd":"57","v_score":"4.732607667","decile":"7","lat":40.314641217488,"lng":-111.678508511089},{"id":"88225","name":"Mrs. Magan Conn DDS","party":"","address":"730 E 950 S, Apt C404, Orem, UT 84097","precinct":"25OR40","hd":"57","v_score":"1.193887297","decile":"4","lat":40.314641217488,"lng":-111.678508511089},{"id":"88233","name":"Kimber Leffler","party":"Dem","address":"511 S 750 E, Orem, UT 84097","precinct":"25OR40","hd":"57","v_score":"0","decile":"1","lat":40.283311951185,"lng":-111.680966554153},{"id":"88241","name":"Eve Kirlin","party":"Rep","address":"875 S 700 E, Apt 504, Orem, UT 84097","precinct":"25OR40","hd":"57","v_score":"0","decile":"1","lat":40.281759678022,"lng":-111.678469123099},{"id":"88533","name":"Jajuan Mante-Lind","party":"Rep","address":"565 S 700 E, Orem, UT 84097","precinct":"25OR40","hd":"57","v_score":"0","decile":"1","lat":40.284283756853,"lng":-111.681871920391},{"id":"88595","name":"Teagan Wiegand Sr.","party":"Dem","address":"508 S 750 E, Orem, UT 84097","precinct":"25OR40","hd":"57","v_score":"0","decile":"1","lat":40.283197500978,"lng":-111.680981589836},{"id":"88703","name":"Hilma Russel PhD","party":"","address":"730 E 950 S, Apt A309, Orem, UT 84097","precinct":"25OR40","hd":"57","v_score":"9.907118004","decile":"8","lat":40.314641217488,"lng":-111.678508511089},{"id":"88721","name":"Domenico Morissette","party":"Dem","address":"1069 S 545 E, Orem, UT 84097","precinct":"25OR40","hd":"57","v_score":"0","decile":"1","lat":40.277518249907,"lng":-111.682115809439},{"id":"88803","name":"Iva Kuhlman-Rutherford","party":"Dem","address":"730 E 950 S, A407, Orem, UT 84097","precinct":"25OR40","hd":"57","v_score":"23.62038206","decile":"10","lat":40.314641217488,"lng":-111.678508511089},{"id":"89020","name":"Miss Julianna Greenholt","party":"Dem","address":"955 S 450 E, Orem, UT 84097","precinct":"25OR40","hd":"57","v_score":"2.817000428","decile":"6","lat":40.279431868302,"lng":-111.684418774967},{"id":"89090","name":"Dr. Ples Sipes IV","party":"Dem","address":"875 S 700 E, Apt 501, Orem, UT 84097","precinct":"25OR40","hd":"57","v_score":"0","decile":"1","lat":40.281759678022,"lng":-111.678469123099},{"id":"89105","name":"Taya Cremin-Mitchell","party":"Rep","address":"730 E 950 S, Apt C213, Orem, UT 84097","precinct":"25OR40","hd":"57","v_score":"0","decile":"1","lat":40.314641217488,"lng":-111.678508511089},{"id":"89179","name":"Duwayne Moen-Bauch","party":"","address":"957 S 500 E, Orem, UT 84097","precinct":"25OR40","hd":"57","v_score":"5.693042993","decile":"7","lat":40.27952619351,"lng":-111.683282365796},{"id":"89309","name":"Dewayne Bernhard V","party":"Dem","address":"718 S 630 E, Orem, UT 84097","precinct":"25OR40","hd":"57","v_score":"0","decile":"1","lat":40.284322554702,"lng":-111.680302514084},{"id":"89368","name":"Connie Paucek","party":"Rep","address":"725 E 550 S, Orem, UT 84097","precinct":"25OR40","hd":"57","v_score":"8.284004873","decile":"8","lat":40.311339468821,"lng":-111.682457098836},{"id":"89827","name":"Debroah Harvey","party":"Dem","address":"730 E 950 S, Apt B229, Orem, UT 84097","precinct":"25OR40","hd":"57","v_score":"0","decile":"1","lat":40.314641217488,"lng":-111.678508511089},{"id":"89839","name":"Walter Grant IV","party":"","address":"730 E 950 S, Apt D411, Orem, UT 84097","precinct":"25OR40","hd":"57","v_score":"2.817000428","decile":"6","lat":40.314641217488,"lng":-111.678508511089},{"id":"90238","name":"Miss Rosaria Schmidt","party":"","address":"730 E 950 S, Apt D335, Orem, UT 84097","precinct":"25OR40","hd":"57","v_score":"4.905839784","decile":"7","lat":40.314641217488,"lng":-111.678508511089},{"id":"90486","name":"Dr. Davin Moore","party":"","address":"962 S 450 E, Orem, UT 84097","precinct":"25OR40","hd":"57","v_score":"0","decile":"1","lat":40.279270621278,"lng":-111.68456580026},{"id":"90992","name":"Vinson Gulgowski","party":"","address":"1009 S 450 E, Orem, UT 84097","precinct":"25OR40","hd":"57","v_score":"0","decile":"1","lat":40.278355157558,"lng":-111.684397411801},{"id":"91041","name":"Dr. Blanchard Stanton III","party":"Dem","address":"730 E 950 S, Apt B348, Orem, UT 84097","precinct":"25OR40","hd":"57","v_score":"2.817000428","decile":"6","lat":40.314641217488,"lng":-111.678508511089},{"id":"91172","name":"Blanchard Swift","party":"Rep","address":"730 E 950 S, Apt D213, Orem, UT 84097","precinct":"25OR40","hd":"57","v_score":"0","decile":"1","lat":40.314641217488,"lng":-111.678508511089},{"id":"91176","name":"Jacquelyn Schimmel","party":"Dem","address":"534 S 750 E, Orem, UT 84097","precinct":"25OR40","hd":"57","v_score":"0","decile":"1","lat":40.283196025576,"lng":-111.680834788426},{"id":"91332","name":"Lovey Spencer-Hansen","party":"Dem","address":"875 S 700 E, Apt 522, Orem, UT 84097","precinct":"25OR40","hd":"57","v_score":"7.549608095","decile":"8","lat":40.281759678022,"lng":-111.678469123099},{"id":"91373","name":"Mr. Selmer Anderson","party":"Rep","address":"730 E 950 S, Apt C238, Orem, UT 84097","precinct":"25OR40","hd":"57","v_score":"0","decile":"1","lat":40.314641217488,"lng":-111.678508511089},{"id":"91405","name":"Rosco Graham-King","party":"","address":"605 S 700 E, Orem, UT 84097","precinct":"25OR40","hd":"57","v_score":"1.193887297","decile":"4","lat":40.310403293061,"lng":-111.681251162527},{"id":"92056","name":"Lanita Stanton","party":"Dem","address":"629 S 700 E, Orem, UT 84097","precinct":"25OR40","hd":"57","v_score":"0","decile":"1","lat":40.310403293024,"lng":-111.680767758621},{"id":"92507","name":"Ardis Kirlin DDS","party":"Dem","address":"910 S 500 E, Orem, UT 84097","precinct":"25OR40","hd":"57","v_score":"0","decile":"1","lat":40.28032750418,"lng":-111.683448457757},{"id":"92691","name":"Carter Jakubowski","party":"Dem","address":"527 S 630 E, Orem, UT 84097","precinct":"25OR40","hd":"57","v_score":"2.817000428","decile":"6","lat":40.286692616891,"lng":-111.680202624315},{"id":"92695","name":"Sheila Mills","party":"Rep","address":"730 E 950 S, Apt C341, Orem, UT 84097","precinct":"25OR40","hd":"57","v_score":"2.817000428","decile":"6","lat":40.314641217488,"lng":-111.678508511089},{"id":"92866","name":"Isiah Lind","party":"Rep","address":"987 S 450 E, Orem, UT 84097","precinct":"25OR40","hd":"57","v_score":"0","decile":"1","lat":40.278793817491,"lng":-111.684406115313},{"id":"92914","name":"Corie Greenfelder","party":"","address":"875 S 700 E, Apt 114, Orem, UT 84097","precinct":"25OR40","hd":"57","v_score":"4.499155696","decile":"7","lat":40.281759678022,"lng":-111.678469123099},{"id":"93359","name":"Troy Goyette","party":"","address":"730 E 950 S, Apt C215, Orem, UT 84097","precinct":"25OR40","hd":"57","v_score":"1.193887297","decile":"4","lat":40.314641217488,"lng":-111.678508511089},{"id":"93476","name":"Jessy Parisian II","party":"Dem","address":"845 S 750 E, A106, Orem, UT 84097","precinct":"25OR40","hd":"57","v_score":"1.193887297","decile":"4","lat":40.281901994119,"lng":-111.677275029019},{"id":"93481","name":"Boysie Reilly-Durgan","party":"","address":"657 E 750 S, Orem, UT 84097","precinct":"25OR40","hd":"57","v_score":"9.907118004","decile":"8","lat":40.283311525083,"lng":-111.679859402354},{"id":"93709","name":"Ms. Waneta Wehner PhD","party":"Rep","address":"730 E 950 S, Apt C207, Orem, UT 84097","precinct":"25OR40","hd":"57","v_score":"0","decile":"1","lat":40.314641217488,"lng":-111.678508511089},{"id":"93965","name":"Mrs. Jaleesa Konopelski","party":"Rep","address":"612 S 700 E, Orem, UT 84097","precinct":"25OR40","hd":"57","v_score":"4.069929862","decile":"6","lat":40.310288701665,"lng":-111.681090027906},{"id":"93966","name":"Lular Blick","party":"Rep","address":"612 S 700 E, Orem, UT 84097","precinct":"25OR40","hd":"57","v_score":"1.193887297","decile":"4","lat":40.310288701665,"lng":-111.681090027906},{"id":"93990","name":"Ms. Maci Torp PhD","party":"","address":"875 S 700 E, Apt 318, Orem, UT 84097","precinct":"25OR40","hd":"57","v_score":"2.817000428","decile":"6","lat":40.281759678022,"lng":-111.678469123099},{"id":"94120","name":"Rodrigo Mueller","party":"Rep","address":"730 E 950 S, Apt A408, Orem, UT 84097","precinct":"25OR40","hd":"57","v_score":"0","decile":"1","lat":40.314641217488,"lng":-111.678508511089},{"id":"94271","name":"Mittie Treutel PhD","party":"","address":"845 S 750 E, Apt B326, Orem, UT 84097","precinct":"25OR40","hd":"57","v_score":"1.193887297","decile":"4","lat":40.281901994119,"lng":-111.677275029019},{"id":"94397","name":"Arjun Baumbach Sr.","party":"Dem","address":"875 S 700 E, Apt 307, Orem, UT 84097","precinct":"25OR40","hd":"57","v_score":"0","decile":"1","lat":40.281759678022,"lng":-111.678469123099},{"id":"94442","name":"Miss Marlana Hegmann DDS","party":"","address":"730 E 950 S, Apt A235, Orem, UT 84097","precinct":"25OR40","hd":"57","v_score":"0","decile":"1","lat":40.314641217488,"lng":-111.678508511089},{"id":"94489","name":"Janyce Gulgowski-Lind","party":"Dem","address":"533 S 670 E, Orem, UT 84097","precinct":"25OR40","hd":"57","v_score":"0","decile":"1","lat":40.286626641655,"lng":-111.679311499261},{"id":"94534","name":"Robert Bayer","party":"Dem","address":"730 E 950 S, Apt B225, Orem, UT 84097","precinct":"25OR40","hd":"57","v_score":"1.193887297","decile":"4","lat":40.314641217488,"lng":-111.678508511089},{"id":"94895","name":"Mrs. Dannie Block DVM","party":"Dem","address":"730 E 950 S, Apt D402, Orem, UT 84097","precinct":"25OR40","hd":"57","v_score":"0","decile":"1","lat":40.314641217488,"lng":-111.678508511089},{"id":"94973","name":"Baxter Skiles","party":"Dem","address":"730 E 950 S, Apt D308, Orem, UT 84097","precinct":"25OR40","hd":"57","v_score":"1.193887297","decile":"4","lat":40.314641217488,"lng":-111.678508511089},{"id":"95025","name":"Clora Crist","party":"Dem","address":"730 E 950 S, Apt D312, Orem, UT 84097","precinct":"25OR40","hd":"57","v_score":"0","decile":"1","lat":40.314641217488,"lng":-111.678508511089},{"id":"95337","name":"Addie Lowe DDS","party":"","address":"730 E 950 S, Apt B412, Orem, UT 84097","precinct":"25OR40","hd":"57","v_score":"4.905839784","decile":"7","lat":40.314641217488,"lng":-111.678508511089},{"id":"95340","name":"Lauryn Krajcik","party":"Rep","address":"730 E 950 S, Apt B304, Orem, UT 84097","precinct":"25OR40","hd":"57","v_score":"2.817000428","decile":"6","lat":40.314641217488,"lng":-111.678508511089},{"id":"95645","name":"Darby Rippin","party":"Dem","address":"845 S 750 E, Apt B309, Orem, UT 84097","precinct":"25OR40","hd":"57","v_score":"1.193887297","decile":"4","lat":40.281901994119,"lng":-111.677275029019},{"id":"95954","name":"Regina Greenfelder","party":"","address":"730 E 950 S, Apt B201, Orem, UT 84097","precinct":"25OR40","hd":"57","v_score":"0","decile":"1","lat":40.314641217488,"lng":-111.678508511089},{"id":"95962","name":"Nakisha Mayer","party":"","address":"730 E 950 S, Apt D243, Orem, UT 84097","precinct":"25OR40","hd":"57","v_score":"1.193887297","decile":"4","lat":40.314641217488,"lng":-111.678508511089},{"id":"96865","name":"Olga Simonis","party":"Dem","address":"730 E 950 S, Apt D539, Orem, UT 84097","precinct":"25OR40","hd":"57","v_score":"1.623113131","decile":"5","lat":40.314641217488,"lng":-111.678508511089},{"id":"96985","name":"Gary Schmidt","party":"Dem","address":"730 E 950 S, Apt D438, Orem, UT 84097","precinct":"25OR40","hd":"57","v_score":"0","decile":"1","lat":40.314641217488,"lng":-111.678508511089},{"id":"97149","name":"Ericka Hilll","party":"","address":"730 E 950 S, Apt C217, Orem, UT 84097","precinct":"25OR40","hd":"57","v_score":"2.817000428","decile":"6","lat":40.314641217488,"lng":-111.678508511089},{"id":"97176","name":"Mr. Micheal Koss PhD","party":"Rep","address":"468 E 1010 S, Orem, UT 84097","precinct":"25OR40","hd":"57","v_score":"0","decile":"1","lat":40.278239705552,"lng":-111.684148069695},{"id":"97183","name":"Syed Gleason","party":"","address":"730 E 950 S, Apt D434, Orem, UT 84097","precinct":"25OR40","hd":"57","v_score":"1.623113131","decile":"5","lat":40.314641217488,"lng":-111.678508511089},{"id":"97192","name":"Melony Gislason-Goodwin","party":"Rep","address":"730 E 950 S, Apt D343, Orem, UT 84097","precinct":"25OR40","hd":"57","v_score":"5.693042993","decile":"7","lat":40.314641217488,"lng":-111.678508511089},{"id":"97318","name":"Jerusha O'Keefe","party":"","address":"730 E 950 S, Apt C415, Orem, UT 84097","precinct":"25OR40","hd":"57","v_score":"1.193887297","decile":"4","lat":40.314641217488,"lng":-111.678508511089},{"id":"97630","name":"Jesus Ferry","party":"","address":"956 S 400 E, Orem, UT 84097","precinct":"25OR40","hd":"57","v_score":"2.817000428","decile":"6","lat":40.279895340078,"lng":-111.685686569434},{"id":"97731","name":"Doctor Rau","party":"Dem","address":"730 E 950 S, Apt B429, Orem, UT 84097","precinct":"25OR40","hd":"57","v_score":"0","decile":"1","lat":40.314641217488,"lng":-111.678508511089},{"id":"97834","name":"Long Dicki III","party":"","address":"661 E 445 S, Orem, UT 84097","precinct":"25OR40","hd":"57","v_score":"4.069929862","decile":"6","lat":40.28880329541,"lng":-111.679762152923},{"id":"98057","name":"Kendall Kautzer-Stoltenberg","party":"","address":"730 E 950 S, Apt D301, Orem, UT 84097","precinct":"25OR40","hd":"57","v_score":"18.35167816","decile":"10","lat":40.314641217488,"lng":-111.678508511089},{"id":"98081","name":"Salina Purdy-Satterfield","party":"","address":"865 S 500 E, Orem, UT 84097","precinct":"25OR40","hd":"57","v_score":"2.817000428","decile":"6","lat":40.28119901087,"lng":-111.683317221031},{"id":"98195","name":"Gena Durgan","party":"Dem","address":"730 E 950 S, Apt C208, Orem, UT 84097","precinct":"25OR40","hd":"57","v_score":"5.40460374","decile":"7","lat":40.314641217488,"lng":-111.678508511089},{"id":"98501","name":"Dr. Cedrick Connelly","party":"Dem","address":"987 S 450 E, Orem, UT 84097","precinct":"25OR40","hd":"57","v_score":"0","decile":"1","lat":40.278793817491,"lng":-111.684406115313},{"id":"98841","name":"Santina Heidenreich","party":"Dem","address":"404 E 1010 S, Orem, UT 84097","precinct":"25OR40","hd":"57","v_score":"0","decile":"1","lat":40.278231872937,"lng":-111.685438311308},{"id":"98910","name":"Dr. Vito Fadel","party":"Dem","address":"938 S 400 E, Orem, UT 84097","precinct":"25OR40","hd":"57","v_score":"1.193887297","decile":"4","lat":40.280091923615,"lng":-111.685690065954},{"id":"99135","name":"Jadyn Stiedemann","party":"","address":"730 E 950 S, Apt A219, Orem, UT 84097","precinct":"25OR40","hd":"57","v_score":"1.193887297","decile":"4","lat":40.314641217488,"lng":-111.678508511089},{"id":"99156","name":"Sudie Altenwerth","party":"","address":"730 E 950 S, Apt A336, Orem, UT 84097","precinct":"25OR40","hd":"57","v_score":"0","decile":"1","lat":40.314641217488,"lng":-111.678508511089},{"id":"99263","name":"Dr. Rowan Wolff PhD","party":"Rep","address":"845 S 750 E, Apt B106, Orem, UT 84097","precinct":"25OR40","hd":"57","v_score":"1.193887297","decile":"4","lat":40.281901994119,"lng":-111.677275029019},{"id":"99494","name":"Dr. Keenen Kemmer I","party":"Dem","address":"930 S 500 E, Orem, UT 84097","precinct":"25OR40","hd":"57","v_score":"0","decile":"1","lat":40.279986819883,"lng":-111.683441711579},{"id":"99593","name":"Dr. Amil Littel","party":"","address":"730 E 950 S, Apt A208, Orem, UT 84097","precinct":"25OR40","hd":"57","v_score":"1.193887297","decile":"4","lat":40.314641217488,"lng":-111.678508511089},{"id":"99771","name":"Mr. Dylan Kreiger DDS","party":"Rep","address":"730 E 950 S, Apt D236, Orem, UT 84097","precinct":"25OR40","hd":"57","v_score":"0","decile":"1","lat":40.314641217488,"lng":-111.678508511089},{"id":"99870","name":"Kandace Kuhn-Stamm","party":"","address":"730 E 950 S, Apt D405, Orem, UT 84097","precinct":"25OR40","hd":"57","v_score":"17.26466126","decile":"9","lat":40.314641217488,"lng":-111.678508511089},{"id":"99959","name":"Loren Weber","party":"","address":"956 S 400 E, Orem, UT 84097","precinct":"25OR40","hd":"57","v_score":"1.193887297","decile":"4","lat":40.279895340078,"lng":-111.685686569434},{"id":"100141","name":"Mrs. Ashlea Howell PhD","party":"","address":"711 E 550 S, Orem, UT 84097","precinct":"25OR40","hd":"57","v_score":"0","decile":"1","lat":40.311243976233,"lng":-111.682453806001},{"id":"100651","name":"Miss Terri Walter","party":"","address":"657 S 630 E, Orem, UT 84097","precinct":"25OR40","hd":"57","v_score":"7.781882349","decile":"8","lat":40.285114193916,"lng":-111.680168487464},{"id":"101640","name":"Iyana Weber","party":"","address":"875 S 700 E, Apt 504, Orem, UT 84097","precinct":"25OR40","hd":"57","v_score":"0","decile":"2","lat":40.281759678022,"lng":-111.678469123099},{"id":"101747","name":"Susie Abshire-Stanton","party":"Rep","address":"875 S 700 E, Apt 421, Orem, UT 84097","precinct":"25OR40","hd":"57","v_score":"0","decile":"2","lat":40.281759678022,"lng":-111.678469123099},{"id":"103466","name":"Alva Lakin IV","party":"Rep","address":"529 S 750 E, Orem, UT 84097","precinct":"25OR40","hd":"57","v_score":"0","decile":"2","lat":40.283310897833,"lng":-111.680861746415},{"id":"103639","name":"Dr. Erin Wolff MD","party":"","address":"426 E 900 S, Orem, UT 84097","precinct":"25OR40","hd":"57","v_score":"1.193887297","decile":"4","lat":40.280507705381,"lng":-111.685294423123},{"id":"104111","name":"Arley Mills-Strosin","party":"Dem","address":"730 E 950 S, Apt A408, Orem, UT 84097","precinct":"25OR40","hd":"57","v_score":"0","decile":"2","lat":40.314641217488,"lng":-111.678508511089},{"id":"104664","name":"Carlo Maggio","party":"Rep","address":"730 E 950 S, Apt D239, Orem, UT 84097","precinct":"25OR40","hd":"57","v_score":"0","decile":"2","lat":40.314641217488,"lng":-111.678508511089},{"id":"104770","name":"Everett Price","party":"Rep","address":"845 S 750 E, Apt A202, Orem, UT 84097","precinct":"25OR40","hd":"57","v_score":"1.193887297","decile":"4","lat":40.281901994119,"lng":-111.677275029019},{"id":"104879","name":"Ms. Metha Johns","party":"Dem","address":"525 S 590 E, Orem, UT 84097","precinct":"25OR40","hd":"57","v_score":"4.069929862","decile":"7","lat":40.287336302752,"lng":-111.681098543773},{"id":"105627","name":"Monte Greenfelder","party":"Rep","address":"875 S 700 E, Apt 214, Orem, UT 84097","precinct":"25OR40","hd":"57","v_score":"8.363540363","decile":"8","lat":40.281759678022,"lng":-111.678469123099},{"id":"105735","name":"Luka Mertz-Rau","party":"Dem","address":"730 E 950 S, Orem, UT 84097","precinct":"25OR40","hd":"57","v_score":"0","decile":"2","lat":40.314641217488,"lng":-111.678508511089},{"id":"106273","name":"Kameron Legros","party":"Rep","address":"730 E 950 S, Apt D536, Orem, UT 84097","precinct":"25OR40","hd":"57","v_score":"4.069929862","decile":"7","lat":40.314641217488,"lng":-111.678508511089},{"id":"106295","name":"Ovid Ruecker","party":"Rep","address":"604 E 600 S, Orem, UT 84097","precinct":"25OR40","hd":"57","v_score":"0","decile":"2","lat":40.285913563386,"lng":-111.680981886136},{"id":"106466","name":"Albert Schuster","party":"Rep","address":"875 S 700 E, Apt 206, Orem, UT 84097","precinct":"25OR40","hd":"57","v_score":"0","decile":"2","lat":40.281759678022,"lng":-111.678469123099},{"id":"106603","name":"Jenifer Rodriguez","party":"Dem","address":"533 E 1000 S, Orem, UT 84097","precinct":"25OR40","hd":"57","v_score":"1.193887297","decile":"4","lat":40.278795296762,"lng":-111.682520638107},{"id":"106604","name":"Colin Parisian","party":"","address":"533 E 1000 S, Orem, UT 84097","precinct":"25OR40","hd":"57","v_score":"1.193887297","decile":"4","lat":40.278795296762,"lng":-111.682520638107},{"id":"106621","name":"Nyree Heidenreich","party":"Rep","address":"845 S 550 E, Orem, UT 84097","precinct":"25OR40","hd":"57","v_score":"0","decile":"2","lat":40.281071910048,"lng":-111.682028036763},{"id":"106653","name":"Mr. Storm Rohan III","party":"Dem","address":"575 E 1000 S, Orem, UT 84097","precinct":"25OR40","hd":"57","v_score":"0","decile":"2","lat":40.278795296698,"lng":-111.681683215356},{"id":"106783","name":"Denis DuBuque","party":"Rep","address":"850 S 550 E, Orem, UT 84097","precinct":"25OR40","hd":"57","v_score":"1.193887297","decile":"4","lat":40.281018986501,"lng":-111.682177010953},{"id":"106863","name":"Antione Schinner","party":"Rep","address":"845 S 750 E, Apt B126, Orem, UT 84097","precinct":"25OR40","hd":"57","v_score":"1.193887297","decile":"4","lat":40.281901994119,"lng":-111.677275029019},{"id":"106874","name":"Noreta Franecki-Abernathy","party":"Dem","address":"448 E 1010 S, Orem, UT 84097","precinct":"25OR40","hd":"57","v_score":"1.193887297","decile":"4","lat":40.278237988764,"lng":-111.684682999553},{"id":"106913","name":"Donnell Bartoletti","party":"","address":"924 S 550 E, Orem, UT 84097","precinct":"25OR40","hd":"57","v_score":"1.193887297","decile":"4","lat":40.280076313874,"lng":-111.682152155231},{"id":"107173","name":"Audriana Lemke","party":"","address":"730 E 950 S, Apt A204, Orem, UT 84097","precinct":"25OR40","hd":"57","v_score":"1.193887297","decile":"4","lat":40.314641217488,"lng":-111.678508511089},{"id":"107216","name":"Les Wolff","party":"","address":"1041 S 545 E, Orem, UT 84097","precinct":"25OR40","hd":"57","v_score":"7.090117576","decile":"8","lat":40.277997226687,"lng":-111.68212423359},{"id":"107692","name":"Abram Donnelly-Leuschke","party":"Rep","address":"875 S 700 E, Apt 105, Orem, UT 84097","precinct":"25OR40","hd":"57","v_score":"1.193887297","decile":"4","lat":40.281759678022,"lng":-111.678469123099},{"id":"107853","name":"Leif Schoen PhD","party":"","address":"875 S 700 E, Apt 401, Orem, UT 84097","precinct":"25OR40","hd":"57","v_score":"13.55270877","decile":"9","lat":40.281759678022,"lng":-111.678469123099},{"id":"108028","name":"Reino Howe V","party":"Dem","address":"557 S 700 E, Orem, UT 84097","precinct":"25OR40","hd":"57","v_score":"1.193887297","decile":"4","lat":40.284286052665,"lng":-111.682145578072},{"id":"108091","name":"Dontae Ondricka","party":"Dem","address":"730 E 950 S, D334, Orem, UT 84097","precinct":"25OR40","hd":"57","v_score":"1.193887297","decile":"4","lat":40.314641217488,"lng":-111.678508511089},{"id":"108521","name":"Ms. Birtha Roob","party":"Dem","address":"730 E 950 S, Apt D204, Orem, UT 84097","precinct":"25OR40","hd":"57","v_score":"0","decile":"2","lat":40.314641217488,"lng":-111.678508511089},{"id":"109022","name":"Mickey Jast","party":"","address":"730 E 950 S, Apt A301, Orem, UT 84097","precinct":"25OR40","hd":"57","v_score":"0","decile":"2","lat":40.314641217488,"lng":-111.678508511089},{"id":"109329","name":"Lakeisha Herman","party":"Rep","address":"730 E 950 S, Apt B313, Orem, UT 84097","precinct":"25OR40","hd":"57","v_score":"0","decile":"2","lat":40.314641217488,"lng":-111.678508511089},{"id":"109574","name":"Arvin Fahey-Becker","party":"Dem","address":"963 S 450 E, Orem, UT 84097","precinct":"25OR40","hd":"57","v_score":"1.193887297","decile":"4","lat":40.279272355599,"lng":-111.684415610054},{"id":"109582","name":"Ms. Ericka Johnston DVM","party":"Dem","address":"963 S 450 E, Orem, UT 84097","precinct":"25OR40","hd":"57","v_score":"1.193887297","decile":"4","lat":40.279272355599,"lng":-111.684415610054},{"id":"109727","name":"Cristofer Hand","party":"Rep","address":"845 S 750 E, Apt B419, Orem, UT 84097","precinct":"25OR40","hd":"57","v_score":"1.193887297","decile":"4","lat":40.281901994119,"lng":-111.677275029019},{"id":"109739","name":"Sallie Purdy-Harris","party":"","address":"971 S 400 E, Orem, UT 84097","precinct":"25OR40","hd":"57","v_score":"1.193887297","decile":"4","lat":40.279743996524,"lng":-111.685533656334},{"id":"109801","name":"Jesus Huel","party":"Dem","address":"730 E 950 S, Apt C337, Orem, UT 84097","precinct":"25OR40","hd":"57","v_score":"0","decile":"2","lat":40.314641217488,"lng":-111.678508511089},{"id":"109969","name":"Mrs. Isis Purdy DDS","party":"","address":"730 E 950 S, Apt D527, Orem, UT 84097","precinct":"25OR40","hd":"57","v_score":"1.193887297","decile":"4","lat":40.314641217488,"lng":-111.678508511089},{"id":"110161","name":"Willard Kunze","party":"","address":"711 E 550 S, Orem, UT 84097","precinct":"25OR40","hd":"57","v_score":"0","decile":"2","lat":40.311243976233,"lng":-111.682453806001},{"id":"110250","name":"Mr. Jensen Ortiz II","party":"Rep","address":"730 E 950 S, Apt D515, Orem, UT 84097","precinct":"25OR40","hd":"57","v_score":"1.193887297","decile":"4","lat":40.314641217488,"lng":-111.678508511089},{"id":"110353","name":"Dr. Letta Shanahan","party":"","address":"577 E 900 S, Orem, UT 84097","precinct":"25OR40","hd":"57","v_score":"0","decile":"2","lat":40.280608478878,"lng":-111.681606211628},{"id":"110427","name":"Ms. Margie Bode","party":"","address":"730 E 950 S, Apt D340, Orem, UT 84097","precinct":"25OR40","hd":"57","v_score":"0","decile":"2","lat":40.314641217488,"lng":-111.678508511089},{"id":"110514","name":"Frieda Rempel-Prohaska","party":"Dem","address":"730 E 950 S, Apt A438, Orem, UT 84097","precinct":"25OR40","hd":"57","v_score":"1.193887297","decile":"4","lat":40.314641217488,"lng":-111.678508511089},{"id":"110698","name":"Essie Hamill","party":"Dem","address":"730 E 950 S, Apt D404, Orem, UT 84097","precinct":"25OR40","hd":"57","v_score":"1.193887297","decile":"4","lat":40.314641217488,"lng":-111.678508511089},{"id":"111130","name":"Shania Boyle DVM","party":"Rep","address":"947 S 400 E, Orem, UT 84097","precinct":"25OR40","hd":"57","v_score":"1.193887297","decile":"4","lat":40.280006107907,"lng":-111.68553831836},{"id":"111249","name":"Dalia Boyer-Gusikowski","party":"","address":"892 S 550 E, Orem, UT 84097","precinct":"25OR40","hd":"57","v_score":"1.193887297","decile":"4","lat":40.28066308904,"lng":-111.682168537251},{"id":"111325","name":"Hall Walter","party":"Dem","address":"951 S 450 E, Orem, UT 84097","precinct":"25OR40","hd":"57","v_score":"0","decile":"2","lat":40.279511624653,"lng":-111.684420357424},{"id":"111419","name":"Zella Miller","party":"Dem","address":"730 E 950 S, Apt D509, Orem, UT 84097","precinct":"25OR40","hd":"57","v_score":"0","decile":"2","lat":40.314641217488,"lng":-111.678508511089},{"id":"111765","name":"Ansley Abernathy","party":"Dem","address":"415 E 900 S, Orem, UT 84097","precinct":"25OR40","hd":"57","v_score":"0","decile":"2","lat":40.280622296766,"lng":-111.685309067889},{"id":"111880","name":"Kurt Beahan","party":"Rep","address":"730 E 950 S, Apt B212, Orem, UT 84097","precinct":"25OR40","hd":"57","v_score":"1.193887297","decile":"4","lat":40.314641217488,"lng":-111.678508511089},{"id":"112120","name":"Cyril Reinger","party":"Rep","address":"845 S 750 E, Apt B418, Orem, UT 84097","precinct":"25OR40","hd":"57","v_score":"1.193887297","decile":"4","lat":40.281901994119,"lng":-111.677275029019},{"id":"112122","name":"Dr. Horatio Bartoletti","party":"","address":"845 S 750 E, Apt B418, Orem, UT 84097","precinct":"25OR40","hd":"57","v_score":"1.193887297","decile":"4","lat":40.281901994119,"lng":-111.677275029019},{"id":"112348","name":"Dr. Yasmin Romaguera","party":"","address":"875 S 750 E, Orem, UT 84097","precinct":"25OR40","hd":"57","v_score":"0","decile":"2","lat":40.281643629325,"lng":-111.677273704106},{"id":"112723","name":"Alene Graham-Schuster","party":"Dem","address":"730 E 950 S, Apt D211, Orem, UT 84097","precinct":"25OR40","hd":"57","v_score":"0","decile":"2","lat":40.314641217488,"lng":-111.678508511089},{"id":"113108","name":"Dr. Amina O'Kon DDS","party":"Rep","address":"730 E 950 S, Apt B307, Orem, UT 84097","precinct":"25OR40","hd":"57","v_score":"4.069929862","decile":"7","lat":40.314641217488,"lng":-111.678508511089},{"id":"113128","name":"Andreas Russel","party":"","address":"875 S 700 E, Apt 307, Orem, UT 84097","precinct":"25OR40","hd":"57","v_score":"1.193887297","decile":"4","lat":40.281759678022,"lng":-111.678469123099},{"id":"113130","name":"Joanne Bosco MD","party":"Rep","address":"845 S 750 E, Apt B216, Orem, UT 84097","precinct":"25OR40","hd":"57","v_score":"0","decile":"2","lat":40.281901994119,"lng":-111.677275029019},{"id":"113560","name":"Reno Medhurst","party":"Rep","address":"845 S 750 E, Apt A214, Orem, UT 84097","precinct":"25OR40","hd":"57","v_score":"0","decile":"2","lat":40.281901994119,"lng":-111.677275029019},{"id":"113605","name":"Dr. Primus Schmeler","party":"","address":"950 S 450 E, Orem, UT 84097","precinct":"25OR40","hd":"57","v_score":"1.193887297","decile":"4","lat":40.279509890332,"lng":-111.684570547631},{"id":"113695","name":"Tatia Oberbrunner DDS","party":"","address":"730 E 950 S, Orem, UT 84097","precinct":"25OR40","hd":"57","v_score":"1.193887297","decile":"4","lat":40.314641217488,"lng":-111.678508511089},{"id":"114006","name":"Jo Bruen-Lueilwitz","party":"","address":"730 E 950 S, Apt B338, Orem, UT 84097","precinct":"25OR40","hd":"57","v_score":"1.193887297","decile":"4","lat":40.314641217488,"lng":-111.678508511089},{"id":"114171","name":"Renae Conn","party":"Dem","address":"447 E 900 S, Orem, UT 84097","precinct":"25OR40","hd":"57","v_score":"0","decile":"2","lat":40.280622296725,"lng":-111.684762329396},{"id":"114178","name":"Cory Ferry I","party":"Rep","address":"730 E 950 S, Apt A201, Orem, UT 84097","precinct":"25OR40","hd":"57","v_score":"4.069929862","decile":"7","lat":40.314641217488,"lng":-111.678508511089},{"id":"114224","name":"Dr. Beckett Watsica","party":"Dem","address":"847 S 500 E, Orem, UT 84097","precinct":"25OR40","hd":"57","v_score":"0","decile":"2","lat":40.281508578781,"lng":-111.683324186268},{"id":"114281","name":"Loree Witting","party":"","address":"971 S 450 E, Orem, UT 84097","precinct":"25OR40","hd":"57","v_score":"3.93832808","decile":"6","lat":40.279112842896,"lng":-111.68441244514},{"id":"114375","name":"Virgie Hand","party":"Dem","address":"730 E 950 S, Apt D232, Orem, UT 84097","precinct":"25OR40","hd":"57","v_score":"4.069929862","decile":"7","lat":40.314641217488,"lng":-111.678508511089},{"id":"114469","name":"Wylie Hintz","party":"Dem","address":"730 E 950 S, Apt D415, Orem, UT 84097","precinct":"25OR40","hd":"57","v_score":"1.193887297","decile":"4","lat":40.314641217488,"lng":-111.678508511089},{"id":"114577","name":"Ty Olson","party":"Rep","address":"845 S 750 E, Apt A421, Orem, UT 84097","precinct":"25OR40","hd":"57","v_score":"1.193887297","decile":"4","lat":40.281901994119,"lng":-111.677275029019},{"id":"114670","name":"Enrico Parker","party":"","address":"733 E 575 S, Orem, UT 84097","precinct":"25OR40","hd":"57","v_score":"0","decile":"2","lat":40.286370510591,"lng":-111.677101338581},{"id":"114906","name":"Lynsey Ziemann","party":"Dem","address":"730 E 950 S, Apt D535, Orem, UT 84097","precinct":"25OR40","hd":"57","v_score":"0","decile":"2","lat":40.314641217488,"lng":-111.678508511089},{"id":"115154","name":"Rashaan Pacocha-O'Kon","party":"","address":"730 E 950 S, Apt C236, Orem, UT 84097","precinct":"25OR40","hd":"57","v_score":"1.193887297","decile":"4","lat":40.314641217488,"lng":-111.678508511089},{"id":"115247","name":"Codie Abernathy","party":"Dem","address":"466 E 1010 S, Orem, UT 84097","precinct":"25OR40","hd":"57","v_score":"1.193887297","decile":"4","lat":40.278239705556,"lng":-111.684197709565},