[{"vid":"d4c837dfef7ab73a74ce2911d8e806b45d358fe25dfc82edc6c9e7835c7ff93b","name":"Esco Wehner-Kirlin","party":"Rep","address":"380 E 1200 N, Orem, UT 84057","precinct":"25OR13","hd":"58","v_score":"3.93832808","decile":"6","lat":40.31901795250439,"lng":-111.68704812536974},{"vid":"811017","name":"Joselyn Runolfsdottir","party":"","address":"160 E 1200 N, Orem, UT 84057","precinct":"25OR13","hd":"58","v_score":"36.49741484","decile":"10","lat":40.31898900501892,"lng":-111.6923985030597},{"vid":"1023919","name":"Patric Yost","party":"Rep","address":"883 N 235 E, Orem, UT 84057","precinct":"25OR13","hd":"58","v_score":"3.781490609","decile":"6","lat":40.313579728168975,"lng":-111.69012404540292},{"vid":"1221979","name":"Marchello Gutmann","party":"","address":"1036 N 250 E, Orem, UT 84057","precinct":"25OR13","hd":"58","v_score":"3.781490609","decile":"6","lat":40.316416549622126,"lng":-111.68964263723772},{"vid":"1231863","name":"Hope Bernier","party":"","address":"836 N 235 E, Orem, UT 84057","precinct":"25OR13","hd":"58","v_score":"1.193887297","decile":"3","lat":40.31239009855953,"lng":-111.68990133173763},{"vid":"1250621","name":"Corrine Harvey","party":"Dem","address":"259 E 1090 N, Orem, UT 84057","precinct":"25OR13","hd":"58","v_score":"13.75326469","decile":"9","lat":40.31731034031496,"lng":-111.68979745828366},{"vid":"1256960","name":"Bjorn Trantow","party":"Dem","address":"358 E 1200 N, Orem, UT 84057","precinct":"25OR13","hd":"58","v_score":"0","decile":"1","lat":40.31907512429625,"lng":-111.6874523376032},{"vid":"1320873","name":"Dillon Roberts-Murray","party":"Rep","address":"965 N 350 E, Orem, UT 84057","precinct":"25OR13","hd":"58","v_score":"14.95117867","decile":"9","lat":40.314997078837045,"lng":-111.68784732440817},{"vid":"1343944","name":"Mr. Landan Franecki I","party":"Rep","address":"883 N 350 E, Orem, UT 84057","precinct":"25OR13","hd":"58","v_score":"4.465184987","decile":"7","lat":40.31336941275435,"lng":-111.68795293726998},{"vid":"1346522","name":"Admiral Ondricka","party":"Rep","address":"349 E 1040 N, Orem, UT 84057","precinct":"25OR13","hd":"58","v_score":"20.05083686","decile":"10","lat":40.316592325812074,"lng":-111.68757998407281},{"vid":"1ceb42a844abb4eae20e786be134712e442bf6fcc251086da355f2109abb92cf","name":"Dr. Izora Russel DVM","party":"Rep","address":"997 N 400 E, Orem, UT 84097","precinct":"25OR13","hd":"58","v_score":"3.93832808","decile":"6","lat":40.31545953088368,"lng":-111.68649870339942},{"vid":"1373991","name":"Cayla Schuppe","party":"Rep","address":"856 N 350 E, Orem, UT 84057","precinct":"25OR13","hd":"58","v_score":"8.280646305","decile":"8","lat":40.31267168446589,"lng":-111.68716685210758},{"vid":"1375747","name":"Mr. Madden Koepp","party":"Dem","address":"967 N 250 E, Orem, UT 84057","precinct":"25OR13","hd":"58","v_score":"12.05946382","decile":"9","lat":40.31510148561373,"lng":-111.69020828440192},{"vid":"1378618","name":"Marlene Kutch","party":"Dem","address":"891 N 235 E, Orem, UT 84057","precinct":"25OR13","hd":"58","v_score":"0","decile":"1","lat":40.31318724637212,"lng":-111.68973230638066},{"vid":"1379072","name":"Taraji McKenzie","party":"","address":"1050 N 200 E, Orem, UT 84057","precinct":"25OR13","hd":"58","v_score":"3.93832808","decile":"6","lat":40.31644710619873,"lng":-111.69084318926186},{"vid":"c830674dfd91b559a98aab8cdcc77783d241aaf45b5ee08086c6e3c07e3d1afa","name":"Samual Rodriguez","party":"","address":"151 E 1060 N, Orem, UT 84057","precinct":"25OR13","hd":"58","v_score":"14.63972567","decile":"9","lat":40.31683327735491,"lng":-111.69246694311694},{"vid":"1393832","name":"Jenniffer McCullough","party":"Dem","address":"1118 N 520 E, Orem, UT 84097","precinct":"25OR13","hd":"58","v_score":"5.40460374","decile":"7","lat":40.3177875322349,"lng":-111.68333942540704},{"vid":"1393936","name":"Adele Kling","party":"","address":"1118 N 520 E, Orem, UT 84097","precinct":"25OR13","hd":"58","v_score":"5.40460374","decile":"7","lat":40.3177875322349,"lng":-111.68333942540704},{"vid":"1394204","name":"Roby Trantow-Durgan","party":"Rep","address":"957 N 200 E, Orem, UT 84057","precinct":"25OR13","hd":"58","v_score":"26.9144526","decile":"10","lat":40.31483653415223,"lng":-111.69142840079611},{"vid":"1394486","name":"Winfred Rau","party":"","address":"146 E 1020 N, Orem, UT 84057","precinct":"25OR13","hd":"58","v_score":"5.40460374","decile":"7","lat":40.31581002224845,"lng":-111.69232258472825},{"vid":"1395447","name":"Hannah O'Conner","party":"","address":"491 E 1090 N, Orem, UT 84097","precinct":"25OR13","hd":"58","v_score":"18.27911851","decile":"10","lat":40.31744468201869,"lng":-111.68438009733612},{"vid":"1398640","name":"Keyshawn Littel","party":"Dem","address":"867 N 235 E, Orem, UT 84057","precinct":"25OR13","hd":"58","v_score":"9.207031979","decile":"8","lat":40.31317080673556,"lng":-111.69046712052763},{"vid":"1413060","name":"Glynis Gleason","party":"Rep","address":"376 E 1090 N, Orem, UT 84057","precinct":"25OR13","hd":"58","v_score":"1.121327652","decile":"3","lat":40.31689022534854,"lng":-111.68696030480993},{"vid":"1413999","name":"Brittny Emmerich","party":"Dem","address":"1114 N 140 E, Orem, UT 84057","precinct":"25OR13","hd":"58","v_score":"21.24900695","decile":"10","lat":40.317559114474044,"lng":-111.69228244684504},{"vid":"1425513","name":"Gilmore Moore-Reichel","party":"Rep","address":"587 E 950 N, Orem, UT 84097","precinct":"25OR13","hd":"58","v_score":"1.193887297","decile":"3","lat":40.3148998748184,"lng":-111.68168268156201},{"vid":"1429653","name":"Irvine Streich","party":"Rep","address":"1169 N 200 E, Orem, UT 84057","precinct":"25OR13","hd":"58","v_score":"28.6662113","decile":"10","lat":40.31855460127322,"lng":-111.69154678662333},{"vid":"1430864","name":"Ritchie Wilkinson-Fahey","party":"","address":"872 N 200 E, Orem, UT 84057","precinct":"25OR13","hd":"58","v_score":"0","decile":"1","lat":40.313332739271395,"lng":-111.69082772494392},{"vid":"1439319","name":"Dr. Eduardo Lakin DVM","party":"Rep","address":"1192 N 475 E, Orem, UT 84097","precinct":"25OR13","hd":"58","v_score":"2.817000428","decile":"6","lat":40.31912923058849,"lng":-111.68447878737244},{"vid":"1443508","name":"Andon Labadie","party":"","address":"291 E 1090 N, Orem, UT 84057","precinct":"25OR13","hd":"58","v_score":"2.315214949","decile":"5","lat":40.31731002181737,"lng":-111.68894060150755},{"vid":"1453379","name":"Shawnte Bosco","party":"Dem","address":"1007 N 475 E, Orem, UT 84097","precinct":"25OR13","hd":"58","v_score":"6.528952915","decile":"7","lat":40.31580165189969,"lng":-111.68473887531687},{"vid":"1461543","name":"Roena Davis","party":"Dem","address":"305 E 1090 N, Orem, UT 84057","precinct":"25OR13","hd":"58","v_score":"2.587603312","decile":"5","lat":40.31728252323229,"lng":-111.68863573396138},{"vid":"1469949","name":"Robbin Rau","party":"Rep","address":"957 N Garden Dr, Orem, UT 84057","precinct":"25OR13","hd":"58","v_score":"7.47704845","decile":"8","lat":40.314716700269805,"lng":-111.6925187254925},{"vid":"1484833","name":"Dr. Calhoun Becker DDS","party":"Rep","address":"142 E 1020 N, Orem, UT 84057","precinct":"25OR13","hd":"58","v_score":"1.121327652","decile":"3","lat":40.315852279859904,"lng":-111.69261674820405},{"vid":"1484980","name":"Denzell Purdy","party":"Dem","address":"326 E 1000 N, Orem, UT 84057","precinct":"25OR13","hd":"58","v_score":"8.280646305","decile":"8","lat":40.31537871509788,"lng":-111.68822105060563},{"vid":"1489447","name":"Lesly Sauer","party":"Rep","address":"835 N 235 E, Orem, UT 84057","precinct":"25OR13","hd":"58","v_score":"17.26130269","decile":"9","lat":40.312385920457054,"lng":-111.69046299902715},{"vid":"1495900","name":"Eli Larkin PhD","party":"Rep","address":"1170 N 520 E, Orem, UT 84097","precinct":"25OR13","hd":"58","v_score":"9.405332525","decile":"8","lat":40.3187433105462,"lng":-111.68333906115235},{"vid":"1508268","name":"Katelyn Hills","party":"Dem","address":"199 E 865 N, Orem, UT 84057","precinct":"25OR13","hd":"58","v_score":"19.49429204","decile":"10","lat":40.31320522530643,"lng":-111.69129350841101},{"vid":"7c39e8902de6463a27278c189facce6d29182f735c1fdc7af63aec2ba27043bd","name":"Mozelle Howell","party":"","address":"1162 N 140 E, Orem, UT 84057","precinct":"25OR13","hd":"58","v_score":"26.58953925","decile":"10","lat":40.31843303448062,"lng":-111.6921032613785},{"vid":"1545790","name":"Stephany Aufderhar DDS","party":"Rep","address":"1035 N 250 E, Orem, UT 84057","precinct":"25OR13","hd":"58","v_score":"14.45484031","decile":"9","lat":40.31641342405771,"lng":-111.69031473355676},{"vid":"1548843","name":"Hoyt Hackett","party":"Rep","address":"1046 N 200 E, Orem, UT 84057","precinct":"25OR13","hd":"58","v_score":"3.93832808","decile":"6","lat":40.316271240587,"lng":-111.6908400158733},{"vid":"1553418","name":"Clemence Sanford","party":"","address":"334 E 1040 N, Orem, UT 84057","precinct":"25OR13","hd":"58","v_score":"6.52928996","decile":"7","lat":40.31615537996766,"lng":-111.68788423609338},{"vid":"1554272","name":"Devonta Leannon","party":"Dem","address":"980 N 200 E, Orem, UT 84057","precinct":"25OR13","hd":"58","v_score":"19.30937315","decile":"10","lat":40.31524836365141,"lng":-111.69078170931243},{"vid":"1557763","name":"Jimmy Wehner IV","party":"","address":"1021 N 560 E, Orem, UT 84097","precinct":"25OR13","hd":"58","v_score":"0","decile":"1","lat":40.31604984414439,"lng":-111.68273804636578},{"vid":"1558337","name":"Bryana Hartmann-Jacobs","party":"","address":"1000 N 560 E, Orem, UT 84097","precinct":"25OR13","hd":"58","v_score":"14.58356067","decile":"9","lat":40.31561179584242,"lng":-111.68214074683156},{"vid":"1560522","name":"Belinda Hand","party":"","address":"274 E 1165 N, Orem, UT 84057","precinct":"25OR13","hd":"58","v_score":"2.315214949","decile":"5","lat":40.318317729296176,"lng":-111.68923068925204},{"vid":"1565951","name":"Maximiliano Runolfsson","party":"Dem","address":"1128 N 475 E, Orem, UT 84097","precinct":"25OR13","hd":"58","v_score":"2.315214949","decile":"5","lat":40.31796077939178,"lng":-111.68428521064737},{"vid":"1577816","name":"Noelia Haag","party":"Rep","address":"853 N 235 E, Orem, UT 84057","precinct":"25OR13","hd":"58","v_score":"0","decile":"1","lat":40.31284697776217,"lng":-111.69046294138528},{"vid":"1584850","name":"Edie Homenick DDS","party":"Dem","address":"1170 N 520 E, Orem, UT 84097","precinct":"25OR13","hd":"58","v_score":"12.49472132","decile":"9","lat":40.3187433105462,"lng":-111.68333906115235},{"vid":"1589518","name":"Verlie Schaden","party":"Rep","address":"1065 N 250 E, Orem, UT 84057","precinct":"25OR13","hd":"58","v_score":"8.280646305","decile":"8","lat":40.31663045484547,"lng":-111.69011153178798},{"vid":"1593692","name":"Margret Will-Hegmann","party":"","address":"893 N 235 E, Orem, UT 84057","precinct":"25OR13","hd":"58","v_score":"2.315214949","decile":"5","lat":40.31327424240326,"lng":-111.68943375142929},{"vid":"15a771454bd5927870b0981e689d6cda17a1124940424921f40074c42facd143","name":"Hurley Gaylord","party":"Dem","address":"334 E 1040 N, Orem, UT 84057","precinct":"25OR13","hd":"58","v_score":"6.52928996","decile":"7","lat":40.31615537996766,"lng":-111.68788423609338},{"vid":"1607439","name":"Dr. Kelan Orn","party":"Rep","address":"589 E 1050 N, Orem, UT 84097","precinct":"25OR13","hd":"58","v_score":"4.064235245","decile":"6","lat":40.316815527445875,"lng":-111.68172622278296},{"vid":"1613279","name":"Kaeden Purdy","party":"","address":"264 E 1090 N, Orem, UT 84057","precinct":"25OR13","hd":"58","v_score":"5.40460374","decile":"7","lat":40.31689822386539,"lng":-111.68952248217856},{"vid":"1613294","name":"Karyme Simonis-Bartoletti","party":"Dem","address":"1049 N 140 E, Orem, UT 84057","precinct":"25OR13","hd":"58","v_score":"2.958579882","decile":"6","lat":40.31618501421412,"lng":-111.69299432648228},{"vid":"1614451","name":"Anona Parisian","party":"","address":"999 N 600 E, Orem, UT 84097","precinct":"25OR13","hd":"58","v_score":"18.35167816","decile":"10","lat":40.315612460114956,"lng":-111.68175079750921},{"vid":"1626203","name":"Joselyn Bartell","party":"Rep","address":"1029 N 520 E, Orem, UT 84097","precinct":"25OR13","hd":"58","v_score":"6.814370645","decile":"8","lat":40.31618458654625,"lng":-111.68367939019686},{"vid":"1628050","name":"Adelaide Marquardt","party":"","address":"305 E 1090 N, Orem, UT 84057","precinct":"25OR13","hd":"58","v_score":"2.587603312","decile":"5","lat":40.31728252323229,"lng":-111.68863573396138},{"vid":"1628250","name":"Leandro Will","party":"Dem","address":"587 E 950 N, Orem, UT 84097","precinct":"25OR13","hd":"58","v_score":"2.315214949","decile":"5","lat":40.3148998748184,"lng":-111.68168268156201},{"vid":"1629586","name":"Salvatore Welch","party":"","address":"1152 N 475 E, Orem, UT 84097","precinct":"25OR13","hd":"58","v_score":"16.95363675","decile":"9","lat":40.31825200798688,"lng":-111.68447953006063},{"vid":"1629963","name":"Geraldine Anderson","party":"Dem","address":"936 N Garden Dr, Orem, UT 84057","precinct":"25OR13","hd":"58","v_score":"0","decile":"1","lat":40.31445847626122,"lng":-111.69179252472189},{"vid":"1631467","name":"Christophe Heidenreich Sr.","party":"","address":"933 N Garden Dr, Orem, UT 84057","precinct":"25OR13","hd":"58","v_score":"14.24189593","decile":"9","lat":40.31434158973247,"lng":-111.69239691268234},{"vid":"1637454","name":"Ilona Jakubowski","party":"Rep","address":"957 N Garden Dr, Orem, UT 84057","precinct":"25OR13","hd":"58","v_score":"2.744440783","decile":"5","lat":40.314716700269805,"lng":-111.6925187254925},{"vid":"1651927","name":"Ms. Savilla Ratke","party":"Rep","address":"882 N 350 E, Orem, UT 84057","precinct":"25OR13","hd":"58","v_score":"11.50568204","decile":"9","lat":40.313308684364465,"lng":-111.68719476273351},{"vid":"1661713","name":"Presley Emard","party":"Dem","address":"1022 N 560 E, Orem, UT 84097","precinct":"25OR13","hd":"58","v_score":"2.315214949","decile":"5","lat":40.3160508496566,"lng":-111.6821465397075},{"vid":"1671975","name":"Imani Kuhn","party":"Dem","address":"375 E 900 N, Orem, UT 84057","precinct":"25OR13","hd":"58","v_score":"0","decile":"1","lat":40.314006888293456,"lng":-111.68702014177066},{"vid":"1678154","name":"Kit Wolff","party":"","address":"347 E 1090 N, Orem, UT 84057","precinct":"25OR13","hd":"58","v_score":"15.53273099","decile":"9","lat":40.317309514823975,"lng":-111.68759550588295},{"vid":"aa0c5d52d8108518a09f25ce0871635bd0b3946ecb80557e9ce14ff2042397b2","name":"Lorri Willms PhD","party":"","address":"258 E 1140 N, Orem, UT 84057","precinct":"25OR13","hd":"58","v_score":"11.04986408","decile":"9","lat":40.31761674991467,"lng":-111.68960976662383},{"vid":"54372e4e6da1dcbd12f7aa9acec868a5d55d998b1b4b942cf068e1717000b8a6","name":"Miss Latifah Oberbrunner","party":"Rep","address":"366 E 1040 N, Orem, UT 84057","precinct":"25OR13","hd":"58","v_score":"27.37702365","decile":"10","lat":40.3161570304298,"lng":-111.68728250427152},{"vid":"1687069","name":"Mr. Matteo Prohaska","party":"Dem","address":"1023 N 250 E, Orem, UT 84057","precinct":"25OR13","hd":"58","v_score":"1.193887297","decile":"3","lat":40.316161743315526,"lng":-111.69020989117996},{"vid":"1688295","name":"Anders Koss","party":"","address":"344 E 1165 N, Orem, UT 84057","precinct":"25OR13","hd":"58","v_score":"2.315214949","decile":"5","lat":40.31838404536217,"lng":-111.68768304850401},{"vid":"1691521","name":"Charleen Dietrich-Wisozk","party":"Dem","address":"347 E 1090 N, Orem, UT 84057","precinct":"25OR13","hd":"58","v_score":"18.21927925","decile":"10","lat":40.317309514823975,"lng":-111.68759550588295},{"vid":"1691820","name":"Cordaro Hoppe-Mills","party":"Dem","address":"142 E 1020 N, Orem, UT 84057","precinct":"25OR13","hd":"58","v_score":"6.45639327","decile":"7","lat":40.315852279859904,"lng":-111.69261674820405},{"vid":"1691830","name":"Mr. Ewell Adams","party":"Rep","address":"882 N 300 E, Orem, UT 84057","precinct":"25OR13","hd":"58","v_score":"0","decile":"1","lat":40.31317669287282,"lng":-111.68822617072045},{"vid":"1692202","name":"Vernelle Reynolds-Cummerata","party":"","address":"276 E 1200 N, Orem, UT 84057","precinct":"25OR13","hd":"58","v_score":"35.30276996","decile":"10","lat":40.31902349997537,"lng":-111.68924407450909},{"vid":"58baa5b421e848c70ed8e75e199f75409aa7f0acb884e4d5375c6c5622c013d0","name":"Almus Huels","party":"Dem","address":"1162 N 140 E, Orem, UT 84057","precinct":"25OR13","hd":"58","v_score":"9.509645007","decile":"8","lat":40.31843303448062,"lng":-111.6921032613785},{"vid":"1700030","name":"Azzie Hilpert-Mohr","party":"Dem","address":"1114 N 200 E, Orem, UT 84057","precinct":"25OR13","hd":"58","v_score":"1.193887297","decile":"3","lat":40.317328882214476,"lng":-111.69072523076328},{"vid":"0c083aaa10a9e49247c67688be0998c665a79944cde0c3a6d41276386fdce619","name":"Dr. Makenzie Crona DDS","party":"","address":"920 N 275 E, Orem, UT 84057","precinct":"25OR13","hd":"58","v_score":"0","decile":"1","lat":40.31387986114938,"lng":-111.68902596589372},{"vid":"a1b51354e2969b4bf24b1da6008e2e2d39e246f7b067548dbb240fe2bb0ecc42","name":"Harlow Strosin-Becker","party":"Rep","address":"1092 N 140 E, Orem, UT 84057","precinct":"25OR13","hd":"58","v_score":"14.52230958","decile":"9","lat":40.31729685599951,"lng":-111.69232501885102},{"vid":"1710654","name":"Byron Klein V","party":"Rep","address":"325 E 900 N, Orem, UT 84057","precinct":"25OR13","hd":"58","v_score":"3.93832808","decile":"6","lat":40.31400383234789,"lng":-111.6881888328873},{"vid":"1714620","name":"Mavis Ruecker","party":"","address":"887 N 275 E, Orem, UT 84057","precinct":"25OR13","hd":"58","v_score":"3.93832808","decile":"6","lat":40.313714489557505,"lng":-111.68960354273621},{"vid":"1715746","name":"Aryanna Macejkovic","party":"","address":"169 E 1130 N, Orem, UT 84057","precinct":"25OR13","hd":"58","v_score":"6.881235673","decile":"8","lat":40.318043503372174,"lng":-111.69178402615024},{"vid":"1731601","name":"Mrs. Bird Ratke","party":"Dem","address":"916 N 350 E, Orem, UT 84057","precinct":"25OR13","hd":"58","v_score":"3.93832808","decile":"6","lat":40.31400625647291,"lng":-111.68726604012868},{"vid":"92e4100243d1d1af7cd88eb33b05fe33d3ee86fc55623e70549836754134f5c2","name":"Demarion Hickle Jr.","party":"Dem","address":"156 E 1020 N, Orem, UT 84057","precinct":"25OR13","hd":"58","v_score":"45.09250101","decile":"10","lat":40.3157906436913,"lng":-111.69199002885922},{"vid":"1739214","name":"Georgine Spinka","party":"Rep","address":"1143 N 200 E, Orem, UT 84057","precinct":"25OR13","hd":"58","v_score":"0","decile":"1","lat":40.318044319470545,"lng":-111.69156992672598},{"vid":"1739933","name":"Alvia Bins","party":"Dem","address":"291 E 1090 N, Orem, UT 84057","precinct":"25OR13","hd":"58","v_score":"2.744440783","decile":"5","lat":40.31731002181737,"lng":-111.68894060150755},{"vid":"dadf2ae475e72698fccb258b6259d4731ef8c73f350b55c208d07d3a8a5c9b8e","name":"Arjun Hilll","party":"","address":"298 E 1165 N, Orem, UT 84057","precinct":"25OR13","hd":"58","v_score":"13.91847152","decile":"9","lat":40.3183813076963,"lng":-111.68865107556945},{"vid":"1753626","name":"Emil Rempel-Ward","party":"","address":"1051 N 140 E, Orem, UT 84057","precinct":"25OR13","hd":"58","v_score":"18.35167816","decile":"10","lat":40.316400317124454,"lng":-111.69298146961427},{"vid":"1753637","name":"Rowena Welch MD","party":"Rep","address":"1051 N 140 E, Orem, UT 84057","precinct":"25OR13","hd":"58","v_score":"18.35167816","decile":"10","lat":40.316400317124454,"lng":-111.69298146961427},{"vid":"1755642","name":"Felice Rolfson","party":"","address":"856 N 275 E, Orem, UT 84057","precinct":"25OR13","hd":"58","v_score":"3.93832808","decile":"6","lat":40.31290638358581,"lng":-111.68896823152974},{"vid":"1759658","name":"Alferd Hackett","party":"","address":"848 N 200 E, Orem, UT 84057","precinct":"25OR13","hd":"58","v_score":"18.1905579","decile":"10","lat":40.312693344197136,"lng":-111.69081947248073},{"vid":"1760363","name":"Jessi Trantow","party":"Dem","address":"990 N 350 E, Orem, UT 84057","precinct":"25OR13","hd":"58","v_score":"3.93832808","decile":"6","lat":40.31550979631213,"lng":-111.68734811131745},{"vid":"eb0034c0d3fca835c9c664f13def566b27af4bcebf1362ee2dc975b4d479db0a","name":"Lawyer Larkin","party":"Rep","address":"225 E 905 N, Orem, UT 84057","precinct":"25OR13","hd":"58","v_score":"1.121327652","decile":"3","lat":40.313981538476305,"lng":-111.69050390114863},{"vid":"1764825","name":"Johnna Stokes MD","party":"Rep","address":"1169 N 200 E, Orem, UT 84057","precinct":"25OR13","hd":"58","v_score":"10.36948566","decile":"9","lat":40.31855460127322,"lng":-111.69154678662333},{"vid":"1771769","name":"Ruth Predovic","party":"","address":"385 E 1000 N, Orem, UT 84057","precinct":"25OR13","hd":"58","v_score":"3.343857335","decile":"6","lat":40.31575165692047,"lng":-111.68651971198334},{"vid":"a4aa12d2b7c3cb4757e6c00b68c9d367cf7e54058dced7595deb207d53b0e132","name":"Davonta Goodwin","party":"Rep","address":"450 E 1200 N, Orem, UT 84097","precinct":"25OR13","hd":"58","v_score":"2.587603312","decile":"5","lat":40.31846285725448,"lng":-111.68553918714977},{"vid":"1781273","name":"Young Kuhn","party":"Rep","address":"587 E 950 N, Orem, UT 84097","precinct":"25OR13","hd":"58","v_score":"2.958579882","decile":"6","lat":40.3148998748184,"lng":-111.68168268156201},{"vid":"1781432","name":"Kylene Brown","party":"Rep","address":"1165 N 475 E, Orem, UT 84097","precinct":"25OR13","hd":"58","v_score":"2.587603312","decile":"5","lat":40.318383182099026,"lng":-111.68484655295636},{"vid":"1787610","name":"Dr. Oley Swaniawski Jr.","party":"Rep","address":"1163 N 600 E, Orem, UT 84097","precinct":"25OR13","hd":"58","v_score":"22.57788051","decile":"10","lat":40.31858302289522,"lng":-111.68176947258564},{"vid":"1795216","name":"Sharon Farrell I","party":"Rep","address":"835 N 350 E, Orem, UT 84057","precinct":"25OR13","hd":"58","v_score":"4.210716443","decile":"7","lat":40.31277691636581,"lng":-111.68784273787983},{"vid":"1795435","name":"Dr. Florian Jaskolski PhD","party":"Dem","address":"889 N 235 E, Orem, UT 84057","precinct":"25OR13","hd":"58","v_score":"13.76678889","decile":"9","lat":40.3136437073681,"lng":-111.689861850182},{"vid":"1795636","name":"Deeann Williamson","party":"Rep","address":"891 N 235 E, Orem, UT 84057","precinct":"25OR13","hd":"58","v_score":"2.587603312","decile":"5","lat":40.31318724637212,"lng":-111.68973230638066},{"vid":"1799273","name":"Nikia Effertz","party":"","address":"870 N 235 E, Orem, UT 84057","precinct":"25OR13","hd":"58","v_score":"12.56158634","decile":"9","lat":40.313269913389284,"lng":-111.6900109779743},{"vid":"20fb9780aa6306aeec772ba0eeb238d521ed6d78573748fdfc534d0ba51c9499","name":"Ima Brown","party":"","address":"879 N 275 E, Orem, UT 84057","precinct":"25OR13","hd":"58","v_score":"0","decile":"1","lat":40.313515364044726,"lng":-111.6894715925711},{"vid":"1805775","name":"Dr. Robin Ryan","party":"","address":"1065 N 250 E, Orem, UT 84057","precinct":"25OR13","hd":"58","v_score":"16.72856503","decile":"9","lat":40.31663045484547,"lng":-111.69011153178798},{"vid":"1812333","name":"Camilo Ledner","party":"Dem","address":"458 E 1200 N, Orem, UT 84097","precinct":"25OR13","hd":"58","v_score":"2.315214949","decile":"5","lat":40.31870334851999,"lng":-111.68512291126923},{"vid":"1815018","name":"Arnav McGlynn","party":"","address":"1046 N 200 E, Orem, UT 84057","precinct":"25OR13","hd":"58","v_score":"5.604194564","decile":"7","lat":40.316271240587,"lng":-111.6908400158733},{"vid":"1817856","name":"Minerva Hegmann PhD","party":"Dem","address":"847 N 350 E, Orem, UT 84057","precinct":"25OR13","hd":"58","v_score":"8.363183621","decile":"8","lat":40.3129967917537,"lng":-111.68779262419389},{"vid":"1819094","name":"Geovanni Rempel","party":"","address":"182 E 910 N, Orem, UT 84057","precinct":"25OR13","hd":"58","v_score":"0","decile":"1","lat":40.31367457099644,"lng":-111.69162489244232},{"vid":"1819244","name":"Ingram Emard","party":"","address":"1162 N 140 E, Orem, UT 84057","precinct":"25OR13","hd":"58","v_score":"21.68369947","decile":"10","lat":40.31843303448062,"lng":-111.6921032613785},{"vid":"1833359","name":"Vara Mayert-Crooks","party":"Rep","address":"856 N 275 E, Orem, UT 84057","precinct":"25OR13","hd":"58","v_score":"3.93832808","decile":"6","lat":40.31290638358581,"lng":-111.68896823152974},{"vid":"1836570","name":"Miss Cher Rempel","party":"","address":"841 N 235 E, Orem, UT 84057","precinct":"25OR13","hd":"58","v_score":"0","decile":"1","lat":40.31254513183679,"lng":-111.69045909030764},{"vid":"1841378","name":"Dr. Karim Mueller","party":"Dem","address":"386 E 900 N, Orem, UT 84057","precinct":"25OR13","hd":"58","v_score":"3.781490609","decile":"6","lat":40.31349047386292,"lng":-111.68678478675947},{"vid":"1844374","name":"Fleming Okuneva","party":"Rep","address":"972 N 475 E, Orem, UT 84097","precinct":"25OR13","hd":"58","v_score":"2.744440783","decile":"5","lat":40.31513845445111,"lng":-111.68413102930458},{"vid":"1846334","name":"Renea Erdman","party":"Rep","address":"1165 N 140 E, Orem, UT 84057","precinct":"25OR13","hd":"58","v_score":"2.587603312","decile":"5","lat":40.318549911728034,"lng":-111.6926840346339},{"vid":"1847031","name":"Dr. Aletha Ward DDS","party":"","address":"198 E 910 N, Orem, UT 84057","precinct":"25OR13","hd":"58","v_score":"2.315214949","decile":"5","lat":40.31376275111936,"lng":-111.69122069478742},{"vid":"1853947","name":"Benjiman Nader","party":"","address":"1145 N 140 E, Orem, UT 84057","precinct":"25OR13","hd":"58","v_score":"18.36165583","decile":"10","lat":40.31805296287542,"lng":-111.69270162317306},{"vid":"aa124286f274760993852c57c8dc68fb485ec3f53e2f6d83578d7ad849b07619","name":"Brenda Okuneva MD","party":"Rep","address":"197 E 980 N, Orem, UT 84057","precinct":"25OR13","hd":"58","v_score":"6.724398202","decile":"8","lat":40.3154501695453,"lng":-111.69131259393231},{"vid":"1858731","name":"Mr. Mickey Jacobs Sr.","party":"Rep","address":"198 E 865 N, Orem, UT 84057","precinct":"25OR13","hd":"58","v_score":"6.724398202","decile":"8","lat":40.31273161243847,"lng":-111.69139618339221},{"vid":"1858794","name":"Carlton Cummings-Gibson","party":"Dem","address":"872 N 350 E, Orem, UT 84057","precinct":"25OR13","hd":"58","v_score":"9.600440767","decile":"8","lat":40.31302925813041,"lng":-111.68716836882311},{"vid":"1859087","name":"Jaimee VonRueden","party":"Dem","address":"276 E 1090 N, Orem, UT 84057","precinct":"25OR13","hd":"58","v_score":"6.299555799","decile":"7","lat":40.316870798493085,"lng":-111.68926454537767},{"vid":"1870967","name":"Miss Selma Macejkovic","party":"","address":"880 N 275 E, Orem, UT 84057","precinct":"25OR13","hd":"58","v_score":"18.81608303","decile":"10","lat":40.31355291508521,"lng":-111.68897652908836},{"vid":"1874690","name":"Mr. Chris Quitzon III","party":"","address":"199 E 910 N, Orem, UT 84057","precinct":"25OR13","hd":"58","v_score":"5.258122542","decile":"7","lat":40.31400873948889,"lng":-111.69123013796764},{"vid":"1875223","name":"Luverne Schimmel","party":"Rep","address":"577 E 1090 N, Orem, UT 84097","precinct":"25OR13","hd":"58","v_score":"28.10869664","decile":"10","lat":40.31755591342417,"lng":-111.68228079594519},{"vid":"1877406","name":"Tolbert Kunze DVM","party":"","address":"186 E 865 N, Orem, UT 84057","precinct":"25OR13","hd":"58","v_score":"1.193887297","decile":"3","lat":40.31302416601234,"lng":-111.69172634565462},{"vid":"f0fd1458531919e75932b6650876acbd1d16e6c8b45ac45b9bdab730f7b2bdcb","name":"Braydon Glover","party":"Dem","address":"587 E 950 N, Orem, UT 84097","precinct":"25OR13","hd":"58","v_score":"2.587603312","decile":"5","lat":40.3148998748184,"lng":-111.68168268156201},{"vid":"1895504","name":"Toby Heidenreich","party":"Rep","address":"944 N Garden Dr, Orem, UT 84057","precinct":"25OR13","hd":"58","v_score":"0","decile":"1","lat":40.314636589043126,"lng":-111.69181679181096},{"vid":"45dedde4a6254e47b4f223338920dd8bb9f08a9634d958dd507e6c68d06f43a0","name":"Mr. Savon Skiles I","party":"Rep","address":"1075 N 200 E, Orem, UT 84057","precinct":"25OR13","hd":"58","v_score":"3.781490609","decile":"6","lat":40.31682913528369,"lng":-111.69142558040697},{"vid":"1da91b29b942a2bb9d8ffe5a1ff2658b8a52434e6b21bebf6e62fb3890cea3f2","name":"Shaylee Franecki","party":"Rep","address":"1023 N 250 E, Orem, UT 84057","precinct":"25OR13","hd":"58","v_score":"5.40460374","decile":"7","lat":40.316161743315526,"lng":-111.69020989117996},{"vid":"ed7d71fd6d3a257ac1593973ff288ca7135b4d46128547466a6fd3bf2c87e394","name":"Miss Maudie Dicki","party":"Dem","address":"867 N 235 E, Orem, UT 84057","precinct":"25OR13","hd":"58","v_score":"5.273794831","decile":"7","lat":40.31317080673556,"lng":-111.69046712052763},{"vid":"1937631","name":"Brenden O'Keefe","party":"","address":"865 N 350 E, Orem, UT 84057","precinct":"25OR13","hd":"58","v_score":"1.121327652","decile":"3","lat":40.31318476751039,"lng":-111.6877432573673},{"vid":"1941634","name":"Dr. Precious Daniel","party":"Dem","address":"1007 N 475 E, Orem, UT 84097","precinct":"25OR13","hd":"58","v_score":"3.93832808","decile":"6","lat":40.31580165189969,"lng":-111.68473887531687},{"vid":"1943755","name":"Valentino Jaskolski","party":"Rep","address":"880 N 350 E, Orem, UT 84057","precinct":"25OR13","hd":"58","v_score":"2.315214949","decile":"5","lat":40.31326979840229,"lng":-111.6872176001538},{"vid":"1947317","name":"Dr. Caitlin Bernier MD","party":"","address":"1032 N 475 E, Orem, UT 84097","precinct":"25OR13","hd":"58","v_score":"3.781490609","decile":"6","lat":40.316275813163806,"lng":-111.68411177043012},{"vid":"1951079","name":"Vernita Bayer DDS","party":"","address":"343 E 1140 N, Orem, UT 84057","precinct":"25OR13","hd":"58","v_score":"1.121327652","decile":"3","lat":40.31807498088154,"lng":-111.68767720316646},{"vid":"bb5d3ff216c5e08eb8902f4049bdcf0074cf43046529a34203490668d7371318","name":"Mr. Donald Mayer","party":"","address":"343 E 1140 N, Orem, UT 84057","precinct":"25OR13","hd":"58","v_score":"0","decile":"1","lat":40.31807498088154,"lng":-111.68767720316646},{"vid":"ed237d3f06a4f95ebfe8ef93596229571090dedf0b6564a911aaeae375989b67","name":"Dr. Jaylon Funk IV","party":"","address":"1117 N 520 E, Orem, UT 84097","precinct":"25OR13","hd":"58","v_score":"2.660162957","decile":"5","lat":40.31778926228141,"lng":-111.68384619311574},{"vid":"1968464","name":"Roel Lockman","party":"Rep","address":"1024 N 250 E, Orem, UT 84057","precinct":"25OR13","hd":"58","v_score":"8.091152","decile":"8","lat":40.31616789967009,"lng":-111.68963826567621},{"vid":"1968661","name":"Kerwin Herzog III","party":"Dem","address":"311 E 1000 N, Orem, UT 84057","precinct":"25OR13","hd":"58","v_score":"0","decile":"1","lat":40.3158074265033,"lng":-111.68853261423907},{"vid":"1969433","name":"Algot Gleichner-Klocko","party":"","address":"326 E 1090 N, Orem, UT 84057","precinct":"25OR13","hd":"58","v_score":"1.121327652","decile":"3","lat":40.3168886349055,"lng":-111.68820797724365},{"vid":"c2d49c06bc0afc9c18c01ef00861e4c607794128f6c7c077214021036b8e462a","name":"Nash Marquardt-Kreiger","party":"","address":"856 N 275 E, Orem, UT 84057","precinct":"25OR13","hd":"58","v_score":"2.315214949","decile":"5","lat":40.31290638358581,"lng":-111.68896823152974},{"vid":"26b90abc750e72fa1e47d3ec0effd6b351dacc053d3501e3cd90e09e122c86c9","name":"Fran Rice","party":"Dem","address":"273 E 1140 N, Orem, UT 84057","precinct":"25OR13","hd":"58","v_score":"2.744440783","decile":"5","lat":40.31807087100771,"lng":-111.68929053088401},{"vid":"1971937","name":"Porsche Goldner","party":"","address":"505 E 950 N, Orem, UT 84097","precinct":"25OR13","hd":"58","v_score":"9.61867875","decile":"8","lat":40.31489379062207,"lng":-111.68378388860931},{"vid":"1973400","name":"Mr. Beryl Beatty MD","party":"Dem","address":"386 E 1165 N, Orem, UT 84057","precinct":"25OR13","hd":"58","v_score":"11.2494549","decile":"9","lat":40.31843569511654,"lng":-111.68660942393655},{"vid":"1988696","name":"Virgle Denesik","party":"","address":"1128 N 475 E, Orem, UT 84097","precinct":"25OR13","hd":"58","v_score":"2.315214949","decile":"5","lat":40.31796077939178,"lng":-111.68428521064737},{"vid":"1988858","name":"Marcia Nolan-Sanford","party":"","address":"315 E 900 N, Orem, UT 84057","precinct":"25OR13","hd":"58","v_score":"2.315214949","decile":"5","lat":40.31384155496502,"lng":-111.68843679530063},{"vid":"a17aee5c0b0f60a54169e1d440d2b1703a86932a0fd414a198b19c5969a1336e","name":"Arba Rosenbaum MD","party":"Rep","address":"385 E 900 N, Orem, UT 84057","precinct":"25OR13","hd":"58","v_score":"12.63270431","decile":"9","lat":40.31400750860642,"lng":-111.68678711375537},{"vid":"1994424","name":"Easton Wilderman-Hilpert","party":"Dem","address":"279 E 1090 N, Orem, UT 84057","precinct":"25OR13","hd":"58","v_score":"1.46627566","decile":"4","lat":40.31731011031175,"lng":-111.68922454657212},{"vid":"1996469","name":"Dr. Vela Skiles","party":"","address":"1077 N 250 E, Orem, UT 84057","precinct":"25OR13","hd":"58","v_score":"2.315214949","decile":"5","lat":40.316870360596205,"lng":-111.69025804575467},{"vid":"2016352","name":"Rolland Shields PhD","party":"","address":"987 N 600 E, Orem, UT 84097","precinct":"25OR13","hd":"58","v_score":"31.15555998","decile":"10","lat":40.315392919262194,"lng":-111.6817479200257},{"vid":"2017523","name":"Francesca Kiehn MD","party":"Dem","address":"492 E 1200 N, Orem, UT 84097","precinct":"25OR13","hd":"58","v_score":"2.315214949","decile":"5","lat":40.31906805171105,"lng":-111.68413858229668},{"vid":"2021608","name":"Tyrek Conn-Wyman","party":"","address":"1035 N 600 E, Orem, UT 84097","precinct":"25OR13","hd":"58","v_score":"23.75314872","decile":"10","lat":40.31627105537608,"lng":-111.681759501286},{"vid":"5390ffdede96950a390b05b1353e7ea20db05889ede6c5af8fe7012eb552dade","name":"Dorathea Bode","party":"Rep","address":"966 N 350 E, Orem, UT 84057","precinct":"25OR13","hd":"58","v_score":"11.02844566","decile":"9","lat":40.31480562883818,"lng":-111.68717643353841},{"vid":"2045305","name":"Mr. Robb Heidenreich","party":"Dem","address":"197 E 980 N, Orem, UT 84057","precinct":"25OR13","hd":"58","v_score":"0","decile":"1","lat":40.3154501695453,"lng":-111.69131259393231},{"vid":"2054057","name":"Lera Larson","party":"Rep","address":"587 E 950 N, Orem, UT 84097","precinct":"25OR13","hd":"58","v_score":"6.324725604","decile":"7","lat":40.3148998748184,"lng":-111.68168268156201},{"vid":"74dad8cec974ed0512328520b2fdfbd42aec9e16c0989485610e8cbca872ba13","name":"Gwyn Vandervort DVM","party":"Dem","address":"181 E 910 N, Orem, UT 84057","precinct":"25OR13","hd":"58","v_score":"0","decile":"1","lat":40.314027426769734,"lng":-111.6917958494266},{"vid":"2055915","name":"Dr. Patric Casper","party":"","address":"349 E 1000 N, Orem, UT 84057","precinct":"25OR13","hd":"58","v_score":"9.61867875","decile":"8","lat":40.31586054072231,"lng":-111.68750988206332},{"vid":"2056160","name":"Tomie Swift","party":"Dem","address":"492 E 1200 N, Orem, UT 84097","precinct":"25OR13","hd":"58","v_score":"2.315214949","decile":"5","lat":40.31906805171105,"lng":-111.68413858229668},{"vid":"2056431","name":"Ms. Lakendra Lindgren DVM","party":"","address":"864 N 350 E, Orem, UT 84057","precinct":"25OR13","hd":"58","v_score":"5.687348376","decile":"7","lat":40.3129351406502,"lng":-111.68716803051758},{"vid":"2069597","name":"Lem Cronin","party":"Dem","address":"574 E 1050 N, Orem, UT 84097","precinct":"25OR13","hd":"58","v_score":"5.191257514","decile":"7","lat":40.31652441635823,"lng":-111.68225473509403},{"vid":"2072618","name":"Miss Natalee Tillman","party":"Rep","address":"1043 N 520 E, Orem, UT 84097","precinct":"25OR13","hd":"58","v_score":"0","decile":"1","lat":40.316500130594044,"lng":-111.68371720756876},{"vid":"2074223","name":"Sammie Reynolds","party":"Dem","address":"1017 N 520 E, Orem, UT 84097","precinct":"25OR13","hd":"58","v_score":"14.06645533","decile":"9","lat":40.31597400963102,"lng":-111.6837221603199},{"vid":"2074518","name":"Ms. Leafy Rohan","party":"","address":"854 N 200 E, Orem, UT 84057","precinct":"25OR13","hd":"58","v_score":"4.064235245","decile":"6","lat":40.312844282340926,"lng":-111.6908214349403},{"vid":"2084983","name":"Mrs. Journey Nolan MD","party":"","address":"384 E 1140 N, Orem, UT 84057","precinct":"25OR13","hd":"58","v_score":"8.958408171","decile":"8","lat":40.317672225386794,"lng":-111.68659779118533},{"vid":"2091298","name":"Dr. Nathen Paucek I","party":"","address":"865 N 350 E, Orem, UT 84057","precinct":"25OR13","hd":"58","v_score":"12.03607147","decile":"9","lat":40.31318476751039,"lng":-111.6877432573673},{"vid":"8e28fff60e775537038f504085793f4d1cf07ff080d5f9d7ce663add4e98c21f","name":"Ezekiel Armstrong","party":"Dem","address":"371 E 1140 N, Orem, UT 84057","precinct":"25OR13","hd":"58","v_score":"5.273794831","decile":"7","lat":40.31801414124372,"lng":-111.6869661846428},{"vid":"ea6154b63ea2ccf8109eb057f6ef5b962f02f8fdaf9bc2b9e6eae7033bbdeae5","name":"Boston Abshire","party":"Rep","address":"336 E 1000 N, Orem, UT 84057","precinct":"25OR13","hd":"58","v_score":"1.121327652","decile":"3","lat":40.31537932854861,"lng":-111.68798801773947},{"vid":"6f44b330abd3fa79da63636fdd65947c839ca21196af88cae9ded7bc5e4d4594","name":"Orene Hackett","party":"Rep","address":"190 E 980 N, Orem, UT 84057","precinct":"25OR13","hd":"58","v_score":"2.587603312","decile":"5","lat":40.31512320485756,"lng":-111.69127992777442},{"vid":"2118149","name":"Oma Wolf DVM","party":"","address":"533 E 950 N, Orem, UT 84097","precinct":"25OR13","hd":"58","v_score":"11.09531068","decile":"9","lat":40.31491690340596,"lng":-111.68329323353683},{"vid":"a1e4c4365861daaf5a80c6e8e84eb367ae38f16256817275748d8623d0e81287","name":"Cherrelle Mraz","party":"Rep","address":"222 E 1140 N, Orem, UT 84057","precinct":"25OR13","hd":"58","v_score":"23.63610586","decile":"10","lat":40.317676267912375,"lng":-111.69053427137679},{"vid":"3c8d5969d0aa68cb0bbd566e79557f38b5e587e304120550a627fa52b83c6df0","name":"Thad Emard","party":"","address":"151 E 1060 N, Orem, UT 84057","precinct":"25OR13","hd":"58","v_score":"9.750280533","decile":"8","lat":40.31683327735491,"lng":-111.69246694311694},{"vid":"2120432","name":"Sydnee Rodriguez","party":"","address":"190 E 980 N, Orem, UT 84057","precinct":"25OR13","hd":"58","v_score":"1.46627566","decile":"4","lat":40.31512320485756,"lng":-111.69127992777442},{"vid":"2123697","name":"Lashawn Bartell","party":"Rep","address":"1025 N 200 E, Orem, UT 84057","precinct":"25OR13","hd":"58","v_score":"0","decile":"1","lat":40.31583684142031,"lng":-111.69130324492808},{"vid":"2127146","name":"Halley Moore","party":"Dem","address":"1145 N 200 E, Orem, UT 84057","precinct":"25OR13","hd":"58","v_score":"3.781490609","decile":"6","lat":40.318225618502844,"lng":-111.6915674514681},{"vid":"80fce990282c8a3f47abdf4a9a48ffcb47203eb0451d8161885a34b0f30562aa","name":"Rayburn Koch-Von","party":"","address":"937 N 200 E, Orem, UT 84057","precinct":"25OR13","hd":"58","v_score":"0","decile":"1","lat":40.31446266087967,"lng":-111.69139662621673},{"vid":"4b919c102dc7f019a31f5edb6d9951fdd52d8675830aeb672fe22452dd91b611","name":"Attilio Boyer","party":"Dem","address":"889 N 235 E, Orem, UT 84057","precinct":"25OR13","hd":"58","v_score":"6.657533174","decile":"7","lat":40.3136437073681,"lng":-111.689861850182},{"vid":"ab69e9078a064f3ba462e8357e5c2c1ab731a53c28cd0d7a012d191429839aec","name":"Sharita Bahringer","party":"","address":"386 E 900 N, Orem, UT 84057","precinct":"25OR13","hd":"58","v_score":"2.315214949","decile":"5","lat":40.31349047386292,"lng":-111.68678478675947},{"vid":"3ec61480f328b93ca93f182db81ef14852466e592a9b9fad173bcb058eb4b965","name":"Charisse Klein","party":"Dem","address":"1075 N 200 E, Orem, UT 84057","precinct":"25OR13","hd":"58","v_score":"3.781490609","decile":"6","lat":40.31682913528369,"lng":-111.69142558040697},{"vid":"2166420","name":"Mrs. Jamey Zulauf","party":"Dem","address":"395 E 900 N, Orem, UT 84057","precinct":"25OR13","hd":"58","v_score":"2.587603312","decile":"5","lat":40.31384956568342,"lng":-111.68650802278104},{"vid":"2169202","name":"Ms. Kaela Lynch DDS","party":"Rep","address":"1092 N 140 E, Orem, UT 84057","precinct":"25OR13","hd":"58","v_score":"13.92577445","decile":"9","lat":40.31729685599951,"lng":-111.69232501885102},{"vid":"2169248","name":"Cinda Grant","party":"","address":"168 E 1020 N, Orem, UT 84057","precinct":"25OR13","hd":"58","v_score":"9.600440767","decile":"8","lat":40.31572341490704,"lng":-111.6917264689041},{"vid":"4b9c1950a77298bcf9c2fb21533051091891aa8b2b90c8eddbd31cbe826d708e","name":"Orrin Turner","party":"","address":"1177 N 600 E, Orem, UT 84097","precinct":"25OR13","hd":"58","v_score":"13.64956069","decile":"9","lat":40.318841398252474,"lng":-111.68177069573174},{"vid":"51c5f146a736219e4be792f4ec049a93be2b226ddf802d6b88cb44c78ddc593b","name":"Domenico Harris-Miller","party":"Rep","address":"300 E 1200 N, Orem, UT 84057","precinct":"25OR13","hd":"58","v_score":"5.243007221","decile":"7","lat":40.31908047286089,"lng":-111.68867150020476},{"vid":"6e602131a537fd3b9a03fbb021392c900df001e0719299e78d4e32b946472301","name":"Genaro Dooley","party":"Rep","address":"326 E 1090 N, Orem, UT 84057","precinct":"25OR13","hd":"58","v_score":"1.121327652","decile":"3","lat":40.3168886349055,"lng":-111.68820797724365},{"vid":"96bec6191155e95811717c91b1aa0bb6280d82df4cece5fa7f8e629af7d08dd6","name":"Rhianna Hessel","party":"Rep","address":"836 N 200 E, Orem, UT 84057","precinct":"25OR13","hd":"58","v_score":"2.315214949","decile":"5","lat":40.312383395922694,"lng":-111.69079759571878},{"vid":"3024bbd2746df2ad3a674f194ef694012b8de8dda472abb1191582357280100f","name":"Rylee Roob","party":"Rep","address":"955 N 250 E, Orem, UT 84057","precinct":"25OR13","hd":"58","v_score":"1.121327652","decile":"3","lat":40.31482315747974,"lng":-111.6903344412338},{"vid":"2178919","name":"Elianna Leannon DDS","party":"Rep","address":"848 N 200 E, Orem, UT 84057","precinct":"25OR13","hd":"58","v_score":"0","decile":"1","lat":40.312693344197136,"lng":-111.69081947248073},{"vid":"683d331a2201e783f56325b773f76244c077f36195eb9eb8501bad87e5ef0589","name":"Mrs. Michelle D'Amore PhD","party":"","address":"859 N 235 E, Orem, UT 84057","precinct":"25OR13","hd":"58","v_score":"0","decile":"1","lat":40.31300615017525,"lng":-111.69046501397827},{"vid":"01bd520707c94819db3450abf5c302985e9fde5b4fb0f3c14af9d0eacc50ba2d","name":"Dennis Smitham","party":"Dem","address":"296 E 1140 N, Orem, UT 84057","precinct":"25OR13","hd":"58","v_score":"7.650280567","decile":"8","lat":40.317617400468706,"lng":-111.68863656238771},{"vid":"4bb6458b5fc36d74f5abc463424c1cfc4a0a559f2b349051bc8252d92b93b2cf","name":"Esther Kuphal","party":"Dem","address":"848 N 235 E, Orem, UT 84057","precinct":"25OR13","hd":"58","v_score":"1.121327652","decile":"3","lat":40.312700047214214,"lng":-111.6899232407491},{"vid":"86e095fd440aac8c7d4b6d37b2e571dac64a40623964b2c1a6201786f981c820","name":"Demetrius Ernser","party":"","address":"237 E 1000 N, Orem, UT 84057","precinct":"25OR13","hd":"58","v_score":"13.46923073","decile":"9","lat":40.31577502168906,"lng":-111.69007365642425},{"vid":"2194216","name":"Ronaldo Farrell","party":"Rep","address":"383 E 1090 N, Orem, UT 84057","precinct":"25OR13","hd":"58","v_score":"2.315214949","decile":"5","lat":40.317219555337296,"lng":-111.68655222576098},{"vid":"66aadfe5abc285763181663f6f1d5bd7e57c668a9bf97aa15279c12796424501","name":"Mrs. Ashlyn Kovacek DVM","party":"Rep","address":"945 N 400 E, Orem, UT 84097","precinct":"25OR13","hd":"58","v_score":"2.315214949","decile":"5","lat":40.314244625830234,"lng":-111.68661521429857},{"vid":"2204311","name":"Shiloh Wehner-Schaden","party":"Dem","address":"300 E 1200 N, Orem, UT 84057","precinct":"25OR13","hd":"58","v_score":"10.83254138","decile":"9","lat":40.31908047286089,"lng":-111.68867150020476},{"vid":"02bfc524d6fea159d07e17cf82eb09b8fc880b0492e466a4a854adc9f44806cd","name":"Pleas Kuhn-Yost","party":"Dem","address":"1075 N 140 E, Orem, UT 84057","precinct":"25OR13","hd":"58","v_score":"0","decile":"1","lat":40.316810845155686,"lng":-111.6928522506495},{"vid":"5fa264dc4b918a4bc35d4dd01d30251d5e531a2108f6050fb91f712b8d47fba8","name":"Dr. Emma Hagenes Sr.","party":"Rep","address":"547 E 1090 N, Orem, UT 84097","precinct":"25OR13","hd":"58","v_score":"2.315214949","decile":"5","lat":40.3175548316073,"lng":-111.68270039606428},{"vid":"2222734","name":"Mellissa Hilll","party":"Dem","address":"975 N 600 E, Orem, UT 84097","precinct":"25OR13","hd":"58","v_score":"2.315214949","decile":"5","lat":40.315173405368114,"lng":-111.68174500750787},{"vid":"922c0813adda1ce75879e67d3e4aa6d557c02ca15e43a74aa3f5f98c5be68364","name":"Dr. Layne Gaylord","party":"","address":"1075 N 140 E, Orem, UT 84057","precinct":"25OR13","hd":"58","v_score":"6.881235673","decile":"8","lat":40.316810845155686,"lng":-111.6928522506495},{"vid":"539acc672e3f652c70ae29cd84a6f466709fbe7b6e78f23fba00f590b8a4abab","name":"Dr. Whitney Anderson","party":"Dem","address":"836 N 235 E, Orem, UT 84057","precinct":"25OR13","hd":"58","v_score":"0","decile":"1","lat":40.31239009855953,"lng":-111.68990133173763},{"vid":"2231016","name":"Dr. Aron Shanahan","party":"Dem","address":"1077 N 250 E, Orem, UT 84057","precinct":"25OR13","hd":"58","v_score":"0","decile":"1","lat":40.316870360596205,"lng":-111.69025804575467},{"vid":"2235029","name":"Dr. Zana Konopelski","party":"Rep","address":"247 E 1090 N, Orem, UT 84057","precinct":"25OR13","hd":"58","v_score":"2.315214949","decile":"5","lat":40.31722915937841,"lng":-111.69005808818497},{"vid":"2236245","name":"Fabian Vandervort","party":"Rep","address":"1165 N 140 E, Orem, UT 84057","precinct":"25OR13","hd":"58","v_score":"1.121327652","decile":"3","lat":40.318549911728034,"lng":-111.6926840346339},{"vid":"e37b3123f464c1e261b4dbfa4c5b3b9f3bc97f8bb971a73415974fd9e97a78d9","name":"Alto Runte PhD","party":"Dem","address":"578 E 1090 N, Orem, UT 84097","precinct":"25OR13","hd":"58","v_score":"1.193887297","decile":"3","lat":40.31715026460807,"lng":-111.68205685999438},{"vid":"b39361b98da0591af69a87e9d20a036dbc52a1028f02bfd5b5d57eb0771fe73f","name":"Bartholomew Gibson","party":"Dem","address":"414 E 1200 N, Orem, UT 84097","precinct":"25OR13","hd":"58","v_score":"0","decile":"1","lat":40.31910423973355,"lng":-111.68610684468368},{"vid":"2247430","name":"Dr. Corey D'Amore IV","party":"","address":"270 E 1140 N, Orem, UT 84057","precinct":"25OR13","hd":"58","v_score":"0","decile":"1","lat":40.31761696895784,"lng":-111.68928386807957},{"vid":"101e2ad305f55d2c8ab578d2eb59f0ca8474135a519c704c4ce4adf7097a94fb","name":"Micheal Hauck","party":"Dem","address":"161 E 1060 N, Orem, UT 84057","precinct":"25OR13","hd":"58","v_score":"12.38288823","decile":"9","lat":40.316778090739156,"lng":-111.69210696476267},{"vid":"c74008f82c5b8d774311ae01696a83cc676627364e07ac43ea1a2134e96d8ecb","name":"Marrion Doyle MD","party":"","address":"883 N 235 E, Orem, UT 84057","precinct":"25OR13","hd":"58","v_score":"1.121327652","decile":"3","lat":40.313579728168975,"lng":-111.69012404540292},{"vid":"c3494e68cf488ee0e4f6303b8c68f2b6960ca40cc3d7bcd4b52a2d44acdfc7e6","name":"Dr. Autry Senger","party":"","address":"365 E 1040 N, Orem, UT 84057","precinct":"25OR13","hd":"58","v_score":"1.121327652","decile":"3","lat":40.31659313802383,"lng":-111.68727882998238},{"vid":"2272328","name":"Dafne Kuhic","party":"Dem","address":"1032 N 475 E, Orem, UT 84097","precinct":"25OR13","hd":"58","v_score":"2.315214949","decile":"5","lat":40.316275813163806,"lng":-111.68411177043012},{"vid":"9dc80b41cb77b2f5897579bbd4bf80edd556a543f41a7eeb6220f6f1795ef0e3","name":"Minna Johnston","party":"Rep","address":"1049 N 140 E, Orem, UT 84057","precinct":"25OR13","hd":"58","v_score":"0","decile":"1","lat":40.31618501421412,"lng":-111.69299432648228},{"vid":"a20635b0d5fa9ea98cf7cad20aa343e751853ba6c9f2992ee69e612437a92d69","name":"Cornelious Oberbrunner-Tillman","party":"Dem","address":"886 N 350 E, Orem, UT 84057","precinct":"25OR13","hd":"58","v_score":"14.4898859","decile":"9","lat":40.313400813076306,"lng":-111.68722025183081},{"vid":"2295130","name":"Lavar Walker","party":"Dem","address":"975 N 400 E, Orem, UT 84097","precinct":"25OR13","hd":"58","v_score":"2.744440783","decile":"5","lat":40.31486764156271,"lng":-111.68671269839524},{"vid":"2297924","name":"Dr. Roscoe Kutch","party":"","address":"198 E 910 N, Orem, UT 84057","precinct":"25OR13","hd":"58","v_score":"5.818950158","decile":"7","lat":40.31376275111936,"lng":-111.69122069478742},{"vid":"2299664","name":"General Schmitt","party":"Dem","address":"937 N 200 E, Orem, UT 84057","precinct":"25OR13","hd":"58","v_score":"0","decile":"1","lat":40.31446266087967,"lng":-111.69139662621673},{"vid":"2300904","name":"Teddie Schinner","party":"","address":"151 E 1060 N, Orem, UT 84057","precinct":"25OR13","hd":"58","v_score":"17.75698939","decile":"10","lat":40.31683327735491,"lng":-111.69246694311694},{"vid":"8d88e11b41abb662a338f953ab49918c3a987144b400ed23297df0d3aef0710e","name":"Verna Turcotte","party":"Rep","address":"924 N 200 E, Orem, UT 84057","precinct":"25OR13","hd":"58","v_score":"5.693042993","decile":"7","lat":40.31420979143825,"lng":-111.69039864651043},{"vid":"c3f27c6771b6cb5c227e93285c657af82a9c4b8ccd3862c524824c60690527fe","name":"Berenice Walsh-Ebert","party":"Dem","address":"222 E 1140 N, Orem, UT 84057","precinct":"25OR13","hd":"58","v_score":"19.47429609","decile":"10","lat":40.317676267912375,"lng":-111.69053427137679},{"vid":"91e04f8ffa76cd287536afa435c401e78053c861eb68593820fa7cc610644fa2","name":"Demetra Rempel DVM","party":"Rep","address":"984 N 475 E, Orem, UT 84097","precinct":"25OR13","hd":"58","v_score":"1.121327652","decile":"3","lat":40.31537337183385,"lng":-111.68409983780877},{"vid":"2314992","name":"Niko Hoppe II","party":"Dem","address":"987 N 600 E, Orem, UT 84097","precinct":"25OR13","hd":"58","v_score":"0","decile":"1","lat":40.315392919262194,"lng":-111.6817479200257},{"vid":"2320734","name":"Violetta Cartwright-Purdy","party":"Rep","address":"259 E 1090 N, Orem, UT 84057","precinct":"25OR13","hd":"58","v_score":"12.28698903","decile":"9","lat":40.31731034031496,"lng":-111.68979745828366},{"vid":"2322454","name":"Lovett Hahn","party":"Rep","address":"1114 N 200 E, Orem, UT 84057","precinct":"25OR13","hd":"58","v_score":"7.650280567","decile":"8","lat":40.317328882214476,"lng":-111.69072523076328},{"vid":"2327259","name":"Alcie Ernser-Ruecker","party":"Dem","address":"1065 N 250 E, Orem, UT 84057","precinct":"25OR13","hd":"58","v_score":"2.998909327","decile":"6","lat":40.31663045484547,"lng":-111.69011153178798},{"vid":"2327358","name":"Viola Herzog PhD","party":"","address":"542 E 1090 N, Orem, UT 84097","precinct":"25OR13","hd":"58","v_score":"0","decile":"1","lat":40.31714865896544,"lng":-111.68302055053262},{"vid":"2332056","name":"Ms. Faith Turner MD","party":"","address":"1046 N 200 E, Orem, UT 84057","precinct":"25OR13","hd":"58","v_score":"3.93832808","decile":"6","lat":40.316271240587,"lng":-111.6908400158733},{"vid":"2332333","name":"Manley Simonis","party":"Rep","address":"160 E 1200 N, Orem, UT 84057","precinct":"25OR13","hd":"58","v_score":"9.907118004","decile":"8","lat":40.31898900501892,"lng":-111.6923985030597},{"vid":"2332726","name":"Orange Greenholt","party":"","address":"326 E 1000 N, Orem, UT 84057","precinct":"25OR13","hd":"58","v_score":"6.814370645","decile":"8","lat":40.31537871509788,"lng":-111.68822105060563},{"vid":"2337718","name":"Rodrick Bauch-Hilll","party":"","address":"880 N 275 E, Orem, UT 84057","precinct":"25OR13","hd":"58","v_score":"2.315214949","decile":"5","lat":40.31355291508521,"lng":-111.68897652908836},{"vid":"2342617","name":"Dr. Burdette Prohaska I","party":"","address":"574 E 1050 N, Orem, UT 84097","precinct":"25OR13","hd":"58","v_score":"0","decile":"1","lat":40.31652441635823,"lng":-111.68225473509403},{"vid":"2343351","name":"Mr. Ewell Hauck","party":"Rep","address":"1114 N 140 E, Orem, UT 84057","precinct":"25OR13","hd":"58","v_score":"6.52928996","decile":"7","lat":40.317559114474044,"lng":-111.69228244684504},{"vid":"2343390","name":"Ms. Jolette Kerluke DDS","party":"Rep","address":"882 N 300 E, Orem, UT 84057","precinct":"25OR13","hd":"58","v_score":"0","decile":"1","lat":40.31317669287282,"lng":-111.68822617072045},{"vid":"2344270","name":"Magan Trantow-Hagenes","party":"","address":"504 E 1090 N, Orem, UT 84097","precinct":"25OR13","hd":"58","v_score":"9.043758688","decile":"8","lat":40.317147086473994,"lng":-111.68393476743458},{"vid":"2344311","name":"Khari Kulas-Schuppe","party":"Dem","address":"375 E 900 N, Orem, UT 84057","precinct":"25OR13","hd":"58","v_score":"1.193887297","decile":"3","lat":40.314006888293456,"lng":-111.68702014177066},{"vid":"2345541","name":"Ms. Dusty Kassulke PhD","party":"","address":"1035 N 250 E, Orem, UT 84057","precinct":"25OR13","hd":"58","v_score":"1.121327652","decile":"3","lat":40.31641342405771,"lng":-111.69031473355676},{"vid":"2349072","name":"Miss Bernice Prohaska","party":"Rep","address":"542 E 1090 N, Orem, UT 84097","precinct":"25OR13","hd":"58","v_score":"5.853935319","decile":"7","lat":40.31714865896544,"lng":-111.68302055053262},{"vid":"2351744","name":"Nico Oberbrunner","party":"","address":"375 E 900 N, Orem, UT 84057","precinct":"25OR13","hd":"58","v_score":"1.121327652","decile":"3","lat":40.314006888293456,"lng":-111.68702014177066},{"vid":"2357662","name":"Heber Cassin","party":"Dem","address":"1115 N 140 E, Orem, UT 84057","precinct":"25OR13","hd":"58","v_score":"0","decile":"1","lat":40.31750904059351,"lng":-111.6927982921603},{"vid":"2362833","name":"Dorine Trantow","party":"","address":"589 E 1050 N, Orem, UT 84097","precinct":"25OR13","hd":"58","v_score":"3.93832808","decile":"6","lat":40.316815527445875,"lng":-111.68172622278296},{"vid":"2369710","name":"Dr. Avon Rowe Jr.","party":"Rep","address":"556 E 1200 N, Orem, UT 84097","precinct":"25OR13","hd":"58","v_score":"19.74515628","decile":"10","lat":40.31905208567359,"lng":-111.68273897747385},{"vid":"2377037","name":"Zaniyah Koss","party":"","address":"1032 N 475 E, Orem, UT 84097","precinct":"25OR13","hd":"58","v_score":"2.315214949","decile":"5","lat":40.316275813163806,"lng":-111.68411177043012},{"vid":"2380639","name":"Harlon Jenkins-Adams","party":"Rep","address":"966 N Garden Dr, Orem, UT 84057","precinct":"25OR13","hd":"58","v_score":"1.121327652","decile":"3","lat":40.31511365585575,"lng":-111.69199505854668},{"vid":"2387391","name":"Aylin Hyatt","party":"","address":"1130 N 560 E, Orem, UT 84097","precinct":"25OR13","hd":"58","v_score":"19.49442423","decile":"10","lat":40.31786029346252,"lng":-111.68247821771294},{"vid":"2393820","name":"Yadiel Walsh","party":"Rep","address":"842 N 235 E, Orem, UT 84057","precinct":"25OR13","hd":"58","v_score":"9.207031979","decile":"8","lat":40.31254910998103,"lng":-111.68992128098446},{"vid":"2395772","name":"Rosella Rutherford","party":"Rep","address":"343 E 1140 N, Orem, UT 84057","precinct":"25OR13","hd":"58","v_score":"2.315214949","decile":"5","lat":40.31807498088154,"lng":-111.68767720316646},{"vid":"2397946","name":"Renee Weissnat","party":"Rep","address":"1043 N 520 E, Orem, UT 84097","precinct":"25OR13","hd":"58","v_score":"0","decile":"1","lat":40.316500130594044,"lng":-111.68371720756876},{"vid":"2398311","name":"Waino Osinski","party":"Dem","address":"279 E 1090 N, Orem, UT 84057","precinct":"25OR13","hd":"58","v_score":"0","decile":"1","lat":40.31731011031175,"lng":-111.68922454657212},{"vid":"2398325","name":"Dr. Audie Murphy I","party":"","address":"909 N Garden Dr, Orem, UT 84057","precinct":"25OR13","hd":"58","v_score":"1.121327652","decile":"3","lat":40.3137862902197,"lng":-111.69208409490089},{"vid":"2400082","name":"Humberto Gerhold II","party":"Dem","address":"1114 N 200 E, Orem, UT 84057","precinct":"25OR13","hd":"58","v_score":"0","decile":"1","lat":40.317328882214476,"lng":-111.69072523076328},{"vid":"2400755","name":"Norine Denesik","party":"Dem","address":"990 N 350 E, Orem, UT 84057","precinct":"25OR13","hd":"58","v_score":"2.315214949","decile":"5","lat":40.31550979631213,"lng":-111.68734811131745},{"vid":"2404206","name":"Mr. Benji Block DDS","party":"Dem","address":"225 E 905 N, Orem, UT 84057","precinct":"25OR13","hd":"58","v_score":"2.315214949","decile":"5","lat":40.313981538476305,"lng":-111.69050390114863},{"vid":"2406340","name":"Koby Thiel Jr.","party":"","address":"1185 N 400 E, Orem, UT 84097","precinct":"25OR13","hd":"58","v_score":"6.027167436","decile":"7","lat":40.31901595070717,"lng":-111.68660738643054},{"vid":"2407031","name":"Dr. Mose Bergstrom Sr.","party":"Rep","address":"288 E 1090 N, Orem, UT 84057","precinct":"25OR13","hd":"58","v_score":"2.315214949","decile":"5","lat":40.316898300990225,"lng":-111.6889603279722},{"vid":"2408452","name":"Damon Ondricka","party":"Rep","address":"161 E 1060 N, Orem, UT 84057","precinct":"25OR13","hd":"58","v_score":"12.38288823","decile":"9","lat":40.316778090739156,"lng":-111.69210696476267},{"vid":"2410077","name":"Robbin Corwin","party":"Dem","address":"1000 N 560 E, Orem, UT 84097","precinct":"25OR13","hd":"58","v_score":"9.405332525","decile":"8","lat":40.31561179584242,"lng":-111.68214074683156},{"vid":"2415784","name":"Kalvin O'Reilly","party":"Rep","address":"870 N 235 E, Orem, UT 84057","precinct":"25OR13","hd":"58","v_score":"8.15240309","decile":"8","lat":40.313269913389284,"lng":-111.6900109779743},{"vid":"2418087","name":"Gay Thiel","party":"Rep","address":"914 N 200 E, Orem, UT 84057","precinct":"25OR13","hd":"58","v_score":"1.121327652","decile":"3","lat":40.31391948132793,"lng":-111.69083545791138},{"vid":"2422279","name":"Essex Hettinger","party":"Rep","address":"990 N 350 E, Orem, UT 84057","precinct":"25OR13","hd":"58","v_score":"2.315214949","decile":"5","lat":40.31550979631213,"lng":-111.68734811131745},{"vid":"2424770","name":"John Auer","party":"","address":"225 E 905 N, Orem, UT 84057","precinct":"25OR13","hd":"58","v_score":"1.193887297","decile":"3","lat":40.313981538476305,"lng":-111.69050390114863},{"vid":"2427302","name":"Burnie Lynch-Schiller","party":"Dem","address":"577 E 1090 N, Orem, UT 84097","precinct":"25OR13","hd":"58","v_score":"1.121327652","decile":"3","lat":40.31755591342417,"lng":-111.68228079594519},{"vid":"2428502","name":"Orlo Gislason","party":"","address":"848 N 235 E, Orem, UT 84057","precinct":"25OR13","hd":"58","v_score":"2.315214949","decile":"5","lat":40.312700047214214,"lng":-111.6899232407491},{"vid":"2432126","name":"Lucas Prosacco","party":"","address":"842 N 200 E, Orem, UT 84057","precinct":"25OR13","hd":"58","v_score":"0","decile":"1","lat":40.31254243407456,"lng":-111.69081754649275},{"vid":"2433267","name":"Jacquez Steuber","party":"","address":"856 N 275 E, Orem, UT 84057","precinct":"25OR13","hd":"58","v_score":"3.93832808","decile":"6","lat":40.31290638358581,"lng":-111.68896823152974},{"vid":"2435097","name":"Randi Jast","party":"","address":"1023 N 250 E, Orem, UT 84057","precinct":"25OR13","hd":"58","v_score":"3.93832808","decile":"6","lat":40.316161743315526,"lng":-111.69020989117996},{"vid":"2439100","name":"Kale Cole","party":"Dem","address":"847 N 275 E, Orem, UT 84057","precinct":"25OR13","hd":"58","v_score":"0","decile":"1","lat":40.3127027427782,"lng":-111.6895647479127},{"vid":"2439721","name":"Makayla Schiller","party":"Dem","address":"327 E 1140 N, Orem, UT 84057","precinct":"25OR13","hd":"58","v_score":"2.744440783","decile":"5","lat":40.31807423183847,"lng":-111.68799987639954},{"vid":"2443204","name":"Yair Walsh","party":"","address":"990 N 250 E, Orem, UT 84057","precinct":"25OR13","hd":"58","v_score":"1.121327652","decile":"3","lat":40.315482218551644,"lng":-111.68972028399737},{"vid":"2447159","name":"Kaycee Wisozk","party":"Dem","address":"1049 N 140 E, Orem, UT 84057","precinct":"25OR13","hd":"58","v_score":"1.121327652","decile":"3","lat":40.31618501421412,"lng":-111.69299432648228},{"vid":"2447379","name":"Krish Zulauf DVM","party":"Dem","address":"311 E 1000 N, Orem, UT 84057","precinct":"25OR13","hd":"58","v_score":"1.121327652","decile":"3","lat":40.3158074265033,"lng":-111.68853261423907},{"vid":"2447977","name":"Jerrilyn McClure","party":"","address":"327 E 1140 N, Orem, UT 84057","precinct":"25OR13","hd":"58","v_score":"1.121327652","decile":"3","lat":40.31807423183847,"lng":-111.68799987639954},{"vid":"2460228","name":"Melinda Blanda-Towne","party":"Dem","address":"288 E 1090 N, Orem, UT 84057","precinct":"25OR13","hd":"58","v_score":"0","decile":"1","lat":40.316898300990225,"lng":-111.6889603279722},{"vid":"2465928","name":"Nestor Hilpert Sr.","party":"Dem","address":"197 E 980 N, Orem, UT 84057","precinct":"25OR13","hd":"58","v_score":"0","decile":"1","lat":40.3154501695453,"lng":-111.69131259393231},{"vid":"2470141","name":"Tatyana Greenfelder","party":"Dem","address":"364 E 900 N, Orem, UT 84057","precinct":"25OR13","hd":"58","v_score":"0","decile":"1","lat":40.31352335795392,"lng":-111.68716591124209},{"vid":"2491078","name":"Davey Rutherford","party":"Dem","address":"578 E 1090 N, Orem, UT 84097","precinct":"25OR13","hd":"58","v_score":"1.193887297","decile":"3","lat":40.31715026460807,"lng":-111.68205685999438},{"vid":"2496825","name":"Dr. Milford Wehner","party":"Dem","address":"1072 N 200 E, Orem, UT 84057","precinct":"25OR13","hd":"58","v_score":"17.15779086","decile":"9","lat":40.316899532619566,"lng":-111.69069232619304},{"vid":"2502954","name":"Lanie Marquardt","party":"","address":"291 E 1090 N, Orem, UT 84057","precinct":"25OR13","hd":"58","v_score":"1.193887297","decile":"3","lat":40.31731002181737,"lng":-111.68894060150755},{"vid":"2509293","name":"Dr. Penny Heathcote","party":"","address":"991 N 560 E, Orem, UT 84097","precinct":"25OR13","hd":"58","v_score":"14.27815183","decile":"9","lat":40.3153912487805,"lng":-111.68272936953846},{"vid":"2518571","name":"Ismael Wuckert-Grady","party":"Dem","address":"941 N Garden Dr, Orem, UT 84057","precinct":"25OR13","hd":"58","v_score":"0","decile":"1","lat":40.314529131151275,"lng":-111.69245783714356},{"vid":"2525848","name":"Hertha Herman-Hickle","party":"","address":"588 E 1050 N, Orem, UT 84097","precinct":"25OR13","hd":"58","v_score":"14.13760315","decile":"9","lat":40.31652546511675,"lng":-111.68170797511664},{"vid":"2527558","name":"Dr. Leroy Bednar III","party":"Dem","address":"990 N 250 E, Orem, UT 84057","precinct":"25OR13","hd":"58","v_score":"0","decile":"1","lat":40.315482218551644,"lng":-111.68972028399737},{"vid":"2527973","name":"Jerald Schmeler","party":"Rep","address":"916 N 350 E, Orem, UT 84057","precinct":"25OR13","hd":"58","v_score":"13.61907049","decile":"9","lat":40.31400625647291,"lng":-111.68726604012868},{"vid":"2528467","name":"Edra Langosh","party":"Rep","address":"1024 N 200 E, Orem, UT 84057","precinct":"25OR13","hd":"58","v_score":"5.693042993","decile":"7","lat":40.31578250002518,"lng":-111.69093095902498},{"vid":"2534002","name":"Mindy Ruecker","party":"Rep","address":"296 E 1140 N, Orem, UT 84057","precinct":"25OR13","hd":"58","v_score":"3.711952487","decile":"6","lat":40.317617400468706,"lng":-111.68863656238771},{"vid":"2538142","name":"Susann Weissnat","party":"Rep","address":"1145 N 200 E, Orem, UT 84057","precinct":"25OR13","hd":"58","v_score":"1.193887297","decile":"4","lat":40.318225618502844,"lng":-111.6915674514681},{"vid":"2548564","name":"Fed Ziemann III","party":"Dem","address":"941 N Garden Dr, Orem, UT 84057","precinct":"25OR13","hd":"58","v_score":"1.193887297","decile":"4","lat":40.314529131151275,"lng":-111.69245783714356},{"vid":"2552698","name":"Freida Jast","party":"Rep","address":"836 N 200 E, Orem, UT 84057","precinct":"25OR13","hd":"58","v_score":"0","decile":"1","lat":40.312383395922694,"lng":-111.69079759571878},{"vid":"2569195","name":"Ms. Katlin Koelpin PhD","party":"","address":"945 N 400 E, Orem, UT 84097","precinct":"25OR13","hd":"58","v_score":"1.193887297","decile":"4","lat":40.314244625830234,"lng":-111.68661521429857},{"vid":"2578136","name":"Davonte O'Connell","party":"","address":"986 N 520 E, Orem, UT 84097","precinct":"25OR13","hd":"58","v_score":"0","decile":"1","lat":40.315442616893776,"lng":-111.6832582106366},{"vid":"2594538","name":"Tressie Lueilwitz","party":"Dem","address":"1054 N 200 E, Orem, UT 84057","precinct":"25OR13","hd":"58","v_score":"0","decile":"1","lat":40.31665880672732,"lng":-111.69068701640114},{"vid":"2597786","name":"Rosie Simonis","party":"","address":"853 N 275 E, Orem, UT 84057","precinct":"25OR13","hd":"58","v_score":"2.817000428","decile":"6","lat":40.31285368117499,"lng":-111.68956670785698},{"vid":"2601527","name":"Diandra Davis","party":"Dem","address":"326 E 1000 N, Orem, UT 84057","precinct":"25OR13","hd":"58","v_score":"5.693042993","decile":"7","lat":40.31537871509788,"lng":-111.68822105060563},{"vid":"2607191","name":"Agustin Green","party":"Rep","address":"1024 N 250 E, Orem, UT 84057","precinct":"25OR13","hd":"58","v_score":"0","decile":"1","lat":40.31616789967009,"lng":-111.68963826567621},{"vid":"2612662","name":"Guido Kemmer I","party":"","address":"848 N 235 E, Orem, UT 84057","precinct":"25OR13","hd":"58","v_score":"0","decile":"1","lat":40.312700047214214,"lng":-111.6899232407491},{"vid":"2614217","name":"Lacy Kirlin-Terry","party":"Rep","address":"958 N Garden Dr, Orem, UT 84057","precinct":"25OR13","hd":"58","v_score":"1.193887297","decile":"4","lat":40.31483483874684,"lng":-111.69182877258201},{"vid":"2616763","name":"Roel Howell PhD","party":"","address":"916 N 350 E, Orem, UT 84057","precinct":"25OR13","hd":"58","v_score":"13.61907049","decile":"9","lat":40.31400625647291,"lng":-111.68726604012868},{"vid":"2627316","name":"Duwayne Lesch","party":"Rep","address":"343 E 1140 N, Orem, UT 84057","precinct":"25OR13","hd":"58","v_score":"2.817000428","decile":"6","lat":40.31807498088154,"lng":-111.68767720316646},{"vid":"2630376","name":"Jaunita Osinski","party":"","address":"349 E 1040 N, Orem, UT 84057","precinct":"25OR13","hd":"58","v_score":"18.35167816","decile":"10","lat":40.316592325812074,"lng":-111.68757998407281},{"vid":"2630880","name":"Erika Beier","party":"","address":"994 N 520 E, Orem, UT 84097","precinct":"25OR13","hd":"58","v_score":"1.623113131","decile":"5","lat":40.315501269988694,"lng":-111.68350689214026},{"vid":"2643893","name":"Dr. Hervey Botsford","party":"Rep","address":"995 N 475 E, Orem, UT 84097","precinct":"25OR13","hd":"58","v_score":"1.623113131","decile":"5","lat":40.31558211138809,"lng":-111.68473598849086},{"vid":"2644177","name":"Spurgeon Schroeder","party":"","address":"518 E 1090 N, Orem, UT 84097","precinct":"25OR13","hd":"58","v_score":"1.623113131","decile":"5","lat":40.3171475931946,"lng":-111.6836300287068},{"vid":"2645042","name":"Drake Bogan Sr.","party":"Dem","address":"349 E 1040 N, Orem, UT 84057","precinct":"25OR13","hd":"58","v_score":"18.35167816","decile":"10","lat":40.316592325812074,"lng":-111.68757998407281},{"vid":"2648841","name":"Joseph Hilpert","party":"","address":"1185 N 400 E, Orem, UT 84097","precinct":"25OR13","hd":"58","v_score":"1.193887297","decile":"4","lat":40.31901595070717,"lng":-111.68660738643054},{"vid":"2653906","name":"Mrs. Neva Robel DDS","party":"","address":"853 N 235 E, Orem, UT 84057","precinct":"25OR13","hd":"58","v_score":"1.193887297","decile":"4","lat":40.31284697776217,"lng":-111.69046294138528},{"vid":"2655160","name":"Mr. Fernand Abernathy DDS","party":"Dem","address":"976 N 560 E, Orem, UT 84097","precinct":"25OR13","hd":"58","v_score":"1.193887297","decile":"4","lat":40.315172740817296,"lng":-111.68213495377596},{"vid":"2656008","name":"Mr. Darnell Hessel","party":"Dem","address":"278 E 1000 N, Orem, UT 84057","precinct":"25OR13","hd":"58","v_score":"0","decile":"1","lat":40.31541576954049,"lng":-111.6892738982172},{"vid":"2656017","name":"London Bernier","party":"","address":"1155 N 200 E, Orem, UT 84057","precinct":"25OR13","hd":"58","v_score":"1.193887297","decile":"4","lat":40.31833269640293,"lng":-111.69154259616218},{"vid":"2665648","name":"Dr. Rodrick Lindgren","party":"","address":"348 E 1040 N, Orem, UT 84057","precinct":"25OR13","hd":"58","v_score":"11.54592159","decile":"9","lat":40.31615619232163,"lng":-111.68758308505717},{"vid":"2672303","name":"Beverlee Ruecker-Bode","party":"","address":"1015 N 560 E, Orem, UT 84097","precinct":"25OR13","hd":"58","v_score":"0","decile":"2","lat":40.315830330879045,"lng":-111.68273513061403},{"vid":"2675243","name":"Wilford Bailey","party":"Dem","address":"956 N 350 E, Orem, UT 84057","precinct":"25OR13","hd":"58","v_score":"0","decile":"2","lat":40.3146244989429,"lng":-111.68717561463419},{"vid":"2677346","name":"Claudette Schmidt","party":"Dem","address":"974 N 520 E, Orem, UT 84097","precinct":"25OR13","hd":"58","v_score":"4.214075011","decile":"7","lat":40.31522262191757,"lng":-111.68326323642098},{"vid":"2689769","name":"Darrick Bartoletti","party":"Dem","address":"362 E 900 N, Orem, UT 84057","precinct":"25OR13","hd":"58","v_score":"0","decile":"2","lat":40.31354182385604,"lng":-111.68722656444206},{"vid":"2690623","name":"Ms. Francina Hegmann","party":"","address":"182 E 910 N, Orem, UT 84057","precinct":"25OR13","hd":"58","v_score":"1.193887297","decile":"4","lat":40.31367457099644,"lng":-111.69162489244232},{"vid":"2706134","name":"Mr. Ross Dickinson","party":"Dem","address":"1042 N 520 E, Orem, UT 84097","precinct":"25OR13","hd":"58","v_score":"0","decile":"2","lat":40.316517085538685,"lng":-111.68325845954273},{"vid":"2708283","name":"Harlow Boyle-O'Conner","party":"Rep","address":"991 N 560 E, Orem, UT 84097","precinct":"25OR13","hd":"58","v_score":"9.638447451","decile":"8","lat":40.3153912487805,"lng":-111.68272936953846},{"vid":"2709060","name":"Herbert Kovacek","party":"Dem","address":"1155 N 200 E, Orem, UT 84057","precinct":"25OR13","hd":"58","v_score":"1.193887297","decile":"4","lat":40.31833269640293,"lng":-111.69154259616218},{"vid":"2729270","name":"Charlie Bartell-Little","party":"","address":"955 N 400 E, Orem, UT 84097","precinct":"25OR13","hd":"58","v_score":"1.193887297","decile":"4","lat":40.31444341993451,"lng":-111.6866208418845},{"vid":"2729586","name":"Dr. Payton Wunsch","party":"Dem","address":"848 N 275 E, Orem, UT 84057","precinct":"25OR13","hd":"58","v_score":"1.193887297","decile":"4","lat":40.31274721299257,"lng":-111.68896617959797},{"vid":"2735287","name":"Koen Wisoky","party":"","address":"556 E 1200 N, Orem, UT 84097","precinct":"25OR13","hd":"58","v_score":"7.090117576","decile":"8","lat":40.31905208567359,"lng":-111.68273897747385},{"vid":"2739473","name":"Crista Bailey MD","party":"Dem","address":"193 E 865 N, Orem, UT 84057","precinct":"25OR13","hd":"58","v_score":"0","decile":"2","lat":40.31323444186907,"lng":-111.69182919821729},{"vid":"2741484","name":"Florian Bernhard","party":"","address":"1115 N 140 E, Orem, UT 84057","precinct":"25OR13","hd":"58","v_score":"1.193887297","decile":"4","lat":40.31750904059351,"lng":-111.6927982921603},{"vid":"2743437","name":"Tangela Doyle","party":"Dem","address":"345 E 1000 N, Orem, UT 84057","precinct":"25OR13","hd":"58","v_score":"4.069929862","decile":"7","lat":40.315859546440514,"lng":-111.68787738967325},{"vid":"2754701","name":"Cynthia Herman","party":"Dem","address":"237 E 1000 N, Orem, UT 84057","precinct":"25OR13","hd":"58","v_score":"1.193887297","decile":"4","lat":40.31577502168906,"lng":-111.69007365642425},{"vid":"2760579","name":"Dr. Lacey Ziemann PhD","party":"Rep","address":"504 E 1090 N, Orem, UT 84097","precinct":"25OR13","hd":"58","v_score":"1.193887297","decile":"4","lat":40.317147086473994,"lng":-111.68393476743458},{"vid":"2760604","name":"Amir Keebler","party":"Rep","address":"1192 N 475 E, Orem, UT 84097","precinct":"25OR13","hd":"58","v_score":"0","decile":"2","lat":40.31912923058849,"lng":-111.68447878737244},{"vid":"2771673","name":"Creola Reilly","party":"Rep","address":"273 E 1140 N, Orem, UT 84057","precinct":"25OR13","hd":"58","v_score":"0","decile":"2","lat":40.31807087100771,"lng":-111.68929053088401},{"vid":"2771738","name":"Margot Muller","party":"Dem","address":"273 E 1140 N, Orem, UT 84057","precinct":"25OR13","hd":"58","v_score":"0","decile":"2","lat":40.31807087100771,"lng":-111.68929053088401},{"vid":"2780361","name":"Janine Kassulke","party":"Rep","address":"888 N 200 E, Orem, UT 84057","precinct":"25OR13","hd":"58","v_score":"4.214075011","decile":"7","lat":40.31368471481099,"lng":-111.6908322449071},{"vid":"2782069","name":"Darius Hayes DDS","party":"Rep","address":"988 N 560 E, Orem, UT 84097","precinct":"25OR13","hd":"58","v_score":"1.193887297","decile":"4","lat":40.31539225498749,"lng":-111.68213783323579},{"vid":"2783558","name":"Kamden Keebler-Wisozk","party":"","address":"956 N 350 E, Orem, UT 84057","precinct":"25OR13","hd":"58","v_score":"0","decile":"2","lat":40.3146244989429,"lng":-111.68717561463419},{"vid":"2791449","name":"Tuan Brekke","party":"Rep","address":"1169 N 200 E, Orem, UT 84057","precinct":"25OR13","hd":"58","v_score":"1.193887297","decile":"4","lat":40.31855460127322,"lng":-111.69154678662333},{"vid":"2792061","name":"Deane Upton","party":"Rep","address":"888 N 200 E, Orem, UT 84057","precinct":"25OR13","hd":"58","v_score":"5.407962308","decile":"7","lat":40.31368471481099,"lng":-111.6908322449071},{"vid":"2793291","name":"Dr. Westin Hessel","party":"Rep","address":"956 N 200 E, Orem, UT 84057","precinct":"25OR13","hd":"58","v_score":"0","decile":"2","lat":40.314750945752095,"lng":-111.6907897005156},{"vid":"2793892","name":"Kinsey Bradtke","party":"Dem","address":"1024 N 250 E, Orem, UT 84057","precinct":"25OR13","hd":"58","v_score":"1.193887297","decile":"4","lat":40.31616789967009,"lng":-111.68963826567621},{"vid":"2799068","name":"Starla Wilderman","party":"Dem","address":"1118 N 520 E, Orem, UT 84097","precinct":"25OR13","hd":"58","v_score":"1.193887297","decile":"4","lat":40.3177875322349,"lng":-111.68333942540704},{"vid":"2799654","name":"Lavelle Pagac","party":"Dem","address":"264 E 1200 N, Orem, UT 84057","precinct":"25OR13","hd":"58","v_score":"0","decile":"2","lat":40.319022235332305,"lng":-111.68956672223004},{"vid":"2801043","name":"Shelly Bergstrom","party":"Dem","address":"1169 N 200 E, Orem, UT 84057","precinct":"25OR13","hd":"58","v_score":"4.069929862","decile":"7","lat":40.31855460127322,"lng":-111.69154678662333},{"vid":"2801910","name":"Terry Shanahan II","party":"Rep","address":"872 N 350 E, Orem, UT 84057","precinct":"25OR13","hd":"58","v_score":"2.876042565","decile":"6","lat":40.31302925813041,"lng":-111.68716836882311},{"vid":"2802823","name":"Lavona Carter-Jenkins","party":"Rep","address":"1025 N 300 E, Orem, UT 84057","precinct":"25OR13","hd":"58","v_score":"0","decile":"2","lat":40.316108461646024,"lng":-111.68903821352431},{"vid":"2804260","name":"Trace Davis-McLaughlin","party":"","address":"315 E 900 N, Orem, UT 84057","precinct":"25OR13","hd":"58","v_score":"0","decile":"2","lat":40.31384155496502,"lng":-111.68843679530063},{"vid":"2806202","name":"Yael Kris II","party":"Dem","address":"847 N 350 E, Orem, UT 84057","precinct":"25OR13","hd":"58","v_score":"0","decile":"2","lat":40.3129967917537,"lng":-111.68779262419389},{"vid":"2814511","name":"Dr. Russel Block","party":"Rep","address":"186 E 865 N, Orem, UT 84057","precinct":"25OR13","hd":"58","v_score":"1.193887297","decile":"4","lat":40.31302416601234,"lng":-111.69172634565462},{"vid":"2818953","name":"Rayne Ruecker","party":"Dem","address":"937 N 200 E, Orem, UT 84057","precinct":"25OR13","hd":"58","v_score":"0","decile":"2","lat":40.31446266087967,"lng":-111.69139662621673},{"vid":"2834424","name":"Tiarra Funk","party":"Rep","address":"525 E 1050 N, Orem, UT 84097","precinct":"25OR13","hd":"58","v_score":"0","decile":"2","lat":40.31687984568652,"lng":-111.68332261785042},{"vid":"2839042","name":"Sincere Ziemann","party":"Dem","address":"193 E 865 N, Orem, UT 84057","precinct":"25OR13","hd":"58","v_score":"0","decile":"2","lat":40.31323444186907,"lng":-111.69182919821729},{"vid":"2841603","name":"Dolphus McCullough-Gottlieb","party":"Dem","address":"327 E 1140 N, Orem, UT 84057","precinct":"25OR13","hd":"58","v_score":"0","decile":"2","lat":40.31807423183847,"lng":-111.68799987639954},{"vid":"2841700","name":"Mallie Goldner MD","party":"","address":"1162 N 140 E, Orem, UT 84057","precinct":"25OR13","hd":"58","v_score":"1.193887297","decile":"4","lat":40.31843303448062,"lng":-111.6921032613785},{"vid":"2856386","name":"Johnathon Smitham","party":"Rep","address":"275 E 1165 N, Orem, UT 84057","precinct":"25OR13","hd":"58","v_score":"5.407962308","decile":"7","lat":40.31880373103727,"lng":-111.6893044416555},{"vid":"2861156","name":"Paola Ratke","party":"","address":"168 E 1020 N, Orem, UT 84057","precinct":"25OR13","hd":"58","v_score":"4.069929862","decile":"7","lat":40.31572341490704,"lng":-111.6917264689041},{"vid":"2861845","name":"Dr. Vennie Baumbach PhD","party":"Rep","address":"1093 N 475 E, Orem, UT 84097","precinct":"25OR13","hd":"58","v_score":"1.193887297","decile":"4","lat":40.31732069595849,"lng":-111.68481363514263},{"vid":"2880481","name":"Ashely Dibbert","party":"Rep","address":"262 E 1165 N, Orem, UT 84057","precinct":"25OR13","hd":"58","v_score":"1.193887297","decile":"4","lat":40.31837768619636,"lng":-111.68961903256633},{"vid":"2881360","name":"Dr. Alvin Rath V","party":"","address":"276 E 1090 N, Orem, UT 84057","precinct":"25OR13","hd":"58","v_score":"1.193887297","decile":"4","lat":40.316870798493085,"lng":-111.68926454537767},{"vid":"2889169","name":"Irva Torp","party":"Dem","address":"883 N 350 E, Orem, UT 84057","precinct":"25OR13","hd":"58","v_score":"1.193887297","decile":"4","lat":40.31336941275435,"lng":-111.68795293726998},{"vid":"2899948","name":"Emerson Hills","party":"Rep","address":"867 N 400 E, Orem, UT 84097","precinct":"25OR13","hd":"58","v_score":"0","decile":"2","lat":40.3130676528692,"lng":-111.6865948600912},{"vid":"2904142","name":"Arlyne Lynch","party":"","address":"186 E 865 N, Orem, UT 84057","precinct":"25OR13","hd":"58","v_score":"0","decile":"2","lat":40.31302416601234,"lng":-111.69172634565462},{"vid":"2904248","name":"Cedric Heathcote","party":"Dem","address":"263 E 1165 N, Orem, UT 84057","precinct":"25OR13","hd":"58","v_score":"0","decile":"2","lat":40.318802465568176,"lng":-111.68962711758354},{"vid":"2905867","name":"Merl Schulist","party":"","address":"976 N 250 E, Orem, UT 84057","precinct":"25OR13","hd":"58","v_score":"0","decile":"2","lat":40.31515450336246,"lng":-111.68951928663158},{"vid":"2909461","name":"Sudie Macejkovic-Bergstrom","party":"Dem","address":"324 E 900 N, Orem, UT 84057","precinct":"25OR13","hd":"58","v_score":"2.876042565","decile":"6","lat":40.372861892802966,"lng":-111.73515708043085},{"vid":"2914425","name":"Alvena Fahey DDS","party":"","address":"362 E 1090 N, Orem, UT 84057","precinct":"25OR13","hd":"58","v_score":"7.090117576","decile":"8","lat":40.31688983602562,"lng":-111.68727221299197},{"vid":"2925042","name":"Tori Howe","party":"Dem","address":"937 N 200 E, Orem, UT 84057","precinct":"25OR13","hd":"58","v_score":"2.876042565","decile":"6","lat":40.31446266087967,"lng":-111.69139662621673},{"vid":"2925099","name":"Dr. Greyson Prohaska","party":"Dem","address":"504 E 1090 N, Orem, UT 84097","precinct":"25OR13","hd":"58","v_score":"4.214075011","decile":"7","lat":40.317147086473994,"lng":-111.68393476743458},{"vid":"2927128","name":"Evelynn Corkery DDS","party":"Dem","address":"945 N 200 E, Orem, UT 84057","precinct":"25OR13","hd":"58","v_score":"0","decile":"2","lat":40.31464096201679,"lng":-111.69140590868821},{"vid":"2933842","name":"Jameel Raynor IV","party":"","address":"182 E 910 N, Orem, UT 84057","precinct":"25OR13","hd":"58","v_score":"4.214075011","decile":"7","lat":40.31367457099644,"lng":-111.69162489244232},{"vid":"2935085","name":"Hansel Paucek","party":"Dem","address":"1146 N 200 E, Orem, UT 84057","precinct":"25OR13","hd":"58","v_score":"2.876042565","decile":"6","lat":40.31822351315955,"lng":-111.6908571577651},{"vid":"2942535","name":"Federico Bergstrom","party":"Dem","address":"872 N 350 E, Orem, UT 84057","precinct":"25OR13","hd":"58","v_score":"2.876042565","decile":"6","lat":40.31302925813041,"lng":-111.68716836882311},{"vid":"2944507","name":"Dimitrios Russel","party":"","address":"574 E 1050 N, Orem, UT 84097","precinct":"25OR13","hd":"58","v_score":"0","decile":"2","lat":40.31652441635823,"lng":-111.68225473509403},{"vid":"2949122","name":"North Labadie","party":"Rep","address":"386 E 1165 N, Orem, UT 84057","precinct":"25OR13","hd":"58","v_score":"0","decile":"2","lat":40.31843569511654,"lng":-111.68660942393655},{"vid":"2955810","name":"Carlos Durgan","party":"Dem","address":"1162 N 140 E, Orem, UT 84057","precinct":"25OR13","hd":"58","v_score":"0","decile":"2","lat":40.31843303448062,"lng":-111.6921032613785},{"vid":"2957849","name":"Vonda Auer-Kihn","party":"Dem","address":"370 E 1000 N, Orem, UT 84057","precinct":"25OR13","hd":"58","v_score":"0","decile":"2","lat":40.31545601971158,"lng":-111.68704891229393},{"vid":"2982480","name":"Miss Abigail Treutel","party":"","address":"1165 N 140 E, Orem, UT 84057","precinct":"25OR13","hd":"58","v_score":"0","decile":"2","lat":40.318549911728034,"lng":-111.6926840346339},{"vid":"3095245","name":"Dr. Marcella Halvorson","party":"Dem","address":"1021 N 560 E, Orem, UT 84097","precinct":"25OR13","hd":"58","v_score":"0","decile":"2","lat":40.31604984414439,"lng":-111.68273804636578},{"vid":"3111055","name":"Danial Abbott","party":"Rep","address":"533 E 1090 N, Orem, UT 84097","precinct":"25OR13","hd":"58","v_score":"1.193887297","decile":"4","lat":40.317553100955315,"lng":-111.68335856180849},{"vid":"3308948","name":"Hertha Sauer","party":"","address":"533 E 1090 N, Orem, UT 84097","precinct":"25OR13","hd":"58","v_score":"2.315214949","decile":"5","lat":40.317553100955315,"lng":-111.68335856180849},{"vid":"3339632","name":"Alpheus Barrows","party":"Rep","address":"198 E 865 N, Orem, UT 84057","precinct":"25OR13","hd":"58","v_score":"12.70314012","decile":"9","lat":40.31273161243847,"lng":-111.69139618339221},{"vid":"3342094","name":"Kaylah Schimmel","party":"Dem","address":"237 E 1000 N, Orem, UT 84057","precinct":"25OR13","hd":"58","v_score":"13.61907049","decile":"9","lat":40.31577502168906,"lng":-111.69007365642425},{"vid":"3572134","name":"Yulissa Tremblay","party":"","address":"1114 N 200 E, Orem, UT 84057","precinct":"25OR13","hd":"58","v_score":"2.587603312","decile":"5","lat":40.317328882214476,"lng":-111.69072523076328},{"vid":"4503561","name":"Mr. Lonzo Runte","party":"","address":"925 N 200 E, Orem, UT 84057","precinct":"25OR13","hd":"58","v_score":"11.2235539","decile":"9","lat":40.3142843865336,"lng":-111.69138730529733},{"vid":"5220496","name":"Hamza Toy","party":"Dem","address":"385 E 1165 N, Orem, UT 84057","precinct":"25OR13","hd":"58","v_score":"5.693042993","decile":"7","lat":40.3187074647306,"lng":-111.6865907646475},{"vid":"5317101","name":"Franz Jakubowski","party":"","address":"937 N 200 E, Orem, UT 84057","precinct":"25OR13","hd":"58","v_score":"1.193887297","decile":"4","lat":40.31446266087967,"lng":-111.69139662621673},{"vid":"6048912","name":"Cassius Gibson","party":"","address":"879 N 275 E, Orem, UT 84057","precinct":"25OR13","hd":"58","v_score":"10.0296666","decile":"9","lat":40.313515364044726,"lng":-111.6894715925711},{"vid":"6067910","name":"Isham Reichert","party":"Dem","address":"841 N 275 E, Orem, UT 84057","precinct":"25OR13","hd":"58","v_score":"0","decile":"3","lat":40.31252588985597,"lng":-111.68957157700815},{"vid":"6092237","name":"Jailene Koelpin","party":"Dem","address":"999 N 600 E, Orem, UT 84097","precinct":"25OR13","hd":"58","v_score":"18.35167816","decile":"10","lat":40.315612460114956,"lng":-111.68175079750921},{"vid":"645a3dc0914431be1f376863d1045191267615123026bca0357bc4422307ec96","name":"Arno Fahey-Hauck","party":"","address":"937 N 200 E, Orem, UT 84057","precinct":"25OR13","hd":"58","v_score":"3.93832808","decile":"6","lat":40.31446266087967,"lng":-111.69139662621673},{"vid":"6095123","name":"Shavonne Altenwerth","party":"","address":"1169 N 200 E, Orem, UT 84057","precinct":"25OR13","hd":"58","v_score":"28.6662113","decile":"10","lat":40.31855460127322,"lng":-111.69154678662333},{"vid":"6103673","name":"Leandra Cummerata","party":"","address":"142 E 1020 N, Orem, UT 84057","precinct":"25OR13","hd":"58","v_score":"6.45639327","decile":"7","lat":40.315852279859904,"lng":-111.69261674820405},{"vid":"69c913a0b04fb4c8e72751206b321681f630c1a62e57022bdae16942adfd40f7","name":"Miracle Muller","party":"","address":"835 N 350 E, Orem, UT 84057","precinct":"25OR13","hd":"58","v_score":"5.40460374","decile":"7","lat":40.31277691636581,"lng":-111.68784273787983},{"vid":"6170810","name":"Risa Hilll-Pfannerstill","party":"Dem","address":"370 E 1000 N, Orem, UT 84057","precinct":"25OR13","hd":"58","v_score":"2.315214949","decile":"5","lat":40.31545601971158,"lng":-111.68704891229393},{"vid":"6202289","name":"Arch Reynolds-Windler","party":"Dem","address":"1175 N 475 E, Orem, UT 84097","precinct":"25OR13","hd":"58","v_score":"38.24567755","decile":"10","lat":40.318569558439606,"lng":-111.6848108071946},{"vid":"6202290","name":"Jonathon Durgan","party":"","address":"1175 N 475 E, Orem, UT 84097","precinct":"25OR13","hd":"58","v_score":"38.24567755","decile":"10","lat":40.318569558439606,"lng":-111.6848108071946},{"vid":"6203978","name":"Coralie Walter","party":"Rep","address":"1020 N 475 E, Orem, UT 84097","precinct":"25OR13","hd":"58","v_score":"34.03160254","decile":"10","lat":40.316051698017574,"lng":-111.68410878877198},{"vid":"6204845","name":"Bronson McKenzie-Howell","party":"Dem","address":"391 E 1040 N, Orem, UT 84057","precinct":"25OR13","hd":"58","v_score":"6.814370645","decile":"8","lat":40.31652245725936,"lng":-111.68657620664341},{"vid":"d2cee91b0b2aa74532e539cebafb6298b7161a400f1371eb747961565f2eedb3","name":"Ayaan Abbott","party":"Rep","address":"1080 N 140 E, Orem, UT 84057","precinct":"25OR13","hd":"58","v_score":"2.587603312","decile":"5","lat":40.31708722601693,"lng":-111.69236572515196},{"vid":"6213173","name":"Mr. Kanye Hahn MD","party":"Dem","address":"928 N Garden Dr, Orem, UT 84057","precinct":"25OR13","hd":"58","v_score":"35.30276996","decile":"10","lat":40.31428036342047,"lng":-111.69176825511752},{"vid":"6216091","name":"Almer DuBuque PhD","party":"","address":"385 E 1165 N, Orem, UT 84057","precinct":"25OR13","hd":"58","v_score":"3.93832808","decile":"6","lat":40.3187074647306,"lng":-111.6865907646475},{"vid":"6218930","name":"Ms. Sheilah Mueller","party":"","address":"1149 N 600 E, Orem, UT 84097","precinct":"25OR13","hd":"58","v_score":"35.30276996","decile":"10","lat":40.31832464696019,"lng":-111.68176824836158},{"vid":"6219014","name":"Dr. Leslie Ankunding","party":"Rep","address":"1111 N 200 E, Orem, UT 84057","precinct":"25OR13","hd":"58","v_score":"1.46627566","decile":"4","lat":40.31752154004946,"lng":-111.69164238264092},{"vid":"6219711","name":"Dr. Newt Rutherford II","party":"","address":"192 E 865 N, Orem, UT 84057","precinct":"25OR13","hd":"58","v_score":"38.24567755","decile":"10","lat":40.312912225293296,"lng":-111.6915575266042},{"vid":"6220115","name":"Alferd Thiel","party":"","address":"556 E 1200 N, Orem, UT 84097","precinct":"25OR13","hd":"58","v_score":"23.95587272","decile":"10","lat":40.31905208567359,"lng":-111.68273897747385},{"vid":"6221332","name":"Sylvan Gottlieb","party":"","address":"1183 N 240 E, Orem, UT 84057","precinct":"25OR13","hd":"58","v_score":"35.30276996","decile":"10","lat":40.31883384820394,"lng":-111.69052700773412},{"vid":"8ee6ef467156aac5ac7d7f624de5d7ceee45e12bd74a1437cede33bc1ea8a115","name":"Denver Krajcik-Swift","party":"Rep","address":"990 N 350 E, Orem, UT 84057","precinct":"25OR13","hd":"58","v_score":"3.93832808","decile":"6","lat":40.31550979631213,"lng":-111.68734811131745},{"vid":"6221955","name":"Uriah Adams","party":"","address":"1020 N 475 E, Orem, UT 84097","precinct":"25OR13","hd":"58","v_score":"34.03160254","decile":"10","lat":40.316051698017574,"lng":-111.68410878877198},{"vid":"6222960","name":"Mr. Adrien Mayert PhD","party":"","address":"362 E 1090 N, Orem, UT 84057","precinct":"25OR13","hd":"58","v_score":"26.41733837","decile":"10","lat":40.31688983602562,"lng":-111.68727221299197},{"vid":"6225720","name":"Ms. Margrett White PhD","party":"Dem","address":"169 E 1060 N, Orem, UT 84057","precinct":"25OR13","hd":"58","v_score":"29.60100086","decile":"10","lat":40.316710034982954,"lng":-111.69192098986034},{"vid":"6227711","name":"Jamison Smith","party":"","address":"992 N 300 E, Orem, UT 84057","precinct":"25OR13","hd":"58","v_score":"31.14994604","decile":"10","lat":40.31537804411043,"lng":-111.6884755941703},{"vid":"6228024","name":"Virgel Waters","party":"Rep","address":"169 E 1060 N, Orem, UT 84057","precinct":"25OR13","hd":"58","v_score":"29.60100086","decile":"10","lat":40.316710034982954,"lng":-111.69192098986034},{"vid":"6228083","name":"Hettie Nienow","party":"Rep","address":"375 E 1090 N, Orem, UT 84057","precinct":"25OR13","hd":"58","v_score":"48.19520036","decile":"10","lat":40.31730925934099,"lng":-111.68695017019655},{"vid":"6228332","name":"Foch Haley","party":"","address":"379 E 1040 N, Orem, UT 84057","precinct":"25OR13","hd":"58","v_score":"4.210716443","decile":"7","lat":40.31659395023552,"lng":-111.68697767355627},{"vid":"6228339","name":"Needham Metz","party":"Rep","address":"379 E 1040 N, Orem, UT 84057","precinct":"25OR13","hd":"58","v_score":"4.210716443","decile":"7","lat":40.31659395023552,"lng":-111.68697767355627},{"vid":"6229069","name":"Adron Stracke","party":"Dem","address":"880 N 200 E, Orem, UT 84057","precinct":"25OR13","hd":"58","v_score":"35.30276996","decile":"10","lat":40.313473422133576,"lng":-111.69073386024938},{"vid":"6229092","name":"Domenick Fahey","party":"Dem","address":"885 N 400 E, Orem, UT 84097","precinct":"25OR13","hd":"58","v_score":"45.76919357","decile":"10","lat":40.31360617700921,"lng":-111.68650273249318},{"vid":"6236784","name":"Miss Merrie Shields","party":"Dem","address":"299 E 1165 N, Orem, UT 84057","precinct":"25OR13","hd":"58","v_score":"26.58440961","decile":"10","lat":40.31880607238792,"lng":-111.68866629698296},{"vid":"c216bfe9154094359050594a093688f1acfc85c7b045654906205c2d3c1cb1b0","name":"Kaye Lakin","party":"Rep","address":"574 E 1050 N, Orem, UT 84097","precinct":"25OR13","hd":"58","v_score":"5.191257514","decile":"7","lat":40.31652441635823,"lng":-111.68225473509403},{"vid":"6241931","name":"Mrs. Evelin Kilback","party":"","address":"1042 N 520 E, Orem, UT 84097","precinct":"25OR13","hd":"58","v_score":"10.87160818","decile":"9","lat":40.316517085538685,"lng":-111.68325845954273},{"vid":"4e71e3ca73528d0f308c93b1d57df7e70236b3eebe84b2279d0a02ff45e8f787","name":"Leona Willms","party":"","address":"573 E 950 N, Orem, UT 84097","precinct":"25OR13","hd":"58","v_score":"25.06350144","decile":"10","lat":40.31487290646184,"lng":-111.68223304520549},{"vid":"6247438","name":"Tom Nienow","party":"","address":"269 E 1090 N, Orem, UT 84057","precinct":"25OR13","hd":"58","v_score":"15.2589308","decile":"9","lat":40.31731022140919,"lng":-111.68950347382717},{"vid":"d21d9f5e55462a70c1f57c047c9390c42563a53c7bfa51e61ee46f57215f31d3","name":"Bianca Bartell","party":"","address":"1092 N 140 E, Orem, UT 84057","precinct":"25OR13","hd":"58","v_score":"16.22796003","decile":"9","lat":40.31729685599951,"lng":-111.69232501885102},{"vid":"6259597","name":"Lynwood Koss","party":"","address":"566 E 1090 N, Orem, UT 84097","precinct":"25OR13","hd":"58","v_score":"35.30276996","decile":"10","lat":40.31714974569548,"lng":-111.68235442783056},{"vid":"6260606","name":"Maegan Morar DVM","party":"Dem","address":"237 E 1000 N, Orem, UT 84057","precinct":"25OR13","hd":"58","v_score":"13.61907049","decile":"9","lat":40.31577502168906,"lng":-111.69007365642425},{"vid":"9b7d905c8e89083a3c454e74471f9ba041b9787589e63e4ca94ce3b8b8a775ea","name":"Cooper Marks","party":"","address":"1092 N 140 E, Orem, UT 84057","precinct":"25OR13","hd":"58","v_score":"16.22796003","decile":"9","lat":40.31729685599951,"lng":-111.69232501885102},{"vid":"6267939","name":"Maxx Tillman","party":"Dem","address":"518 E 1090 N, Orem, UT 84097","precinct":"25OR13","hd":"58","v_score":"5.40460374","decile":"7","lat":40.3171475931946,"lng":-111.6836300287068},{"vid":"456fa0206cf6fa9bd5c2cc0c6d7d50032e85c182411a4281f7f74626381f6a47","name":"Alcee Bernier","party":"Rep","address":"1023 N 250 E, Orem, UT 84057","precinct":"25OR13","hd":"58","v_score":"5.40460374","decile":"7","lat":40.316161743315526,"lng":-111.69020989117996},{"vid":"a5e78d9e7824a4bf60527664e2bc5cf9c4bcfa2bc3a0d2f3997557369a6ad6f7","name":"Birt Ullrich","party":"Rep","address":"1023 N 250 E, Orem, UT 84057","precinct":"25OR13","hd":"58","v_score":"5.40460374","decile":"7","lat":40.316161743315526,"lng":-111.69020989117996},{"vid":"6280882","name":"Jase Crooks","party":"Dem","address":"504 E 1090 N, Orem, UT 84097","precinct":"25OR13","hd":"58","v_score":"6.954919332","decile":"8","lat":40.317147086473994,"lng":-111.68393476743458},{"vid":"6286730","name":"Devan Sanford","party":"Dem","address":"847 N 235 E, Orem, UT 84057","precinct":"25OR13","hd":"58","v_score":"43.51438145","decile":"10","lat":40.31269606948989,"lng":-111.69046101575663},{"vid":"6294181","name":"Giuseppe Brakus Jr.","party":"","address":"847 N 235 E, Orem, UT 84057","precinct":"25OR13","hd":"58","v_score":"35.30276996","decile":"10","lat":40.31269606948989,"lng":-111.69046101575663},{"vid":"e467c96fbb172373aab91c224da0b44e14716e14b3700292ff3304b37ba6e979","name":"Ms. Aliza Legros","party":"Rep","address":"848 N 200 E, Orem, UT 84057","precinct":"25OR13","hd":"58","v_score":"27.50485858","decile":"10","lat":40.312693344197136,"lng":-111.69081947248073},{"vid":"6299811","name":"Mr. Jarod Grant MD","party":"","address":"225 E 1000 N, Orem, UT 84057","precinct":"25OR13","hd":"58","v_score":"43.51438145","decile":"10","lat":40.31590333087318,"lng":-111.69048546818097},{"vid":"6300603","name":"Dr. Celestine Donnelly","party":"Dem","address":"566 E 1090 N, Orem, UT 84097","precinct":"25OR13","hd":"58","v_score":"43.22595857","decile":"10","lat":40.31714974569548,"lng":-111.68235442783056},{"vid":"6302086","name":"Ms. Elmina Bins DVM","party":"Rep","address":"988 N 560 E, Orem, UT 84097","precinct":"25OR13","hd":"58","v_score":"14.74039814","decile":"9","lat":40.31539225498749,"lng":-111.68213783323579},{"vid":"6307719","name":"Eddy Ryan","party":"Rep","address":"872 N 350 E, Orem, UT 84057","precinct":"25OR13","hd":"58","v_score":"7.068839189","decile":"8","lat":40.31302925813041,"lng":-111.68716836882311},{"vid":"6308039","name":"Lucius Abbott","party":"Dem","address":"845 N 200 E, Orem, UT 84057","precinct":"25OR13","hd":"58","v_score":"8.347511332","decile":"8","lat":40.31255060236728,"lng":-111.69157316220812},{"vid":"6308053","name":"Wm Dooley","party":"Rep","address":"384 E 1140 N, Orem, UT 84057","precinct":"25OR13","hd":"58","v_score":"26.35608728","decile":"10","lat":40.317672225386794,"lng":-111.68659779118533},{"vid":"6310629","name":"Vashti Collier","party":"Rep","address":"505 E 950 N, Orem, UT 84097","precinct":"25OR13","hd":"58","v_score":"8.280646305","decile":"8","lat":40.31489379062207,"lng":-111.68378388860931},{"vid":"6320109","name":"Kalel Kunze","party":"Rep","address":"589 E 1050 N, Orem, UT 84097","precinct":"25OR13","hd":"58","v_score":"12.58300477","decile":"9","lat":40.316815527445875,"lng":-111.68172622278296},{"vid":"6320152","name":"Cathrine VonRueden","party":"","address":"984 N 475 E, Orem, UT 84097","precinct":"25OR13","hd":"58","v_score":"1.121327652","decile":"3","lat":40.31537337183385,"lng":-111.68409983780877},{"vid":"6321148","name":"Miss Estefany Hansen PhD","party":"Rep","address":"326 E 1000 N, Orem, UT 84057","precinct":"25OR13","hd":"58","v_score":"8.280646305","decile":"8","lat":40.31537871509788,"lng":-111.68822105060563},{"vid":"5f840e381d643b7028f92156752bf41ebfe0f393fb0026f655c7eb417915c13e","name":"Andrae Ernser","party":"Dem","address":"984 N 475 E, Orem, UT 84097","precinct":"25OR13","hd":"58","v_score":"1.121327652","decile":"3","lat":40.31537337183385,"lng":-111.68409983780877},{"vid":"6343229","name":"Jamari Waelchi-Shields","party":"Rep","address":"370 E 1140 N, Orem, UT 84057","precinct":"25OR13","hd":"58","v_score":"43.22595857","decile":"10","lat":40.31761846595816,"lng":-111.68702326000268},{"vid":"6343253","name":"Marty Keeling","party":"Rep","address":"370 E 1140 N, Orem, UT 84057","precinct":"25OR13","hd":"58","v_score":"43.22595857","decile":"10","lat":40.31761846595816,"lng":-111.68702326000268},{"vid":"6345722","name":"Trena Reinger DVM","party":"","address":"1081 N 475 E, Orem, UT 84097","precinct":"25OR13","hd":"58","v_score":"7.169296324","decile":"8","lat":40.31709938198613,"lng":-111.68465089353275},{"vid":"6346314","name":"Harrison Dibbert III","party":"Dem","address":"957 N 200 E, Orem, UT 84057","precinct":"25OR13","hd":"58","v_score":"26.9144526","decile":"10","lat":40.31483653415223,"lng":-111.69142840079611},{"vid":"6346809","name":"Dr. Shoji Berge PhD","party":"Dem","address":"338 E 1090 N, Orem, UT 84057","precinct":"25OR13","hd":"58","v_score":"38.24567755","decile":"10","lat":40.31688902683121,"lng":-111.68789606834295},{"vid":"6347110","name":"Nallely Shanahan-Ledner","party":"","address":"1095 N 200 E, Orem, UT 84057","precinct":"25OR13","hd":"58","v_score":"12.64191471","decile":"9","lat":40.31730206003931,"lng":-111.69150853546022},{"vid":"6347241","name":"Kinte Brown","party":"","address":"976 N 300 E, Orem, UT 84057","precinct":"25OR13","hd":"58","v_score":"35.30276996","decile":"10","lat":40.3149957654176,"lng":-111.68834326196837},{"vid":"6348320","name":"Demi Hudson","party":"Dem","address":"507 E 1090 N, Orem, UT 84097","precinct":"25OR13","hd":"58","v_score":"45.25229277","decile":"10","lat":40.31755612404325,"lng":-111.68382626444435},{"vid":"6364774","name":"Clarnce Roob","party":"","address":"990 N 350 E, Orem, UT 84057","precinct":"25OR13","hd":"58","v_score":"3.93832808","decile":"6","lat":40.31550979631213,"lng":-111.68734811131745},{"vid":"6373615","name":"Biddie Crooks","party":"Dem","address":"1114 N 140 E, Orem, UT 84057","precinct":"25OR13","hd":"58","v_score":"11.69112346","decile":"9","lat":40.317559114474044,"lng":-111.69228244684504},{"vid":"6377483","name":"Analia Hills","party":"","address":"1045 N 475 E, Orem, UT 84097","precinct":"25OR13","hd":"58","v_score":"33.02752771","decile":"10","lat":40.31646024682242,"lng":-111.68474760819906},{"vid":"6379300","name":"Dr. Glendon Howell I","party":"Rep","address":"1031 N 400 E, Orem, UT 84097","precinct":"25OR13","hd":"58","v_score":"13.06193014","decile":"9","lat":40.31620720690633,"lng":-111.68653745865433},{"vid":"6380197","name":"Archibald Reilly","party":"Dem","address":"192 E 865 N, Orem, UT 84057","precinct":"25OR13","hd":"58","v_score":"8.863731383","decile":"8","lat":40.312912225293296,"lng":-111.6915575266042},{"vid":"6380198","name":"Savion Schultz","party":"","address":"265 E 1000 N, Orem, UT 84057","precinct":"25OR13","hd":"58","v_score":"31.14994604","decile":"10","lat":40.31577543838175,"lng":-111.68972568644047},{"vid":"6381779","name":"Ronaldo Reichert-Kris","party":"Rep","address":"909 N Garden Dr, Orem, UT 84057","precinct":"25OR13","hd":"58","v_score":"2.744440783","decile":"6","lat":40.3137862902197,"lng":-111.69208409490089},{"vid":"6384341","name":"Jaquan Ondricka","party":"Rep","address":"987 N 600 E, Orem, UT 84097","precinct":"25OR13","hd":"58","v_score":"38.24567755","decile":"10","lat":40.315392919262194,"lng":-111.6817479200257},{"vid":"7447342fcd7f985ec0a32bff2a34e039b3840e7f1930f42e9f3817ebcd3de147","name":"Mena Yundt PhD","party":"","address":"361 E 1090 N, Orem, UT 84057","precinct":"25OR13","hd":"58","v_score":"16.72520646","decile":"9","lat":40.31730940071282,"lng":-111.68727283875842},