[{"id":"92","name":"Akira Nolan","party":"","address":"88 E 1850 N, Orem, UT 84057","precinct":"25OR04","hd":"58","v_score":"30.86020033","decile":"10","lat":40.331024700304,"lng":-111.694157841945},{"id":"303","name":"Lorayne Larkin","party":"Rep","address":"286 E 1660 N, Orem, UT 84057","precinct":"25OR04","hd":"58","v_score":"24.33873278","decile":"10","lat":40.327711622219,"lng":-111.68951687301},{"id":"391","name":"Brion Corkery","party":"Rep","address":"274 Gold River Cir, Orem, UT 84057","precinct":"25OR04","hd":"58","v_score":"21.70848868","decile":"10","lat":40.329223056709,"lng":-111.689399834847},{"id":"1238","name":"Eryn Morar","party":"Rep","address":"1775 N 165 E, Orem, UT 84057","precinct":"25OR04","hd":"58","v_score":"11.29723756","decile":"9","lat":40.329856112744,"lng":-111.692351541224},{"id":"1454","name":"Augustine Braun","party":"Dem","address":"218 E 2000 N, Orem, UT 84057","precinct":"25OR04","hd":"58","v_score":"9.567299636","decile":"8","lat":40.33375169975,"lng":-111.690970698716},{"id":"1469","name":"Yvette Stroman PhD","party":"","address":"1762 Moor Ln, Orem, UT 84057","precinct":"25OR04","hd":"58","v_score":"34.85905964","decile":"10","lat":40.329086941348,"lng":-111.688403802845},{"id":"2429","name":"Mr. Hollis Dach","party":"Dem","address":"293 Heather Cir, Orem, UT 84057","precinct":"25OR04","hd":"58","v_score":"20.46505704","decile":"10","lat":40.331609521244,"lng":-111.689126061054},{"id":"2469","name":"Dr. Dashawn Abshire IV","party":"Rep","address":"217 Heather Rd, Orem, UT 84057","precinct":"25OR04","hd":"58","v_score":"3.781490609","decile":"6","lat":40.332496981421,"lng":-111.691632791492},{"id":"2723","name":"Mr. Camden Cole I","party":"","address":"240 Ridge Rd, Orem, UT 84057","precinct":"25OR04","hd":"58","v_score":"26.41733837","decile":"10","lat":40.331053389744,"lng":-111.691241446777},{"id":"2958","name":"Dedric Hackett","party":"","address":"286 Heather Rd, Orem, UT 84057","precinct":"25OR04","hd":"58","v_score":"20.93978478","decile":"10","lat":40.331092662251,"lng":-111.690011736114},{"id":"3539","name":"Elizabet Welch","party":"","address":"202 Heather Rd, Orem, UT 84057","precinct":"25OR04","hd":"58","v_score":"3.93832808","decile":"6","lat":40.332557234959,"lng":-111.692056495392},{"id":"3550","name":"Beatrix Halvorson MD","party":"Rep","address":"1963 N 190 E, Orem, UT 84057","precinct":"25OR04","hd":"58","v_score":"6.954919332","decile":"8","lat":40.333002197151,"lng":-111.691965270845},{"id":"3869","name":"Miss Amani Monahan","party":"Dem","address":"306 Ridge Rd, Orem, UT 84057","precinct":"25OR04","hd":"58","v_score":"11.99259879","decile":"9","lat":40.33009479026,"lng":-111.689491609805},{"id":"4021","name":"Marvin Gleason","party":"Dem","address":"310 Heather Rd, Orem, UT 84057","precinct":"25OR04","hd":"58","v_score":"1.121327652","decile":"3","lat":40.330871608588,"lng":-111.689535960498},{"id":"4022","name":"Genie Oberbrunner-Veum","party":"Rep","address":"16 E 1775 N, Orem, UT 84057","precinct":"25OR04","hd":"58","v_score":"3.93832808","decile":"6","lat":40.329683206349,"lng":-111.695663438138},{"id":"4145","name":"Orley Bogan","party":"","address":"1646 N Main St, Orem, UT 84057","precinct":"25OR04","hd":"58","v_score":"12.49472132","decile":"9","lat":40.327464973288,"lng":-111.6967861215},{"id":"4321","name":"Fritz Jerde","party":"","address":"348 E 2000 N, Orem, UT 84057","precinct":"25OR04","hd":"58","v_score":"11.29723756","decile":"9","lat":40.333751699528,"lng":-111.688073549354},{"id":"4322","name":"Calleigh Kohler-Bergstrom","party":"Rep","address":"285 Gold River Cir, Orem, UT 84057","precinct":"25OR04","hd":"58","v_score":"10.10670883","decile":"9","lat":40.329331401463,"lng":-111.68946461958},{"id":"4793","name":"Baldwin Lueilwitz","party":"","address":"172 E 2000 N, Orem, UT 84057","precinct":"25OR04","hd":"58","v_score":"17.95209764","decile":"10","lat":40.333751699814,"lng":-111.691810999013},{"id":"4914","name":"Michell Bins","party":"Dem","address":"288 E Heather Rd, Orem, UT 84057","precinct":"25OR04","hd":"58","v_score":"13.24168426","decile":"9","lat":40.33107393747,"lng":-111.689974286564},{"id":"5081","name":"Douglass McGlynn","party":"Rep","address":"294 Heather Cir, Orem, UT 84057","precinct":"25OR04","hd":"58","v_score":"21.36826941","decile":"10","lat":40.331508052347,"lng":-111.689196504122},{"id":"6271","name":"Francesco Johnston PhD","party":"Rep","address":"1628 N 160 E, Orem, UT 84057","precinct":"25OR04","hd":"58","v_score":"1.193887297","decile":"3","lat":40.328229631053,"lng":-111.699914708708},{"id":"7132","name":"Reinhold Douglas","party":"","address":"19 E 1775 N, Orem, UT 84057","precinct":"25OR04","hd":"58","v_score":"35.30276996","decile":"10","lat":40.329791297675,"lng":-111.695714883895},{"id":"7484","name":"Dr. Almira Welch","party":"Rep","address":"228 Ridge Rd, Orem, UT 84057","precinct":"25OR04","hd":"58","v_score":"9.631989308","decile":"8","lat":40.331362292194,"lng":-111.691589368936},{"id":"8004","name":"Woodson Grady","party":"","address":"172 E 2000 N, Orem, UT 84057","precinct":"25OR04","hd":"58","v_score":"11.65979122","decile":"9","lat":40.333751699814,"lng":-111.691810999013},{"id":"8094","name":"Aida Marks","party":"","address":"1731 N 210 E, Orem, UT 84057","precinct":"25OR04","hd":"58","v_score":"22.16617265","decile":"10","lat":40.32827437481,"lng":-111.691202360154},{"id":"8510","name":"Livia Bradtke","party":"","address":"1783 N 120 E, Orem, UT 84057","precinct":"25OR04","hd":"58","v_score":"3.93832808","decile":"6","lat":40.329969023537,"lng":-111.693403507349},{"id":"8596","name":"Dow Hilll Jr.","party":"","address":"232 E 2000 N, Orem, UT 84057","precinct":"25OR04","hd":"58","v_score":"9.750280533","decile":"8","lat":40.333751699732,"lng":-111.690733404258},{"id":"11033","name":"Dr. Latoria Sauer PhD","party":"","address":"229 Ridge Rd, Orem, UT 84057","precinct":"25OR04","hd":"58","v_score":"13.63581767","decile":"9","lat":40.331525140055,"lng":-111.691576927768},{"id":"11135","name":"Brea Heidenreich","party":"Rep","address":"345 Heather Rd, Orem, UT 84057","precinct":"25OR04","hd":"58","v_score":"2.817000428","decile":"6","lat":40.330863167283,"lng":-111.68896892322},{"id":"11357","name":"Mr. Terell Wyman PhD","party":"Rep","address":"1775 N 165 E, Orem, UT 84057","precinct":"25OR04","hd":"58","v_score":"11.29723756","decile":"9","lat":40.329856112744,"lng":-111.692351541224},{"id":"11568","name":"Issac Jacobson","party":"Dem","address":"95 E 1960 N, Orem, UT 84057","precinct":"25OR04","hd":"58","v_score":"9.61867875","decile":"8","lat":40.333185470603,"lng":-111.694033110574},{"id":"11734","name":"Syed Klein","party":"","address":"273 E Gold River Cir, Orem, UT 84057","precinct":"25OR04","hd":"58","v_score":"12.49472132","decile":"9","lat":40.32930630817,"lng":-111.689503473715},{"id":"13358","name":"Gisele Fay DVM","party":"","address":"221 E Ridge Rd, Orem, UT 84057","precinct":"25OR04","hd":"58","v_score":"1.121327652","decile":"3","lat":40.331644425621,"lng":-111.691714365445},{"id":"13808","name":"Omar Grimes","party":"","address":"123 E 1850 N, Orem, UT 84057","precinct":"25OR04","hd":"58","v_score":"10.36948566","decile":"9","lat":40.331139291662,"lng":-111.693817261073},{"id":"13876","name":"Miss Shannen Smitham DVM","party":"","address":"1973 N 400 E, Orem, UT 84097","precinct":"25OR04","hd":"58","v_score":"8.445971984","decile":"8","lat":40.33325682491,"lng":-111.686755005012},{"id":"14302","name":"Kelley Boehm","party":"Rep","address":"1940 N 270 E, Orem, UT 84057","precinct":"25OR04","hd":"58","v_score":"2.744440783","decile":"5","lat":40.332249068205,"lng":-111.69017511999},{"id":"14773","name":"Jules Rutherford-Johnson","party":"Dem","address":"1967 N 150 E, Orem, UT 84057","precinct":"25OR04","hd":"58","v_score":"8.601979876","decile":"8","lat":40.333195863848,"lng":-111.692904411024},{"id":"16477","name":"Farris Hyatt","party":"","address":"122 E 2000 N, Orem, UT 84057","precinct":"25OR04","hd":"58","v_score":"6.897264703","decile":"8","lat":40.333751699883,"lng":-111.692714024259},{"id":"16598","name":"Twyla Rohan","party":"Rep","address":"1961 N 270 E, Orem, UT 84057","precinct":"25OR04","hd":"58","v_score":"1.46627566","decile":"4","lat":40.333058699743,"lng":-111.689856524067},{"id":"17171","name":"Heath Hayes","party":"Rep","address":"164 E Ridge Rd, Orem, UT 84057","precinct":"25OR04","hd":"58","v_score":"5.530510904","decile":"7","lat":40.332165876967,"lng":-111.692980774619},{"id":"17458","name":"Nakia Cummerata-Runolfsson","party":"Rep","address":"1937 N 325 E, Orem, UT 84057","precinct":"25OR04","hd":"58","v_score":"9.61867875","decile":"8","lat":40.332778359014,"lng":-111.688454625258},{"id":"18117","name":"Joye Yundt-Fay","party":"","address":"218 E 2000 N, Orem, UT 84057","precinct":"25OR04","hd":"58","v_score":"5.273794831","decile":"7","lat":40.33375169975,"lng":-111.690970698716},{"id":"18550","name":"Dr. Trace Tremblay","party":"","address":"69 E 1960 N, Orem, UT 84057","precinct":"25OR04","hd":"58","v_score":"16.49595278","decile":"9","lat":40.333201443731,"lng":-111.694317295865},{"id":"19440","name":"Lucien Greenfelder","party":"Dem","address":"240 Ridge Rd, Orem, UT 84057","precinct":"25OR04","hd":"58","v_score":"26.41733837","decile":"10","lat":40.331053389744,"lng":-111.691241446777},{"id":"19476","name":"Stacey Rosenbaum","party":"Rep","address":"323 Heather Cir, Orem, UT 84057","precinct":"25OR04","hd":"58","v_score":"1.623113131","decile":"4","lat":40.331601573923,"lng":-111.689027418055},{"id":"19626","name":"Oris Simonis","party":"Rep","address":"29 E 1700 N, Orem, UT 84057","precinct":"25OR04","hd":"58","v_score":"3.781490609","decile":"6","lat":40.32903361266,"lng":-111.695548668335},{"id":"19654","name":"Goldia Waters-Gusikowski","party":"Dem","address":"332 Ridge Rd, Orem, UT 84057","precinct":"25OR04","hd":"58","v_score":"6.979934218","decile":"8","lat":40.330043673872,"lng":-111.689161909301},{"id":"19918","name":"Dusty Ryan I","party":"Dem","address":"1683 N Moor Ln, Orem, UT 84057","precinct":"25OR04","hd":"58","v_score":"19.22326505","decile":"10","lat":40.328177719058,"lng":-111.688070018066},{"id":"20184","name":"Deanne Howe","party":"","address":"1652 N Main St, Orem, UT 84057","precinct":"25OR04","hd":"58","v_score":"3.93832808","decile":"6","lat":40.327568391126,"lng":-111.696733210038},{"id":"20574","name":"Winnie Dickinson","party":"","address":"1671 N 50 E, Orem, UT 84057","precinct":"25OR04","hd":"58","v_score":"0","decile":"1","lat":40.328314964569,"lng":-111.695344003096},{"id":"20677","name":"Shara Ruecker","party":"","address":"282 E Gold River Cir, Orem, UT 84057","precinct":"25OR04","hd":"58","v_score":"3.089388791","decile":"6","lat":40.329239785571,"lng":-111.68937393209},{"id":"21097","name":"Mr. Burns Farrell I","party":"Rep","address":"281 Heather Rd, Orem, UT 84057","precinct":"25OR04","hd":"58","v_score":"2.315214949","decile":"5","lat":40.331324060216,"lng":-111.690158346784},{"id":"21521","name":"Jenny Turcotte","party":"Rep","address":"33 E 1600 N, Orem, UT 84057","precinct":"25OR04","hd":"58","v_score":"2.315214949","decile":"5","lat":40.326675292306,"lng":-111.695592851304},{"id":"22455","name":"Jenni Baumbach","party":"Dem","address":"1778 N Main St, Orem, UT 84057","precinct":"25OR04","hd":"58","v_score":"20.93928147","decile":"10","lat":40.32988409504,"lng":-111.696655688527},{"id":"22789","name":"Tiera Batz","party":"Dem","address":"1757 N Gold River Dr, Orem, UT 84057","precinct":"25OR04","hd":"58","v_score":"30.09399432","decile":"10","lat":40.328911673068,"lng":-111.689624609758},{"id":"23130","name":"Rand Metz","party":"Dem","address":"16 E 1775 N, Orem, UT 84057","precinct":"25OR04","hd":"58","v_score":"1.121327652","decile":"3","lat":40.329683206349,"lng":-111.695663438138},{"id":"23456","name":"Milburn Gusikowski","party":"","address":"298 E 1960 N, Orem, UT 84057","precinct":"25OR04","hd":"58","v_score":"11.02844566","decile":"9","lat":40.333050524952,"lng":-111.689430993502},{"id":"23609","name":"Becky Cruickshank","party":"Dem","address":"1612 N 210 E, Orem, UT 84057","precinct":"25OR04","hd":"58","v_score":"20.35949772","decile":"10","lat":40.326880830558,"lng":-111.691005532889},{"id":"23994","name":"Bessie Conn","party":"Dem","address":"281 Heather Rd, Orem, UT 84057","precinct":"25OR04","hd":"58","v_score":"2.315214949","decile":"5","lat":40.331324060216,"lng":-111.690158346784},{"id":"24200","name":"Lotta McDermott","party":"","address":"1936 N 325 E, Orem, UT 84057","precinct":"25OR04","hd":"58","v_score":"0","decile":"1","lat":40.332766254901,"lng":-111.688305143688},{"id":"25346","name":"Earl Will-Eichmann","party":"Rep","address":"1966 N 150 E, Orem, UT 84057","precinct":"25OR04","hd":"58","v_score":"14.74552778","decile":"9","lat":40.333138278569,"lng":-111.692774446485},{"id":"26193","name":"Harvey Corkery","party":"","address":"203 Ridge Rd, Orem, UT 84057","precinct":"25OR04","hd":"58","v_score":"13.87621747","decile":"9","lat":40.331888691029,"lng":-111.692076593339},{"id":"26328","name":"Gerry Little","party":"","address":"322 E 2000 N, Orem, UT 84057","precinct":"25OR04","hd":"58","v_score":"6.724398202","decile":"8","lat":40.33375169958,"lng":-111.688756321776},{"id":"26457","name":"Darron Lueilwitz","party":"Dem","address":"1660 N Main St, Orem, UT 84057","precinct":"25OR04","hd":"58","v_score":"3.93832808","decile":"6","lat":40.327708115846,"lng":-111.696662295077},{"id":"26941","name":"Lucian Schmeler-Von","party":"","address":"85 E 1600 N, Orem, UT 84057","precinct":"25OR04","hd":"58","v_score":"22.35404582","decile":"10","lat":40.326679510055,"lng":-111.694238616091},{"id":"27653","name":"Alex Thompson","party":"Rep","address":"1765 Gold River Dr, Orem, UT 84057","precinct":"25OR04","hd":"58","v_score":"9.116556227","decile":"8","lat":40.3289940273,"lng":-111.689741278221},{"id":"27664","name":"Glenn Raynor","party":"","address":"1851 N 285 E, Orem, UT 84057","precinct":"25OR04","hd":"58","v_score":"2.315214949","decile":"5","lat":40.331669190154,"lng":-111.689741636664},{"id":"29089","name":"Lori Ziemann","party":"Rep","address":"1765 N Moor Ln, Orem, UT 84057","precinct":"25OR04","hd":"58","v_score":"5.40460374","decile":"7","lat":40.329182864049,"lng":-111.688551413738},{"id":"29558","name":"Mabel Vandervort","party":"","address":"269 E 1620 N, Orem, UT 84057","precinct":"25OR04","hd":"58","v_score":"3.93832808","decile":"6","lat":40.327107578393,"lng":-111.689872497868},{"id":"29570","name":"Eleanore Hermann-Padberg","party":"","address":"310 E 2000 N, Orem, UT 84057","precinct":"25OR04","hd":"58","v_score":"4.409183253","decile":"7","lat":40.333751699604,"lng":-111.689071447508},{"id":"29973","name":"Kelton Mills","party":"Rep","address":"1889 N 285 E, Orem, UT 84057","precinct":"25OR04","hd":"58","v_score":"19.9122117","decile":"10","lat":40.332216445339,"lng":-111.68933645307},{"id":"30088","name":"Deryl Schuppe","party":"Dem","address":"1739 Moor Ln, Orem, UT 84057","precinct":"25OR04","hd":"58","v_score":"5.530510904","decile":"7","lat":40.328691699434,"lng":-111.688529058419},{"id":"30218","name":"Duncan Grady-Cruickshank","party":"","address":"1810 N 80 E, Orem, UT 84057","precinct":"25OR04","hd":"58","v_score":"5.335065618","decile":"7","lat":40.329936539335,"lng":-111.694252376182},{"id":"30433","name":"Jereme Aufderhar","party":"Dem","address":"95 E 1960 N, Orem, UT 84057","precinct":"25OR04","hd":"58","v_score":"8.15240309","decile":"8","lat":40.333185470603,"lng":-111.694033110574},{"id":"31466","name":"Marylin Koch","party":"Rep","address":"322 E 2000 N, Orem, UT 84057","precinct":"25OR04","hd":"58","v_score":"6.724398202","decile":"8","lat":40.33375169958,"lng":-111.688756321776},{"id":"31472","name":"Bryson King","party":"Dem","address":"1697 Moor Ln, Orem, UT 84057","precinct":"25OR04","hd":"58","v_score":"26.58440961","decile":"10","lat":40.328280253439,"lng":-111.68821649571},{"id":"31473","name":"Mikel Rau","party":"Rep","address":"1685 N 250 E, Orem, UT 84057","precinct":"25OR04","hd":"58","v_score":"9.839815554","decile":"8","lat":40.327942013629,"lng":-111.690249703257},{"id":"32154","name":"Precious Runte","party":"Rep","address":"322 E 2000 N, Orem, UT 84057","precinct":"25OR04","hd":"58","v_score":"7.153624035","decile":"8","lat":40.33375169958,"lng":-111.688756321776},{"id":"32802","name":"Juliette Metz-Eichmann","party":"Dem","address":"218 E 2000 N, Orem, UT 84057","precinct":"25OR04","hd":"58","v_score":"7.934314529","decile":"8","lat":40.33375169975,"lng":-111.690970698716},{"id":"33324","name":"Stefanie Mitchell DVM","party":"Dem","address":"1652 N Main St, Orem, UT 84057","precinct":"25OR04","hd":"58","v_score":"3.93832808","decile":"6","lat":40.327568391126,"lng":-111.696733210038},{"id":"33588","name":"Yareli Lehner-Williamson","party":"Rep","address":"107 E 1600 N, Orem, UT 84057","precinct":"25OR04","hd":"58","v_score":"0","decile":"1","lat":40.326681574182,"lng":-111.693680258189},{"id":"33915","name":"Dewitt Kemmer","party":"","address":"1976 N 150 E, Orem, UT 84057","precinct":"25OR04","hd":"58","v_score":"1.121327652","decile":"3","lat":40.333305844959,"lng":-111.692646677094},{"id":"34146","name":"Orla Bode-Jacobi","party":"Rep","address":"1670 N 250 E, Orem, UT 84057","precinct":"25OR04","hd":"58","v_score":"6.884189957","decile":"8","lat":40.327909320894,"lng":-111.690101617189},{"id":"34158","name":"Taraji Watsica","party":"","address":"240 Ridge Rd, Orem, UT 84057","precinct":"25OR04","hd":"58","v_score":"1.121327652","decile":"3","lat":40.331053389744,"lng":-111.691241446777},{"id":"34294","name":"Ainsley Macejkovic","party":"Dem","address":"1759 Moor Ln, Orem, UT 84057","precinct":"25OR04","hd":"58","v_score":"9.116556227","decile":"8","lat":40.329091772374,"lng":-111.688554016369},{"id":"34571","name":"Dr. Cain Bednar","party":"","address":"1973 N 400 E, Orem, UT 84097","precinct":"25OR04","hd":"58","v_score":"1.121327652","decile":"3","lat":40.33325682491,"lng":-111.686755005012},{"id":"34868","name":"Miss Danna McGlynn MD","party":"Dem","address":"289 E 1890 N, Orem, UT 84057","precinct":"25OR04","hd":"58","v_score":"1.193887297","decile":"3","lat":40.332368549992,"lng":-111.688563674968},{"id":"35967","name":"Delano D'Amore","party":"Rep","address":"280 E Heather Rd, Orem, UT 84057","precinct":"25OR04","hd":"58","v_score":"31.13427375","decile":"10","lat":40.331311207912,"lng":-111.690348082868},{"id":"36572","name":"Gregory Gottlieb","party":"Dem","address":"1964 N 230 E, Orem, UT 84057","precinct":"25OR04","hd":"58","v_score":"9.405332525","decile":"8","lat":40.332816841236,"lng":-111.690830399211},{"id":"37668","name":"Dr. Isabell Pfeffer","party":"Rep","address":"229 Ridge Rd, Orem, UT 84057","precinct":"25OR04","hd":"58","v_score":"18.11868458","decile":"10","lat":40.331525140055,"lng":-111.691576927768},{"id":"38341","name":"Graham Upton","party":"","address":"1945 N 150 E, Orem, UT 84057","precinct":"25OR04","hd":"58","v_score":"2.587603312","decile":"5","lat":40.33287085417,"lng":-111.693147482135},{"id":"38457","name":"Genoveva Padberg DDS","party":"Dem","address":"232 E 2000 N, Orem, UT 84057","precinct":"25OR04","hd":"58","v_score":"11.99595736","decile":"9","lat":40.333751699732,"lng":-111.690733404258},{"id":"38879","name":"Eldred Nikolaus","party":"","address":"1670 N 250 E, Orem, UT 84057","precinct":"25OR04","hd":"58","v_score":"2.315214949","decile":"5","lat":40.327909320894,"lng":-111.690101617189},{"id":"38964","name":"Gardner O'Hara","party":"","address":"117 E Ridge Rd, Orem, UT 84057","precinct":"25OR04","hd":"58","v_score":"1.121327652","decile":"3","lat":40.332474550069,"lng":-111.693855069898},{"id":"39170","name":"Randall Wilkinson","party":"Dem","address":"1928 N 230 E, Orem, UT 84057","precinct":"25OR04","hd":"58","v_score":"1.623113131","decile":"4","lat":40.332516160665,"lng":-111.691055909671},{"id":"39524","name":"Ms. Delinda Towne PhD","party":"Dem","address":"1756 N Main St, Orem, UT 84057","precinct":"25OR04","hd":"58","v_score":"2.660162957","decile":"5","lat":40.329477414022,"lng":-111.696633824011},{"id":"40062","name":"Darion Lesch","party":"Rep","address":"1972 N Main St, Orem, UT 84057","precinct":"25OR04","hd":"58","v_score":"17.75312505","decile":"10","lat":40.333269111557,"lng":-111.696264034577},{"id":"41068","name":"Herschel Zulauf I","party":"","address":"203 E Ridge Rd, Orem, UT 84057","precinct":"25OR04","hd":"58","v_score":"12.66012701","decile":"9","lat":40.331888691029,"lng":-111.692076593339},{"id":"41256","name":"Dr. Liana Hand PhD","party":"Dem","address":"1774 N Gold River Dr, Orem, UT 84057","precinct":"25OR04","hd":"58","v_score":"15.51131257","decile":"9","lat":40.329554594179,"lng":-111.690080762983},{"id":"41681","name":"Jonnie Veum","party":"Rep","address":"1945 N 150 E, Orem, UT 84057","precinct":"25OR04","hd":"58","v_score":"2.587603312","decile":"5","lat":40.33287085417,"lng":-111.693147482135},{"id":"42024","name":"Amari Bogisich","party":"Dem","address":"220 Ridge Rd, Orem, UT 84057","precinct":"25OR04","hd":"58","v_score":"2.817000428","decile":"6","lat":40.331490524178,"lng":-111.691737114439},{"id":"42819","name":"Melany Miller","party":"Rep","address":"395 E 1650 N, Orem, UT 84057","precinct":"25OR04","hd":"58","v_score":"0","decile":"1","lat":40.327588128149,"lng":-111.686620395306},{"id":"42961","name":"Layton Turner","party":"Rep","address":"282 Gold River Cir, Orem, UT 84057","precinct":"25OR04","hd":"58","v_score":"0","decile":"1","lat":40.329239785571,"lng":-111.68937393209},{"id":"43781","name":"Mr. Willis Oberbrunner","party":"Rep","address":"314 E Heather Cir, Orem, UT 84057","precinct":"25OR04","hd":"58","v_score":"10.42565066","decile":"9","lat":40.331489088893,"lng":-111.68907385028},{"id":"43904","name":"Gilberto Langosh","party":"","address":"203 Ridge Rd, Orem, UT 84057","precinct":"25OR04","hd":"58","v_score":"7.041027428","decile":"8","lat":40.331888691029,"lng":-111.692076593339},{"id":"43929","name":"Mr. Bjorn Nolan","party":"","address":"1789 N 80 E, Orem, UT 84057","precinct":"25OR04","hd":"58","v_score":"35.69840368","decile":"10","lat":40.329851452954,"lng":-111.694404846793},{"id":"44340","name":"Elwood Kovacek IV","party":"","address":"122 E 2000 N, Orem, UT 84057","precinct":"25OR04","hd":"58","v_score":"8.091152","decile":"8","lat":40.333751699883,"lng":-111.692714024259},{"id":"44539","name":"Tyquan Schamberger","party":"Dem","address":"1972 N MAIN St, Orem, UT 84057","precinct":"25OR04","hd":"58","v_score":"12.93256291","decile":"9","lat":40.333269111557,"lng":-111.696264034577},{"id":"45377","name":"Dr. Flint Hoeger","party":"Dem","address":"217 Ridge Rd, Orem, UT 84057","precinct":"25OR04","hd":"58","v_score":"5.258122542","decile":"7","lat":40.331704068404,"lng":-111.691783084284},{"id":"45423","name":"Jaeden Balistreri IV","party":"","address":"315 Heather Rd, Orem, UT 84057","precinct":"25OR04","hd":"58","v_score":"1.121327652","decile":"3","lat":40.330980467512,"lng":-111.689488776269},{"id":"45899","name":"Winfred Cummerata","party":"Dem","address":"314 E Heather Cir, Orem, UT 84057","precinct":"25OR04","hd":"58","v_score":"15.02598214","decile":"9","lat":40.331489088893,"lng":-111.68907385028},{"id":"46751","name":"Ima Reilly-Klocko","party":"Dem","address":"114 E Ridge Rd, Orem, UT 84057","precinct":"25OR04","hd":"58","v_score":"0","decile":"1","lat":40.332358281385,"lng":-111.693860674402},{"id":"47195","name":"Kurt Raynor","party":"Rep","address":"384 E Heather Rd, Orem, UT 84057","precinct":"25OR04","hd":"58","v_score":"9.760232523","decile":"8","lat":40.330327395547,"lng":-111.687955532693},{"id":"47356","name":"Lambert Cassin","party":"","address":"354 Heather Rd, Orem, UT 84057","precinct":"25OR04","hd":"58","v_score":"0","decile":"1","lat":40.330640789123,"lng":-111.688625736404},{"id":"47425","name":"Edith Wunsch-Glover","party":"Rep","address":"354 E 1950 N, Orem, UT 84057","precinct":"25OR04","hd":"58","v_score":"10.52632313","decile":"9","lat":40.332947337217,"lng":-111.687912555885},{"id":"47945","name":"Darrin Ondricka","party":"","address":"1634 N 210 E, Orem, UT 84057","precinct":"25OR04","hd":"58","v_score":"4.069929862","decile":"6","lat":40.327296049215,"lng":-111.691017466481},{"id":"48330","name":"Randy Feest","party":"Dem","address":"134 E 1750 N, Orem, UT 84057","precinct":"25OR04","hd":"58","v_score":"6.657533174","decile":"7","lat":40.329379391001,"lng":-111.693134484792},{"id":"48363","name":"Bethann Boyer","party":"","address":"16 E 1775 N, Orem, UT 84057","precinct":"25OR04","hd":"58","v_score":"2.587603312","decile":"5","lat":40.329683206349,"lng":-111.695663438138},{"id":"48434","name":"Farris Ruecker","party":"Dem","address":"33 E 1600 N, Orem, UT 84057","precinct":"25OR04","hd":"58","v_score":"1.193887297","decile":"3","lat":40.326675292306,"lng":-111.695592851304},{"id":"48516","name":"Ibrahim Rath","party":"","address":"1727 Moor Ln, Orem, UT 84057","precinct":"25OR04","hd":"58","v_score":"24.93681795","decile":"10","lat":40.328553617941,"lng":-111.688483583681},{"id":"49097","name":"Dr. Trish Grady","party":"","address":"228 Ridge Rd, Orem, UT 84057","precinct":"25OR04","hd":"58","v_score":"2.315214949","decile":"5","lat":40.331362292194,"lng":-111.691589368936},{"id":"49801","name":"Dr. Stuart McCullough","party":"","address":"1971 N 230 E, Orem, UT 84057","precinct":"25OR04","hd":"58","v_score":"20.93928147","decile":"10","lat":40.332923830469,"lng":-111.69092331392},{"id":"50187","name":"Lisandro Brakus","party":"Rep","address":"1622 N 160 E, Orem, UT 84057","precinct":"25OR04","hd":"58","v_score":"2.587603312","decile":"5","lat":40.328194207907,"lng":-111.699912178489},{"id":"51558","name":"Mrs. Louisiana O'Keefe","party":"Dem","address":"1765 Gold River Dr, Orem, UT 84057","precinct":"25OR04","hd":"58","v_score":"9.116556227","decile":"8","lat":40.3289940273,"lng":-111.689741278221},{"id":"51593","name":"Raleigh Rogahn","party":"","address":"1728 N Main St, Orem, UT 84057","precinct":"25OR04","hd":"58","v_score":"0","decile":"1","lat":40.328965854719,"lng":-111.696590086669},{"id":"51849","name":"Mr. Stone Schultz","party":"Dem","address":"134 E 1750 N, Orem, UT 84057","precinct":"25OR04","hd":"58","v_score":"13.93704549","decile":"9","lat":40.329379391001,"lng":-111.693134484792},{"id":"52183","name":"Dorathea Auer","party":"Dem","address":"83 E 1960 N, Orem, UT 84057","precinct":"25OR04","hd":"58","v_score":"0","decile":"1","lat":40.333209291453,"lng":-111.694164848397},{"id":"52526","name":"Christiana Nicolas","party":"","address":"1646 N Main St, Orem, UT 84057","precinct":"25OR04","hd":"58","v_score":"5.40460374","decile":"7","lat":40.327464973288,"lng":-111.6967861215},{"id":"52577","name":"Dr. Scottie Leuschke","party":"Dem","address":"280 Heather Rd, Orem, UT 84057","precinct":"25OR04","hd":"58","v_score":"34.09285363","decile":"10","lat":40.331311207912,"lng":-111.690348082868},{"id":"52747","name":"Lige Cassin","party":"","address":"245 Ridge Rd, Orem, UT 84057","precinct":"25OR04","hd":"58","v_score":"12.6510998","decile":"9","lat":40.331278003752,"lng":-111.691295066805},{"id":"52930","name":"Lilla Tromp","party":"","address":"1757 Gold River Dr, Orem, UT 84057","precinct":"25OR04","hd":"58","v_score":"22.64413479","decile":"10","lat":40.328911673068,"lng":-111.689624609758},{"id":"53656","name":"Leopoldo O'Reilly III","party":"Rep","address":"1768 Moor Ln, Orem, UT 84057","precinct":"25OR04","hd":"58","v_score":"1.46627566","decile":"4","lat":40.329188543601,"lng":-111.68840089991},{"id":"54036","name":"Rhiannon Mraz","party":"Rep","address":"76 E 1850 N, Orem, UT 84057","precinct":"25OR04","hd":"58","v_score":"12.43347023","decile":"9","lat":40.33102470033,"lng":-111.694498920114},{"id":"54210","name":"Geoff Parisian","party":"","address":"100 E 1850 N, Orem, UT 84057","precinct":"25OR04","hd":"58","v_score":"11.45700587","decile":"9","lat":40.331024700287,"lng":-111.693936802713},{"id":"54469","name":"Evelyn Schultz-Streich","party":"","address":"29 E 1700 N, Orem, UT 84057","precinct":"25OR04","hd":"58","v_score":"2.315214949","decile":"5","lat":40.32903361266,"lng":-111.695548668335},{"id":"54693","name":"Rosanna Herman","party":"","address":"371 E 1890 N, Orem, UT 84057","precinct":"25OR04","hd":"58","v_score":"12.68005359","decile":"9","lat":40.332253145635,"lng":-111.687556819809},{"id":"54864","name":"Kenia Koss-Casper","party":"Dem","address":"1860 N 40 E, Orem, UT 84057","precinct":"25OR04","hd":"58","v_score":"2.315214949","decile":"5","lat":40.331293934245,"lng":-111.695257676951},{"id":"54955","name":"Pate Harvey","party":"","address":"1683 N 210 E, Orem, UT 84057","precinct":"25OR04","hd":"58","v_score":"5.335065618","decile":"7","lat":40.327922892106,"lng":-111.691182677171},{"id":"55300","name":"Justyn Mills","party":"","address":"345 Heather Rd, Orem, UT 84057","precinct":"25OR04","hd":"58","v_score":"2.817000428","decile":"6","lat":40.330863167283,"lng":-111.68896892322},{"id":"55327","name":"Mr. Murdock Cremin","party":"","address":"1621 N 50 E, Orem, UT 84057","precinct":"25OR04","hd":"58","v_score":"2.315214949","decile":"5","lat":40.327212597812,"lng":-111.695480201895},{"id":"55621","name":"Violet Metz","party":"","address":"100 E 1850 N, Orem, UT 84057","precinct":"25OR04","hd":"58","v_score":"3.93832808","decile":"6","lat":40.331024700287,"lng":-111.693936802713},{"id":"56546","name":"Berenice Schultz","party":"Rep","address":"1653 N 210 E, Orem, UT 84057","precinct":"25OR04","hd":"58","v_score":"0","decile":"1","lat":40.327591436552,"lng":-111.691169748404},{"id":"57219","name":"Eve Kautzer PhD","party":"Rep","address":"133 E 1750 N, Orem, UT 84057","precinct":"25OR04","hd":"58","v_score":"0","decile":"1","lat":40.329494119386,"lng":-111.693119371078},{"id":"57575","name":"Casimer Rempel","party":"Dem","address":"1740 N MAIN St, Orem, UT 84057","precinct":"25OR04","hd":"58","v_score":"1.193887297","decile":"3","lat":40.329181646009,"lng":-111.696617922545},{"id":"58007","name":"Mrs. Rosita Gulgowski","party":"Dem","address":"1956 N Main St, Orem, UT 84057","precinct":"25OR04","hd":"58","v_score":"2.315214949","decile":"5","lat":40.332983209927,"lng":-111.696403101928},{"id":"58079","name":"Miss Marvel Pollich DDS","party":"Dem","address":"313 Heather Cir, Orem, UT 84057","precinct":"25OR04","hd":"58","v_score":"8.445971984","decile":"8","lat":40.331603889252,"lng":-111.689072952802},{"id":"58427","name":"Miss Naomi Hills","party":"Rep","address":"1764 Moor Ln, Orem, UT 84057","precinct":"25OR04","hd":"58","v_score":"3.93832808","decile":"6","lat":40.329120808766,"lng":-111.6884028352},{"id":"58637","name":"Hayleigh Kunde-Brakus","party":"Rep","address":"28 E 1850 N, Orem, UT 84057","precinct":"25OR04","hd":"58","v_score":"2.315214949","decile":"5","lat":40.33102470042,"lng":-111.695670656823},{"id":"58730","name":"Damarcus Shanahan","party":"","address":"64 E 1850 N, Orem, UT 84057","precinct":"25OR04","hd":"58","v_score":"4.064235245","decile":"6","lat":40.33102470035,"lng":-111.694759313454},{"id":"58939","name":"Kash Klocko III","party":"Dem","address":"1774 N 80 E, Orem, UT 84057","precinct":"25OR04","hd":"58","v_score":"1.121327652","decile":"3","lat":40.329793734005,"lng":-111.694255946334},{"id":"59451","name":"Efren Rogahn","party":"Dem","address":"1949 N 325 E, Orem, UT 84057","precinct":"25OR04","hd":"58","v_score":"25.84039697","decile":"10","lat":40.33281447693,"lng":-111.68844959243},{"id":"59732","name":"Dellia Raynor","party":"Dem","address":"334 Heather Rd, Orem, UT 84057","precinct":"25OR04","hd":"58","v_score":"7.052493863","decile":"8","lat":40.330755328361,"lng":-111.689020627911},{"id":"59941","name":"Wanda O'Kon","party":"Rep","address":"122 E 2000 N, Orem, UT 84057","precinct":"25OR04","hd":"58","v_score":"1.623113131","decile":"5","lat":40.333751699883,"lng":-111.692714024259},{"id":"60150","name":"Jamin Lindgren","party":"Dem","address":"1664 Moor Ln, Orem, UT 84057","precinct":"25OR04","hd":"58","v_score":"12.14993957","decile":"9","lat":40.328110764848,"lng":-111.687752125404},{"id":"60529","name":"Icie Swift","party":"Rep","address":"1921 N 100 E, Orem, UT 84057","precinct":"25OR04","hd":"58","v_score":"4.499155696","decile":"7","lat":40.332559232829,"lng":-111.694196587554},{"id":"60613","name":"Orvil Schaden","party":"","address":"15 E 1850 N, Orem, UT 84057","precinct":"25OR04","hd":"58","v_score":"5.273794831","decile":"7","lat":40.331139291841,"lng":-111.696156889588},{"id":"60669","name":"Tiney Beer","party":"Dem","address":"293 E Heather Cir, Orem, UT 84057","precinct":"25OR04","hd":"58","v_score":"6.881235673","decile":"8","lat":40.331609521244,"lng":-111.689126061054},{"id":"60790","name":"Monique Cartwright PhD","party":"Dem","address":"203 Ridge Rd, Orem, UT 84057","precinct":"25OR04","hd":"58","v_score":"3.93832808","decile":"6","lat":40.331888691029,"lng":-111.692076593339},{"id":"61214","name":"Marisela McKenzie","party":"","address":"182 E Ridge Rd, Orem, UT 84057","precinct":"25OR04","hd":"58","v_score":"19.11387457","decile":"10","lat":40.331981564492,"lng":-111.692538843717},{"id":"61426","name":"Dr. Dameon Ward","party":"Rep","address":"1782 Gold River Dr, Orem, UT 84057","precinct":"25OR04","hd":"58","v_score":"29.68367038","decile":"10","lat":40.329783212431,"lng":-111.690154239887},{"id":"61621","name":"Monika Feest","party":"Rep","address":"28 E 1850 N, Orem, UT 84057","precinct":"25OR04","hd":"58","v_score":"3.93832808","decile":"6","lat":40.33102470042,"lng":-111.695670656823},{"id":"61625","name":"Miss Elna Schoen","party":"Dem","address":"279 Gold River Cir, Orem, UT 84057","precinct":"25OR04","hd":"58","v_score":"11.73507915","decile":"9","lat":40.329318854816,"lng":-111.689484046647},{"id":"62144","name":"Ms. Alysha Mann MD","party":"","address":"1908 N Main St, Orem, UT 84057","precinct":"25OR04","hd":"58","v_score":"2.744440783","decile":"5","lat":40.332190831049,"lng":-111.696425627003},{"id":"62511","name":"Naima D'Amore","party":"Dem","address":"1936 N 325 E, Orem, UT 84057","precinct":"25OR04","hd":"58","v_score":"1.121327652","decile":"3","lat":40.332766254901,"lng":-111.688305143688},{"id":"62966","name":"Barry Leuschke-Gaylord","party":"Dem","address":"95 E 1960 N, Orem, UT 84057","precinct":"25OR04","hd":"58","v_score":"6.814370645","decile":"8","lat":40.333185470603,"lng":-111.694033110574},{"id":"63104","name":"Zollie Weimann","party":"","address":"17 E 1700 N, Orem, UT 84057","precinct":"25OR04","hd":"58","v_score":"0","decile":"1","lat":40.329031307941,"lng":-111.69559092157},{"id":"63524","name":"Etha Wisoky","party":"Dem","address":"236 E 1660 N, Orem, UT 84057","precinct":"25OR04","hd":"58","v_score":"1.121327652","decile":"3","lat":40.327662472339,"lng":-111.690452591645},{"id":"63537","name":"Leila Tremblay","party":"Dem","address":"236 E 1660 N, Orem, UT 84057","precinct":"25OR04","hd":"58","v_score":"2.315214949","decile":"5","lat":40.327662472339,"lng":-111.690452591645},{"id":"63931","name":"Donnie VonRueden III","party":"Dem","address":"1896 N Main St, Orem, UT 84057","precinct":"25OR04","hd":"58","v_score":"3.93832808","decile":"6","lat":40.331991882755,"lng":-111.696301284362},{"id":"64013","name":"Avis Marvin-Williamson","party":"","address":"1940 N 270 E, Orem, UT 84057","precinct":"25OR04","hd":"58","v_score":"1.121327652","decile":"3","lat":40.332249068205,"lng":-111.69017511999},{"id":"64068","name":"Ms. Edris Luettgen","party":"","address":"287 E 1620 N, Orem, UT 84057","precinct":"25OR04","hd":"58","v_score":"2.315214949","decile":"5","lat":40.327112123512,"lng":-111.689569488453},{"id":"64232","name":"Louetta Carter","party":"Rep","address":"1951 N 400 E, Orem, UT 84097","precinct":"25OR04","hd":"58","v_score":"1.121327652","decile":"3","lat":40.332850556805,"lng":-111.686767085065},{"id":"64369","name":"Dr. Pandora Hauck","party":"","address":"310 Heather Rd, Orem, UT 84057","precinct":"25OR04","hd":"58","v_score":"2.315214949","decile":"5","lat":40.330871608588,"lng":-111.689535960498},{"id":"64509","name":"Argie Swaniawski","party":"","address":"1712 Moor Ln, Orem, UT 84057","precinct":"25OR04","hd":"58","v_score":"1.121327652","decile":"3","lat":40.328447663526,"lng":-111.68823340909},{"id":"64542","name":"Dr. Levy Renner PhD","party":"","address":"1849 N 400 E, Orem, UT 84097","precinct":"25OR04","hd":"58","v_score":"23.47054229","decile":"10","lat":40.331235455813,"lng":-111.687707417542},{"id":"64591","name":"Mr. Tanner Hills DVM","party":"Rep","address":"1782 Gold River Dr, Orem, UT 84057","precinct":"25OR04","hd":"58","v_score":"26.7250905","decile":"10","lat":40.329783212431,"lng":-111.690154239887},{"id":"65650","name":"Hall Wunsch-O'Connell","party":"","address":"123 E 1850 N, Orem, UT 84057","precinct":"25OR04","hd":"58","v_score":"8.134165107","decile":"8","lat":40.331139291662,"lng":-111.693817261073},{"id":"65944","name":"Paris Murphy","party":"Rep","address":"384 E Heather Rd, Orem, UT 84057","precinct":"25OR04","hd":"58","v_score":"11.84611759","decile":"9","lat":40.330327395547,"lng":-111.687955532693},{"id":"66014","name":"Kermit Crooks II","party":"","address":"1908 N Main St, Orem, UT 84057","precinct":"25OR04","hd":"58","v_score":"4.064235245","decile":"6","lat":40.332190831049,"lng":-111.696425627003},{"id":"67248","name":"Reilly Raynor","party":"","address":"1736 N 210 E, Orem, UT 84057","precinct":"25OR04","hd":"58","v_score":"4.137918904","decile":"7","lat":40.328323197809,"lng":-111.691054645042},{"id":"67264","name":"Haleigh Gutkowski","party":"Dem","address":"1964 N 100 E, Orem, UT 84057","precinct":"25OR04","hd":"58","v_score":"3.93832808","decile":"6","lat":40.333187937638,"lng":-111.693796575705},{"id":"67480","name":"Lynn Feest","party":"Dem","address":"1910 N 270 E, Orem, UT 84057","precinct":"25OR04","hd":"58","v_score":"1.193887297","decile":"3","lat":40.331867348392,"lng":-111.690517308836},{"id":"67800","name":"Janel Strosin","party":"","address":"1966 N 150 E, Orem, UT 84057","precinct":"25OR04","hd":"58","v_score":"2.315214949","decile":"5","lat":40.333138278569,"lng":-111.692774446485},{"id":"67839","name":"Anika Connelly","party":"Dem","address":"1740 N Main St, Orem, UT 84057","precinct":"25OR04","hd":"58","v_score":"0","decile":"1","lat":40.329181646009,"lng":-111.696617922545},{"id":"68115","name":"Merry Brekke","party":"","address":"1757 Gold River Dr, Orem, UT 84057","precinct":"25OR04","hd":"58","v_score":"31.9937944","decile":"10","lat":40.328911673068,"lng":-111.689624609758},{"id":"70171","name":"Ulises Hoppe","party":"","address":"310 E 2000 N, Orem, UT 84057","precinct":"25OR04","hd":"58","v_score":"0","decile":"1","lat":40.333751699604,"lng":-111.689071447508},{"id":"70965","name":"Raquan Windler","party":"","address":"1976 N 150 E, Orem, UT 84057","precinct":"25OR04","hd":"58","v_score":"7.090117576","decile":"8","lat":40.333305844959,"lng":-111.692646677094},{"id":"71723","name":"Cale Denesik","party":"","address":"83 E 1960 N, Orem, UT 84057","precinct":"25OR04","hd":"58","v_score":"0","decile":"1","lat":40.333209291453,"lng":-111.694164848397},{"id":"72224","name":"Nayeli Hahn","party":"","address":"1612 N 210 E, Orem, UT 84057","precinct":"25OR04","hd":"58","v_score":"6.027167436","decile":"7","lat":40.326880830558,"lng":-111.691005532889},{"id":"72235","name":"Alvie Raynor","party":"","address":"365 E 1950 N, Apt B, Orem, UT 84057","precinct":"25OR04","hd":"58","v_score":"2.315214949","decile":"5","lat":40.333063831903,"lng":-111.687873062805},{"id":"72800","name":"Dr. Kamari Leuschke III","party":"","address":"314 Heather Cir, Orem, UT 84057","precinct":"25OR04","hd":"58","v_score":"2.817000428","decile":"6","lat":40.331489088893,"lng":-111.68907385028},{"id":"74679","name":"Hal Kulas I","party":"","address":"123 E 1850 N, Orem, UT 84057","precinct":"25OR04","hd":"58","v_score":"2.315214949","decile":"5","lat":40.331139291662,"lng":-111.693817261073},{"id":"74880","name":"Deborrah Boyer","party":"Rep","address":"1976 N 150 E, Orem, UT 84057","precinct":"25OR04","hd":"58","v_score":"4.858449944","decile":"7","lat":40.333305844959,"lng":-111.692646677094},{"id":"75585","name":"Henderson Bogan","party":"Rep","address":"32 E 2000 N, Orem, UT 84057","precinct":"25OR04","hd":"58","v_score":"10.66687182","decile":"9","lat":40.333754654407,"lng":-111.695659777188},{"id":"75617","name":"Lesley Lueilwitz-Bernhard","party":"Rep","address":"1910 N 270 E, Orem, UT 84057","precinct":"25OR04","hd":"58","v_score":"5.331806201","decile":"7","lat":40.331867348392,"lng":-111.690517308836},{"id":"75673","name":"Lamont Jakubowski-Dibbert","party":"","address":"33 E 1600 N, Orem, UT 84057","precinct":"25OR04","hd":"58","v_score":"1.121327652","decile":"3","lat":40.326675292306,"lng":-111.695592851304},{"id":"75886","name":"Reece Conn","party":"Rep","address":"1915 N 270 E, Orem, UT 84057","precinct":"25OR04","hd":"58","v_score":"1.121327652","decile":"3","lat":40.332090922662,"lng":-111.690464911445},{"id":"75972","name":"Jerilynn Price","party":"Dem","address":"226 Heather Rd, Orem, UT 84057","precinct":"25OR04","hd":"58","v_score":"2.744440783","decile":"5","lat":40.332278553852,"lng":-111.691484649506},{"id":"77037","name":"Cassandra Braun","party":"Dem","address":"372 E 2000 N, Orem, UT 84057","precinct":"25OR04","hd":"58","v_score":"2.315214949","decile":"5","lat":40.333751699479,"lng":-111.687443297889},{"id":"77509","name":"Rhona Legros-Graham","party":"Dem","address":"1729 N 50 E, Orem, UT 84057","precinct":"25OR04","hd":"58","v_score":"0","decile":"1","lat":40.32921201601,"lng":-111.695297018965},{"id":"78080","name":"Sheree Thompson","party":"","address":"61 E 1600 N, Orem, UT 84057","precinct":"25OR04","hd":"58","v_score":"1.121327652","decile":"3","lat":40.32667725828,"lng":-111.694847733801},{"id":"78292","name":"Kamari Kuhlman","party":"","address":"1781 N Gold River Dr, Orem, UT 84057","precinct":"25OR04","hd":"58","v_score":"7.284456737","decile":"8","lat":40.32956807682,"lng":-111.690242724988},{"id":"79366","name":"Ms. Hunter Erdman DDS","party":"Rep","address":"339 E 1950 N, Orem, UT 84057","precinct":"25OR04","hd":"58","v_score":"3.93832808","decile":"6","lat":40.33305839983,"lng":-111.68799800069},{"id":"80243","name":"Dorene Bode","party":"Rep","address":"1712 Moor Ln, Orem, UT 84057","precinct":"25OR04","hd":"58","v_score":"2.315214949","decile":"5","lat":40.328447663526,"lng":-111.68823340909},{"id":"80907","name":"Della Reilly","party":"Dem","address":"1906 N 325 E, Orem, UT 84057","precinct":"25OR04","hd":"58","v_score":"0","decile":"1","lat":40.332675960113,"lng":-111.68831772576},{"id":"81033","name":"Darrion Denesik V","party":"Rep","address":"1944 N Main St, Orem, UT 84057","precinct":"25OR04","hd":"58","v_score":"2.817000428","decile":"6","lat":40.332781223076,"lng":-111.69650026926},{"id":"81035","name":"Doretha Rice","party":"Dem","address":"1944 N Main St, Orem, UT 84057","precinct":"25OR04","hd":"58","v_score":"2.817000428","decile":"6","lat":40.332781223076,"lng":-111.69650026926},{"id":"81190","name":"Malissie Brakus","party":"Dem","address":"19 E 1775 N, Orem, UT 84057","precinct":"25OR04","hd":"58","v_score":"23.62038206","decile":"10","lat":40.329791297675,"lng":-111.695714883895},{"id":"81985","name":"Ayla Aufderhar","party":"Rep","address":"111 E 1750 N, Orem, UT 84057","precinct":"25OR04","hd":"58","v_score":"0","decile":"1","lat":40.329494571114,"lng":-111.693586701605},{"id":"83048","name":"Charlize Klein","party":"Dem","address":"1740 N Main St, Orem, UT 84057","precinct":"25OR04","hd":"58","v_score":"0","decile":"1","lat":40.329181646009,"lng":-111.696617922545},{"id":"83452","name":"Porter Fritsch-Keebler","party":"","address":"1931 N 230 E, Orem, UT 84057","precinct":"25OR04","hd":"58","v_score":"1.623113131","decile":"5","lat":40.332589740946,"lng":-111.691173881098},{"id":"83527","name":"Braylon Erdman-Mraz","party":"","address":"1681 N 400 E, Orem, UT 84097","precinct":"25OR04","hd":"58","v_score":"5.693042993","decile":"7","lat":40.328264889939,"lng":-111.686792718302},{"id":"83726","name":"Crysta Runte","party":"","address":"1683 N 210 E, Orem, UT 84057","precinct":"25OR04","hd":"58","v_score":"2.817000428","decile":"6","lat":40.327922892106,"lng":-111.691182677171},{"id":"83916","name":"Mr. Stone Pouros","party":"Dem","address":"313 Heather Cir, Orem, UT 84057","precinct":"25OR04","hd":"58","v_score":"10.74302793","decile":"9","lat":40.331603889252,"lng":-111.689072952802},{"id":"84263","name":"Mr. Dashawn Weimann II","party":"","address":"203 Ridge Rd, Orem, UT 84057","precinct":"25OR04","hd":"58","v_score":"1.623113131","decile":"5","lat":40.331888691029,"lng":-111.692076593339},{"id":"84818","name":"Ardelia Wehner","party":"","address":"353 E 1950 N, Orem, UT 84057","precinct":"25OR04","hd":"58","v_score":"21.36826941","decile":"10","lat":40.333061324792,"lng":-111.687930726444},{"id":"84846","name":"Jaylon Legros III","party":"","address":"368 E 1950 N, Orem, UT 84057","precinct":"25OR04","hd":"58","v_score":"0","decile":"1","lat":40.33295026218,"lng":-111.687845281639},{"id":"85027","name":"Mr. Gaylen Jast II","party":"Dem","address":"136 Ridge Rd, Orem, UT 84057","precinct":"25OR04","hd":"58","v_score":"0","decile":"1","lat":40.332364854941,"lng":-111.693590156716},{"id":"85689","name":"Cordia Wunsch","party":"Rep","address":"1775 N 165 E, Orem, UT 84057","precinct":"25OR04","hd":"58","v_score":"0","decile":"1","lat":40.329856112744,"lng":-111.692351541224},{"id":"85751","name":"Acey Bergstrom","party":"","address":"1727 Moor Ln, Orem, UT 84057","precinct":"25OR04","hd":"58","v_score":"8.305423297","decile":"8","lat":40.328553617941,"lng":-111.688483583681},{"id":"85757","name":"Cami King","party":"","address":"1789 N 80 E, Orem, UT 84057","precinct":"25OR04","hd":"58","v_score":"16.72856503","decile":"9","lat":40.329851452954,"lng":-111.694404846793},{"id":"86024","name":"Hal Kertzmann-Trantow","party":"","address":"1756 Gold River Dr, Orem, UT 84057","precinct":"25OR04","hd":"58","v_score":"0","decile":"1","lat":40.329078109528,"lng":-111.689639152355},{"id":"86752","name":"Mrs. Philomena Ritchie","party":"Rep","address":"1770 N 120 E, Orem, UT 84057","precinct":"25OR04","hd":"58","v_score":"1.193887297","decile":"4","lat":40.329898725144,"lng":-111.693253651834},{"id":"86777","name":"Dedrick Tillman-Veum","party":"Rep","address":"259 Ridge Rd, Orem, UT 84057","precinct":"25OR04","hd":"58","v_score":"0","decile":"1","lat":40.331183381983,"lng":-111.691189274441},{"id":"86909","name":"Maebell Schoen","party":"","address":"83 E 1960 N, Orem, UT 84057","precinct":"25OR04","hd":"58","v_score":"4.069929862","decile":"6","lat":40.333209291453,"lng":-111.694164848397},{"id":"87393","name":"Dr. Ken Olson","party":"Dem","address":"165 Ridge Rd, Orem, UT 84057","precinct":"25OR04","hd":"58","v_score":"1.623113131","decile":"5","lat":40.332276407509,"lng":-111.692932605205},{"id":"88120","name":"Lilie Hudson","party":"","address":"83 E 1960 N, Orem, UT 84057","precinct":"25OR04","hd":"58","v_score":"1.193887297","decile":"4","lat":40.333209291453,"lng":-111.694164848397},{"id":"88398","name":"Brenda Kessler","party":"","address":"1681 N 400 E, Orem, UT 84097","precinct":"25OR04","hd":"58","v_score":"7.549608095","decile":"8","lat":40.328264889939,"lng":-111.686792718302},{"id":"88434","name":"Vick O'Connell","party":"","address":"1618 N 50 E, Orem, UT 84057","precinct":"25OR04","hd":"58","v_score":"13.61907049","decile":"9","lat":40.327163197939,"lng":-111.695332532449},{"id":"89081","name":"Luz Kub","party":"Rep","address":"110 E 1750 N, Orem, UT 84057","precinct":"25OR04","hd":"58","v_score":"1.193887297","decile":"4","lat":40.329380563389,"lng":-111.693652950289},{"id":"89266","name":"Dr. Earlean Schmidt PhD","party":"","address":"1774 Gold River Dr, Orem, UT 84057","precinct":"25OR04","hd":"58","v_score":"0","decile":"1","lat":40.329554594179,"lng":-111.690080762983},{"id":"89353","name":"Icie Gusikowski-Dibbert","party":"Rep","address":"1869 N 80 E, Orem, UT 84057","precinct":"25OR04","hd":"58","v_score":"2.817000428","decile":"6","lat":40.330168798132,"lng":-111.694396913122},{"id":"90200","name":"Shalon Jacobson","party":"Rep","address":"293 Heather Cir, Orem, UT 84057","precinct":"25OR04","hd":"58","v_score":"4.166348126","decile":"7","lat":40.331609521244,"lng":-111.689126061054},{"id":"90787","name":"Elzy Kirlin I","party":"Rep","address":"1972 N 230 E, Orem, UT 84057","precinct":"25OR04","hd":"58","v_score":"0","decile":"1","lat":40.332883659141,"lng":-111.690780285776},{"id":"91327","name":"Shelva Bednar","party":"Dem","address":"19 E 1775 N, Orem, UT 84057","precinct":"25OR04","hd":"58","v_score":"18.35167816","decile":"10","lat":40.329791297675,"lng":-111.695714883895},{"id":"91838","name":"Mayme Farrell","party":"","address":"1740 N Main St, Orem, UT 84057","precinct":"25OR04","hd":"58","v_score":"1.193887297","decile":"4","lat":40.329181646009,"lng":-111.696617922545},{"id":"92364","name":"Alina Koss","party":"","address":"172 E 2000 N, Orem, UT 84057","precinct":"25OR04","hd":"58","v_score":"0","decile":"1","lat":40.333751699814,"lng":-111.691810999013},{"id":"92848","name":"Lita Luettgen-Nolan","party":"Dem","address":"354 E 1950 N, Orem, UT 84057","precinct":"25OR04","hd":"58","v_score":"9.40499548","decile":"8","lat":40.332947337217,"lng":-111.687912555885},{"id":"93661","name":"Brad Buckridge DDS","party":"","address":"285 Gold River Cir, Orem, UT 84057","precinct":"25OR04","hd":"58","v_score":"2.876042565","decile":"6","lat":40.329331401463,"lng":-111.68946461958},{"id":"93857","name":"Elex Gutkowski","party":"Dem","address":"1763 Moor Ln, Orem, UT 84057","precinct":"25OR04","hd":"58","v_score":"2.817000428","decile":"6","lat":40.329152500157,"lng":-111.688552281282},{"id":"94391","name":"Nelle Bernhard","party":"","address":"275 Heather Rd, Orem, UT 84057","precinct":"25OR04","hd":"58","v_score":"5.693042993","decile":"7","lat":40.331591800648,"lng":-111.69046247128},{"id":"94550","name":"Clem Larson-Turcotte","party":"","address":"365 E 1950 N, Orem, UT 84057","precinct":"25OR04","hd":"58","v_score":"0","decile":"1","lat":40.333063831903,"lng":-111.687873062805},{"id":"94683","name":"Jeffery Brown-Marks","party":"Rep","address":"1956 N Main St, Orem, UT 84057","precinct":"25OR04","hd":"58","v_score":"1.193887297","decile":"4","lat":40.332983209927,"lng":-111.696403101928},{"id":"94863","name":"Metha Nolan","party":"","address":"368 E 1950 N, Orem, UT 84057","precinct":"25OR04","hd":"58","v_score":"15.47563559","decile":"9","lat":40.33295026218,"lng":-111.687845281639},{"id":"95835","name":"Jason Mraz PhD","party":"Rep","address":"293 Heather Cir, Orem, UT 84057","precinct":"25OR04","hd":"58","v_score":"6.89181703","decile":"8","lat":40.331609521244,"lng":-111.689126061054},{"id":"96215","name":"Elva Ledner","party":"Dem","address":"345 Heather Rd, Orem, UT 84057","precinct":"25OR04","hd":"58","v_score":"2.817000428","decile":"6","lat":40.330863167283,"lng":-111.68896892322},{"id":"97141","name":"Wilber Miller-Rice","party":"","address":"1908 N Main St, Orem, UT 84057","precinct":"25OR04","hd":"58","v_score":"1.193887297","decile":"4","lat":40.332190831049,"lng":-111.696425627003},{"id":"97142","name":"Mrs. Kara Herzog","party":"Rep","address":"1908 N Main St, Orem, UT 84057","precinct":"25OR04","hd":"58","v_score":"1.623113131","decile":"5","lat":40.332190831049,"lng":-111.696425627003},{"id":"97533","name":"Mrs. Ava Pouros","party":"Dem","address":"1956 N Main St, Orem, UT 84057","precinct":"25OR04","hd":"58","v_score":"1.193887297","decile":"4","lat":40.332983209927,"lng":-111.696403101928},{"id":"97535","name":"Saint Keebler","party":"Rep","address":"1646 N Main St, Orem, UT 84057","precinct":"25OR04","hd":"58","v_score":"8.284004873","decile":"8","lat":40.327464973288,"lng":-111.6967861215},{"id":"97719","name":"Mauro Kerluke","party":"Dem","address":"134 E 1750 N, Orem, UT 84057","precinct":"25OR04","hd":"58","v_score":"4.069929862","decile":"6","lat":40.329379391001,"lng":-111.693134484792},{"id":"97932","name":"Aaliyah Nicolas-Walsh","party":"","address":"1655 Moor Ln, Orem, UT 84057","precinct":"25OR04","hd":"58","v_score":"1.623113131","decile":"5","lat":40.327972650298,"lng":-111.687777062778},{"id":"100588","name":"Eric Hodkiewicz","party":"","address":"61 E 1960 N, Orem, UT 84057","precinct":"25OR04","hd":"58","v_score":"0","decile":"1","lat":40.33318678539,"lng":-111.694391809121},{"id":"101165","name":"Mr. Joshua Senger I","party":"Dem","address":"1945 N 150 E, Orem, UT 84057","precinct":"25OR04","hd":"58","v_score":"0","decile":"2","lat":40.33287085417,"lng":-111.693147482135},{"id":"101473","name":"Darlene Harber-Dibbert","party":"Rep","address":"1778 N Main St, Orem, UT 84057","precinct":"25OR04","hd":"58","v_score":"1.193887297","decile":"4","lat":40.32988409504,"lng":-111.696655688527},{"id":"103397","name":"Mrs. Viviana Murray DVM","party":"Dem","address":"1775 N 80 E, Orem, UT 84057","precinct":"25OR04","hd":"58","v_score":"1.193887297","decile":"4","lat":40.329795917548,"lng":-111.694406235185},{"id":"103523","name":"Mr. Harry Gleichner","party":"","address":"290 Heather Rd, Orem, UT 84057","precinct":"25OR04","hd":"58","v_score":"1.193887297","decile":"4","lat":40.33105521269,"lng":-111.689936837015},{"id":"104232","name":"Gladys Ritchie","party":"","address":"26 E 1775 N, Orem, UT 84057","precinct":"25OR04","hd":"58","v_score":"0","decile":"2","lat":40.329694157318,"lng":-111.695632195661},{"id":"104452","name":"Tilla Hagenes DVM","party":"Dem","address":"52 E 1850 N, Orem, UT 84057","precinct":"25OR04","hd":"58","v_score":"0","decile":"2","lat":40.33102470037,"lng":-111.695019706794},{"id":"105033","name":"Alisson Rice-Cummings","party":"Rep","address":"1859 N 80 E, Orem, UT 84057","precinct":"25OR04","hd":"58","v_score":"0","decile":"2","lat":40.330129129985,"lng":-111.694397904831},{"id":"105507","name":"Eulalie Satterfield-Sipes","party":"Rep","address":"291 Ridge Rd, Orem, UT 84057","precinct":"25OR04","hd":"58","v_score":"4.905839784","decile":"7","lat":40.330200966458,"lng":-111.689422200833},{"id":"106564","name":"Daron Marks","party":"Rep","address":"1671 N 50 E, Orem, UT 84057","precinct":"25OR04","hd":"58","v_score":"0","decile":"2","lat":40.328314964569,"lng":-111.695344003096},{"id":"107982","name":"Miss Rennie Pouros DVM","party":"","address":"279 E 1660 N, Orem, UT 84057","precinct":"25OR04","hd":"58","v_score":"0","decile":"2","lat":40.327794094157,"lng":-111.689684021139},{"id":"108713","name":"Rianna Miller-O'Conner","party":"","address":"172 E 2000 N, Orem, UT 84057","precinct":"25OR04","hd":"58","v_score":"0","decile":"2","lat":40.333751699814,"lng":-111.691810999013},{"id":"109055","name":"Hjalmer Gerhold","party":"Dem","address":"1631 N 50 E, Orem, UT 84057","precinct":"25OR04","hd":"58","v_score":"0","decile":"2","lat":40.327445843232,"lng":-111.695464533231},{"id":"109687","name":"Dasia Rau DVM","party":"Rep","address":"1736 N 210 E, Orem, UT 84057","precinct":"25OR04","hd":"58","v_score":"7.090117576","decile":"8","lat":40.328323197809,"lng":-111.691054645042},{"id":"110139","name":"Desi Lynch","party":"","address":"1763 Moor Ln, Orem, UT 84057","precinct":"25OR04","hd":"58","v_score":"0","decile":"2","lat":40.329152500157,"lng":-111.688552281282},{"id":"110719","name":"Irene Hammes","party":"Rep","address":"1686 N 250 E, Orem, UT 84057","precinct":"25OR04","hd":"58","v_score":"0","decile":"2","lat":40.32793913301,"lng":-111.690099358692},{"id":"111129","name":"Dr. Sudie Ratke PhD","party":"","address":"288 E Gold River Cir, Orem, UT 84057","precinct":"25OR04","hd":"58","v_score":"8.284004873","decile":"8","lat":40.329252332217,"lng":-111.689354505023},{"id":"112134","name":"Rakeem Dietrich-Goldner","party":"Rep","address":"1774 Gold River Dr, Orem, UT 84057","precinct":"25OR04","hd":"58","v_score":"0","decile":"2","lat":40.329554594179,"lng":-111.690080762983},{"id":"113243","name":"Darry Mann","party":"Dem","address":"1849 N 400 E, Orem, UT 84097","precinct":"25OR04","hd":"58","v_score":"8.284004873","decile":"8","lat":40.331235455813,"lng":-111.687707417542},{"id":"113545","name":"Zachery Kassulke","party":"","address":"18 E 1700 N, Orem, UT 84057","precinct":"25OR04","hd":"58","v_score":"1.193887297","decile":"4","lat":40.328917072797,"lng":-111.695579020269},{"id":"113970","name":"Candice Gleichner-Spencer","party":"Rep","address":"286 Heather Rd, Orem, UT 84057","precinct":"25OR04","hd":"58","v_score":"0","decile":"2","lat":40.331092662251,"lng":-111.690011736114},{"id":"114777","name":"Kamora Price","party":"","address":"1756 N Main St, Orem, UT 84057","precinct":"25OR04","hd":"58","v_score":"1.193887297","decile":"4","lat":40.329477414022,"lng":-111.696633824011},{"id":"114898","name":"Firman Koelpin-Will","party":"Dem","address":"221 E Ridge Rd, Orem, UT 84057","precinct":"25OR04","hd":"58","v_score":"1.193887297","decile":"4","lat":40.331644425621,"lng":-111.691714365445},{"id":"114923","name":"Gregory Keeling Sr.","party":"","address":"345 Heather Rd, Orem, UT 84057","precinct":"25OR04","hd":"58","v_score":"1.193887297","decile":"4","lat":40.330863167283,"lng":-111.68896892322},{"id":"114981","name":"Ms. Helaine Hettinger","party":"Rep","address":"368 E 1950 N, Orem, UT 84057","precinct":"25OR04","hd":"58","v_score":"0","decile":"2","lat":40.33295026218,"lng":-111.687845281639},{"id":"115191","name":"Rene Price","party":"","address":"114 E Ridge Rd, Orem, UT 84057","precinct":"25OR04","hd":"58","v_score":"0","decile":"2","lat":40.332358281385,"lng":-111.693860674402},{"id":"115371","name":"Cassondra Lubowitz","party":"","address":"1973 N 270 E, Orem, UT 84057","precinct":"25OR04","hd":"58","v_score":"1.193887297","decile":"4","lat":40.333334243461,"lng":-111.689855107848},{"id":"115460","name":"Blanca Thiel","party":"Rep","address":"269 E Ridge Rd, Orem, UT 84057","precinct":"25OR04","hd":"58","v_score":"1.193887297","decile":"4","lat":40.331115795005,"lng":-111.691113708468},{"id":"115473","name":"Quintin Haley","party":"","address":"1872 N 40 E, Orem, UT 84057","precinct":"25OR04","hd":"58","v_score":"0","decile":"2","lat":40.331324024868,"lng":-111.695260686009},{"id":"115478","name":"Vincent Weissnat","party":"Dem","address":"1872 N 40 E, Orem, UT 84057","precinct":"25OR04","hd":"58","v_score":"0","decile":"2","lat":40.331324024868,"lng":-111.695260686009},{"id":"115545","name":"Zilpha Predovic","party":"","address":"245 Ridge Rd, Orem, UT 84057","precinct":"25OR04","hd":"58","v_score":"1.193887297","decile":"4","lat":40.331278003752,"lng":-111.691295066805},{"id":"115793","name":"Buelah Nader","party":"","address":"244 E 2000 N, Orem, UT 84057","precinct":"25OR04","hd":"58","v_score":"0","decile":"2","lat":40.333751699716,"lng":-111.690530009007},{"id":"116301","name":"Charline Renner","party":"","address":"55 E 1600 N, Orem, UT 84057","precinct":"25OR04","hd":"58","v_score":"1.193887297","decile":"4","lat":40.326676695336,"lng":-111.695000013229},{"id":"116305","name":"Deborah Wolff","party":"Dem","address":"1761 N 165 E, Orem, UT 84057","precinct":"25OR04","hd":"58","v_score":"2.876042565","decile":"6","lat":40.329789123589,"lng":-111.692352676642},{"id":"116334","name":"Teagan Osinski-Mante","party":"","address":"55 E 1600 N, Orem, UT 84057","precinct":"25OR04","hd":"58","v_score":"1.193887297","decile":"4","lat":40.326676695336,"lng":-111.695000013229},{"id":"116361","name":"Brianna Emard","party":"","address":"26 E 1775 N, Orem, UT 84057","precinct":"25OR04","hd":"58","v_score":"4.069929862","decile":"7","lat":40.329694157318,"lng":-111.695632195661},{"id":"118059","name":"Tod Klein V","party":"","address":"313 Heather Cir, Orem, UT 84057","precinct":"25OR04","hd":"58","v_score":"0","decile":"2","lat":40.331603889252,"lng":-111.689072952802},{"id":"118146","name":"Jaylen Swift","party":"Rep","address":"1880 N 40 E, Orem, UT 84057","precinct":"25OR04","hd":"58","v_score":"8.284004873","decile":"8","lat":40.331344085284,"lng":-111.695262692048},{"id":"120462","name":"Dann Stark","party":"","address":"1851 N 285 E, Orem, UT 84057","precinct":"25OR04","hd":"58","v_score":"1.193887297","decile":"4","lat":40.331669190154,"lng":-111.689741636664},{"id":"121044","name":"Hoover Davis","party":"","address":"1880 N 40 E, Orem, UT 84057","precinct":"25OR04","hd":"58","v_score":"1.193887297","decile":"4","lat":40.331344085284,"lng":-111.695262692048},{"id":"121049","name":"Stella Hegmann","party":"Dem","address":"19 E 1775 N, Orem, UT 84057","precinct":"25OR04","hd":"58","v_score":"4.214075011","decile":"7","lat":40.329791297675,"lng":-111.695714883895},{"id":"122282","name":"Berneice Graham","party":"","address":"135 Ridge Rd, Orem, UT 84057","precinct":"25OR04","hd":"58","v_score":"1.193887297","decile":"4","lat":40.332480900653,"lng":-111.693601042727},{"id":"122711","name":"Margretta Reichel-Rohan","party":"","address":"1622 N 160 E, Orem, UT 84057","precinct":"25OR04","hd":"58","v_score":"1.193887297","decile":"4","lat":40.328194207907,"lng":-111.699912178489},{"id":"123832","name":"Delphine Cole MD","party":"Rep","address":"1671 N 50 E, Orem, UT 84057","precinct":"25OR04","hd":"58","v_score":"1.193887297","decile":"4","lat":40.328314964569,"lng":-111.695344003096},{"id":"125862","name":"Dr. Aura Hettinger","party":"Rep","address":"88 E 1850 N, Orem, UT 84057","precinct":"25OR04","hd":"58","v_score":"0","decile":"2","lat":40.331024700304,"lng":-111.694157841945},{"id":"128327","name":"Ms. Bristol Greenfelder","party":"Rep","address":"1934 N 60 E, Orem, UT 84057","precinct":"25OR04","hd":"58","v_score":"2.876042565","decile":"6","lat":40.332717052785,"lng":-111.695078582287},{"id":"128366","name":"Rachel Yundt","party":"","address":"239 Ridge Rd, Orem, UT 84057","precinct":"25OR04","hd":"58","v_score":"0","decile":"2","lat":40.331318555939,"lng":-111.691340406389},{"id":"128891","name":"Spenser Thompson","party":"","address":"1859 N 80 E, Orem, UT 84057","precinct":"25OR04","hd":"58","v_score":"0","decile":"2","lat":40.330129129985,"lng":-111.694397904831},{"id":"129165","name":"Nigel Abernathy DDS","party":"Rep","address":"1849 N 400 E, Orem, UT 84097","precinct":"25OR04","hd":"58","v_score":"7.090117576","decile":"8","lat":40.331235455813,"lng":-111.687707417542},{"id":"129182","name":"Reinaldo Kutch","party":"Rep","address":"1886 N 285 E, Orem, UT 84057","precinct":"25OR04","hd":"58","v_score":"0","decile":"2","lat":40.332167262499,"lng":-111.689200295716},{"id":"131016","name":"Samara Halvorson PhD","party":"","address":"165 Ridge Rd, Orem, UT 84057","precinct":"25OR04","hd":"58","v_score":"0","decile":"2","lat":40.332276407509,"lng":-111.692932605205},{"id":"133021","name":"Breonna Feil-Prosacco","party":"","address":"269 E Ridge Rd, Orem, UT 84057","precinct":"25OR04","hd":"58","v_score":"1.193887297","decile":"4","lat":40.331115795005,"lng":-111.691113708468},{"id":"134361","name":"Missy West","party":"","address":"1701 N 400 E, Orem, UT 84097","precinct":"25OR04","hd":"58","v_score":"0","decile":"2","lat":40.328530357367,"lng":-111.687147930645},{"id":"135461","name":"Kenan Bins","party":"","address":"1978 N 100 E, Orem, UT 84057","precinct":"25OR04","hd":"58","v_score":"2.587603312","decile":"5","lat":40.333392723689,"lng":-111.693631011958},{"id":"135927","name":"Mrs. Margarette Johnston","party":"","address":"1763 Moor Ln, Orem, UT 84057","precinct":"25OR04","hd":"58","v_score":"2.817000428","decile":"6","lat":40.329152500157,"lng":-111.688552281282},{"id":"137480","name":"Dr. Victoriano Zemlak DVM","party":"Rep","address":"1872 N 40 E, Orem, UT 84057","precinct":"25OR04","hd":"58","v_score":"8.347511332","decile":"8","lat":40.331324024868,"lng":-111.695260686009},{"id":"139114","name":"Hardin Weissnat","party":"Rep","address":"1930 N 270 E, Orem, UT 84057","precinct":"25OR04","hd":"58","v_score":"2.315214949","decile":"5","lat":40.332118801729,"lng":-111.690270758682},{"id":"140055","name":"Dr. Keyon Wintheiser","party":"","address":"306 Ridge Rd, Orem, UT 84057","precinct":"25OR04","hd":"58","v_score":"9.116556227","decile":"8","lat":40.33009479026,"lng":-111.689491609805},{"id":"140408","name":"Mari Cassin","party":"","address":"216 E Heather Rd, Orem, UT 84057","precinct":"25OR04","hd":"58","v_score":"8.347511332","decile":"8","lat":40.332401162412,"lng":-111.691715236957},{"id":"140638","name":"Faustino Balistreri","party":"Dem","address":"1860 N 40 E, Orem, UT 84057","precinct":"25OR04","hd":"58","v_score":"8.280646305","decile":"8","lat":40.331293934245,"lng":-111.695257676951},{"id":"140810","name":"Bree Doyle","party":"Dem","address":"1925 N 270 E, Orem, UT 84057","precinct":"25OR04","hd":"58","v_score":"5.40460374","decile":"7","lat":40.332294611417,"lng":-111.690313946642},{"id":"141233","name":"Hill Nolan","party":"Rep","address":"298 E 1960 N, Orem, UT 84057","precinct":"25OR04","hd":"58","v_score":"11.02844566","decile":"9","lat":40.333050524952,"lng":-111.689430993502},{"id":"141330","name":"Ms. Maryanne Mosciski DVM","party":"Dem","address":"98 E 1750 N, Orem, UT 84057","precinct":"25OR04","hd":"58","v_score":"40.5196851","decile":"10","lat":40.329382751403,"lng":-111.693898005709},{"id":"141570","name":"Denzel Parisian-Baumbach","party":"Rep","address":"345 Heather Rd, Orem, UT 84057","precinct":"25OR04","hd":"58","v_score":"2.817000428","decile":"6","lat":40.330863167283,"lng":-111.68896892322},{"id":"141764","name":"Kallie Rempel","party":"","address":"218 E 2000 N, Orem, UT 84057","precinct":"25OR04","hd":"58","v_score":"25.90605151","decile":"10","lat":40.33375169975,"lng":-111.690970698716},{"id":"141765","name":"Mr. Dillan Kihn I","party":"","address":"218 E 2000 N, Orem, UT 84057","precinct":"25OR04","hd":"58","v_score":"28.78209407","decile":"10","lat":40.33375169975,"lng":-111.690970698716},{"id":"143138","name":"Thos Murazik-Beatty","party":"Dem","address":"203 Ridge Rd, Orem, UT 84057","precinct":"25OR04","hd":"58","v_score":"5.815909755","decile":"7","lat":40.331888691029,"lng":-111.692076593339},{"id":"143295","name":"Lowell Reilly-Christiansen","party":"","address":"274 Gold River Cir, Orem, UT 84057","precinct":"25OR04","hd":"58","v_score":"33.69318103","decile":"10","lat":40.329223056709,"lng":-111.689399834847},{"id":"144000","name":"Metro Bogisich","party":"","address":"275 Heather Rd, Orem, UT 84057","precinct":"25OR04","hd":"58","v_score":"1.193887297","decile":"4","lat":40.331591800648,"lng":-111.69046247128},{"id":"144019","name":"Sharon Kulas DDS","party":"","address":"1858 N 80 E, Orem, UT 84057","precinct":"25OR04","hd":"58","v_score":"0","decile":"3","lat":40.330126946442,"lng":-111.69424761598},{"id":"144142","name":"Eva Lebsack","party":"","address":"1969 N 190 E, Orem, UT 84057","precinct":"25OR04","hd":"58","v_score":"0","decile":"3","lat":40.333028048462,"lng":-111.691946105216},{"id":"144602","name":"Hansford Frami","party":"Rep","address":"1688 N 210 E, Orem, UT 84057","precinct":"25OR04","hd":"58","v_score":"4.210716443","decile":"7","lat":40.327971715105,"lng":-111.691034962059},{"id":"144728","name":"Theodosia Weissnat","party":"Dem","address":"19 E 1775 N, Orem, UT 84057","precinct":"25OR04","hd":"58","v_score":"38.24567755","decile":"10","lat":40.329791297675,"lng":-111.695714883895},{"id":"145153","name":"Garold Kris-Kunde","party":"","address":"1715 N 210 E, Orem, UT 84057","precinct":"25OR04","hd":"58","v_score":"23.40636106","decile":"10","lat":40.328157213909,"lng":-111.69119579916},{"id":"145160","name":"Nunzio Mraz","party":"Rep","address":"244 E 2000 N, Orem, UT 84057","precinct":"25OR04","hd":"58","v_score":"3.781490609","decile":"6","lat":40.333751699716,"lng":-111.690530009007},{"id":"145166","name":"Ashby Willms","party":"","address":"1688 N 210 E, Orem, UT 84057","precinct":"25OR04","hd":"58","v_score":"5.40460374","decile":"7","lat":40.327971715105,"lng":-111.691034962059},{"id":"146103","name":"Judd Hegmann","party":"","address":"1685 N 250 E, Orem, UT 84057","precinct":"25OR04","hd":"58","v_score":"1.193887297","decile":"4","lat":40.327942013629,"lng":-111.690249703257},{"id":"146491","name":"Dr. Rod Raynor II","party":"Dem","address":"1764 N Moor Ln, Orem, UT 84057","precinct":"25OR04","hd":"58","v_score":"8.347511332","decile":"8","lat":40.329120808766,"lng":-111.6884028352},{"id":"146726","name":"Mr. Elisha Spencer Jr.","party":"Rep","address":"1667 N 210 E, Orem, UT 84057","precinct":"25OR04","hd":"58","v_score":"1.121327652","decile":"3","lat":40.327805731205,"lng":-111.691176116176},{"id":"147543","name":"Angele Waters","party":"","address":"1973 N 270 E, Orem, UT 84057","precinct":"25OR04","hd":"58","v_score":"17.84989268","decile":"10","lat":40.333334243461,"lng":-111.689855107848},{"id":"147808","name":"Ms. Porsche Reichel DDS","party":"","address":"1651 N 50 E, Orem, UT 84057","precinct":"25OR04","hd":"58","v_score":"34.09285363","decile":"10","lat":40.327875730598,"lng":-111.695364956119},{"id":"147903","name":"Carlo Hauck","party":"","address":"1697 N Moor Ln, Orem, UT 84057","precinct":"25OR04","hd":"58","v_score":"24.5885815","decile":"10","lat":40.328280253439,"lng":-111.68821649571},{"id":"148000","name":"Jasiah Kshlerin","party":"","address":"1786 N 80 E, Orem, UT 84057","precinct":"25OR04","hd":"58","v_score":"38.24567755","decile":"10","lat":40.329841335782,"lng":-111.694254756283},{"id":"148151","name":"Tia Medhurst","party":"Rep","address":"1685 N 250 E, Orem, UT 84057","precinct":"25OR04","hd":"58","v_score":"31.15555998","decile":"10","lat":40.327942013629,"lng":-111.690249703257},{"id":"148332","name":"Rhoda Wilkinson","party":"Dem","address":"1612 N 210 E, Orem, UT 84057","precinct":"25OR04","hd":"58","v_score":"20.35949772","decile":"10","lat":40.326880830558,"lng":-111.691005532889},{"id":"148368","name":"Ms. Faith Hills DDS","party":"Rep","address":"1797 N 120 E, Orem, UT 84057","precinct":"25OR04","hd":"58","v_score":"40.5196851","decile":"10","lat":40.33005036782,"lng":-111.693402972178},{"id":"148815","name":"Oda Wehner-Nikolaus","party":"Dem","address":"1918 N 230 E, Orem, UT 84057","precinct":"25OR04","hd":"58","v_score":"35.83886619","decile":"10","lat":40.332432638285,"lng":-111.691118551466},{"id":"148870","name":"Ms. Laci Lakin","party":"","address":"1791 N 120 E, Orem, UT 84057","precinct":"25OR04","hd":"58","v_score":"23.52685352","decile":"10","lat":40.330015505985,"lng":-111.693403201537},{"id":"149460","name":"Mrs. Ilona Gerhold","party":"Rep","address":"1704 N 210 E, Orem, UT 84057","precinct":"25OR04","hd":"58","v_score":"3.781490609","decile":"6","lat":40.328088876006,"lng":-111.691041523053},{"id":"149542","name":"Minnie Larkin","party":"","address":"305 E 1960 N, Orem, UT 84057","precinct":"25OR04","hd":"58","v_score":"5.40460374","decile":"7","lat":40.333164667879,"lng":-111.689409417746},{"id":"149566","name":"Dr. Gayle Collins MD","party":"Rep","address":"1667 Moor Ln, Orem, UT 84057","precinct":"25OR04","hd":"58","v_score":"37.73164921","decile":"10","lat":40.328060536909,"lng":-111.687902615044},{"id":"149683","name":"Evander Howell","party":"","address":"257 Heather Rd, Orem, UT 84057","precinct":"25OR04","hd":"58","v_score":"11.99259879","decile":"9","lat":40.331982089032,"lng":-111.690913752427},{"id":"149704","name":"Kristian Parker","party":"Rep","address":"1765 N Moor Ln, Orem, UT 84057","precinct":"25OR04","hd":"58","v_score":"5.40460374","decile":"7","lat":40.329182864049,"lng":-111.688551413738},{"id":"150167","name":"Nolie Brown","party":"","address":"281 E Ridge Rd, Orem, UT 84057","precinct":"25OR04","hd":"58","v_score":"40.12325923","decile":"10","lat":40.331034690632,"lng":-111.691023029299},{"id":"150427","name":"Francesco O'Keefe","party":"","address":"1896 N Main St, Orem, UT 84057","precinct":"25OR04","hd":"58","v_score":"8.758817347","decile":"8","lat":40.331991882755,"lng":-111.696301284362},{"id":"150488","name":"Mr. Mikeal Friesen IV","party":"Dem","address":"1936 N 325 E, Orem, UT 84057","precinct":"25OR04","hd":"58","v_score":"1.121327652","decile":"3","lat":40.332766254901,"lng":-111.688305143688},{"id":"150688","name":"Stuart Mertz","party":"Dem","address":"222 E 1660 N, Orem, UT 84057","precinct":"25OR04","hd":"58","v_score":"38.40546931","decile":"10","lat":40.327658094519,"lng":-111.690672577936},{"id":"150804","name":"Mathews Kerluke","party":"Rep","address":"25 E 1600 N, Orem, UT 84057","precinct":"25OR04","hd":"58","v_score":"1.46627566","decile":"4","lat":40.326675292331,"lng":-111.695912190091},{"id":"151255","name":"Laurel O'Reilly","party":"Dem","address":"1667 N 210 E, Orem, UT 84057","precinct":"25OR04","hd":"58","v_score":"7.047822616","decile":"8","lat":40.327805731205,"lng":-111.691176116176},{"id":"151256","name":"Adyson Metz","party":"Rep","address":"1667 N 210 E, Orem, UT 84057","precinct":"25OR04","hd":"58","v_score":"2.315214949","decile":"5","lat":40.327805731205,"lng":-111.691176116176},{"id":"151524","name":"Donnell Beatty DVM","party":"","address":"1978 N 100 E, Orem, UT 84057","precinct":"25OR04","hd":"58","v_score":"8.347511332","decile":"8","lat":40.333392723689,"lng":-111.693631011958},{"id":"151605","name":"Richmond Mante","party":"Rep","address":"353 E 1950 N, Orem, UT 84057","precinct":"25OR04","hd":"58","v_score":"21.36826941","decile":"10","lat":40.333061324792,"lng":-111.687930726444},{"id":"152321","name":"Derek Hilpert","party":"Dem","address":"1777 N Gold River Dr, Orem, UT 84057","precinct":"25OR04","hd":"58","v_score":"33.69318103","decile":"10","lat":40.329414921168,"lng":-111.6901833772},{"id":"152507","name":"Carmen Hilll","party":"","address":"1740 N Main St, Orem, UT 84057","precinct":"25OR04","hd":"58","v_score":"6.52928996","decile":"7","lat":40.329181646009,"lng":-111.696617922545},{"id":"152996","name":"Dr. Kenny Kihn PhD","party":"","address":"286 Heather Rd, Orem, UT 84057","precinct":"25OR04","hd":"58","v_score":"29.15089296","decile":"10","lat":40.331092662251,"lng":-111.690011736114},{"id":"153158","name":"Clifton Wolff","party":"Dem","address":"1765 Gold River Dr, Orem, UT 84057","precinct":"25OR04","hd":"58","v_score":"9.116556227","decile":"8","lat":40.3289940273,"lng":-111.689741278221},{"id":"153194","name":"Bell Lind","party":"Rep","address":"64 E 1850 N, Orem, UT 84057","precinct":"25OR04","hd":"58","v_score":"26.9144526","decile":"10","lat":40.33102470035,"lng":-111.694759313454},{"id":"153195","name":"Cristobal Raynor","party":"Rep","address":"64 E 1850 N, Orem, UT 84057","precinct":"25OR04","hd":"58","v_score":"32.90381675","decile":"10","lat":40.33102470035,"lng":-111.694759313454},{"id":"153764","name":"Milda Murphy","party":"Rep","address":"153 E 1850 N, Orem, UT 84057","precinct":"25OR04","hd":"58","v_score":"29.15089296","decile":"10","lat":40.330997738508,"lng":-111.693153862536},{"id":"153765","name":"Lorne Williamson MD","party":"Dem","address":"153 E 1850 N, Orem, UT 84057","precinct":"25OR04","hd":"58","v_score":"3.93832808","decile":"6","lat":40.330997738508,"lng":-111.693153862536},{"id":"153892","name":"Jessica Luettgen","party":"","address":"164 E Ridge Rd, Orem, UT 84057","precinct":"25OR04","hd":"58","v_score":"36.55341911","decile":"10","lat":40.332165876967,"lng":-111.692980774619},{"id":"154146","name":"Pascal Cronin V","party":"Dem","address":"232 E 2000 N, Orem, UT 84057","precinct":"25OR04","hd":"58","v_score":"27.05857207","decile":"10","lat":40.333751699732,"lng":-111.690733404258},{"id":"154483","name":"Orelia Mosciski","party":"","address":"1880 N 40 E, Orem, UT 84057","precinct":"25OR04","hd":"58","v_score":"16.22809223","decile":"9","lat":40.331344085284,"lng":-111.695262692048},{"id":"154508","name":"Ms. Corinne Botsford","party":"Dem","address":"1933 N 100 E, Orem, UT 84057","precinct":"25OR04","hd":"58","v_score":"13.85417219","decile":"9","lat":40.332638663285,"lng":-111.694195569205},{"id":"155401","name":"Dorinda Grimes-Krajcik","party":"Dem","address":"273 E Gold River Cir, Orem, UT 84057","precinct":"25OR04","hd":"58","v_score":"11.02844566","decile":"9","lat":40.32930630817,"lng":-111.689503473715},{"id":"155706","name":"Mrs. Villa Conroy DVM","party":"","address":"254 E 1620 N, Orem, UT 84057","precinct":"25OR04","hd":"58","v_score":"11.03405959","decile":"9","lat":40.326989474069,"lng":-111.690105214979},{"id":"156668","name":"Karley Effertz","party":"Dem","address":"1873 N 400 E, Orem, UT 84097","precinct":"25OR04","hd":"58","v_score":"27.07999049","decile":"10","lat":40.33165829413,"lng":-111.687695551152},{"id":"156704","name":"Mrs. Dorthey Brown","party":"Rep","address":"1936 N 325 E, Orem, UT 84057","precinct":"25OR04","hd":"58","v_score":"12.64191471","decile":"9","lat":40.332766254901,"lng":-111.688305143688},{"id":"156718","name":"Budd McDermott","party":"Dem","address":"273 E Gold River Cir, Orem, UT 84057","precinct":"25OR04","hd":"58","v_score":"15.43762891","decile":"9","lat":40.32930630817,"lng":-111.689503473715},{"id":"156722","name":"Melissia Cruickshank","party":"","address":"1886 N 285 E, Orem, UT 84057","precinct":"25OR04","hd":"58","v_score":"7.090117576","decile":"8","lat":40.332167262499,"lng":-111.689200295716},{"id":"157067","name":"Lim Ledner","party":"","address":"1672 N 210 E, Orem, UT 84057","precinct":"25OR04","hd":"58","v_score":"2.817000428","decile":"6","lat":40.327854554203,"lng":-111.691028401064},{"id":"158063","name":"Allena Mills DDS","party":"Dem","address":"273 E Gold River Cir, Orem, UT 84057","precinct":"25OR04","hd":"58","v_score":"15.43762891","decile":"9","lat":40.32930630817,"lng":-111.689503473715},{"id":"158159","name":"Mr. Christophe Jones","party":"","address":"1789 N 80 E, Orem, UT 84057","precinct":"25OR04","hd":"58","v_score":"31.13427375","decile":"10","lat":40.329851452954,"lng":-111.694404846793},{"id":"159520","name":"Dr. Esley Sporer","party":"Rep","address":"384 E Heather Rd, Orem, UT 84057","precinct":"25OR04","hd":"58","v_score":"26.41733837","decile":"10","lat":40.330327395547,"lng":-111.687955532693},{"id":"159536","name":"Adams Witting","party":"","address":"1764 N Moor Ln, Orem, UT 84057","precinct":"25OR04","hd":"58","v_score":"8.347511332","decile":"8","lat":40.329120808766,"lng":-111.6884028352},{"id":"159938","name":"Lorelai Herzog MD","party":"Dem","address":"1786 N 80 E, Orem, UT 84057","precinct":"25OR04","hd":"58","v_score":"43.22595857","decile":"10","lat":40.329841335782,"lng":-111.694254756283},{"id":"160123","name":"Mr. Boss King","party":"Dem","address":"365 E 1950 N, Orem, UT 84057","precinct":"25OR04","hd":"58","v_score":"6.52928996","decile":"7","lat":40.333063831903,"lng":-111.687873062805},{"id":"160238","name":"Presley Nikolaus-Swift","party":"Rep","address":"1765 N Moor Ln, Orem, UT 84057","precinct":"25OR04","hd":"58","v_score":"9.640097175","decile":"8","lat":40.329182864049,"lng":-111.688551413738},{"id":"160271","name":"Teena Spencer","party":"","address":"1973 N 270 E, Orem, UT 84057","precinct":"25OR04","hd":"58","v_score":"42.75260232","decile":"10","lat":40.333334243461,"lng":-111.689855107848},{"id":"160295","name":"Cheyenne Gerhold","party":"Rep","address":"273 Gold River Cir, Orem, UT 84057","precinct":"25OR04","hd":"58","v_score":"12.49472132","decile":"9","lat":40.32930630817,"lng":-111.689503473715},{"id":"160296","name":"Dr. Nanci Doyle","party":"","address":"273 E Gold River Cir, Orem, UT 84057","precinct":"25OR04","hd":"58","v_score":"12.49472132","decile":"9","lat":40.32930630817,"lng":-111.689503473715},{"id":"160668","name":"Azul Rosenbaum","party":"","address":"305 E 1960 N, Orem, UT 84057","precinct":"25OR04","hd":"58","v_score":"5.40460374","decile":"7","lat":40.333164667879,"lng":-111.689409417746},{"id":"160815","name":"Alphonso Tromp","party":"Dem","address":"88 E 1850 N, Orem, UT 84057","precinct":"25OR04","hd":"58","v_score":"17.48088946","decile":"9","lat":40.331024700304,"lng":-111.694157841945},{"id":"160870","name":"Golda Barton-Kuvalis","party":"","address":"1887 N 270 E, Orem, UT 84057","precinct":"25OR04","hd":"58","v_score":"11.36410258","decile":"9","lat":40.331734309036,"lng":-111.690950227012},{"id":"161139","name":"Griselda Jerde","party":"Rep","address":"247 Ridge Rd, Orem, UT 84057","precinct":"25OR04","hd":"58","v_score":"2.315214949","decile":"5","lat":40.331264486356,"lng":-111.69127995361},{"id":"161153","name":"Masako Hahn","party":"Rep","address":"289 E Heather Rd, Orem, UT 84057","precinct":"25OR04","hd":"58","v_score":"2.315214949","decile":"5","lat":40.33115825913,"lng":-111.689868848408},{"id":"161500","name":"Jacoby Stiedemann","party":"Rep","address":"372 E 2000 N, Orem, UT 84057","precinct":"25OR04","hd":"58","v_score":"16.66896366","decile":"9","lat":40.333751699479,"lng":-111.687443297889},{"id":"161728","name":"Shaquille Conroy II","party":"","address":"355 E 1890 N, Orem, UT 84057","precinct":"25OR04","hd":"58","v_score":"23.95587272","decile":"10","lat":40.332307079304,"lng":-111.687861910954},{"id":"161888","name":"Richmond Bednar","party":"","address":"25 E 1600 N, Orem, UT 84057","precinct":"25OR04","hd":"58","v_score":"4.342318225","decile":"7","lat":40.326675292331,"lng":-111.695912190091},{"id":"162483","name":"Lambert Stehr","party":"Dem","address":"1963 N 190 E, Orem, UT 84057","precinct":"25OR04","hd":"58","v_score":"7.227307695","decile":"8","lat":40.333002197151,"lng":-111.691965270845},{"id":"163147","name":"Rosalee Heller","party":"Dem","address":"16 E 1775 N, Orem, UT 84057","precinct":"25OR04","hd":"58","v_score":"5.40460374","decile":"7","lat":40.329683206349,"lng":-111.695663438138},{"id":"163663","name":"Aleah Jaskolski","party":"","address":"1941 N 400 E, Orem, UT 84097","precinct":"25OR04","hd":"58","v_score":"0","decile":"3","lat":40.332663593742,"lng":-111.686812738857},{"id":"163851","name":"Mrs. Shelley O'Kon DDS","party":"","address":"1927 N 400 E, Orem, UT 84097","precinct":"25OR04","hd":"58","v_score":"29.22457662","decile":"10","lat":40.332414873889,"lng":-111.68696136475},{"id":"163966","name":"Willam Deckow V","party":"Dem","address":"1761 Gold River Dr, Orem, UT 84057","precinct":"25OR04","hd":"58","v_score":"27.11053027","decile":"10","lat":40.328952850184,"lng":-111.68968294399},{"id":"164030","name":"Lucian Reichel","party":"","address":"1685 N 250 E, Orem, UT 84057","precinct":"25OR04","hd":"58","v_score":"8.445971984","decile":"8","lat":40.327942013629,"lng":-111.690249703257},{"id":"164313","name":"Irena Schroeder-Keebler","party":"Dem","address":"244 E 2000 N, Orem, UT 84057","precinct":"25OR04","hd":"58","v_score":"2.315214949","decile":"5","lat":40.333751699716,"lng":-111.690530009007},{"id":"164484","name":"Allie Barton","party":"","address":"1681 N 50 E, Orem, UT 84057","precinct":"25OR04","hd":"58","v_score":"3.781490609","decile":"6","lat":40.328537616206,"lng":-111.695342147637},{"id":"164543","name":"Adlai Runte","party":"Rep","address":"235 E 1660 N, Orem, UT 84057","precinct":"25OR04","hd":"58","v_score":"1.121327652","decile":"3","lat":40.327776399313,"lng":-111.690487940653},{"id":"164622","name":"Ms. Eura Skiles PhD","party":"Rep","address":"1978 N 100 E, Orem, UT 84057","precinct":"25OR04","hd":"58","v_score":"8.347511332","decile":"8","lat":40.333392723689,"lng":-111.693631011958},{"id":"164863","name":"Dr. Lowell Daugherty DVM","party":"Dem","address":"205 E 1600 N, Orem, UT 84057","precinct":"25OR04","hd":"58","v_score":"0","decile":"3","lat":40.32668429204,"lng":-111.692130998214},{"id":"164952","name":"Crissie Walker-Stehr","party":"Rep","address":"1880 N 40 E, Orem, UT 84057","precinct":"25OR04","hd":"58","v_score":"16.2066738","decile":"9","lat":40.331344085284,"lng":-111.695262692048},{"id":"165167","name":"Mr. Gussie Deckow","party":"Rep","address":"1759 Moor Ln, Orem, UT 84057","precinct":"25OR04","hd":"58","v_score":"9.116556227","decile":"8","lat":40.329091772374,"lng":-111.688554016369},{"id":"165170","name":"Mr. Hobson Kiehn DVM","party":"","address":"1715 N 210 E, Orem, UT 84057","precinct":"25OR04","hd":"58","v_score":"36.135841","decile":"10","lat":40.328157213909,"lng":-111.69119579916},{"id":"165536","name":"Jocelyne Jones","party":"Rep","address":"1765 Gold River Dr, Orem, UT 84057","precinct":"25OR04","hd":"58","v_score":"9.116556227","decile":"8","lat":40.3289940273,"lng":-111.689741278221},{"id":"165568","name":"Dr. Alvaro Ebert DDS","party":"Dem","address":"1910 N 270 E, Orem, UT 84057","precinct":"25OR04","hd":"58","v_score":"2.315214949","decile":"5","lat":40.331867348392,"lng":-111.690517308836},{"id":"166528","name":"Marilyn Grant","party":"Rep","address":"310 E 2000 N, Orem, UT 84057","precinct":"25OR04","hd":"58","v_score":"6.724398202","decile":"8","lat":40.333751699604,"lng":-111.689071447508},{"id":"167090","name":"Tyshawn Thiel-Eichmann","party":"","address":"354 E 1950 N, Orem, UT 84057","precinct":"25OR04","hd":"58","v_score":"8.280646305","decile":"8","lat":40.332947337217,"lng":-111.687912555885},{"id":"167110","name":"Shaniqua Abbott","party":"Rep","address":"1646 N MAIN St, Orem, UT 84057","precinct":"25OR04","hd":"58","v_score":"12.49472132","decile":"9","lat":40.327464973288,"lng":-111.6967861215},{"id":"167160","name":"Doreen Lindgren-Larson","party":"Dem","address":"1761 Gold River Dr, Orem, UT 84057","precinct":"25OR04","hd":"58","v_score":"27.11053027","decile":"10","lat":40.328952850184,"lng":-111.68968294399},{"id":"167561","name":"Ms. Shaniya Gottlieb DVM","party":"Dem","address":"1716 N Main St, Orem, UT 84057","precinct":"25OR04","hd":"58","v_score":"1.46627566","decile":"4","lat":40.32874566068,"lng":-111.696552891763},{"id":"167776","name":"Unique Lebsack","party":"Dem","address":"299 E 1960 N, Orem, UT 84057","precinct":"25OR04","hd":"58","v_score":"7.47704845","decile":"8","lat":40.33316506304,"lng":-111.689426409577},{"id":"167813","name":"Lesli Kuhic","party":"Rep","address":"1973 N 270 E, Orem, UT 84057","precinct":"25OR04","hd":"58","v_score":"1.46627566","decile":"4","lat":40.333334243461,"lng":-111.689855107848},{"id":"167988","name":"Blanche Spinka-Purdy","party":"","address":"1964 N 100 E, Orem, UT 84057","precinct":"25OR04","hd":"58","v_score":"8.280646305","decile":"8","lat":40.333187937638,"lng":-111.693796575705},{"id":"168839","name":"Miss Tiney Gorczany","party":"Rep","address":"314 E Heather Cir, Orem, UT 84057","precinct":"25OR04","hd":"58","v_score":"19.19319411","decile":"10","lat":40.331489088893,"lng":-111.68907385028},{"id":"170099","name":"Audriana Gerhold","party":"","address":"1920 N 270 E, Orem, UT 84057","precinct":"25OR04","hd":"58","v_score":"0","decile":"3","lat":40.331985544748,"lng":-111.690383431585},{"id":"170101","name":"Mychal Halvorson","party":"","address":"1887 N 270 E, Orem, UT 84057","precinct":"25OR04","hd":"58","v_score":"5.40460374","decile":"7","lat":40.331734309036,"lng":-111.690950227012},{"id":"170144","name":"Britt Spencer-Hudson","party":"","address":"1940 N 270 E, Orem, UT 84057","precinct":"25OR04","hd":"58","v_score":"1.121327652","decile":"3","lat":40.332249068205,"lng":-111.69017511999},{"id":"170752","name":"Mrs. Kenyatta Sawayn","party":"Dem","address":"1936 N 230 E, Orem, UT 84057","precinct":"25OR04","hd":"58","v_score":"8.280646305","decile":"8","lat":40.33258297857,"lng":-111.691005796236},{"id":"170983","name":"Clyde Zieme","party":"Rep","address":"1733 N 400 E, Orem, UT 84097","precinct":"25OR04","hd":"58","v_score":"3.781490609","decile":"6","lat":40.328995704879,"lng":-111.687638776882},{"id":"171227","name":"Dr. Jayvon Cassin I","party":"Dem","address":"198 Ridge Rd, Orem, UT 84057","precinct":"25OR04","hd":"58","v_score":"1.121327652","decile":"3","lat":40.33179871432,"lng":-111.692170260041},{"id":"171917","name":"Mr. Mckinley Brekke","party":"","address":"289 E Heather Rd, Orem, UT 84057","precinct":"25OR04","hd":"58","v_score":"1.121327652","decile":"3","lat":40.33115825913,"lng":-111.689868848408},{"id":"172045","name":"Dr. Schley Parker","party":"","address":"216 Heather Rd, Orem, UT 84057","precinct":"25OR04","hd":"58","v_score":"15.45904733","decile":"9","lat":40.332401162412,"lng":-111.691715236957},{"id":"172072","name":"Dwan Cremin PhD","party":"Dem","address":"286 E 1660 N, Orem, UT 84057","precinct":"25OR04","hd":"58","v_score":"30.38433973","decile":"10","lat":40.327711622219,"lng":-111.68951687301},{"id":"172424","name":"Werner Glover-Gerhold","party":"","address":"122 E 2000 N, Orem, UT 84057","precinct":"25OR04","hd":"58","v_score":"2.744440783","decile":"6","lat":40.333751699883,"lng":-111.692714024259},{"id":"172928","name":"Braxton Willms PhD","party":"","address":"365 E 1950 N, Orem, UT 84057","precinct":"25OR04","hd":"58","v_score":"5.191257514","decile":"7","lat":40.333063831903,"lng":-111.687873062805},{"id":"173017","name":"Cleta Abernathy DVM","party":"Dem","address":"1716 N Main St, Orem, UT 84057","precinct":"25OR04","hd":"58","v_score":"1.46627566","decile":"4","lat":40.32874566068,"lng":-111.696552891763},{"id":"173070","name":"Ms. Georgine Hahn MD","party":"Dem","address":"306 E 1960 N, Orem, UT 84057","precinct":"25OR04","hd":"58","v_score":"0","decile":"3","lat":40.333049998072,"lng":-111.689408337727},{"id":"173079","name":"Jade Fay","party":"","address":"226 E Heather Rd, Orem, UT 84057","precinct":"25OR04","hd":"58","v_score":"5.40460374","decile":"7","lat":40.332278553852,"lng":-111.691484649506},{"id":"174181","name":"Pennie Hackett","party":"","address":"1634 N 210 E, Orem, UT 84057","precinct":"25OR04","hd":"58","v_score":"10.04533889","decile":"9","lat":40.327296049215,"lng":-111.691017466481},{"id":"174440","name":"Trudy Dooley","party":"","address":"1651 N 50 E, Orem, UT 84057","precinct":"25OR04","hd":"58","v_score":"39.36155753","decile":"10","lat":40.327875730598,"lng":-111.695364956119},{"id":"174556","name":"Durwood Bernier","party":"","address":"1667 N Moor Ln, Orem, UT 84057","precinct":"25OR04","hd":"58","v_score":"45.76919357","decile":"10","lat":40.328060536909,"lng":-111.687902615044},{"id":"174987","name":"Bode Kessler IV","party":"","address":"1789 N 80 E, Orem, UT 84057","precinct":"25OR04","hd":"58","v_score":"33.01185542","decile":"10","lat":40.329851452954,"lng":-111.694404846793},{"id":"175117","name":"Brynn Hyatt MD","party":"","address":"88 E 1850 N, Orem, UT 84057","precinct":"25OR04","hd":"58","v_score":"24.37270649","decile":"10","lat":40.331024700304,"lng":-111.694157841945},{"id":"175168","name":"Gaetano Senger","party":"Rep","address":"1756 Gold River Dr, Orem, UT 84057","precinct":"25OR04","hd":"58","v_score":"1.193887297","decile":"4","lat":40.329078109528,"lng":-111.689639152355},{"id":"175433","name":"Sydni Nitzsche","party":"Rep","address":"217 Heather Rd, Orem, UT 84057","precinct":"25OR04","hd":"58","v_score":"2.315214949","decile":"5","lat":40.332496981421,"lng":-111.691632791492},{"id":"175620","name":"Pauletta Champlin","party":"","address":"136 Ridge Rd, Orem, UT 84057","precinct":"25OR04","hd":"58","v_score":"7.159318653","decile":"8","lat":40.332364854941,"lng":-111.693590156716},{"id":"176378","name":"Miss Yamilet Casper DDS","party":"Rep","address":"1610 N 160 E, Orem, UT 84057","precinct":"25OR04","hd":"58","v_score":"0","decile":"3","lat":40.328123361614,"lng":-111.699907118049},{"id":"176897","name":"Dr. Mayo Considine III","party":"","address":"1927 N 400 E, Orem, UT 84097","precinct":"25OR04","hd":"58","v_score":"35.28709767","decile":"10","lat":40.332414873889,"lng":-111.68696136475},{"id":"177290","name":"Audie Gleason","party":"Rep","address":"289 Heather Rd, Orem, UT 84057","precinct":"25OR04","hd":"58","v_score":"0","decile":"3","lat":40.33115825913,"lng":-111.689868848408},{"id":"177720","name":"Kane Bayer","party":"Dem","address":"1730 N 50 E, Orem, UT 84057","precinct":"25OR04","hd":"58","v_score":"1.193887297","decile":"4","lat":40.329223496284,"lng":-111.695146703823},{"id":"178031","name":"Willa Harris-Wilkinson","party":"Dem","address":"348 E 2000 N, Orem, UT 84057","precinct":"25OR04","hd":"58","v_score":"24.72507993","decile":"10","lat":40.333751699528,"lng":-111.688073549354},{"id":"178192","name":"Star Rath","party":"","address":"310 E 2000 N, Orem, UT 84057","precinct":"25OR04","hd":"58","v_score":"1.46627566","decile":"4","lat":40.333751699604,"lng":-111.689071447508},{"id":"178285","name":"Dr. Leonce Donnelly","party":"Rep","address":"285 Gold River Cir, Orem, UT 84057","precinct":"25OR04","hd":"58","v_score":"8.211445228","decile":"8","lat":40.329331401463,"lng":-111.68946461958},{"id":"178323","name":"Mr. Elias Roob","party":"","address":"1775 N 80 E, Orem, UT 84057","precinct":"25OR04","hd":"58","v_score":"9.811896204","decile":"8","lat":40.329795917548,"lng":-111.694406235185},{"id":"178436","name":"Mrs. Rossie Jacobi DDS","party":"","address":"1685 N 250 E, Orem, UT 84057","precinct":"25OR04","hd":"58","v_score":"35.30276996","decile":"10","lat":40.327942013629,"lng":-111.690249703257},{"id":"178790","name":"Mrs. Stella Purdy","party":"Dem","address":"1612 N Main St, Orem, UT 84057","precinct":"25OR04","hd":"58","v_score":"11.29723756","decile":"9","lat":40.326867284012,"lng":-111.696891534576},{"id":"178792","name":"Tavares Veum","party":"Dem","address":"183 Ridge Rd, Orem, UT 84057","precinct":"25OR04","hd":"58","v_score":"35.30276996","decile":"10","lat":40.332104954044,"lng":-111.692521506691},{"id":"179759","name":"Estevan Weimann","party":"","address":"1941 N 400 E, Orem, UT 84097","precinct":"25OR04","hd":"58","v_score":"0","decile":"3","lat":40.332663593742,"lng":-111.686812738857},{"id":"180495","name":"Weldon Hudson","party":"Rep","address":"1906 N 325 E, Orem, UT 84057","precinct":"25OR04","hd":"58","v_score":"1.46627566","decile":"4","lat":40.332675960113,"lng":-111.68831772576},{"id":"180610","name":"Grove Kautzer-Gutmann","party":"Dem","address":"1932 N Main St, Orem, UT 84057","precinct":"25OR04","hd":"58","v_score":"3.93832808","decile":"6","lat":40.332579269419,"lng":-111.696556777761},{"id":"181108","name":"Tristen Moore","party":"Dem","address":"1896 N Main St, Orem, UT 84057","precinct":"25OR04","hd":"58","v_score":"3.93832808","decile":"6","lat":40.331991882755,"lng":-111.696301284362}]