[{"id":"546","name":"Ora Dicki-Keebler","party":"","address":"1024 E 400 N, Orem, UT 84097","precinct":"25OR27","hd":"58","v_score":"16.72520646","decile":"9","lat":40.30448370157,"lng":-111.671199088023},{"id":"804","name":"Mattie Jacobi","party":"Rep","address":"330 N 900 E, Orem, UT 84097","precinct":"25OR27","hd":"58","v_score":"14.64610688","decile":"9","lat":40.303184339692,"lng":-111.673961484208},{"id":"1160","name":"Chace Hoeger-Quigley","party":"Dem","address":"372 N 1100 E, Orem, UT 84097","precinct":"25OR27","hd":"58","v_score":"24.04198082","decile":"10","lat":40.304113357735,"lng":-111.669249240667},{"id":"1515","name":"Ples Schiller PhD","party":"Rep","address":"349 N Palisades Dr, Orem, UT 84097","precinct":"25OR27","hd":"58","v_score":"5.530510904","decile":"7","lat":40.303139602761,"lng":-111.66624696386},{"id":"2017","name":"Sedrick Koepp","party":"","address":"1146 E 400 N, Orem, UT 84097","precinct":"25OR27","hd":"58","v_score":"39.82830143","decile":"10","lat":40.304509702432,"lng":-111.668152889985},{"id":"2361","name":"Delphia Miller DVM","party":"Dem","address":"947 E 80 N, Orem, UT 84097","precinct":"25OR27","hd":"58","v_score":"2.315214949","decile":"5","lat":40.298703293791,"lng":-111.673358933667},{"id":"2631","name":"Khalilah Tillman","party":"Dem","address":"258 N Palisades Dr, Orem, UT 84097","precinct":"25OR27","hd":"58","v_score":"14.32268247","decile":"9","lat":40.301925446605,"lng":-111.666757885964},{"id":"2891","name":"Ms. Brandee Murphy DVM","party":"","address":"1155 E 140 N, Orem, UT 84097","precinct":"25OR27","hd":"58","v_score":"10.52632313","decile":"9","lat":40.29962526769,"lng":-111.66812338069},{"id":"3050","name":"Franco Jenkins-Upton","party":"","address":"172 N 1080 E, Orem, UT 84097","precinct":"25OR27","hd":"58","v_score":"11.02844566","decile":"9","lat":40.300415578107,"lng":-111.669698120317},{"id":"3692","name":"Shirlene Nienow-Yost","party":"","address":"142 N 1200 E, Orem, UT 84097","precinct":"25OR27","hd":"58","v_score":"2.315214949","decile":"5","lat":40.299709363715,"lng":-111.66694624221},{"id":"3791","name":"Fayette Bergnaum","party":"","address":"893 E 40 N, Orem, UT 84097","precinct":"25OR27","hd":"58","v_score":"2.744440783","decile":"5","lat":40.297953273648,"lng":-111.673787626586},{"id":"4076","name":"Mr. Marion Turner","party":"Dem","address":"1100 E 40 N, Orem, UT 84097","precinct":"25OR27","hd":"58","v_score":"2.315214949","decile":"5","lat":40.297773688928,"lng":-111.669535246253},{"id":"4758","name":"Merlyn Johnson","party":"","address":"132 N 1200 E, Orem, UT 84097","precinct":"25OR27","hd":"58","v_score":"26.9144526","decile":"10","lat":40.299583386711,"lng":-111.666891005049},{"id":"4854","name":"Dr. Greg Hamill","party":"Dem","address":"1092 E 200 N, Orem, UT 84097","precinct":"25OR27","hd":"58","v_score":"36.78705203","decile":"10","lat":40.300673971235,"lng":-111.669484166292},{"id":"5866","name":"Merlin Littel I","party":"Rep","address":"168 N 1200 E, Orem, UT 84097","precinct":"25OR27","hd":"58","v_score":"1.121327652","decile":"3","lat":40.300026764887,"lng":-111.667092867692},{"id":"5985","name":"Martez Larkin","party":"Dem","address":"160 N 1080 E, Orem, UT 84097","precinct":"25OR27","hd":"58","v_score":"9.757278238","decile":"8","lat":40.30029794447,"lng":-111.66969088134},{"id":"6913","name":"Charlene Terry","party":"","address":"1118 E 150 N, Orem, UT 84097","precinct":"25OR27","hd":"58","v_score":"3.781490609","decile":"6","lat":40.299892294879,"lng":-111.668786830751},{"id":"7697","name":"Dr. Doll Adams MD","party":"Dem","address":"333 N 1000 E, Orem, UT 84097","precinct":"25OR27","hd":"58","v_score":"2.315214949","decile":"5","lat":40.303202232678,"lng":-111.671883653004},{"id":"8037","name":"Deryl Schroeder","party":"Rep","address":"285 N 1000 E, Orem, UT 84097","precinct":"25OR27","hd":"58","v_score":"1.121327652","decile":"3","lat":40.302271097619,"lng":-111.671858712011},{"id":"9702","name":"Madelene Cronin","party":"Dem","address":"224 N 850 E, Orem, UT 84097","precinct":"25OR27","hd":"58","v_score":"35.30276996","decile":"10","lat":40.301135273937,"lng":-111.6753187945},{"id":"10287","name":"Enrique Terry","party":"Dem","address":"281 N 1200 E, Orem, UT 84097","precinct":"25OR27","hd":"58","v_score":"29.09687134","decile":"10","lat":40.302585091142,"lng":-111.667158239255},{"id":"11002","name":"Christoper Waelchi-Rau","party":"","address":"349 N Palisades Dr, Orem, UT 84097","precinct":"25OR27","hd":"58","v_score":"1.46627566","decile":"4","lat":40.303139602761,"lng":-111.66624696386},{"id":"11482","name":"Ronin Orn","party":"Rep","address":"1161 E 350 N, Orem, UT 84097","precinct":"25OR27","hd":"58","v_score":"13.62784865","decile":"9","lat":40.303628079678,"lng":-111.668516016045},{"id":"11863","name":"Elmo Parker","party":"Rep","address":"349 N 900 E, Orem, UT 84097","precinct":"25OR27","hd":"58","v_score":"3.93832808","decile":"6","lat":40.303485183601,"lng":-111.674117656456},{"id":"11911","name":"Frank Quitzon","party":"Rep","address":"1034 E Bretonwoods Ln, Orem, UT 84097","precinct":"25OR27","hd":"58","v_score":"7.031075439","decile":"8","lat":40.298369484168,"lng":-111.670027919938},{"id":"15290","name":"Gray Schroeder","party":"","address":"270 N Palisades Dr, Orem, UT 84097","precinct":"25OR27","hd":"58","v_score":"2.315214949","decile":"5","lat":40.302103363859,"lng":-111.666576216729},{"id":"15399","name":"Elvia Grady","party":"Rep","address":"1147 E 100 N, Orem, UT 84097","precinct":"25OR27","hd":"58","v_score":"2.587603312","decile":"5","lat":40.298753904032,"lng":-111.668490626437},{"id":"15516","name":"Leslie Considine","party":"Rep","address":"302 N Palisades Dr, Orem, UT 84097","precinct":"25OR27","hd":"58","v_score":"19.31616834","decile":"10","lat":40.302655276293,"lng":-111.666189926625},{"id":"15926","name":"Neppie Christiansen DDS","party":"","address":"228 N 1000 E, Orem, UT 84097","precinct":"25OR27","hd":"58","v_score":"2.315214949","decile":"5","lat":40.301196036414,"lng":-111.671696243051},{"id":"16940","name":"Dr. Hugo Pfeffer","party":"","address":"32 N 960 E, Orem, UT 84097","precinct":"25OR27","hd":"58","v_score":"36.41864994","decile":"10","lat":40.297212672845,"lng":-111.67252375158},{"id":"16942","name":"Hildegarde Vandervort","party":"Rep","address":"32 N 960 E, Orem, UT 84097","precinct":"25OR27","hd":"58","v_score":"26.41733837","decile":"10","lat":40.297212672845,"lng":-111.67252375158},{"id":"17269","name":"Norman Ratke","party":"","address":"214 N 1000 E, Orem, UT 84097","precinct":"25OR27","hd":"58","v_score":"6.798081861","decile":"8","lat":40.300962310209,"lng":-111.671694684907},{"id":"17679","name":"Britney Kreiger-Osinski","party":"Dem","address":"160 N 1080 E, Orem, UT 84097","precinct":"25OR27","hd":"58","v_score":"22.84465937","decile":"10","lat":40.30029794447,"lng":-111.66969088134},{"id":"17884","name":"Dr. Buster Metz IV","party":"Rep","address":"159 N 1080 E, Orem, UT 84097","precinct":"25OR27","hd":"58","v_score":"19.66811405","decile":"10","lat":40.300272966679,"lng":-111.669839761861},{"id":"18592","name":"Lilah Stamm","party":"","address":"169 N 1200 E, Orem, UT 84097","precinct":"25OR27","hd":"58","v_score":"10.88124881","decile":"9","lat":40.299992385415,"lng":-111.667236288284},{"id":"19448","name":"Vonetta Raynor","party":"","address":"237 N 850 E, Orem, UT 84097","precinct":"25OR27","hd":"58","v_score":"5.40460374","decile":"7","lat":40.301260955275,"lng":-111.675475887423},{"id":"19911","name":"Sheryl Paucek","party":"Dem","address":"349 N Palisades Dr, Orem, UT 84097","precinct":"25OR27","hd":"58","v_score":"7.159318653","decile":"8","lat":40.303139602761,"lng":-111.66624696386},{"id":"20595","name":"Dr. Nicolas Hauck III","party":"Rep","address":"995 E 200 N, Orem, UT 84097","precinct":"25OR27","hd":"58","v_score":"1.193887297","decile":"3","lat":40.300674293458,"lng":-111.671939632053},{"id":"21212","name":"Augustina Bartoletti","party":"Dem","address":"1161 E 350 N, Orem, UT 84097","precinct":"25OR27","hd":"58","v_score":"3.781490609","decile":"6","lat":40.303628079678,"lng":-111.668516016045},{"id":"21678","name":"Hector Lakin","party":"Rep","address":"989 E Center St, Orem, UT 84097","precinct":"25OR27","hd":"58","v_score":"31.08869495","decile":"10","lat":40.296943592741,"lng":-111.671890519289},{"id":"21688","name":"Diamond Cummings","party":"Dem","address":"1187 E 180 N, Orem, UT 84097","precinct":"25OR27","hd":"58","v_score":"2.817000428","decile":"6","lat":40.300492342977,"lng":-111.667489293204},{"id":"22173","name":"Dr. Cristin Schmeler","party":"Dem","address":"127 N 1080 E, Orem, UT 84097","precinct":"25OR27","hd":"58","v_score":"9.55742766","decile":"8","lat":40.299454420112,"lng":-111.669861566183},{"id":"22814","name":"Jeramy Weber PhD","party":"","address":"315 N 1160 E, Orem, UT 84097","precinct":"25OR27","hd":"58","v_score":"11.29723756","decile":"9","lat":40.302948280504,"lng":-111.668056739782},{"id":"23190","name":"Mrs. Deneen Borer","party":"Rep","address":"258 N 800 E, Orem, UT 84097","precinct":"25OR27","hd":"58","v_score":"0","decile":"1","lat":40.301925524231,"lng":-111.676474857907},{"id":"23298","name":"Dr. Ethan Effertz","party":"Rep","address":"315 N 1160 E, Orem, UT 84097","precinct":"25OR27","hd":"58","v_score":"22.89645525","decile":"10","lat":40.302948280504,"lng":-111.668056739782},{"id":"23550","name":"Mr. Butch Bernier","party":"Rep","address":"61 N 1200 E, Orem, UT 84097","precinct":"25OR27","hd":"58","v_score":"5.40460374","decile":"7","lat":40.298689443639,"lng":-111.667252707475},{"id":"23579","name":"Dr. Giselle Barton DDS","party":"","address":"169 N 1000 E, Orem, UT 84097","precinct":"25OR27","hd":"58","v_score":"8.280646305","decile":"8","lat":40.30014254525,"lng":-111.67183865663},{"id":"23742","name":"Ambrose Koch","party":"Dem","address":"1012 E 200 N, Orem, UT 84097","precinct":"25OR27","hd":"58","v_score":"43.21491934","decile":"10","lat":40.300622986873,"lng":-111.671412207798},{"id":"24083","name":"Miss Leanna Hermann","party":"Dem","address":"1095 E 275 N, Orem, UT 84097","precinct":"25OR27","hd":"58","v_score":"14.3387115","decile":"9","lat":40.302166233425,"lng":-111.66944951816},{"id":"24813","name":"Savanna Bruen-O'Keefe","party":"","address":"1012 E 200 N, Orem, UT 84097","precinct":"25OR27","hd":"58","v_score":"40.4977902","decile":"10","lat":40.300622986873,"lng":-111.671412207798},{"id":"25503","name":"Ean Williamson-Botsford","party":"","address":"347 N 875 E, Orem, UT 84097","precinct":"25OR27","hd":"58","v_score":"8.284004873","decile":"8","lat":40.302912383188,"lng":-111.67498399729},{"id":"25719","name":"Theadore Nienow PhD","party":"Dem","address":"990 E 200 N, Orem, UT 84097","precinct":"25OR27","hd":"58","v_score":"3.781490609","decile":"6","lat":40.300559702081,"lng":-111.672036268242},{"id":"26012","name":"Maeve Ledner","party":"","address":"839 E 300 N, Orem, UT 84097","precinct":"25OR27","hd":"58","v_score":"14.74039814","decile":"9","lat":40.302775402377,"lng":-111.675809106408},{"id":"27366","name":"Charla Pfannerstill","party":"Rep","address":"1153 E 250 N, Orem, UT 84097","precinct":"25OR27","hd":"58","v_score":"13.33063124","decile":"9","lat":40.301508643519,"lng":-111.667662017816},{"id":"27421","name":"Press Kuhlman","party":"Rep","address":"298 N 1000 E, Orem, UT 84097","precinct":"25OR27","hd":"58","v_score":"13.6254517","decile":"9","lat":40.30251321799,"lng":-111.671714910889},{"id":"27771","name":"Dimitrios Dickens","party":"","address":"316 N 1100 E, Orem, UT 84097","precinct":"25OR27","hd":"58","v_score":"2.315214949","decile":"5","lat":40.303147143079,"lng":-111.669241862273},{"id":"28586","name":"Landen Macejkovic II","party":"Dem","address":"870 E 375 N, Orem, UT 84097","precinct":"25OR27","hd":"58","v_score":"9.682978083","decile":"8","lat":40.303808953724,"lng":-111.674485770818},{"id":"29394","name":"Hadley Senger III","party":"","address":"159 N 1080 E, Orem, UT 84097","precinct":"25OR27","hd":"58","v_score":"19.66811405","decile":"10","lat":40.300272966679,"lng":-111.669839761861},{"id":"29888","name":"Keesha Dicki","party":"Dem","address":"16 N 1000 E, Orem, UT 84097","precinct":"25OR27","hd":"58","v_score":"0","decile":"1","lat":40.297259969351,"lng":-111.671667961527},{"id":"30929","name":"Peyton Mitchell MD","party":"Rep","address":"1125 E 300 N, Orem, UT 84097","precinct":"25OR27","hd":"58","v_score":"3.93832808","decile":"6","lat":40.302857833366,"lng":-111.668603457113},{"id":"31779","name":"Eugene Rohan III","party":"Dem","address":"178 N 1200 E, Orem, UT 84097","precinct":"25OR27","hd":"58","v_score":"2.744440783","decile":"5","lat":40.300148842261,"lng":-111.667149262109},{"id":"31795","name":"Consuelo Lesch","party":"","address":"169 N 1000 E, Orem, UT 84097","precinct":"25OR27","hd":"58","v_score":"8.280646305","decile":"8","lat":40.30014254525,"lng":-111.67183865663},{"id":"31816","name":"Howard Waters","party":"Dem","address":"1024 E 120 N, Orem, UT 84097","precinct":"25OR27","hd":"58","v_score":"2.315214949","decile":"5","lat":40.299080222585,"lng":-111.671167649628},{"id":"32984","name":"Corey Abshire","party":"","address":"99 N Palisades Dr, Orem, UT 84097","precinct":"25OR27","hd":"58","v_score":"1.121327652","decile":"3","lat":40.298789184602,"lng":-111.668897480325},{"id":"32994","name":"Brandy Jakubowski","party":"","address":"1064 E 120 N, Orem, UT 84097","precinct":"25OR27","hd":"58","v_score":"2.315214949","decile":"5","lat":40.29913327718,"lng":-111.670322897102},{"id":"33466","name":"Toshio Brakus","party":"Dem","address":"319 N 1000 E, Orem, UT 84097","precinct":"25OR27","hd":"58","v_score":"35.30276996","decile":"10","lat":40.302930651619,"lng":-111.671876378548},{"id":"33557","name":"Hansel Beer-Kuhn","party":"Rep","address":"268 N 1120 E, Orem, UT 84097","precinct":"25OR27","hd":"58","v_score":"0","decile":"1","lat":40.302188013448,"lng":-111.668891568277},{"id":"34099","name":"Marcell Mohr","party":"Dem","address":"1010 E 275 N, Orem, UT 84097","precinct":"25OR27","hd":"58","v_score":"15.43762891","decile":"9","lat":40.301973348801,"lng":-111.671514579228},{"id":"34147","name":"Arlyn Kihn","party":"Rep","address":"375 N 1000 E, Orem, UT 84097","precinct":"25OR27","hd":"58","v_score":"1.46627566","decile":"4","lat":40.304016975854,"lng":-111.671905476374},{"id":"34620","name":"Claire Baumbach","party":"Rep","address":"354 N 800 E, Orem, UT 84097","precinct":"25OR27","hd":"58","v_score":"3.781490609","decile":"6","lat":40.303705817324,"lng":-111.676509469238},{"id":"35991","name":"Vikki Mante-D'Amore","party":"Dem","address":"1172 E 300 N, Orem, UT 84097","precinct":"25OR27","hd":"58","v_score":"1.121327652","decile":"3","lat":40.302737701499,"lng":-111.667672902079},{"id":"36366","name":"Dr. Kavon Herman DVM","party":"","address":"189 N Palisades Dr, Orem, UT 84097","precinct":"25OR27","hd":"58","v_score":"9.55742766","decile":"8","lat":40.300357455128,"lng":-111.668186114425},{"id":"36368","name":"Almeta Hahn","party":"Rep","address":"224 N 850 E, Orem, UT 84097","precinct":"25OR27","hd":"58","v_score":"35.30276996","decile":"10","lat":40.301135273937,"lng":-111.6753187945},{"id":"39246","name":"Cassidy O'Kon","party":"","address":"1112 E 40 N, Orem, UT 84097","precinct":"25OR27","hd":"58","v_score":"20.70633281","decile":"10","lat":40.297648087687,"lng":-111.669319539839},{"id":"39251","name":"Mr. Lawson Schulist","party":"Rep","address":"168 N 1200 E, Orem, UT 84097","precinct":"25OR27","hd":"58","v_score":"1.46627566","decile":"4","lat":40.300026764887,"lng":-111.667092867692},{"id":"39657","name":"Mitchell Morissette","party":"Dem","address":"242 N Palisades Dr, Orem, UT 84097","precinct":"25OR27","hd":"58","v_score":"5.40460374","decile":"7","lat":40.301314133061,"lng":-111.667334030628},{"id":"39895","name":"Encarnacion Lueilwitz Sr.","party":"Dem","address":"315 N 1160 E, Orem, UT 84097","precinct":"25OR27","hd":"58","v_score":"5.40460374","decile":"7","lat":40.302948280504,"lng":-111.668056739782},{"id":"40784","name":"Merton Bednar","party":"Rep","address":"1089 E Bretonwoods Ln, Orem, UT 84097","precinct":"25OR27","hd":"58","v_score":"6.657533174","decile":"7","lat":40.298022621411,"lng":-111.669602790609},{"id":"40971","name":"Sherrie Grant-West","party":"","address":"99 N Palisades Dr, Orem, UT 84097","precinct":"25OR27","hd":"58","v_score":"3.016591252","decile":"6","lat":40.298789184602,"lng":-111.668897480325},{"id":"41245","name":"Lute Becker","party":"","address":"1036 E 275 N, Orem, UT 84097","precinct":"25OR27","hd":"58","v_score":"2.315214949","decile":"5","lat":40.301991029454,"lng":-111.671037200637},{"id":"41462","name":"Dr. Mathew Stehr II","party":"","address":"268 N 1120 E, Orem, UT 84097","precinct":"25OR27","hd":"58","v_score":"1.121327652","decile":"3","lat":40.302188013448,"lng":-111.668891568277},{"id":"42184","name":"Missouri Runolfsson","party":"","address":"25 N 1000 E, Orem, UT 84097","precinct":"25OR27","hd":"58","v_score":"5.258122542","decile":"7","lat":40.297470988522,"lng":-111.671819472887},{"id":"42256","name":"Dr. Tamara Harvey","party":"Rep","address":"375 N 1000 E, Orem, UT 84097","precinct":"25OR27","hd":"58","v_score":"5.40460374","decile":"7","lat":40.304016975854,"lng":-111.671905476374},{"id":"42517","name":"Dakotah Toy","party":"","address":"195 N 1040 E, Orem, UT 84097","precinct":"25OR27","hd":"58","v_score":"25.43711054","decile":"10","lat":40.300619796452,"lng":-111.670810756361},{"id":"42587","name":"Ms. Adrienne O'Keefe DVM","party":"","address":"951 E 40 N, Orem, UT 84097","precinct":"25OR27","hd":"58","v_score":"5.40460374","decile":"7","lat":40.297960866169,"lng":-111.673070399995},{"id":"42958","name":"Orin Kozey","party":"","address":"896 E 375 N, Orem, UT 84097","precinct":"25OR27","hd":"58","v_score":"3.711952487","decile":"6","lat":40.303814766963,"lng":-111.674314279896},{"id":"43212","name":"Merton Lowe Sr.","party":"Rep","address":"258 N 800 E, Orem, UT 84097","precinct":"25OR27","hd":"58","v_score":"9.119914795","decile":"8","lat":40.301925524231,"lng":-111.676474857907},{"id":"43492","name":"Alanzo Heidenreich","party":"","address":"174 N 1000 E, Orem, UT 84097","precinct":"25OR27","hd":"58","v_score":"19.17086762","decile":"10","lat":40.300226696284,"lng":-111.671689173934},{"id":"45413","name":"Marcelino Schulist","party":"Rep","address":"1079 E 275 N, Orem, UT 84097","precinct":"25OR27","hd":"58","v_score":"8.434505549","decile":"8","lat":40.302154993388,"lng":-111.669720216198},{"id":"45565","name":"Linus Bins DVM","party":"","address":"19 N Palisades Dr, Orem, UT 84097","precinct":"25OR27","hd":"58","v_score":"2.315214949","decile":"5","lat":40.297277355415,"lng":-111.669952597101},{"id":"46142","name":"Waino Prohaska PhD","party":"","address":"1106 E 200 N, Orem, UT 84097","precinct":"25OR27","hd":"58","v_score":"3.711952487","decile":"6","lat":40.30067947348,"lng":-111.669214555271},{"id":"46254","name":"Ms. Sarai Bahringer","party":"","address":"1089 E Bretonwoods Ln, Orem, UT 84097","precinct":"25OR27","hd":"58","v_score":"21.24053775","decile":"10","lat":40.298022621411,"lng":-111.669602790609},{"id":"46835","name":"Dr. Jalisa Stoltenberg DDS","party":"Rep","address":"138 N 1080 E, Orem, UT 84097","precinct":"25OR27","hd":"58","v_score":"0","decile":"1","lat":40.299527721888,"lng":-111.669693205148},{"id":"46876","name":"Ardelia Johnson","party":"","address":"319 N 1000 E, Orem, UT 84097","precinct":"25OR27","hd":"58","v_score":"26.7250905","decile":"10","lat":40.302930651619,"lng":-111.671876378548},{"id":"47121","name":"Mrs. Sheri Murazik","party":"Dem","address":"1144 E 100 N, Orem, UT 84097","precinct":"25OR27","hd":"58","v_score":"6.657533174","decile":"7","lat":40.298641127096,"lng":-111.668519507695},{"id":"48289","name":"Grisel Abbott-Stark","party":"Dem","address":"379 N 900 E, Orem, UT 84097","precinct":"25OR27","hd":"58","v_score":"3.93832808","decile":"6","lat":40.304021232494,"lng":-111.674319380129},{"id":"49634","name":"Leslie Yost","party":"Rep","address":"388 N 1200 E, Orem, UT 84097","precinct":"25OR27","hd":"58","v_score":"1.193887297","decile":"3","lat":40.30430221442,"lng":-111.667051977579},{"id":"49668","name":"Dr. Jarvis Borer V","party":"Rep","address":"33 N 960 E, Orem, UT 84097","precinct":"25OR27","hd":"58","v_score":"0","decile":"1","lat":40.297223829922,"lng":-111.672674258289},{"id":"50796","name":"Terence Hand","party":"Dem","address":"1187 E 300 N, Orem, UT 84097","precinct":"25OR27","hd":"58","v_score":"3.781490609","decile":"6","lat":40.302852292867,"lng":-111.667461096162},{"id":"51173","name":"Griffin Brown","party":"Rep","address":"1060 E 275 N, Orem, UT 84097","precinct":"25OR27","hd":"58","v_score":"26.00199348","decile":"10","lat":40.302011021769,"lng":-111.670483818806},{"id":"51402","name":"Dorthey Doyle","party":"Dem","address":"117 N Palisades Dr, Orem, UT 84097","precinct":"25OR27","hd":"58","v_score":"2.817000428","decile":"6","lat":40.299198634729,"lng":-111.668817577093},{"id":"52004","name":"Destiney Kub-Kuhn","party":"Rep","address":"1160 E 140 N, Orem, UT 84097","precinct":"25OR27","hd":"58","v_score":"15.24264201","decile":"9","lat":40.299511464585,"lng":-111.668159319849},{"id":"52536","name":"Julius Bechtelar","party":"","address":"1187 E 300 N, Orem, UT 84097","precinct":"25OR27","hd":"58","v_score":"8.601979876","decile":"8","lat":40.302852292867,"lng":-111.667461096162},{"id":"53105","name":"Brigitte Streich","party":"Dem","address":"245 N 1000 E, Orem, UT 84097","precinct":"25OR27","hd":"58","v_score":"1.46627566","decile":"4","lat":40.301482974137,"lng":-111.671848409979},{"id":"54290","name":"Jaylen Klein","party":"","address":"195 N 1040 E, Orem, UT 84097","precinct":"25OR27","hd":"58","v_score":"26.9033862","decile":"10","lat":40.300619796452,"lng":-111.670810756361},{"id":"54452","name":"Dr. Heber Pollich DVM","party":"Dem","address":"1010 E 275 N, Orem, UT 84097","precinct":"25OR27","hd":"58","v_score":"5.687348376","decile":"7","lat":40.301973348801,"lng":-111.671514579228},{"id":"54779","name":"Dr. Fronia Rodriguez DVM","party":"","address":"1040 E 400 N, Orem, UT 84097","precinct":"25OR27","hd":"58","v_score":"19.97817658","decile":"10","lat":40.304484164291,"lng":-111.67071563728},{"id":"55936","name":"Cathie Schneider-Donnelly","party":"Rep","address":"989 E Center St, Orem, UT 84097","precinct":"25OR27","hd":"58","v_score":"1.121327652","decile":"3","lat":40.296943592741,"lng":-111.671890519289},{"id":"56013","name":"Mr. Ferman Grady","party":"","address":"836 E 400 N, Orem, UT 84097","precinct":"25OR27","hd":"58","v_score":"1.121327652","decile":"3","lat":40.304472174334,"lng":-111.675733196802},{"id":"56182","name":"Jamey Robel","party":"Dem","address":"178 N 1200 E, Orem, UT 84097","precinct":"25OR27","hd":"58","v_score":"3.93832808","decile":"6","lat":40.300148842261,"lng":-111.667149262109},{"id":"56699","name":"Gladis Ledner","party":"","address":"1084 E 275 N, Orem, UT 84097","precinct":"25OR27","hd":"58","v_score":"5.335402662","decile":"7","lat":40.302025450896,"lng":-111.670076200917},{"id":"56924","name":"Ms. Kalene Zboncak","party":"Rep","address":"910 E 40 N, Orem, UT 84097","precinct":"25OR27","hd":"58","v_score":"0","decile":"1","lat":40.297825607602,"lng":-111.67485200715},{"id":"57785","name":"Graydon Satterfield","party":"","address":"1106 E 200 N, Orem, UT 84097","precinct":"25OR27","hd":"58","v_score":"2.315214949","decile":"5","lat":40.30067947348,"lng":-111.669214555271},{"id":"58263","name":"Rollie Muller","party":"","address":"1096 E 275 N, Orem, UT 84097","precinct":"25OR27","hd":"58","v_score":"11.04986408","decile":"9","lat":40.302030000435,"lng":-111.669966632663},{"id":"58679","name":"Guy O'Keefe","party":"Dem","address":"1125 E 300 N, Orem, UT 84097","precinct":"25OR27","hd":"58","v_score":"1.121327652","decile":"3","lat":40.302857833366,"lng":-111.668603457113},{"id":"58810","name":"Kendal Stehr","party":"Dem","address":"324 N 1000 E, Orem, UT 84097","precinct":"25OR27","hd":"58","v_score":"0","decile":"1","lat":40.303025851089,"lng":-111.671728642065},{"id":"59003","name":"Patrica Mann","party":"Dem","address":"1106 E 200 N, Orem, UT 84097","precinct":"25OR27","hd":"58","v_score":"0","decile":"1","lat":40.30067947348,"lng":-111.669214555271},{"id":"59600","name":"Laney Gulgowski MD","party":"","address":"859 E 200 N, Orem, UT 84097","precinct":"25OR27","hd":"58","v_score":"1.121327652","decile":"3","lat":40.300877460814,"lng":-111.674912373088},{"id":"59823","name":"Cortney Nolan","party":"","address":"1161 E 350 N, Orem, UT 84097","precinct":"25OR27","hd":"58","v_score":"8.401841561","decile":"8","lat":40.303628079678,"lng":-111.668516016045},{"id":"60087","name":"Suzan Kessler-Krajcik","party":"Rep","address":"336 N 1200 E, Orem, UT 84097","precinct":"25OR27","hd":"58","v_score":"0","decile":"1","lat":40.303446108168,"lng":-111.667029683259},{"id":"60511","name":"Kailyn Walter","party":"Dem","address":"1072 E 275 N, Orem, UT 84097","precinct":"25OR27","hd":"58","v_score":"9.772950527","decile":"8","lat":40.302020901357,"lng":-111.67018576917},{"id":"60524","name":"Clemmie Wisoky","party":"","address":"120 N Palisades Dr, Orem, UT 84097","precinct":"25OR27","hd":"58","v_score":"1.121327652","decile":"3","lat":40.29913361119,"lng":-111.668687830721},{"id":"61630","name":"Math Daugherty-Rutherford","party":"","address":"365 N 1000 E, Orem, UT 84097","precinct":"25OR27","hd":"58","v_score":"25.44817694","decile":"10","lat":40.303822989383,"lng":-111.671900280334},{"id":"62041","name":"Demetri Lesch Jr.","party":"Dem","address":"1155 E 100 N, Orem, UT 84097","precinct":"25OR27","hd":"58","v_score":"2.315214949","decile":"5","lat":40.298749868345,"lng":-111.668446233927},{"id":"62728","name":"Bill Connelly-Beahan","party":"Rep","address":"224 N 800 E, Orem, UT 84097","precinct":"25OR27","hd":"58","v_score":"0","decile":"1","lat":40.301303317201,"lng":-111.676463118234},{"id":"63942","name":"Miss Wendi Farrell DVM","party":"","address":"95 N 1000 E, Orem, UT 84097","precinct":"25OR27","hd":"58","v_score":"2.315214949","decile":"5","lat":40.298996281065,"lng":-111.671828624442},{"id":"64658","name":"Arletta McClure MD","party":"Rep","address":"1172 E 40 N, Orem, UT 84097","precinct":"25OR27","hd":"58","v_score":"1.121327652","decile":"3","lat":40.297682519851,"lng":-111.667858569925},{"id":"65422","name":"Ms. Rhonda Muller MD","party":"","address":"1088 E Bretonwoods Ln, Orem, UT 84097","precinct":"25OR27","hd":"58","v_score":"18.27552205","decile":"10","lat":40.297960429771,"lng":-111.669728983762},{"id":"65634","name":"Yolanda Heaney","party":"Dem","address":"269 N 890 E, Orem, UT 84097","precinct":"25OR27","hd":"58","v_score":"2.315214949","decile":"5","lat":40.301612613098,"lng":-111.674660205861},{"id":"66156","name":"Omari Prosacco","party":"Dem","address":"896 E 375 N, Orem, UT 84097","precinct":"25OR27","hd":"58","v_score":"0","decile":"1","lat":40.303814766963,"lng":-111.674314279896},{"id":"66731","name":"Dr. Crockett Rolfson","party":"","address":"364 N 800 E, Orem, UT 84097","precinct":"25OR27","hd":"58","v_score":"5.40460374","decile":"7","lat":40.303878717488,"lng":-111.676512910014},{"id":"67524","name":"Harrold Rosenbaum","party":"","address":"319 N 1000 E, Orem, UT 84097","precinct":"25OR27","hd":"58","v_score":"18.35167816","decile":"10","lat":40.302930651619,"lng":-111.671876378548},{"id":"67822","name":"Tameka Keebler","party":"","address":"285 N 1000 E, Orem, UT 84097","precinct":"25OR27","hd":"58","v_score":"1.121327652","decile":"3","lat":40.302271097619,"lng":-111.671858712011},{"id":"68270","name":"Phyliss Prosacco","party":"Dem","address":"1024 E 120 N, Orem, UT 84097","precinct":"25OR27","hd":"58","v_score":"2.315214949","decile":"5","lat":40.299080222585,"lng":-111.671167649628},{"id":"68852","name":"Dr. Kalene Hamill DDS","party":"Dem","address":"1010 E 275 N, Orem, UT 84097","precinct":"25OR27","hd":"58","v_score":"1.193887297","decile":"3","lat":40.301973348801,"lng":-111.671514579228},{"id":"71072","name":"Arthur Littel","party":"Rep","address":"1144 E 100 N, Orem, UT 84097","precinct":"25OR27","hd":"58","v_score":"7.875041196","decile":"8","lat":40.298641127096,"lng":-111.668519507695},{"id":"71162","name":"Tabetha Ledner","party":"Dem","address":"315 N 1160 E, Orem, UT 84097","precinct":"25OR27","hd":"58","v_score":"1.193887297","decile":"3","lat":40.302948280504,"lng":-111.668056739782},{"id":"72123","name":"Reinhold Torphy","party":"Rep","address":"1088 E 120 N, Orem, UT 84097","precinct":"25OR27","hd":"58","v_score":"6.814370645","decile":"8","lat":40.299130164509,"lng":-111.669710876307},{"id":"72169","name":"Chantelle Pagac DDS","party":"","address":"1010 E 275 N, Orem, UT 84097","precinct":"25OR27","hd":"58","v_score":"3.93832808","decile":"6","lat":40.301973348801,"lng":-111.671514579228},{"id":"72296","name":"Christen Kuphal DDS","party":"","address":"181 N 1080 E, Orem, UT 84097","precinct":"25OR27","hd":"58","v_score":"1.121327652","decile":"3","lat":40.300488628348,"lng":-111.669853033319},{"id":"73711","name":"Ms. Kasey O'Kon MD","party":"Dem","address":"1172 E 300 N, Orem, UT 84097","precinct":"25OR27","hd":"58","v_score":"6.550708384","decile":"7","lat":40.302737701499,"lng":-111.667672902079},{"id":"73764","name":"Shenna Osinski-Cassin","party":"Rep","address":"128 N 1000 E, Orem, UT 84097","precinct":"25OR27","hd":"58","v_score":"3.93832808","decile":"6","lat":40.29958766652,"lng":-111.671683329234},{"id":"74101","name":"Harlen Ziemann-Denesik","party":"Dem","address":"56 N 1000 E, Orem, UT 84097","precinct":"25OR27","hd":"58","v_score":"1.121327652","decile":"3","lat":40.298149723335,"lng":-111.671673299934},{"id":"74102","name":"Naomi White","party":"Dem","address":"56 N 1000 E, Orem, UT 84097","precinct":"25OR27","hd":"58","v_score":"2.744440783","decile":"5","lat":40.298149723335,"lng":-111.671673299934},{"id":"74133","name":"Mr. Lionel Ryan","party":"","address":"1125 E 300 N, Orem, UT 84097","precinct":"25OR27","hd":"58","v_score":"3.93832808","decile":"6","lat":40.302857833366,"lng":-111.668603457113},{"id":"74455","name":"Kristoffer Kohler","party":"","address":"1096 E 275 N, Orem, UT 84097","precinct":"25OR27","hd":"58","v_score":"8.173821515","decile":"8","lat":40.302030000435,"lng":-111.669966632663},{"id":"75866","name":"Dwaine Ruecker","party":"Rep","address":"1147 E 100 N, Orem, UT 84097","precinct":"25OR27","hd":"58","v_score":"1.121327652","decile":"3","lat":40.298753904032,"lng":-111.668490626437},{"id":"75956","name":"Simone Parker-Runolfsdottir","party":"Rep","address":"138 N 1080 E, Orem, UT 84097","precinct":"25OR27","hd":"58","v_score":"7.252084687","decile":"8","lat":40.299527721888,"lng":-111.669693205148},{"id":"75986","name":"Wash Schulist IV","party":"Dem","address":"213 N 850 E, Orem, UT 84097","precinct":"25OR27","hd":"58","v_score":"6.814370645","decile":"8","lat":40.301000260534,"lng":-111.675461957205},{"id":"76102","name":"Kacy Swift","party":"Rep","address":"1141 E 200 N, Orem, UT 84097","precinct":"25OR27","hd":"58","v_score":"5.926494964","decile":"7","lat":40.300811636093,"lng":-111.668471155706},{"id":"76232","name":"Vannie Kihn","party":"Rep","address":"871 E 375 N, Orem, UT 84097","precinct":"25OR27","hd":"58","v_score":"8.173821515","decile":"8","lat":40.303923432096,"lng":-111.674492443163},{"id":"76253","name":"Dr. Alisa Barrows","party":"Rep","address":"132 N 1200 E, Orem, UT 84097","precinct":"25OR27","hd":"58","v_score":"12.94371585","decile":"9","lat":40.299583386711,"lng":-111.666891005049},{"id":"76427","name":"Monroe Vandervort","party":"Rep","address":"189 N Palisades Dr, Orem, UT 84097","precinct":"25OR27","hd":"58","v_score":"3.93832808","decile":"6","lat":40.300357455128,"lng":-111.668186114425},{"id":"77290","name":"Hill Wiegand","party":"","address":"1088 E 120 N, Orem, UT 84097","precinct":"25OR27","hd":"58","v_score":"6.814370645","decile":"8","lat":40.299130164509,"lng":-111.669710876307},{"id":"78136","name":"Orlando Heller","party":"","address":"179 N Palisades Dr, Orem, UT 84097","precinct":"25OR27","hd":"58","v_score":"1.121327652","decile":"3","lat":40.300263991329,"lng":-111.668236740659},{"id":"78427","name":"Viola Watsica","party":"Dem","address":"263 N Palisades Dr, Orem, UT 84097","precinct":"25OR27","hd":"58","v_score":"13.64048892","decile":"9","lat":40.301598560373,"lng":-111.667251288353},{"id":"78474","name":"Colette Corkery PhD","party":"","address":"34 N 920 E, Orem, UT 84097","precinct":"25OR27","hd":"58","v_score":"10.52632313","decile":"9","lat":40.297799231293,"lng":-111.673468501375},{"id":"78987","name":"Adelia Von-Ryan","party":"Rep","address":"947 E 80 N, Orem, UT 84097","precinct":"25OR27","hd":"58","v_score":"2.315214949","decile":"5","lat":40.298703293791,"lng":-111.673358933667},{"id":"79367","name":"Jobe Beatty","party":"Rep","address":"228 N 1000 E, Orem, UT 84097","precinct":"25OR27","hd":"58","v_score":"2.315214949","decile":"5","lat":40.301196036414,"lng":-111.671696243051},{"id":"79567","name":"Mr. Kolton Kutch MD","party":"Rep","address":"20 N 960 E, Orem, UT 84097","precinct":"25OR27","hd":"58","v_score":"2.315214949","decile":"5","lat":40.297096494848,"lng":-111.672521247759},{"id":"80227","name":"Harley Lowe","party":"Rep","address":"250 N 1000 E, Orem, UT 84097","precinct":"25OR27","hd":"58","v_score":"19.47300581","decile":"10","lat":40.301563320452,"lng":-111.671698691563},{"id":"80740","name":"Alanna Schuppe-Lang","party":"Rep","address":"269 N 890 E, Orem, UT 84097","precinct":"25OR27","hd":"58","v_score":"3.93832808","decile":"6","lat":40.301612613098,"lng":-111.674660205861},{"id":"81102","name":"Dr. Desmond Carter DVM","party":"Dem","address":"225 N 1000 E, Orem, UT 84097","precinct":"25OR27","hd":"58","v_score":"1.193887297","decile":"3","lat":40.301139804708,"lng":-111.671846122228},{"id":"83035","name":"Peter Auer II","party":"Rep","address":"1187 E 180 N, Orem, UT 84097","precinct":"25OR27","hd":"58","v_score":"2.817000428","decile":"6","lat":40.300492342977,"lng":-111.667489293204},{"id":"83786","name":"Polk Rogahn","party":"Rep","address":"813 E 40 N, Orem, UT 84097","precinct":"25OR27","hd":"58","v_score":"0","decile":"1","lat":40.29792539078,"lng":-111.676060094297},{"id":"83872","name":"Charlene Abernathy","party":"","address":"316 N 1100 E, Orem, UT 84097","precinct":"25OR27","hd":"58","v_score":"1.193887297","decile":"3","lat":40.303147143079,"lng":-111.669241862273},{"id":"84808","name":"Dr. Darrion Padberg DDS","party":"","address":"336 N 1000 E, Orem, UT 84097","precinct":"25OR27","hd":"58","v_score":"0","decile":"1","lat":40.303262450981,"lng":-111.67173497953},{"id":"85598","name":"Sable Smith","party":"Rep","address":"989 E Center St, Orem, UT 84097","precinct":"25OR27","hd":"58","v_score":"0","decile":"1","lat":40.296943592741,"lng":-111.671890519289},{"id":"86908","name":"Kelley Leffler","party":"","address":"226 N 1000 E, Orem, UT 84097","precinct":"25OR27","hd":"58","v_score":"0","decile":"1","lat":40.301162646956,"lng":-111.671696020459},{"id":"87661","name":"Tyler Kessler-Corwin","party":"","address":"142 N 1080 E, Orem, UT 84097","precinct":"25OR27","hd":"58","v_score":"1.623113131","decile":"5","lat":40.299565022975,"lng":-111.669688775157},{"id":"87956","name":"Alyce Carter","party":"Rep","address":"1112 E 40 N, Orem, UT 84097","precinct":"25OR27","hd":"58","v_score":"5.693042993","decile":"7","lat":40.297648087687,"lng":-111.669319539839},{"id":"88391","name":"Mrs. Nayeli Christiansen","party":"Dem","address":"138 N 1080 E, Orem, UT 84097","precinct":"25OR27","hd":"58","v_score":"0","decile":"1","lat":40.299527721888,"lng":-111.669693205148},{"id":"91002","name":"Hermon O'Conner","party":"Dem","address":"347 N 875 E, Orem, UT 84097","precinct":"25OR27","hd":"58","v_score":"0","decile":"1","lat":40.302912383188,"lng":-111.67498399729},{"id":"91029","name":"Danyell Gaylord","party":"","address":"976 E 400 N, Orem, UT 84097","precinct":"25OR27","hd":"58","v_score":"1.623113131","decile":"5","lat":40.304483701705,"lng":-111.672966238773},{"id":"91243","name":"Akeem Satterfield IV","party":"","address":"319 N 1000 E, Orem, UT 84097","precinct":"25OR27","hd":"58","v_score":"8.284004873","decile":"8","lat":40.302930651619,"lng":-111.671876378548},{"id":"93276","name":"Ms. Sherrie Greenfelder MD","party":"Dem","address":"1119 E 350 N, Orem, UT 84097","precinct":"25OR27","hd":"58","v_score":"0","decile":"1","lat":40.303621223922,"lng":-111.669030200675},{"id":"94260","name":"Tatum Hane","party":"Rep","address":"331 N 1100 E, Orem, UT 84097","precinct":"25OR27","hd":"58","v_score":"7.031075439","decile":"8","lat":40.303501926647,"lng":-111.669398468429},{"id":"94263","name":"Danica Lindgren","party":"Rep","address":"331 N 1100 E, Orem, UT 84097","precinct":"25OR27","hd":"58","v_score":"7.031075439","decile":"8","lat":40.303501926647,"lng":-111.669398468429},{"id":"94459","name":"Roxie Herman","party":"Rep","address":"250 N 1000 E, Orem, UT 84097","precinct":"25OR27","hd":"58","v_score":"4.069929862","decile":"6","lat":40.301563320452,"lng":-111.671698691563},{"id":"94724","name":"Dr. Jude Schmeler V","party":"Dem","address":"1184 E 40 N, Orem, UT 84097","precinct":"25OR27","hd":"58","v_score":"14.13760315","decile":"9","lat":40.297718252877,"lng":-111.667619433419},{"id":"95144","name":"Lesly Harvey","party":"","address":"161 N 1040 E, Orem, UT 84097","precinct":"25OR27","hd":"58","v_score":"5.407962308","decile":"7","lat":40.300450342795,"lng":-111.670806962645},{"id":"97196","name":"Jeremey Wolf","party":"Rep","address":"38 N 960 E, Orem, UT 84097","precinct":"25OR27","hd":"58","v_score":"5.693042993","decile":"7","lat":40.297270761843,"lng":-111.67252500349},{"id":"97476","name":"Hazen Bogisich","party":"","address":"263 N Palisades Dr, Orem, UT 84097","precinct":"25OR27","hd":"58","v_score":"4.069929862","decile":"6","lat":40.301598560373,"lng":-111.667251288353},{"id":"97727","name":"Jordyn Leannon MD","party":"","address":"808 E 400 N, Orem, UT 84097","precinct":"25OR27","hd":"58","v_score":"1.623113131","decile":"5","lat":40.30446757847,"lng":-111.676349048791},{"id":"97840","name":"Danielle Abshire-Fadel","party":"Rep","address":"330 N 900 E, Orem, UT 84097","precinct":"25OR27","hd":"58","v_score":"0","decile":"1","lat":40.303184339692,"lng":-111.673961484208},{"id":"98193","name":"Dorris Connelly","party":"Dem","address":"193 N 1080 E, Orem, UT 84097","precinct":"25OR27","hd":"58","v_score":"5.40460374","decile":"7","lat":40.300606261985,"lng":-111.669860272296},{"id":"98326","name":"Jill Nienow","party":"Dem","address":"1040 E 400 N, Orem, UT 84097","precinct":"25OR27","hd":"58","v_score":"4.069929862","decile":"6","lat":40.304484164291,"lng":-111.67071563728},{"id":"100599","name":"Rashawn Mann","party":"","address":"336 N 1000 E, Orem, UT 84097","precinct":"25OR27","hd":"58","v_score":"0","decile":"1","lat":40.303262450981,"lng":-111.67173497953},{"id":"101658","name":"Dr. Jahir Veum","party":"","address":"22 N 920 E, Orem, UT 84097","precinct":"25OR27","hd":"58","v_score":"7.090117576","decile":"8","lat":40.29767541987,"lng":-111.673471940597},{"id":"104292","name":"Trula Franecki","party":"Dem","address":"1130 E 400 N, Orem, UT 84097","precinct":"25OR27","hd":"58","v_score":"0","decile":"2","lat":40.304504283315,"lng":-111.668442813896},{"id":"105137","name":"Dr. Armando Hoppe PhD","party":"Dem","address":"1119 E 350 N, Orem, UT 84097","precinct":"25OR27","hd":"58","v_score":"2.876042565","decile":"6","lat":40.303621223922,"lng":-111.669030200675},{"id":"105775","name":"Walter Lowe","party":"","address":"274 N 890 E, Orem, UT 84097","precinct":"25OR27","hd":"58","v_score":"7.090117576","decile":"8","lat":40.301679247494,"lng":-111.674511467855},{"id":"105782","name":"Brycen Kilback I","party":"Rep","address":"226 N 1000 E, Orem, UT 84097","precinct":"25OR27","hd":"58","v_score":"0","decile":"2","lat":40.301162646956,"lng":-111.671696020459},{"id":"106181","name":"Miss Vela Sipes PhD","party":"Rep","address":"1051 E 120 N, Orem, UT 84097","precinct":"25OR27","hd":"58","v_score":"0","decile":"2","lat":40.299243062971,"lng":-111.670455127438},{"id":"107205","name":"Coty Brown","party":"","address":"195 N 1040 E, Orem, UT 84097","precinct":"25OR27","hd":"58","v_score":"2.876042565","decile":"6","lat":40.300619796452,"lng":-111.670810756361},{"id":"107740","name":"Corrie Pouros","party":"Rep","address":"931 E 260 N, Orem, UT 84097","precinct":"25OR27","hd":"58","v_score":"3.711952487","decile":"6","lat":40.301884656937,"lng":-111.673394232676},{"id":"108061","name":"Keandre Gorczany DVM","party":"","address":"242 N Palisades Dr, Orem, UT 84097","precinct":"25OR27","hd":"58","v_score":"5.407962308","decile":"7","lat":40.301314133061,"lng":-111.667334030628},{"id":"108923","name":"Isis Dare","party":"","address":"171 N 1040 E, Orem, UT 84097","precinct":"25OR27","hd":"58","v_score":"0","decile":"2","lat":40.300500182106,"lng":-111.670808078444},{"id":"110344","name":"Lurena Spencer","party":"Dem","address":"947 E 80 N, Orem, UT 84097","precinct":"25OR27","hd":"58","v_score":"1.193887297","decile":"4","lat":40.298703293791,"lng":-111.673358933667},{"id":"110642","name":"Iva Beatty","party":"Rep","address":"319 N 1000 E, Orem, UT 84097","precinct":"25OR27","hd":"58","v_score":"0","decile":"2","lat":40.302930651619,"lng":-111.671876378548},{"id":"111680","name":"Bryn McGlynn","party":"Rep","address":"872 E 400 N, Orem, UT 84097","precinct":"25OR27","hd":"58","v_score":"0","decile":"2","lat":40.304474701851,"lng":-111.674864732897},{"id":"112151","name":"Angel Marquardt","party":"Dem","address":"1120 E 350 N, Orem, UT 84097","precinct":"25OR27","hd":"58","v_score":"1.193887297","decile":"4","lat":40.303506976496,"lng":-111.669003089078},{"id":"113279","name":"Kylee Kirlin","party":"","address":"1012 E 200 N, Orem, UT 84097","precinct":"25OR27","hd":"58","v_score":"0","decile":"2","lat":40.300622986873,"lng":-111.671412207798},{"id":"113327","name":"Marva Harvey","party":"Dem","address":"25 N Palisades Dr, Orem, UT 84097","precinct":"25OR27","hd":"58","v_score":"1.193887297","decile":"4","lat":40.297363774722,"lng":-111.669925095594},{"id":"113328","name":"Benjamin Kuphal","party":"","address":"25 N Palisades Dr, Orem, UT 84097","precinct":"25OR27","hd":"58","v_score":"1.193887297","decile":"4","lat":40.297363774722,"lng":-111.669925095594},{"id":"113515","name":"Emmie Emard","party":"Dem","address":"1120 E 350 N, Orem, UT 84097","precinct":"25OR27","hd":"58","v_score":"0","decile":"2","lat":40.303506976496,"lng":-111.669003089078},{"id":"113643","name":"Tania Kertzmann DVM","party":"","address":"352 N 1200 E, Orem, UT 84097","precinct":"25OR27","hd":"58","v_score":"0","decile":"2","lat":40.303709525476,"lng":-111.66703654305},{"id":"113647","name":"Hetty Bartoletti","party":"","address":"66 N Palisade Dr, Orem, UT 84097","precinct":"25OR27","hd":"58","v_score":"0","decile":"2","lat":40.298167552079,"lng":-111.669077037284},{"id":"113810","name":"Cherish Harris-Mann","party":"","address":"133 N 1200 E, Orem, UT 84097","precinct":"25OR27","hd":"58","v_score":"1.193887297","decile":"4","lat":40.299560172877,"lng":-111.667038573678},{"id":"114036","name":"Annamarie Little","party":"Rep","address":"1084 E 275 N, Orem, UT 84097","precinct":"25OR27","hd":"58","v_score":"0","decile":"2","lat":40.302025450896,"lng":-111.670076200917},{"id":"114335","name":"Migdalia Nikolaus","party":"","address":"279 N 1120 E, Orem, UT 84097","precinct":"25OR27","hd":"58","v_score":"0","decile":"2","lat":40.30227792969,"lng":-111.669045490161},{"id":"115127","name":"Dr. Reyes Prosacco DDS","party":"Rep","address":"862 E 300 N, Orem, UT 84097","precinct":"25OR27","hd":"58","v_score":"1.193887297","decile":"4","lat":40.302664158653,"lng":-111.675192591539},{"id":"115675","name":"Miss Elvina Cummerata MD","party":"Rep","address":"161 N 1040 E, Orem, UT 84097","precinct":"25OR27","hd":"58","v_score":"0","decile":"2","lat":40.300450342795,"lng":-111.670806962645},{"id":"115994","name":"Willaim Ankunding","party":"Dem","address":"95 N 1000 E, Orem, UT 84097","precinct":"25OR27","hd":"58","v_score":"1.193887297","decile":"4","lat":40.298996281065,"lng":-111.671828624442},{"id":"116021","name":"Shari Schumm PhD","party":"Dem","address":"1152 E 350 N, Orem, UT 84097","precinct":"25OR27","hd":"58","v_score":"0","decile":"2","lat":40.30351219993,"lng":-111.66861132936},{"id":"116028","name":"Mr. Alva Ondricka","party":"Dem","address":"258 N 800 E, Orem, UT 84097","precinct":"25OR27","hd":"58","v_score":"1.193887297","decile":"4","lat":40.301925524231,"lng":-111.676474857907},{"id":"116080","name":"Ms. Taraji Bins","party":"","address":"859 E 200 N, Orem, UT 84097","precinct":"25OR27","hd":"58","v_score":"0","decile":"2","lat":40.300877460814,"lng":-111.674912373088},{"id":"116202","name":"Katlynn Monahan-Howe","party":"Dem","address":"317 N 900 E, Orem, UT 84097","precinct":"25OR27","hd":"58","v_score":"1.193887297","decile":"4","lat":40.302990681398,"lng":-111.6741079604},{"id":"116566","name":"Wilfred Hoeger-Conn","party":"","address":"1010 E 275 N, Orem, UT 84097","precinct":"25OR27","hd":"58","v_score":"4.069929862","decile":"7","lat":40.301973348801,"lng":-111.671514579228},{"id":"118091","name":"Littie Trantow-Tromp","party":"","address":"85 N 1200 E, Orem, UT 84097","precinct":"25OR27","hd":"58","v_score":"0","decile":"2","lat":40.298988704666,"lng":-111.667160001581},{"id":"118799","name":"Guadalupe Strosin PhD","party":"","address":"811 E 40 N, Orem, UT 84097","precinct":"25OR27","hd":"58","v_score":"4.069929862","decile":"7","lat":40.297924693709,"lng":-111.67611690599},{"id":"119034","name":"Bridgett Hackett","party":"","address":"392 N 1200 E, Orem, UT 84097","precinct":"25OR27","hd":"58","v_score":"4.069929862","decile":"7","lat":40.304368068748,"lng":-111.667053692527},{"id":"119131","name":"Mr. August Larson II","party":"Rep","address":"859 E 200 N, Orem, UT 84097","precinct":"25OR27","hd":"58","v_score":"0","decile":"2","lat":40.300877460814,"lng":-111.674912373088},{"id":"119286","name":"Salvatore Hane","party":"","address":"948 E 300 N, Orem, UT 84097","precinct":"25OR27","hd":"58","v_score":"0","decile":"2","lat":40.302586886329,"lng":-111.673257696479},{"id":"119534","name":"Alvy Hodkiewicz Sr.","party":"Rep","address":"274 N 890 E, Orem, UT 84097","precinct":"25OR27","hd":"58","v_score":"8.284004873","decile":"8","lat":40.301679247494,"lng":-111.674511467855},{"id":"119536","name":"Dr. Farrell Metz III","party":"","address":"1112 E 40 N, Orem, UT 84097","precinct":"25OR27","hd":"58","v_score":"8.284004873","decile":"8","lat":40.297648087687,"lng":-111.669319539839},{"id":"120333","name":"Jeraldine Connelly","party":"Dem","address":"1095 E 120 N, Orem, UT 84097","precinct":"25OR27","hd":"58","v_score":"0","decile":"2","lat":40.299249719803,"lng":-111.669454646356},{"id":"121282","name":"Miss Irma Kshlerin","party":"","address":"1172 E 40 N, Orem, UT 84097","precinct":"25OR27","hd":"58","v_score":"0","decile":"2","lat":40.297682519851,"lng":-111.667858569925},{"id":"122852","name":"Kailee Watsica","party":"","address":"34 N 920 E, Orem, UT 84097","precinct":"25OR27","hd":"58","v_score":"4.069929862","decile":"7","lat":40.297799231293,"lng":-111.673468501375},{"id":"124531","name":"Deyanira Baumbach","party":"","address":"1125 E 300 N, Orem, UT 84097","precinct":"25OR27","hd":"58","v_score":"0","decile":"2","lat":40.302857833366,"lng":-111.668603457113},{"id":"125711","name":"Dr. Hosie Kuhn","party":"Dem","address":"947 E 80 N, Orem, UT 84097","precinct":"25OR27","hd":"58","v_score":"2.876042565","decile":"6","lat":40.298703293791,"lng":-111.673358933667},{"id":"126340","name":"Dr. Brody Hartmann","party":"Dem","address":"315 N 875 E, Orem, UT 84097","precinct":"25OR27","hd":"58","v_score":"0","decile":"2","lat":40.302820494675,"lng":-111.674983997302},{"id":"126673","name":"Tomika Littel-Runolfsson","party":"Dem","address":"1072 E 275 N, Orem, UT 84097","precinct":"25OR27","hd":"58","v_score":"0","decile":"2","lat":40.302020901357,"lng":-111.67018576917},{"id":"126795","name":"Viva Franecki","party":"","address":"133 N 1200 E, Orem, UT 84097","precinct":"25OR27","hd":"58","v_score":"0","decile":"2","lat":40.299560172877,"lng":-111.667038573678},{"id":"127853","name":"Abdul Von","party":"Dem","address":"1119 E 350 N, Orem, UT 84097","precinct":"25OR27","hd":"58","v_score":"0","decile":"2","lat":40.303621223922,"lng":-111.669030200675},{"id":"127858","name":"Brianda Jones","party":"","address":"315 N 1160 E, Orem, UT 84097","precinct":"25OR27","hd":"58","v_score":"0","decile":"2","lat":40.302948280504,"lng":-111.668056739782},{"id":"128182","name":"Woodroe Reynolds MD","party":"Rep","address":"331 N 1100 E, Orem, UT 84097","precinct":"25OR27","hd":"58","v_score":"0","decile":"2","lat":40.303501926647,"lng":-111.669398468429},{"id":"129928","name":"Gayla Kessler","party":"","address":"172 N 1080 E, Orem, UT 84097","precinct":"25OR27","hd":"58","v_score":"0","decile":"2","lat":40.300415578107,"lng":-111.669698120317},{"id":"129962","name":"Dr. Lilyan Maggio PhD","party":"Dem","address":"164 N 1000 E, Orem, UT 84097","precinct":"25OR27","hd":"58","v_score":"0","decile":"2","lat":40.30008777677,"lng":-111.671687903347},{"id":"131032","name":"Dr. Myles Raynor","party":"Rep","address":"855 E 280 N, Orem, UT 84097","precinct":"25OR27","hd":"58","v_score":"0","decile":"2","lat":40.302051293534,"lng":-111.674981371863},{"id":"131193","name":"Mr. Torey Hirthe Jr.","party":"Rep","address":"859 E 200 N, Orem, UT 84097","precinct":"25OR27","hd":"58","v_score":"0","decile":"2","lat":40.300877460814,"lng":-111.674912373088},{"id":"132155","name":"Ms. Marry Langworth","party":"","address":"15 N 920 E, Orem, UT 84097","precinct":"25OR27","hd":"58","v_score":"2.876042565","decile":"6","lat":40.29760833889,"lng":-111.673624083622},{"id":"133675","name":"Jailene Ferry","party":"Rep","address":"55 N 1000 E, Orem, UT 84097","precinct":"25OR27","hd":"58","v_score":"0","decile":"2","lat":40.298124685326,"lng":-111.671823394982},{"id":"133925","name":"Cecil Marks","party":"Rep","address":"1187 E 180 N, Orem, UT 84097","precinct":"25OR27","hd":"58","v_score":"0","decile":"2","lat":40.300492342977,"lng":-111.667489293204},{"id":"135260","name":"Lovett Medhurst Sr.","party":"","address":"839 E 300 N, Orem, UT 84097","precinct":"25OR27","hd":"58","v_score":"14.74039814","decile":"9","lat":40.302775402377,"lng":-111.675809106408},{"id":"135282","name":"Willow Graham","party":"","address":"350 N Palisades Dr, Orem, UT 84097","precinct":"25OR27","hd":"58","v_score":"2.315214949","decile":"5","lat":40.303558851275,"lng":-111.665997579004},{"id":"135667","name":"Erna Nolan-Abshire","party":"Rep","address":"213 N 850 E, Orem, UT 84097","precinct":"25OR27","hd":"58","v_score":"6.814370645","decile":"8","lat":40.301000260534,"lng":-111.675461957205},{"id":"135814","name":"Sergio Kutch","party":"","address":"99 N Palisades Dr, Orem, UT 84097","precinct":"25OR27","hd":"58","v_score":"5.40460374","decile":"7","lat":40.298789184602,"lng":-111.668897480325},{"id":"135993","name":"Merilyn Koch-Wuckert","party":"Rep","address":"1153 E 250 N, Orem, UT 84097","precinct":"25OR27","hd":"58","v_score":"16.72520646","decile":"9","lat":40.301508643519,"lng":-111.667662017816},{"id":"137219","name":"Mr. Adalberto Champlin","party":"Dem","address":"352 N 1200 E, Orem, UT 84097","precinct":"25OR27","hd":"58","v_score":"1.193887297","decile":"4","lat":40.303709525476,"lng":-111.66703654305},{"id":"137377","name":"Shemar Mann","party":"","address":"99 N Palisades Dr, Orem, UT 84097","precinct":"25OR27","hd":"58","v_score":"8.832501007","decile":"8","lat":40.298789184602,"lng":-111.668897480325},{"id":"137397","name":"Edie Skiles-Watsica","party":"Dem","address":"133 N 1200 E, Orem, UT 84097","precinct":"25OR27","hd":"58","v_score":"14.13332036","decile":"9","lat":40.299560172877,"lng":-111.667038573678},{"id":"137822","name":"Mrs. Kenisha Miller DDS","party":"Dem","address":"181 N 1080 E, Orem, UT 84097","precinct":"25OR27","hd":"58","v_score":"11.57658879","decile":"9","lat":40.300488628348,"lng":-111.669853033319},{"id":"139354","name":"Pranav Carroll III","party":"","address":"38 N 960 E, Orem, UT 84097","precinct":"25OR27","hd":"58","v_score":"13.15380266","decile":"9","lat":40.297270761843,"lng":-111.67252500349},{"id":"140475","name":"Ola Will","party":"Rep","address":"260 N 1120 E, Orem, UT 84097","precinct":"25OR27","hd":"58","v_score":"7.650280567","decile":"8","lat":40.301957841496,"lng":-111.668882542586},{"id":"144468","name":"Mora Harber","party":"Rep","address":"1008 E 120 N, Orem, UT 84097","precinct":"25OR27","hd":"58","v_score":"1.121327652","decile":"3","lat":40.29907470221,"lng":-111.671510188595},{"id":"144780","name":"Mrs. Priscila Feeney","party":"Dem","address":"161 N 1040 E, Orem, UT 84097","precinct":"25OR27","hd":"58","v_score":"42.70905777","decile":"10","lat":40.300450342795,"lng":-111.670806962645},{"id":"144783","name":"Hurbert Gottlieb","party":"Rep","address":"250 N 890 E, Orem, UT 84097","precinct":"25OR27","hd":"58","v_score":"0","decile":"3","lat":40.301420775765,"lng":-111.674505503157},{"id":"144807","name":"Sterling Lesch-Daugherty","party":"","address":"82 N Palisades Dr, Orem, UT 84097","precinct":"25OR27","hd":"58","v_score":"0","decile":"3","lat":40.298399651906,"lng":-111.668870289585},{"id":"145318","name":"Merlene VonRueden","party":"Dem","address":"376 N 800 E, Orem, UT 84097","precinct":"25OR27","hd":"58","v_score":"3.93832808","decile":"6","lat":40.304086197685,"lng":-111.676517038946},{"id":"145343","name":"Mr. Murry Langworth I","party":"Rep","address":"365 N 1000 E, Orem, UT 84097","precinct":"25OR27","hd":"58","v_score":"40.28305098","decile":"10","lat":40.303822989383,"lng":-111.671900280334},{"id":"146462","name":"Miss Pearlene Hammes","party":"","address":"142 N 1200 E, Orem, UT 84097","precinct":"25OR27","hd":"58","v_score":"2.315214949","decile":"5","lat":40.299709363715,"lng":-111.66694624221},{"id":"146820","name":"Elana Beatty","party":"","address":"258 N Palisades Dr, Orem, UT 84097","precinct":"25OR27","hd":"58","v_score":"14.32268247","decile":"9","lat":40.301925446605,"lng":-111.666757885964},{"id":"147062","name":"Karson Reynolds MD","party":"Dem","address":"95 N 1000 E, Orem, UT 84097","precinct":"25OR27","hd":"58","v_score":"0","decile":"3","lat":40.298996281065,"lng":-111.671828624442},{"id":"147521","name":"Enrique Morar-Harvey","party":"Dem","address":"887 E 300 N, Orem, UT 84097","precinct":"25OR27","hd":"58","v_score":"45.09250101","decile":"10","lat":40.302780293439,"lng":-111.674833740638},{"id":"147779","name":"Novella Torphy","party":"","address":"1034 E Bretonwoods Ln, Orem, UT 84097","precinct":"25OR27","hd":"58","v_score":"23.72661904","decile":"10","lat":40.298369484168,"lng":-111.670027919938},{"id":"147829","name":"Zilpah Walker","party":"Dem","address":"315 N 1100 E, Orem, UT 84097","precinct":"25OR27","hd":"58","v_score":"35.36963499","decile":"10","lat":40.303422982751,"lng":-111.669397058727},{"id":"147898","name":"Enoch Greenfelder","party":"Dem","address":"395 N Palisades Dr, Orem, UT 84097","precinct":"25OR27","hd":"58","v_score":"29.03315726","decile":"10","lat":40.304366221874,"lng":-111.665878876777},{"id":"148440","name":"Winford Friesen","party":"","address":"189 N Palisades Dr, Orem, UT 84097","precinct":"25OR27","hd":"58","v_score":"2.744440783","decile":"6","lat":40.300357455128,"lng":-111.668186114425},{"id":"148726","name":"Bernardo Cassin","party":"Dem","address":"298 N 1000 E, Orem, UT 84097","precinct":"25OR27","hd":"58","v_score":"26.35608728","decile":"10","lat":40.30251321799,"lng":-111.671714910889},{"id":"148751","name":"Percival Turcotte","party":"Dem","address":"105 N 1200 E, Orem, UT 84097","precinct":"25OR27","hd":"58","v_score":"28.19136616","decile":"10","lat":40.299238088855,"lng":-111.667082746669},{"id":"148810","name":"Eldon Ankunding DDS","party":"","address":"1034 E Bretonwoods Ln, Orem, UT 84097","precinct":"25OR27","hd":"58","v_score":"23.72661904","decile":"10","lat":40.298369484168,"lng":-111.670027919938},{"id":"149119","name":"Davina Runolfsson-Hilpert","party":"","address":"73 N 1200 E, Orem, UT 84097","precinct":"25OR27","hd":"58","v_score":"42.8597977","decile":"10","lat":40.298839074153,"lng":-111.667206354528},{"id":"149128","name":"Wynona Abbott","party":"","address":"315 N 1100 E, Orem, UT 84097","precinct":"25OR27","hd":"58","v_score":"35.36963499","decile":"10","lat":40.303422982751,"lng":-111.669397058727},{"id":"149267","name":"Rebecca Rath DVM","party":"Dem","address":"934 E 260 N, Orem, UT 84097","precinct":"25OR27","hd":"58","v_score":"2.315214949","decile":"5","lat":40.301776489829,"lng":-111.673343122376},{"id":"149688","name":"Vicy Jacobson","party":"","address":"212 N Palisades Dr, Orem, UT 84097","precinct":"25OR27","hd":"58","v_score":"15.1758219","decile":"9","lat":40.300919134673,"lng":-111.667655162033},{"id":"149692","name":"Isis Murray","party":"","address":"379 N 900 E, Orem, UT 84097","precinct":"25OR27","hd":"58","v_score":"5.40460374","decile":"7","lat":40.304021232494,"lng":-111.674319380129},{"id":"149839","name":"Audley Goldner","party":"","address":"386 N 950 E, Orem, UT 84097","precinct":"25OR27","hd":"58","v_score":"5.40460374","decile":"7","lat":40.30438206214,"lng":-111.672972823528},{"id":"150237","name":"Ms. Helen Macejkovic DVM","party":"Dem","address":"212 N Palisades Dr, Orem, UT 84097","precinct":"25OR27","hd":"58","v_score":"12.49472132","decile":"9","lat":40.300919134673,"lng":-111.667655162033},{"id":"150385","name":"Rayfield Stamm","party":"","address":"1072 E 275 N, Orem, UT 84097","precinct":"25OR27","hd":"58","v_score":"11.32212024","decile":"9","lat":40.302020901357,"lng":-111.67018576917},{"id":"150525","name":"Mrs. Leisha Kuhn","party":"Rep","address":"318 N Palisades Dr, Orem, UT 84097","precinct":"25OR27","hd":"58","v_score":"13.28858692","decile":"9","lat":40.302961613766,"lng":-111.666129581371},{"id":"150844","name":"Amma Pacocha MD","party":"Rep","address":"269 N 890 E, Orem, UT 84097","precinct":"25OR27","hd":"58","v_score":"15.55761368","decile":"9","lat":40.301612613098,"lng":-111.674660205861},{"id":"151214","name":"Jessika Welch","party":"","address":"33 N 960 E, Orem, UT 84097","precinct":"25OR27","hd":"58","v_score":"3.781490609","decile":"6","lat":40.297223829922,"lng":-111.672674258289},{"id":"151227","name":"Adella Lindgren","party":"","address":"245 N 1120 E, Orem, UT 84097","precinct":"25OR27","hd":"58","v_score":"16.2066738","decile":"9","lat":40.301575568938,"lng":-111.669017967484},{"id":"151322","name":"Tempie Kemmer","party":"Dem","address":"1175 E 140 N, Orem, UT 84097","precinct":"25OR27","hd":"58","v_score":"40.90633163","decile":"10","lat":40.299591189043,"lng":-111.668028954471},{"id":"151332","name":"Ham Schoen","party":"Dem","address":"1130 E 400 N, Orem, UT 84097","precinct":"25OR27","hd":"58","v_score":"0","decile":"3","lat":40.304504283315,"lng":-111.668442813896},{"id":"151416","name":"Elliot Deckow","party":"Rep","address":"38 N 960 E, Orem, UT 84097","precinct":"25OR27","hd":"58","v_score":"27.10552197","decile":"10","lat":40.297270761843,"lng":-111.67252500349},{"id":"151537","name":"Darby Schiller","party":"","address":"1010 E 275 N, Orem, UT 84097","precinct":"25OR27","hd":"58","v_score":"12.49472132","decile":"9","lat":40.301973348801,"lng":-111.671514579228},{"id":"151626","name":"Damon Bosco III","party":"","address":"319 N 1000 E, Orem, UT 84097","precinct":"25OR27","hd":"58","v_score":"38.24567755","decile":"10","lat":40.302930651619,"lng":-111.671876378548},{"id":"151663","name":"Mr. Conway Bartell MD","party":"","address":"336 N 1000 E, Orem, UT 84097","precinct":"25OR27","hd":"58","v_score":"11.23922619","decile":"9","lat":40.303262450981,"lng":-111.67173497953},{"id":"153529","name":"Arnett Brakus-Spinka","party":"Rep","address":"64 N 1000 E, Orem, UT 84097","precinct":"25OR27","hd":"58","v_score":"43.22595857","decile":"10","lat":40.298327674131,"lng":-111.671674367616},{"id":"153530","name":"Madonna Mante","party":"Rep","address":"922 E 260 N, Orem, UT 84097","precinct":"25OR27","hd":"58","v_score":"19.81795382","decile":"10","lat":40.301769131465,"lng":-111.673378810452},{"id":"153531","name":"Lorinda Wyman DDS","party":"","address":"64 N 1000 E, Orem, UT 84097","precinct":"25OR27","hd":"58","v_score":"43.22595857","decile":"10","lat":40.298327674131,"lng":-111.671674367616},{"id":"153590","name":"Junious Goodwin","party":"Rep","address":"348 N 1160 E, Orem, UT 84097","precinct":"25OR27","hd":"58","v_score":"36.36686118","decile":"10","lat":40.303179174393,"lng":-111.667903823197},{"id":"153923","name":"Buffy Kutch DDS","party":"","address":"1096 E 275 N, Orem, UT 84097","precinct":"25OR27","hd":"58","v_score":"2.958579882","decile":"6","lat":40.302030000435,"lng":-111.669966632663},{"id":"154215","name":"Delos Labadie-Cummerata","party":"Dem","address":"1024 E 200 N, Orem, UT 84097","precinct":"25OR27","hd":"58","v_score":"2.315214949","decile":"5","lat":40.300630270719,"lng":-111.671134206878},{"id":"154750","name":"Hurbert Dickinson","party":"Dem","address":"350 N 900 E, Orem, UT 84097","precinct":"25OR27","hd":"58","v_score":"12.57725863","decile":"9","lat":40.303477137049,"lng":-111.673967225294},{"id":"154963","name":"Tilda Leannon","party":"Rep","address":"34 N 920 E, Orem, UT 84097","precinct":"25OR27","hd":"58","v_score":"15.2589308","decile":"9","lat":40.297799231293,"lng":-111.673468501375},{"id":"156302","name":"Ari Jerde","party":"Rep","address":"96 N 1000 E, Orem, UT 84097","precinct":"25OR27","hd":"58","v_score":"0","decile":"3","lat":40.299039477318,"lng":-111.671678638342},{"id":"156309","name":"Danyelle Medhurst","party":"","address":"1010 E 275 N, Orem, UT 84097","precinct":"25OR27","hd":"58","v_score":"20.70633281","decile":"10","lat":40.301973348801,"lng":-111.671514579228},{"id":"156410","name":"Louvenia Greenfelder","party":"Rep","address":"855 E 280 N, Orem, UT 84097","precinct":"25OR27","hd":"58","v_score":"13.84916389","decile":"9","lat":40.302051293534,"lng":-111.674981371863},{"id":"156492","name":"Norah Cronin-Beier","party":"Dem","address":"1096 E 275 N, Orem, UT 84097","precinct":"25OR27","hd":"58","v_score":"14.00844396","decile":"9","lat":40.302030000435,"lng":-111.669966632663},{"id":"156741","name":"Mr. Len Deckow I","party":"Rep","address":"1040 E 400 N, Orem, UT 84097","precinct":"25OR27","hd":"58","v_score":"29.25432414","decile":"10","lat":40.304484164291,"lng":-111.67071563728},{"id":"157233","name":"Tatiana Gislason","party":"","address":"70 N 1160 E, Orem, UT 84097","precinct":"25OR27","hd":"58","v_score":"15.53273099","decile":"9","lat":40.297838206133,"lng":-111.668144590068},{"id":"157987","name":"Merna Bayer","party":"Dem","address":"855 E 280 N, Orem, UT 84097","precinct":"25OR27","hd":"58","v_score":"3.93832808","decile":"6","lat":40.302051293534,"lng":-111.674981371863},{"id":"158083","name":"Taylor Balistreri","party":"Dem","address":"248 N 1120 E, Orem, UT 84097","precinct":"25OR27","hd":"58","v_score":"39.36155753","decile":"10","lat":40.301726667129,"lng":-111.668873535824},{"id":"158218","name":"Ruben Haag","party":"Dem","address":"11 N Palisades Dr, Orem, UT 84097","precinct":"25OR27","hd":"58","v_score":"2.315214949","decile":"5","lat":40.29716433568,"lng":-111.669988080053},{"id":"158514","name":"Ms. Marie Willms","party":"Rep","address":"132 N 1200 E, Orem, UT 84097","precinct":"25OR27","hd":"58","v_score":"26.93587103","decile":"10","lat":40.299583386711,"lng":-111.666891005049},{"id":"158953","name":"Gilbert Berge-Heidenreich","party":"Dem","address":"947 E 80 N, Orem, UT 84097","precinct":"25OR27","hd":"58","v_score":"3.93832808","decile":"6","lat":40.298703293791,"lng":-111.673358933667},{"id":"158969","name":"Arsenio Douglas","party":"Dem","address":"74 N Palisades Dr, Orem, UT 84097","precinct":"25OR27","hd":"58","v_score":"5.40460374","decile":"7","lat":40.298279512353,"lng":-111.668957262669},{"id":"159243","name":"Mr. Darl Satterfield IV","party":"","address":"77 N 920 E, Orem, UT 84097","precinct":"25OR27","hd":"58","v_score":"13.93704549","decile":"9","lat":40.298345732681,"lng":-111.673629273266},{"id":"159592","name":"Baldwin Stiedemann","party":"Dem","address":"1031 E 275 N, Orem, UT 84097","precinct":"25OR27","hd":"58","v_score":"17.35851679","decile":"9","lat":40.302105655993,"lng":-111.67103989883},{"id":"160013","name":"Tracee Casper-Walter","party":"","address":"1108 E 275 N, Orem, UT 84097","precinct":"25OR27","hd":"58","v_score":"20.62749047","decile":"10","lat":40.302034549974,"lng":-111.66985706441},{"id":"160081","name":"Winnie Rodriguez","party":"Rep","address":"255 N 1000 E, Orem, UT 84097","precinct":"25OR27","hd":"58","v_score":"2.315214949","decile":"5","lat":40.301654558851,"lng":-111.671849553855},{"id":"160537","name":"Alyson Macejkovic","party":"Rep","address":"1057 E Bretonwoods Ln, Orem, UT 84097","precinct":"25OR27","hd":"58","v_score":"3.93832808","decile":"6","lat":40.298307179183,"lng":-111.66979010223},{"id":"160769","name":"Benton DuBuque","party":"","address":"1158 E 300 N, Orem, UT 84097","precinct":"25OR27","hd":"58","v_score":"37.84600495","decile":"10","lat":40.302738376203,"lng":-111.668059373162},{"id":"160960","name":"Luverne Kunze","party":"Rep","address":"365 N 1000 E, Orem, UT 84097","precinct":"25OR27","hd":"58","v_score":"35.30276996","decile":"10","lat":40.303822989383,"lng":-111.671900280334},{"id":"161545","name":"Mikalah Kertzmann","party":"Rep","address":"1187 E 300 N, Orem, UT 84097","precinct":"25OR27","hd":"58","v_score":"30.57016229","decile":"10","lat":40.302852292867,"lng":-111.667461096162},{"id":"161848","name":"Hilton Rath IV","party":"","address":"46 N 920 E, Orem, UT 84097","precinct":"25OR27","hd":"58","v_score":"35.30276996","decile":"10","lat":40.298022373311,"lng":-111.673467410142},{"id":"162295","name":"Alger Bergstrom","party":"Dem","address":"1184 E 40 N, Orem, UT 84097","precinct":"25OR27","hd":"58","v_score":"20.87803038","decile":"10","lat":40.297718252877,"lng":-111.667619433419},{"id":"162630","name":"Gottlieb Conn","party":"","address":"248 N 1120 E, Orem, UT 84097","precinct":"25OR27","hd":"58","v_score":"31.08869495","decile":"10","lat":40.301726667129,"lng":-111.668873535824},{"id":"163447","name":"German Adams","party":"","address":"1096 E 275 N, Orem, UT 84097","precinct":"25OR27","hd":"58","v_score":"11.04986408","decile":"9","lat":40.302030000435,"lng":-111.669966632663},{"id":"164417","name":"Dr. Donta Beahan","party":"","address":"1158 E 250 N, Orem, UT 84097","precinct":"25OR27","hd":"58","v_score":"19.19078023","decile":"10","lat":40.30140217783,"lng":-111.667727725497},{"id":"166470","name":"Jerrell Davis-Hegmann","party":"","address":"69 N 1160 E, Orem, UT 84097","precinct":"25OR27","hd":"58","v_score":"6.481563075","decile":"7","lat":40.297815950274,"lng":-111.668291990481},{"id":"166508","name":"Jaelyn Langosh DDS","party":"","address":"1171 E 300 N, Orem, UT 84097","precinct":"25OR27","hd":"58","v_score":"5.191257514","decile":"7","lat":40.302852292898,"lng":-111.667858559089},{"id":"166578","name":"Mr. Marvin Huel DVM","party":"","address":"948 E 300 N, Orem, UT 84097","precinct":"25OR27","hd":"58","v_score":"14.18213378","decile":"9","lat":40.302586886329,"lng":-111.673257696479},{"id":"166838","name":"Del Pouros","party":"Rep","address":"46 N 920 E, Orem, UT 84097","precinct":"25OR27","hd":"58","v_score":"20.18266914","decile":"10","lat":40.298022373311,"lng":-111.673467410142},{"id":"167017","name":"Phylis Schaefer","party":"Rep","address":"1187 E 180 N, Orem, UT 84097","precinct":"25OR27","hd":"58","v_score":"11.26156058","decile":"9","lat":40.300492342977,"lng":-111.667489293204},{"id":"167145","name":"Mrs. Olar Langosh PhD","party":"","address":"381 N 1000 E, Orem, UT 84097","precinct":"25OR27","hd":"58","v_score":"2.744440783","decile":"6","lat":40.304133367736,"lng":-111.671908593998},{"id":"167321","name":"Dr. Vilma Beatty MD","party":"Rep","address":"85 N 1200 E, Orem, UT 84097","precinct":"25OR27","hd":"58","v_score":"8.280646305","decile":"8","lat":40.298988704666,"lng":-111.667160001581},{"id":"168991","name":"Flora Steuber","party":"Dem","address":"385 N 1200 E, Orem, UT 84097","precinct":"25OR27","hd":"58","v_score":"28.88852156","decile":"10","lat":40.304234084731,"lng":-111.667200489837},{"id":"169251","name":"Bernhard Harris","party":"Dem","address":"211 N Palisades Dr, Orem, UT 84097","precinct":"25OR27","hd":"58","v_score":"16.80774378","decile":"9","lat":40.300976086307,"lng":-111.667785602532},{"id":"169372","name":"Manie Windler","party":"Dem","address":"811 E 40 N, Orem, UT 84097","precinct":"25OR27","hd":"58","v_score":"15.39205011","decile":"9","lat":40.297924693709,"lng":-111.67611690599},{"id":"170466","name":"Brody Barton","party":"Dem","address":"376 N 800 E, Orem, UT 84097","precinct":"25OR27","hd":"58","v_score":"3.93832808","decile":"6","lat":40.304086197685,"lng":-111.676517038946},{"id":"171312","name":"Aubrie Schimmel DVM","party":"Rep","address":"236 N 850 E, Orem, UT 84097","precinct":"25OR27","hd":"58","v_score":"18.46989245","decile":"10","lat":40.301265621307,"lng":-111.675325759609},{"id":"171650","name":"Flavia Quigley-Mosciski","party":"Dem","address":"350 N Palisades Dr, Orem, UT 84097","precinct":"25OR27","hd":"58","v_score":"10.703532300000001","decile":"9","lat":40.303558851275,"lng":-111.665997579004},{"id":"171886","name":"Dr. Jordan Fadel PhD","party":"","address":"20 N Palisades Dr, Orem, UT 84097","precinct":"25OR27","hd":"58","v_score":"11.36410258","decile":"9","lat":40.297165905694,"lng":-111.669833095982},{"id":"172643","name":"Elden Berge-Towne","party":"Rep","address":"1108 E 275 N, Orem, UT 84097","precinct":"25OR27","hd":"58","v_score":"1.193887297","decile":"4","lat":40.302034549974,"lng":-111.66985706441},{"id":"172747","name":"Arvin Hettinger","party":"Dem","address":"373 N 1100 E, Orem, UT 84097","precinct":"25OR27","hd":"58","v_score":"2.315214949","decile":"5","lat":40.304147843536,"lng":-111.669399499194},{"id":"172915","name":"Melanie Schaefer","party":"Rep","address":"182 N 1040 E, Orem, UT 84097","precinct":"25OR27","hd":"58","v_score":"25.09210539","decile":"10","lat":40.300561945571,"lng":-111.670659187135},{"id":"173018","name":"Deante Halvorson IV","party":"","address":"1031 E 120 N, Orem, UT 84097","precinct":"25OR27","hd":"58","v_score":"15.51131257","decile":"9","lat":40.299208039075,"lng":-111.670955566796},{"id":"173210","name":"Rollin Blick PhD","party":"","address":"390 N 1000 E, Orem, UT 84097","precinct":"25OR27","hd":"58","v_score":"25.78606525","decile":"10","lat":40.304327150495,"lng":-111.671763498126},{"id":"173680","name":"Alexys Bayer","party":"Dem","address":"935 E 200 N, Orem, UT 84097","precinct":"25OR27","hd":"58","v_score":"31.06727652","decile":"10","lat":40.300818149772,"lng":-111.673513753857},{"id":"173681","name":"Makhi Volkman","party":"","address":"935 E 200 N, Orem, UT 84097","precinct":"25OR27","hd":"58","v_score":"35.30276996","decile":"10","lat":40.300818149772,"lng":-111.673513753857},{"id":"174008","name":"Sister Nikolaus-Swift","party":"Rep","address":"1172 E 300 N, Orem, UT 84097","precinct":"25OR27","hd":"58","v_score":"11.19041277","decile":"9","lat":40.302737701499,"lng":-111.667672902079},{"id":"174009","name":"Moises Miller","party":"","address":"1172 E 300 N, Orem, UT 84097","precinct":"25OR27","hd":"58","v_score":"12.65668843","decile":"9","lat":40.302737701499,"lng":-111.667672902079},{"id":"174408","name":"Rahsaan Sanford","party":"","address":"12 N 800 E, Orem, UT 84097","precinct":"25OR27","hd":"58","v_score":"16.4208129","decile":"9","lat":40.297045669563,"lng":-111.676383942256},{"id":"174471","name":"Buren Torp","party":"Dem","address":"32 N 800 E, Orem, UT 84097","precinct":"25OR27","hd":"58","v_score":"31.06727652","decile":"10","lat":40.297184923403,"lng":-111.676386343166},{"id":"174591","name":"Shari Rodriguez","party":"Dem","address":"1064 E 120 N, Orem, UT 84097","precinct":"25OR27","hd":"58","v_score":"2.315214949","decile":"5","lat":40.29913327718,"lng":-111.670322897102},{"id":"175687","name":"Dr. Christoper Reichel DDS","party":"Dem","address":"336 N 1200 E, Orem, UT 84097","precinct":"25OR27","hd":"58","v_score":"0","decile":"3","lat":40.303446108168,"lng":-111.667029683259},{"id":"175741","name":"Mr. Josue Cartwright","party":"Dem","address":"350 N 900 E, Orem, UT 84097","precinct":"25OR27","hd":"58","v_score":"12.57725863","decile":"9","lat":40.303477137049,"lng":-111.673967225294},{"id":"176020","name":"Dr. Sheryll Hodkiewicz MD","party":"Dem","address":"225 N 850 E, Orem, UT 84097","precinct":"25OR27","hd":"58","v_score":"13.33063124","decile":"9","lat":40.301130607904,"lng":-111.675468922314},{"id":"176210","name":"Melony Rippin","party":"","address":"96 N 1000 E, Orem, UT 84097","precinct":"25OR27","hd":"58","v_score":"0","decile":"3","lat":40.299039477318,"lng":-111.671678638342},{"id":"178352","name":"Kaye Eichmann","party":"Dem","address":"262 N 890 E, Orem, UT 84097","precinct":"25OR27","hd":"58","v_score":"43.22595857","decile":"10","lat":40.30155001163,"lng":-111.674508485506},{"id":"178650","name":"Virge Gleason","party":"Rep","address":"1112 E 40 N, Orem, UT 84097","precinct":"25OR27","hd":"58","v_score":"36.34496628","decile":"10","lat":40.297648087687,"lng":-111.669319539839},{"id":"179104","name":"Lawson Smitham","party":"","address":"1175 E 140 N, Orem, UT 84097","precinct":"25OR27","hd":"58","v_score":"43.7823742","decile":"10","lat":40.299591189043,"lng":-111.668028954471},{"id":"179262","name":"Austen Torphy-Hirthe","party":"Dem","address":"46 N 920 E, Orem, UT 84097","precinct":"25OR27","hd":"58","v_score":"13.26938015","decile":"9","lat":40.298022373311,"lng":-111.673467410142},{"id":"179273","name":"Estie Zboncak","party":"Dem","address":"1155 E 100 N, Orem, UT 84097","precinct":"25OR27","hd":"58","v_score":"23.95587272","decile":"10","lat":40.298749868345,"lng":-111.668446233927},{"id":"179342","name":"Dejon Lebsack","party":"Rep","address":"12 N 800 E, Orem, UT 84097","precinct":"25OR27","hd":"58","v_score":"21.15342057","decile":"10","lat":40.297045669563,"lng":-111.676383942256},{"id":"179405","name":"Ally Blanda","party":"Dem","address":"1046 E 400 N, Orem, UT 84097","precinct":"25OR27","hd":"58","v_score":"39.30030644","decile":"10","lat":40.304484999954,"lng":-111.6705794224},{"id":"180487","name":"Tobi Hegmann","party":"Rep","address":"279 N 1120 E, Orem, UT 84097","precinct":"25OR27","hd":"58","v_score":"30.61533869","decile":"10","lat":40.30227792969,"lng":-111.669045490161},{"id":"180498","name":"Kaye White-Nitzsche","party":"Dem","address":"182 N 1040 E, Orem, UT 84097","precinct":"25OR27","hd":"58","v_score":"4.283276088","decile":"7","lat":40.300561945571,"lng":-111.670659187135},{"id":"180849","name":"Guido Pfeffer","party":"","address":"1187 E 300 N, Orem, UT 84097","precinct":"25OR27","hd":"58","v_score":"0","decile":"3","lat":40.302852292867,"lng":-111.667461096162},{"id":"181024","name":"Dr. Hoyt Ullrich III","party":"Rep","address":"320 N 800 E, Orem, UT 84097","precinct":"25OR27","hd":"58","v_score":"2.744440783","decile":"6","lat":40.303117956767,"lng":-111.676497770598},{"id":"181177","name":"Monna Jerde MD","party":"Rep","address":"1031 E 120 N, Orem, UT 84097","precinct":"25OR27","hd":"58","v_score":"15.51131257","decile":"9","lat":40.299208039075,"lng":-111.670955566796}]