[{"id":"569","name":"Marsha Hyatt","party":"","address":"753 S 1420 W, Orem, UT 84058","precinct":"25OR34","hd":"57","v_score":"12.29989674","decile":"9","lat":40.28346089249,"lng":-111.729517582447},{"id":"570","name":"Mikhail Mertz-Bauch","party":"Rep","address":"753 S 1420 W, Orem, UT 84058","precinct":"25OR34","hd":"57","v_score":"12.29989674","decile":"9","lat":40.28346089249,"lng":-111.729517582447},{"id":"2184","name":"Virgel Dibbert","party":"Dem","address":"1919 W 180 S, Orem, UT 84059","precinct":"25OR34","hd":"57","v_score":"1.121327652","decile":"3","lat":40.29371696001,"lng":-111.74139724492},{"id":"2775","name":"Gunda Waters","party":"Dem","address":"1396 W 800 S, Orem, UT 84058","precinct":"25OR34","hd":"57","v_score":"0","decile":"1","lat":40.282543476814,"lng":-111.728684481283},{"id":"3610","name":"Kinley Effertz","party":"Rep","address":"793 S 1370 W, Orem, UT 84058","precinct":"25OR34","hd":"57","v_score":"2.315214949","decile":"5","lat":40.282612377202,"lng":-111.728077672276},{"id":"4752","name":"Crete Bechtelar","party":"Rep","address":"692 S 1525 W, Orem, UT 84058","precinct":"25OR34","hd":"57","v_score":"2.315214949","decile":"5","lat":40.284014407572,"lng":-111.731827967849},{"id":"4772","name":"Tyree Wintheiser-Hoeger","party":"Dem","address":"1542 W 740 S, Orem, UT 84058","precinct":"25OR34","hd":"57","v_score":"9.82542041","decile":"8","lat":40.283637299997,"lng":-111.732066375165},{"id":"5321","name":"Kian Feil","party":"Rep","address":"1442 W 730 S, Orem, UT 84058","precinct":"25OR34","hd":"57","v_score":"1.121327652","decile":"3","lat":40.283862299839,"lng":-111.730337046945},{"id":"6268","name":"Katy Krajcik PhD","party":"","address":"674 S 1545 W, Orem, UT 84058","precinct":"25OR34","hd":"57","v_score":"18.35167816","decile":"10","lat":40.284514294214,"lng":-111.732790985192},{"id":"6269","name":"Alwin Stamm","party":"Dem","address":"702 S 1420 W, Orem, UT 84058","precinct":"25OR34","hd":"57","v_score":"25.56562396","decile":"10","lat":40.283995522848,"lng":-111.730049717886},{"id":"6498","name":"Harve Gottlieb","party":"Dem","address":"710 S 1525 W, Orem, UT 84058","precinct":"25OR34","hd":"57","v_score":"3.93832808","decile":"6","lat":40.283950370433,"lng":-111.731827967857},{"id":"6793","name":"Dr. Antwain Kessler","party":"Rep","address":"596 S 1580 W, Orem, UT 84058","precinct":"25OR34","hd":"57","v_score":"1.623113131","decile":"4","lat":40.285301611738,"lng":-111.733135783997},{"id":"9229","name":"Alani Champlin","party":"","address":"1945 W 180 S, Orem, UT 84059","precinct":"25OR34","hd":"57","v_score":"1.121327652","decile":"3","lat":40.29371284978,"lng":-111.741964462548},{"id":"9751","name":"Jaron Harber","party":"","address":"1565 W 525 S, Orem, UT 84058","precinct":"25OR34","hd":"57","v_score":"2.315214949","decile":"5","lat":40.287449968892,"lng":-111.733277649517},{"id":"9807","name":"Skylar Goldner DDS","party":"Rep","address":"1831 W 180 S, Orem, UT 84059","precinct":"25OR34","hd":"57","v_score":"1.121327652","decile":"3","lat":40.293733625019,"lng":-111.739316050308},{"id":"10355","name":"Wally Mayert","party":"Rep","address":"695 S 1490 W, Orem, UT 84058","precinct":"25OR34","hd":"57","v_score":"0","decile":"1","lat":40.28446574312,"lng":-111.730814987794},{"id":"11945","name":"Dr. Joe Pagac","party":"Rep","address":"1394 W 690 S, Orem, UT 84058","precinct":"25OR34","hd":"57","v_score":"2.315214949","decile":"5","lat":40.28444729972,"lng":-111.729644610255},{"id":"12213","name":"Mr. Dorsey Considine","party":"Dem","address":"769 S 1370 W, Orem, UT 84058","precinct":"25OR34","hd":"57","v_score":"3.781490609","decile":"6","lat":40.282856056949,"lng":-111.728095818606},{"id":"12532","name":"Rick Rempel","party":"Dem","address":"1900 W 140 S, Orem, UT 84059","precinct":"25OR34","hd":"57","v_score":"8.280646305","decile":"8","lat":40.294611074183,"lng":-111.740917659729},{"id":"14486","name":"Mr. Frederic Zboncak II","party":"","address":"701 S 1545 W, Orem, UT 84058","precinct":"25OR34","hd":"57","v_score":"3.781490609","decile":"6","lat":40.284497219143,"lng":-111.732614759423},{"id":"15028","name":"Nichol McLaughlin MD","party":"Dem","address":"1976 W 140 S, Orem, UT 84059","precinct":"25OR34","hd":"57","v_score":"3.781490609","decile":"6","lat":40.294602282209,"lng":-111.742421106773},{"id":"15871","name":"Fielding Abernathy","party":"Rep","address":"1811 W 140 S, Orem, UT 84059","precinct":"25OR34","hd":"57","v_score":"1.193887297","decile":"3","lat":40.294507384703,"lng":-111.739204766506},{"id":"16059","name":"Jimmy Morissette","party":"","address":"1532 W 650 S, Orem, UT 84058","precinct":"25OR34","hd":"57","v_score":"1.121327652","decile":"3","lat":40.285135401475,"lng":-111.732031608641},{"id":"16271","name":"Dan Nikolaus","party":"Rep","address":"754 S 1370 W, Orem, UT 84058","precinct":"25OR34","hd":"57","v_score":"9.830961897","decile":"8","lat":40.282962251068,"lng":-111.728271189406},{"id":"17066","name":"Mr. Monte Greenholt","party":"","address":"1510 W 690 S, Orem, UT 84058","precinct":"25OR34","hd":"57","v_score":"6.724398202","decile":"8","lat":40.284447299831,"lng":-111.731096183072},{"id":"17823","name":"Cleveland Strosin","party":"Rep","address":"1519 W 610 S, Orem, UT 84058","precinct":"25OR34","hd":"57","v_score":"0","decile":"1","lat":40.285718708346,"lng":-111.731848853776},{"id":"17918","name":"Miss Alisha Batz","party":"Rep","address":"695 S 1490 W, Orem, UT 84058","precinct":"25OR34","hd":"57","v_score":"1.121327652","decile":"3","lat":40.28446574312,"lng":-111.730814987794},{"id":"18930","name":"Alyse Watsica DDS","party":"Rep","address":"1900 W 140 S, Orem, UT 84059","precinct":"25OR34","hd":"57","v_score":"8.280646305","decile":"8","lat":40.294611074183,"lng":-111.740917659729},{"id":"19124","name":"Dr. Averi Kunze","party":"Dem","address":"762 S 1420 W, Orem, UT 84058","precinct":"25OR34","hd":"57","v_score":"5.40460374","decile":"7","lat":40.283222182716,"lng":-111.729502591951},{"id":"19240","name":"Ota Stehr-Mraz","party":"Dem","address":"1518 W 575 S, Orem, UT 84058","precinct":"25OR34","hd":"57","v_score":"5.40460374","decile":"7","lat":40.286521198739,"lng":-111.732034105453},{"id":"20142","name":"Ermine Thompson","party":"","address":"1538 W 740 S, Orem, UT 84058","precinct":"25OR34","hd":"57","v_score":"3.93832808","decile":"6","lat":40.283637299995,"lng":-111.732043669624},{"id":"20885","name":"Magdalena Rippin","party":"Rep","address":"707 S 1545 W, Orem, UT 84058","precinct":"25OR34","hd":"57","v_score":"2.587603312","decile":"5","lat":40.284482092928,"lng":-111.732605503087},{"id":"21358","name":"Judah Considine V","party":"","address":"1848 W 140 S, Orem, UT 84059","precinct":"25OR34","hd":"57","v_score":"8.280646305","decile":"8","lat":40.294617839116,"lng":-111.739778452024},{"id":"23405","name":"Mrs. Markita Haag MD","party":"Rep","address":"742 S 1370 W, Orem, UT 84058","precinct":"25OR34","hd":"57","v_score":"0","decile":"1","lat":40.283067391489,"lng":-111.728352403616},{"id":"24922","name":"Obie Jones","party":"","address":"723 S 1370 W, Orem, UT 84058","precinct":"25OR34","hd":"57","v_score":"6.814370645","decile":"8","lat":40.283300801001,"lng":-111.728358344765},{"id":"26087","name":"Shannon Spinka DDS","party":"","address":"759 S 1370 W, Orem, UT 84058","precinct":"25OR34","hd":"57","v_score":"2.817000428","decile":"6","lat":40.282968605966,"lng":-111.728117717297},{"id":"26173","name":"Hassie Thiel MD","party":"","address":"677 S 1545 W, Orem, UT 84058","precinct":"25OR34","hd":"57","v_score":"5.40460374","decile":"7","lat":40.284557723999,"lng":-111.73265178477},{"id":"26651","name":"Jimmie Jacobs-Bernier","party":"Rep","address":"1802 W 140 S, Orem, UT 84059","precinct":"25OR34","hd":"57","v_score":"2.587603312","decile":"5","lat":40.294625009316,"lng":-111.738785368812},{"id":"26728","name":"Braeden Wuckert-Leannon","party":"Rep","address":"1516 W 610 S, Orem, UT 84058","precinct":"25OR34","hd":"57","v_score":"10.89074633","decile":"9","lat":40.28583329973,"lng":-111.731840643854},{"id":"27296","name":"Dr. Haylie Champlin","party":"Rep","address":"1548 W 740 S, Orem, UT 84058","precinct":"25OR34","hd":"57","v_score":"6.324725604","decile":"7","lat":40.2836373,"lng":-111.732100433476},{"id":"27376","name":"Kylan Kuhn","party":"","address":"169 S 1990 W, Orem, UT 84059","precinct":"25OR34","hd":"57","v_score":"18.35167816","decile":"10","lat":40.294021846809,"lng":-111.742843319986},{"id":"28795","name":"Mr. Abraham Dibbert","party":"","address":"1725 W 140 S, Orem, UT 84059","precinct":"25OR34","hd":"57","v_score":"12.49472132","decile":"9","lat":40.294529601838,"lng":-111.737150953697},{"id":"28900","name":"Azul Hoppe-Bartoletti","party":"Rep","address":"1574 W 525 S, Orem, UT 84058","precinct":"25OR34","hd":"57","v_score":"2.315214949","decile":"5","lat":40.287564987057,"lng":-111.733206321648},{"id":"28928","name":"Jacky Koelpin","party":"Dem","address":"1501 W 550 S, Orem, UT 84058","precinct":"25OR34","hd":"57","v_score":"0","decile":"1","lat":40.287095003849,"lng":-111.731324880599},{"id":"29119","name":"Lovell Mills","party":"","address":"697 S 1545 W, Orem, UT 84058","precinct":"25OR34","hd":"57","v_score":"17.83029024","decile":"10","lat":40.284507303285,"lng":-111.732620930315},{"id":"29302","name":"Christi Casper","party":"","address":"779 S 1370 W, Orem, UT 84058","precinct":"25OR34","hd":"57","v_score":"2.315214949","decile":"5","lat":40.282754523721,"lng":-111.728088257635},{"id":"29438","name":"Jeraldine Mayert-Wunsch","party":"","address":"1496 W 650 S, Orem, UT 84058","precinct":"25OR34","hd":"57","v_score":"6.881235673","decile":"8","lat":40.285131299761,"lng":-111.731208104715},{"id":"29843","name":"Jamir Ankunding DVM","party":"Dem","address":"1903 W 140 S, Orem, UT 84059","precinct":"25OR34","hd":"57","v_score":"1.121327652","decile":"3","lat":40.294495295066,"lng":-111.74112019125},{"id":"30126","name":"Nathanial Schinner","party":"Dem","address":"1416 W 690 S, Orem, UT 84058","precinct":"25OR34","hd":"57","v_score":"2.315214949","decile":"5","lat":40.284447299725,"lng":-111.729710760503},{"id":"31065","name":"Berta Mosciski","party":"Rep","address":"540 S 1500 W, Orem, UT 84058","precinct":"25OR34","hd":"57","v_score":"0","decile":"1","lat":40.287346053778,"lng":-111.7315126247},{"id":"32929","name":"Charline Spencer-Bahringer","party":"Rep","address":"1811 W 140 S, Orem, UT 84059","precinct":"25OR34","hd":"57","v_score":"2.587603312","decile":"5","lat":40.294507384703,"lng":-111.739204766506},{"id":"34056","name":"Andrew Heaney","party":"","address":"1516 W 610 S, Orem, UT 84058","precinct":"25OR34","hd":"57","v_score":"10.89074633","decile":"9","lat":40.28583329973,"lng":-111.731840643854},{"id":"35043","name":"Octavia Spencer-Purdy","party":"Dem","address":"719 S 1525 W, Orem, UT 84058","precinct":"25OR34","hd":"57","v_score":"19.47300581","decile":"10","lat":40.284212327333,"lng":-111.731677751892},{"id":"35580","name":"Brittaney Berge DDS","party":"","address":"1919 W 180 S, Orem, UT 84059","precinct":"25OR34","hd":"57","v_score":"2.315214949","decile":"5","lat":40.29371696001,"lng":-111.74139724492},{"id":"36746","name":"Izora Marks MD","party":"","address":"712 S 1525 W, Orem, UT 84058","precinct":"25OR34","hd":"57","v_score":"12.38288823","decile":"9","lat":40.283943255196,"lng":-111.731827967858},{"id":"36852","name":"Wellington Collier III","party":"Dem","address":"1945 W 180 S, Orem, UT 84059","precinct":"25OR34","hd":"57","v_score":"1.121327652","decile":"3","lat":40.29371284978,"lng":-111.741964462548},{"id":"36853","name":"Jessee Schaefer","party":"Dem","address":"1945 W 180 S, Orem, UT 84059","precinct":"25OR34","hd":"57","v_score":"1.121327652","decile":"3","lat":40.29371284978,"lng":-111.741964462548},{"id":"36875","name":"Terance Stehr","party":"","address":"712 S 1525 W, Orem, UT 84058","precinct":"25OR34","hd":"57","v_score":"12.38288823","decile":"9","lat":40.283943255196,"lng":-111.731827967858},{"id":"38211","name":"Mr. Bruno Boyle Sr.","party":"Rep","address":"731 S 1525 W, Orem, UT 84058","precinct":"25OR34","hd":"57","v_score":"3.781490609","decile":"6","lat":40.284126073228,"lng":-111.731677751903},{"id":"38359","name":"Pam Tillman","party":"Rep","address":"1529 W 740 S, Orem, UT 84058","precinct":"25OR34","hd":"57","v_score":"15.05937474","decile":"9","lat":40.283522708607,"lng":-111.731986905788},{"id":"38690","name":"Cristofer Bergnaum","party":"","address":"1532 W 650 S, Orem, UT 84058","precinct":"25OR34","hd":"57","v_score":"0","decile":"1","lat":40.285135401475,"lng":-111.732031608641},{"id":"40129","name":"Dontae Langworth","party":"","address":"1497 W 610 S, Orem, UT 84058","precinct":"25OR34","hd":"57","v_score":"15.97183385","decile":"9","lat":40.285718708339,"lng":-111.731758544797},{"id":"40901","name":"Veola Smitham","party":"Rep","address":"703 S 1490 W, Orem, UT 84058","precinct":"25OR34","hd":"57","v_score":"5.191257514","decile":"7","lat":40.284324125256,"lng":-111.730812220794},{"id":"41783","name":"Noble Hamill","party":"","address":"599 S 1540 W, Orem, UT 84058","precinct":"25OR34","hd":"57","v_score":"4.079907534","decile":"7","lat":40.285833871924,"lng":-111.732178006925},{"id":"42654","name":"Tenisha Goyette","party":"Dem","address":"722 S 1525 W, Orem, UT 84058","precinct":"25OR34","hd":"57","v_score":"5.941816919","decile":"7","lat":40.283907679008,"lng":-111.731827967863},{"id":"43380","name":"Mr. Beckham Wunsch MD","party":"Dem","address":"1509 W 550 S, Orem, UT 84058","precinct":"25OR34","hd":"57","v_score":"5.632623786","decile":"7","lat":40.287086614019,"lng":-111.731406082351},{"id":"45036","name":"Donnell Cartwright","party":"Rep","address":"1396 W 800 S, Orem, UT 84058","precinct":"25OR34","hd":"57","v_score":"2.315214949","decile":"5","lat":40.282543476814,"lng":-111.728684481283},{"id":"46240","name":"Treasure Beer","party":"Rep","address":"723 S 1525 W, Orem, UT 84058","precinct":"25OR34","hd":"57","v_score":"1.46627566","decile":"4","lat":40.284183575964,"lng":-111.731677751896},{"id":"46482","name":"Geri Wilkinson MD","party":"","address":"1939 W 140 S, Orem, UT 84059","precinct":"25OR34","hd":"57","v_score":"14.24014515","decile":"9","lat":40.294491490353,"lng":-111.74177080576},{"id":"46987","name":"Bree Erdman-Sawayn","party":"","address":"1511 W 650 S, Orem, UT 84058","precinct":"25OR34","hd":"57","v_score":"3.93832808","decile":"6","lat":40.285016708381,"lng":-111.731263018085},{"id":"46990","name":"Blair Eichmann","party":"Rep","address":"1945 W 180 S, Orem, UT 84059","precinct":"25OR34","hd":"57","v_score":"1.121327652","decile":"3","lat":40.29371284978,"lng":-111.741964462548},{"id":"47896","name":"Mr. Toby Wiza MD","party":"Rep","address":"1501 W 550 S, Orem, UT 84058","precinct":"25OR34","hd":"57","v_score":"2.315214949","decile":"5","lat":40.287095003849,"lng":-111.731324880599},{"id":"48619","name":"Margy Schaefer","party":"Rep","address":"1511 W 740 S, Orem, UT 84058","precinct":"25OR34","hd":"57","v_score":"19.47829776","decile":"10","lat":40.283522708599,"lng":-111.731884730855},{"id":"49090","name":"Dr. Tanner Yost","party":"","address":"1536 W 525 S, Orem, UT 84058","precinct":"25OR34","hd":"57","v_score":"5.530510904","decile":"7","lat":40.287571208122,"lng":-111.732236958135},{"id":"49235","name":"Webster Glover","party":"Rep","address":"529 S 1500 W, Orem, UT 84058","precinct":"25OR34","hd":"57","v_score":"2.587603312","decile":"5","lat":40.287437473092,"lng":-111.73141133364},{"id":"49300","name":"Mr. Tilman Kuvalis MD","party":"","address":"1511 W 740 S, Orem, UT 84058","precinct":"25OR34","hd":"57","v_score":"16.51971788","decile":"9","lat":40.283522708599,"lng":-111.731884730855},{"id":"51647","name":"Nolie Dicki-Towne","party":"Dem","address":"540 S 1500 W, Orem, UT 84058","precinct":"25OR34","hd":"57","v_score":"4.342318225","decile":"7","lat":40.287346053778,"lng":-111.7315126247},{"id":"51809","name":"Hannah Vandervort-Kerluke","party":"","address":"1451 W 650 S, Orem, UT 84058","precinct":"25OR34","hd":"57","v_score":"0","decile":"1","lat":40.285019422081,"lng":-111.730092828485},{"id":"51871","name":"Mrs. Neoma Bins","party":"Dem","address":"1835 W 140 S, Orem, UT 84059","precinct":"25OR34","hd":"57","v_score":"0","decile":"1","lat":40.294503252881,"lng":-111.739777029901},{"id":"52073","name":"Miss Cordie Bradtke PhD","party":"Rep","address":"1558 W 525 S, Orem, UT 84058","precinct":"25OR34","hd":"57","v_score":"6.814370645","decile":"8","lat":40.287567149295,"lng":-111.732841979942},{"id":"52132","name":"Mr. Burnice Smitham","party":"","address":"701 S 1545 W, Orem, UT 84058","precinct":"25OR34","hd":"57","v_score":"3.781490609","decile":"6","lat":40.284497219143,"lng":-111.732614759423},{"id":"53647","name":"Dr. Evelynn Rogahn DVM","party":"","address":"1759 W 180 S, Orem, UT 84059","precinct":"25OR34","hd":"57","v_score":"6.74007049","decile":"8","lat":40.293750450006,"lng":-111.737526978938},{"id":"53653","name":"Sherrie Parker","party":"","address":"1738 W 180 S, Orem, UT 84059","precinct":"25OR34","hd":"57","v_score":"9.116556227","decile":"8","lat":40.293870616701,"lng":-111.736966098661},{"id":"54493","name":"Doyle Thiel-Zieme","party":"Rep","address":"710 S 1525 W, Orem, UT 84058","precinct":"25OR34","hd":"57","v_score":"3.93832808","decile":"6","lat":40.283950370433,"lng":-111.731827967857},{"id":"55642","name":"Hartley Hayes-Cassin","party":"Dem","address":"1484 W 650 S, Orem, UT 84058","precinct":"25OR34","hd":"57","v_score":"1.623113131","decile":"5","lat":40.285131299732,"lng":-111.730827251195},{"id":"55742","name":"Mr. Lemmie Renner","party":"Rep","address":"547 S 1540 W, Orem, UT 84058","precinct":"25OR34","hd":"57","v_score":"4.079907534","decile":"7","lat":40.28613601013,"lng":-111.732181982388},{"id":"56640","name":"Tanja Hermann","party":"Dem","address":"1568 W 575 S, Orem, UT 84058","precinct":"25OR34","hd":"57","v_score":"5.273794831","decile":"7","lat":40.286521928946,"lng":-111.733048034691},{"id":"56719","name":"Jameel DuBuque-Jast","party":"","address":"1893 W 180 S, Orem, UT 84059","precinct":"25OR34","hd":"57","v_score":"6.954919332","decile":"8","lat":40.293721143163,"lng":-111.740829990066},{"id":"56844","name":"Harlon Ziemann","party":"","address":"535 S 1540 W, Orem, UT 84058","precinct":"25OR34","hd":"57","v_score":"0","decile":"1","lat":40.286205734331,"lng":-111.732182899803},{"id":"57127","name":"Kendal Schowalter MD","party":"","address":"695 S 1490 W, Orem, UT 84058","precinct":"25OR34","hd":"57","v_score":"0","decile":"1","lat":40.28446574312,"lng":-111.730814987794},{"id":"57220","name":"Salma Johnson-Klocko","party":"Dem","address":"1545 W 740 S, Orem, UT 84058","precinct":"25OR34","hd":"57","v_score":"0","decile":"1","lat":40.28434790586,"lng":-111.732689165488},{"id":"58008","name":"Cas Stamm","party":"Rep","address":"547 S 1540 W, Orem, UT 84058","precinct":"25OR34","hd":"57","v_score":"1.121327652","decile":"3","lat":40.28613601013,"lng":-111.732181982388},{"id":"58100","name":"Oswaldo Bins","party":"Rep","address":"549 S 1500 W, Orem, UT 84058","precinct":"25OR34","hd":"57","v_score":"0","decile":"1","lat":40.287389126947,"lng":-111.731370174097},{"id":"58528","name":"Rosanna Spinka","party":"Dem","address":"1891 W 140 S, Orem, UT 84059","precinct":"25OR34","hd":"57","v_score":"1.121327652","decile":"3","lat":40.294496563304,"lng":-111.740903319746},{"id":"58549","name":"Mr. Camron Schneider IV","party":"","address":"701 S 1370 W, Orem, UT 84058","precinct":"25OR34","hd":"57","v_score":"0","decile":"1","lat":40.28349355844,"lng":-111.728507237484},{"id":"58561","name":"Ms. Ressie Mraz MD","party":"","address":"588 S 1470 W, Orem, UT 84058","precinct":"25OR34","hd":"57","v_score":"0","decile":"1","lat":40.28585701812,"lng":-111.73046991939},{"id":"58578","name":"Irving Rippin","party":"","address":"1788 W 140 S, Orem, UT 84059","precinct":"25OR34","hd":"57","v_score":"0","decile":"1","lat":40.294627191551,"lng":-111.738483126095},{"id":"59719","name":"Ciji Grimes","party":"","address":"1515 W 740 S, Orem, UT 84058","precinct":"25OR34","hd":"57","v_score":"2.543234995","decile":"5","lat":40.283522708601,"lng":-111.731907436395},{"id":"60067","name":"Jenelle Kertzmann PhD","party":"","address":"1964 W 180 S, Orem, UT 84059","precinct":"25OR34","hd":"57","v_score":"3.93832808","decile":"6","lat":40.293826408443,"lng":-111.742107694196},{"id":"61607","name":"Dr. Orene Ferry DVM","party":"","address":"775 S 1420 W, Orem, UT 84058","precinct":"25OR34","hd":"57","v_score":"0","decile":"1","lat":40.283050522334,"lng":-111.729210074658},{"id":"61791","name":"Burt Steuber-Stroman","party":"Dem","address":"1750 W 180 S, Orem, UT 84059","precinct":"25OR34","hd":"57","v_score":"0","decile":"1","lat":40.293867778449,"lng":-111.73723686466},{"id":"62145","name":"Fredericka Wunsch","party":"Dem","address":"1565 W 525 S, Orem, UT 84058","precinct":"25OR34","hd":"57","v_score":"2.315214949","decile":"5","lat":40.287449968892,"lng":-111.733277649517},{"id":"62697","name":"Caryl Heller-Weber","party":"Dem","address":"695 S 1490 W, Orem, UT 84058","precinct":"25OR34","hd":"57","v_score":"0","decile":"1","lat":40.28446574312,"lng":-111.730814987794},{"id":"63085","name":"Stone Schmeler","party":"","address":"741 S 1420 W, Orem, UT 84058","precinct":"25OR34","hd":"57","v_score":"17.78704594","decile":"10","lat":40.28367571012,"lng":-111.729689436498},{"id":"64469","name":"Donny Pagac-Luettgen","party":"Dem","address":"169 S 1990 W, Orem, UT 84059","precinct":"25OR34","hd":"57","v_score":"19.47300581","decile":"10","lat":40.294021846809,"lng":-111.742843319986},{"id":"64928","name":"Fran Doyle","party":"Rep","address":"1520 W 690 S, Orem, UT 84058","precinct":"25OR34","hd":"57","v_score":"1.121327652","decile":"3","lat":40.284447299836,"lng":-111.731162290628},{"id":"65411","name":"Maurice Morissette","party":"","address":"535 S 1500 W, Orem, UT 84058","precinct":"25OR34","hd":"57","v_score":"13.61907049","decile":"9","lat":40.287422969248,"lng":-111.731398985777},{"id":"66154","name":"Tommie Bahringer","party":"Rep","address":"1523 W 650 S, Orem, UT 84058","precinct":"25OR34","hd":"57","v_score":"0","decile":"1","lat":40.285016708408,"lng":-111.731605677418},{"id":"67938","name":"Chelsy Fritsch","party":"","address":"716 S 1525 W, Orem, UT 84058","precinct":"25OR34","hd":"57","v_score":"1.121327652","decile":"3","lat":40.28392902472,"lng":-111.73182796786},{"id":"70346","name":"Tomie Daugherty","party":"Dem","address":"1891 W 140 S, Orem, UT 84059","precinct":"25OR34","hd":"57","v_score":"1.121327652","decile":"3","lat":40.294496563304,"lng":-111.740903319746},{"id":"70891","name":"Mackenzie Johns","party":"","address":"1432 W 650 S, Orem, UT 84058","precinct":"25OR34","hd":"57","v_score":"1.193887297","decile":"3","lat":40.285138928081,"lng":-111.729996876549},{"id":"72220","name":"Sara Koss","party":"Dem","address":"1528 W 575 S, Orem, UT 84058","precinct":"25OR34","hd":"57","v_score":"1.121327652","decile":"3","lat":40.286519555099,"lng":-111.732130258772},{"id":"72814","name":"Merrily Kertzmann DVM","party":"","address":"1511 W 740 S, Orem, UT 84058","precinct":"25OR34","hd":"57","v_score":"2.315214949","decile":"5","lat":40.283522708599,"lng":-111.731884730855},{"id":"73620","name":"Ms. Infant Stokes","party":"Dem","address":"793 S 1370 W, Orem, UT 84058","precinct":"25OR34","hd":"57","v_score":"2.315214949","decile":"5","lat":40.282612377202,"lng":-111.728077672276},{"id":"74183","name":"Rome Corkery","party":"Dem","address":"600 S Geneva Rd, Orem, UT 84059","precinct":"25OR34","hd":"57","v_score":"1.121327652","decile":"3","lat":40.286104795812,"lng":-111.733856252422},{"id":"75579","name":"Shavonne Price","party":"","address":"1999 W 180 S, Orem, UT 84059","precinct":"25OR34","hd":"57","v_score":"3.93832808","decile":"6","lat":40.293701708303,"lng":-111.743161737923},{"id":"75815","name":"Rudolf Oberbrunner MD","party":"","address":"1578 W 575 S, Orem, UT 84058","precinct":"25OR34","hd":"57","v_score":"2.315214949","decile":"5","lat":40.286523238056,"lng":-111.733270580439},{"id":"75975","name":"Miss Kasandra Lowe DVM","party":"","address":"568 S 1540 W, Orem, UT 84058","precinct":"25OR34","hd":"57","v_score":"1.121327652","decile":"3","lat":40.286043616015,"lng":-111.732330994766},{"id":"75977","name":"Eula Gottlieb","party":"Rep","address":"568 S 1540 W, Orem, UT 84058","precinct":"25OR34","hd":"57","v_score":"1.121327652","decile":"3","lat":40.286043616015,"lng":-111.732330994766},{"id":"76345","name":"Cleola Blanda","party":"","address":"636 S 1580 W, Orem, UT 84058","precinct":"25OR34","hd":"57","v_score":"1.121327652","decile":"3","lat":40.285273654008,"lng":-111.733136419404},{"id":"76559","name":"Archibald Keeling","party":"Rep","address":"1555 W 650 S, Orem, UT 84058","precinct":"25OR34","hd":"57","v_score":"0","decile":"1","lat":40.285080968033,"lng":-111.732440857697},{"id":"76643","name":"Alvira Morissette","party":"","address":"549 S 1500 W, Orem, UT 84058","precinct":"25OR34","hd":"57","v_score":"2.315214949","decile":"5","lat":40.287389126947,"lng":-111.731370174097},{"id":"77355","name":"Reinhold Ryan","party":"Rep","address":"762 S 1420 W, Orem, UT 84058","precinct":"25OR34","hd":"57","v_score":"3.93832808","decile":"6","lat":40.283222182716,"lng":-111.729502591951},{"id":"78343","name":"Dr. Tina Wunsch","party":"","address":"1834 W 180 S, Orem, UT 84059","precinct":"25OR34","hd":"57","v_score":"0","decile":"1","lat":40.293849621483,"lng":-111.739167570846},{"id":"78674","name":"Gorden Zieme","party":"","address":"709 S 1545 W, Orem, UT 84058","precinct":"25OR34","hd":"57","v_score":"34.53702939","decile":"10","lat":40.284477050857,"lng":-111.732602417641},{"id":"78910","name":"Mr. Ewell Zulauf","party":"","address":"670 S 1545 W, Orem, UT 84058","precinct":"25OR34","hd":"57","v_score":"2.315214949","decile":"5","lat":40.284524378357,"lng":-111.732797156083},{"id":"80872","name":"Molly Swift","party":"Dem","address":"1522 W 650 S, Orem, UT 84058","precinct":"25OR34","hd":"57","v_score":"1.193887297","decile":"3","lat":40.285131299807,"lng":-111.731807758548},{"id":"81001","name":"Mimi Christiansen DDS","party":"","address":"622 S 1540 W, Orem, UT 84058","precinct":"25OR34","hd":"57","v_score":"1.193887297","decile":"3","lat":40.285644147166,"lng":-111.732325666907},{"id":"81641","name":"Saint Beer","party":"Rep","address":"1945 W 180 S, Orem, UT 84059","precinct":"25OR34","hd":"57","v_score":"0","decile":"1","lat":40.29371284978,"lng":-111.741964462548},{"id":"81655","name":"Jeramiah Jacobson","party":"Rep","address":"1724 W 180 S, Orem, UT 84059","precinct":"25OR34","hd":"57","v_score":"1.121327652","decile":"3","lat":40.293934053944,"lng":-111.73669005008},{"id":"83306","name":"Miss Mable Smitham DVM","party":"Rep","address":"793 S 1370 W, Orem, UT 84058","precinct":"25OR34","hd":"57","v_score":"22.25436402","decile":"10","lat":40.282612377202,"lng":-111.728077672276},{"id":"83389","name":"Kerrie Skiles","party":"","address":"153 S 1990 W, Orem, UT 84059","precinct":"25OR34","hd":"57","v_score":"0","decile":"1","lat":40.294130980139,"lng":-111.742845641958},{"id":"83409","name":"Debby Stiedemann","party":"Rep","address":"1999 W 180 S, Orem, UT 84059","precinct":"25OR34","hd":"57","v_score":"0","decile":"1","lat":40.293701708303,"lng":-111.743161737923},{"id":"84622","name":"Dr. Sullivan Runolfsdottir I","party":"Dem","address":"1502 W 610 S, Orem, UT 84058","precinct":"25OR34","hd":"57","v_score":"0","decile":"1","lat":40.285833299725,"lng":-111.731783174503},{"id":"85254","name":"Lewis Rippin","party":"","address":"742 S 1370 W, Orem, UT 84058","precinct":"25OR34","hd":"57","v_score":"0","decile":"1","lat":40.283067391489,"lng":-111.728352403616},{"id":"85629","name":"Jeryl Okuneva","party":"","address":"600 S Geneva Rd, Orem, UT 84059","precinct":"25OR34","hd":"57","v_score":"0","decile":"1","lat":40.286104795812,"lng":-111.733856252422},{"id":"85805","name":"Dr. Weston Jast PhD","party":"","address":"1511 W 650 S, Orem, UT 84058","precinct":"25OR34","hd":"57","v_score":"2.817000428","decile":"6","lat":40.285016708381,"lng":-111.731263018085},{"id":"86087","name":"Ronny Mertz","party":"Dem","address":"689 S 1545 W, Orem, UT 84058","precinct":"25OR34","hd":"57","v_score":"0","decile":"1","lat":40.284527471571,"lng":-111.732633272097},{"id":"86131","name":"Thursa Mraz","party":"","address":"1451 W 650 S, Orem, UT 84058","precinct":"25OR34","hd":"57","v_score":"0","decile":"1","lat":40.285019422081,"lng":-111.730092828485},{"id":"86147","name":"Mr. Cheyenne Mraz","party":"Rep","address":"1555 W 650 S, Orem, UT 84058","precinct":"25OR34","hd":"57","v_score":"0","decile":"1","lat":40.285080968033,"lng":-111.732440857697},{"id":"86505","name":"Ashlyn Oberbrunner","party":"","address":"1529 W 740 S, Orem, UT 84058","precinct":"25OR34","hd":"57","v_score":"0","decile":"1","lat":40.283522708607,"lng":-111.731986905788},{"id":"87648","name":"Aloys Goldner-Bradtke","party":"","address":"711 S 1525 W, Orem, UT 84058","precinct":"25OR34","hd":"57","v_score":"2.817000428","decile":"6","lat":40.284269830069,"lng":-111.731677751885},{"id":"88786","name":"Amari Stoltenberg DDS","party":"Rep","address":"1449 W 730 S, Orem, UT 84058","precinct":"25OR34","hd":"57","v_score":"1.193887297","decile":"4","lat":40.283747708459,"lng":-111.730386676156},{"id":"89161","name":"Reginal Hyatt-Schaefer","party":"","address":"1874 W 140 S, Orem, UT 84059","precinct":"25OR34","hd":"57","v_score":"0","decile":"1","lat":40.294614081963,"lng":-111.740403322582},{"id":"90163","name":"Dr. Wilda Gibson DDS","party":"Rep","address":"1590 W 525 S, Orem, UT 84058","precinct":"25OR34","hd":"57","v_score":"1.193887297","decile":"4","lat":40.28756282482,"lng":-111.733570663355},{"id":"91558","name":"Nello VonRueden DDS","party":"Rep","address":"741 S 1420 W, Orem, UT 84058","precinct":"25OR34","hd":"57","v_score":"0","decile":"1","lat":40.28367571012,"lng":-111.729689436498},{"id":"91719","name":"Kenley Walker","party":"Dem","address":"1536 W 525 S, Orem, UT 84058","precinct":"25OR34","hd":"57","v_score":"0","decile":"1","lat":40.287571208122,"lng":-111.732236958135},{"id":"92282","name":"Miss Jeannie Ledner","party":"","address":"1536 W 525 S, Orem, UT 84058","precinct":"25OR34","hd":"57","v_score":"8.380423136","decile":"8","lat":40.287571208122,"lng":-111.732236958135},{"id":"92906","name":"Britni Gusikowski PhD","party":"Rep","address":"1434 W 800 S, Orem, UT 84058","precinct":"25OR34","hd":"57","v_score":"1.193887297","decile":"4","lat":40.282539299923,"lng":-111.729457271246},{"id":"92972","name":"Mr. Sandy Ruecker I","party":"Dem","address":"1502 W 525 S, Orem, UT 84058","precinct":"25OR34","hd":"57","v_score":"1.193887297","decile":"4","lat":40.28757797809,"lng":-111.731681817295},{"id":"93541","name":"Chaka Bayer PhD","party":"Dem","address":"742 S 1370 W, Orem, UT 84058","precinct":"25OR34","hd":"57","v_score":"0","decile":"1","lat":40.283067391489,"lng":-111.728352403616},{"id":"93927","name":"Evalena Eichmann","party":"","address":"600 S Geneva Rd, Orem, UT 84059","precinct":"25OR34","hd":"57","v_score":"0","decile":"1","lat":40.286104795812,"lng":-111.733856252422},{"id":"94040","name":"Shandra Kovacek","party":"","address":"1537 W 740 S, Orem, UT 84058","precinct":"25OR34","hd":"57","v_score":"1.193887297","decile":"4","lat":40.28352270861,"lng":-111.732032316869},{"id":"95384","name":"Haylie Barrows","party":"Rep","address":"547 S 1540 W, Orem, UT 84058","precinct":"25OR34","hd":"57","v_score":"1.193887297","decile":"4","lat":40.28613601013,"lng":-111.732181982388},{"id":"95922","name":"Miss Florance Mueller","party":"Rep","address":"731 S 1525 W, Orem, UT 84058","precinct":"25OR34","hd":"57","v_score":"8.284004873","decile":"8","lat":40.284126073228,"lng":-111.731677751903},{"id":"95938","name":"Suzie Reynolds-Farrell","party":"Dem","address":"713 S 1370 W, Orem, UT 84058","precinct":"25OR34","hd":"57","v_score":"1.193887297","decile":"4","lat":40.283388418018,"lng":-111.728426023273},{"id":"96273","name":"Wayde Lynch Sr.","party":"Dem","address":"1484 W 650 S, Orem, UT 84058","precinct":"25OR34","hd":"57","v_score":"1.193887297","decile":"4","lat":40.285131299732,"lng":-111.730827251195},{"id":"96330","name":"Dr. Kolby Kreiger MD","party":"Rep","address":"709 S 1545 W, Orem, UT 84058","precinct":"25OR34","hd":"57","v_score":"23.62038206","decile":"10","lat":40.284477050857,"lng":-111.732602417641},{"id":"96577","name":"Cordella Schulist","party":"","address":"620 S 1580 W, Orem, UT 84058","precinct":"25OR34","hd":"57","v_score":"7.549608095","decile":"8","lat":40.2852848371,"lng":-111.733136165241},{"id":"96906","name":"Noel Pagac-Ebert","party":"","address":"596 S 1580 W, Orem, UT 84058","precinct":"25OR34","hd":"57","v_score":"1.623113131","decile":"5","lat":40.285301611738,"lng":-111.733135783997},{"id":"97538","name":"Terance Berge","party":"Dem","address":"682 S 1545 W, Orem, UT 84058","precinct":"25OR34","hd":"57","v_score":"1.193887297","decile":"4","lat":40.284494125929,"lng":-111.73277864341},{"id":"98288","name":"Patience Schuppe","party":"Rep","address":"607 S 1580 W, Orem, UT 84058","precinct":"25OR34","hd":"57","v_score":"1.193887297","decile":"4","lat":40.285292635904,"lng":-111.732985747649},{"id":"98858","name":"Manervia Denesik","party":"Rep","address":"1534 W 740 S, Orem, UT 84058","precinct":"25OR34","hd":"57","v_score":"1.193887297","decile":"4","lat":40.283637299994,"lng":-111.732020964084},{"id":"99013","name":"June Bogisich","party":"Dem","address":"529 S 1500 W, Orem, UT 84058","precinct":"25OR34","hd":"57","v_score":"1.193887297","decile":"4","lat":40.287437473092,"lng":-111.73141133364},{"id":"99145","name":"Marshal Moore-Greenfelder","party":"Dem","address":"600 S Geneva Rd, Orem, UT 84059","precinct":"25OR34","hd":"57","v_score":"0","decile":"1","lat":40.286104795812,"lng":-111.733856252422},{"id":"99147","name":"Mr. Deon Padberg V","party":"Dem","address":"705 S 1525 W, Orem, UT 84058","precinct":"25OR34","hd":"57","v_score":"1.193887297","decile":"4","lat":40.284312957122,"lng":-111.731677751879},{"id":"99192","name":"Darrick Blick III","party":"Dem","address":"1851 W 180 S, Orem, UT 84059","precinct":"25OR34","hd":"57","v_score":"1.193887297","decile":"4","lat":40.293728137523,"lng":-111.739913719851},{"id":"99674","name":"Keaton Turcotte","party":"Dem","address":"1860 W 140 S, Orem, UT 84059","precinct":"25OR34","hd":"57","v_score":"0","decile":"1","lat":40.294615701537,"lng":-111.740126371811},{"id":"99970","name":"Darren Pollich","party":"Dem","address":"167 S 1850 W, Orem, UT 84059","precinct":"25OR34","hd":"57","v_score":"1.193887297","decile":"4","lat":40.294058598388,"lng":-111.739768738154},{"id":"100544","name":"Harmony Treutel","party":"","address":"600 S Geneva Rd, Orem, UT 84059","precinct":"25OR34","hd":"57","v_score":"0","decile":"1","lat":40.286104795812,"lng":-111.733856252422},{"id":"100590","name":"Warren Leuschke DVM","party":"Rep","address":"600 S Geneva Rd, Orem, UT 84059","precinct":"25OR34","hd":"57","v_score":"0","decile":"1","lat":40.286104795812,"lng":-111.733856252422},{"id":"100810","name":"Immanuel Renner","party":"Rep","address":"1517 W 575 S, Orem, UT 84058","precinct":"25OR34","hd":"57","v_score":"0","decile":"2","lat":40.286406964835,"lng":-111.732011509365},{"id":"100916","name":"Imo Cruickshank","party":"Rep","address":"547 S 1540 W, Orem, UT 84058","precinct":"25OR34","hd":"57","v_score":"0","decile":"2","lat":40.28613601013,"lng":-111.732181982388},{"id":"101752","name":"Lolita Erdman","party":"","address":"540 S 1500 W, Orem, UT 84058","precinct":"25OR34","hd":"57","v_score":"0","decile":"2","lat":40.287346053778,"lng":-111.7315126247},{"id":"101847","name":"Esperanza Huel-Aufderhar","party":"Rep","address":"598 S 1470 W, Orem, UT 84058","precinct":"25OR34","hd":"57","v_score":"0","decile":"2","lat":40.285805979532,"lng":-111.730443701254},{"id":"103872","name":"Kiyoshi Berge","party":"Dem","address":"620 S 1580 W, Orem, UT 84058","precinct":"25OR34","hd":"57","v_score":"5.926494964","decile":"7","lat":40.2852848371,"lng":-111.733136165241},{"id":"104266","name":"Mr. Charlton Steuber Sr.","party":"","address":"600 S Geneva Rd, Orem, UT 84059","precinct":"25OR34","hd":"57","v_score":"0","decile":"2","lat":40.286104795812,"lng":-111.733856252422},{"id":"105773","name":"Mearl Jast","party":"Rep","address":"600 S Geneva Rd, Orem, UT 84059","precinct":"25OR34","hd":"57","v_score":"0","decile":"2","lat":40.286104795812,"lng":-111.733856252422},{"id":"105941","name":"Paula King","party":"Rep","address":"681 S 1545 W, Orem, UT 84058","precinct":"25OR34","hd":"57","v_score":"0","decile":"2","lat":40.284547639856,"lng":-111.732645613879},{"id":"106634","name":"Pamella Shields-Ward","party":"Rep","address":"1502 W 525 S, Orem, UT 84058","precinct":"25OR34","hd":"57","v_score":"1.193887297","decile":"4","lat":40.28757797809,"lng":-111.731681817295},{"id":"107521","name":"Jelani Cremin-Hegmann","party":"Rep","address":"723 S 1525 W, Orem, UT 84058","precinct":"25OR34","hd":"57","v_score":"0","decile":"2","lat":40.284183575964,"lng":-111.731677751896},{"id":"107738","name":"Sadye Flatley","party":"","address":"600 S Geneva Rd, Orem, UT 84059","precinct":"25OR34","hd":"57","v_score":"0","decile":"2","lat":40.286104795812,"lng":-111.733856252422},{"id":"107894","name":"Cleva Bradtke","party":"","address":"723 S 1370 W, Orem, UT 84058","precinct":"25OR34","hd":"57","v_score":"0","decile":"2","lat":40.283300801001,"lng":-111.728358344765},{"id":"107936","name":"Tanesha Tromp","party":"Dem","address":"579 S 1470 W, Orem, UT 84058","precinct":"25OR34","hd":"57","v_score":"0","decile":"2","lat":40.285968030119,"lng":-111.73037228683},{"id":"108030","name":"Myla Von DDS","party":"","address":"1950 W 140 S, Orem, UT 84059","precinct":"25OR34","hd":"57","v_score":"4.069929862","decile":"7","lat":40.294605289989,"lng":-111.741906769626},{"id":"108801","name":"Serenity Crona-Mante","party":"","address":"741 S 1420 W, Orem, UT 84058","precinct":"25OR34","hd":"57","v_score":"4.214075011","decile":"7","lat":40.28367571012,"lng":-111.729689436498},{"id":"108994","name":"Ms. Keisha Corwin MD","party":"","address":"793 S 1370 W, Orem, UT 84058","precinct":"25OR34","hd":"57","v_score":"1.193887297","decile":"4","lat":40.282612377202,"lng":-111.728077672276},{"id":"111784","name":"Odie Wilkinson","party":"Dem","address":"636 S 1470 W, Orem, UT 84058","precinct":"25OR34","hd":"57","v_score":"0","decile":"2","lat":40.285558122246,"lng":-111.730414969384},{"id":"112654","name":"Rossie Block","party":"Dem","address":"1394 W 690 S, Orem, UT 84058","precinct":"25OR34","hd":"57","v_score":"1.193887297","decile":"4","lat":40.28444729972,"lng":-111.729644610255},{"id":"113889","name":"Ms. Carin Hirthe","party":"Dem","address":"1571 W 525 S, Orem, UT 84058","precinct":"25OR34","hd":"57","v_score":"0","decile":"2","lat":40.28744947246,"lng":-111.733361299398},{"id":"114231","name":"Alina Sipes","party":"","address":"1902 W 180 S, Orem, UT 84059","precinct":"25OR34","hd":"57","v_score":"0","decile":"2","lat":40.293836159841,"lng":-111.740775028734},{"id":"114804","name":"Gaylene Koch","party":"","address":"1578 W 575 S, Orem, UT 84058","precinct":"25OR34","hd":"57","v_score":"1.193887297","decile":"4","lat":40.286523238056,"lng":-111.733270580439},{"id":"115107","name":"Ms. Liana Kunde","party":"","address":"612 S 1580 W, Orem, UT 84058","precinct":"25OR34","hd":"57","v_score":"0","decile":"2","lat":40.285290428646,"lng":-111.73313603816},{"id":"115252","name":"Hector Boehm-Davis","party":"","address":"600 S Geneva Rd, Orem, UT 84059","precinct":"25OR34","hd":"57","v_score":"0","decile":"2","lat":40.286104795812,"lng":-111.733856252422},{"id":"117634","name":"Marcello Rodriguez","party":"","address":"1549 W 740 S, Orem, UT 84058","precinct":"25OR34","hd":"57","v_score":"1.193887297","decile":"4","lat":40.283522708615,"lng":-111.732100433491},{"id":"118147","name":"Dr. Daquan Bernhard PhD","party":"","address":"540 S 1500 W, Orem, UT 84058","precinct":"25OR34","hd":"57","v_score":"4.069929862","decile":"7","lat":40.287346053778,"lng":-111.7315126247},{"id":"118703","name":"Olaf Klein","party":"Rep","address":"711 S 1420 W, Orem, UT 84058","precinct":"25OR34","hd":"57","v_score":"1.193887297","decile":"4","lat":40.284003270157,"lng":-111.729896150611},{"id":"122057","name":"Dr. Cyndi Walsh DVM","party":"","address":"1907 W 180 S, Orem, UT 84059","precinct":"25OR34","hd":"57","v_score":"1.193887297","decile":"4","lat":40.293718857039,"lng":-111.741135452168},{"id":"122205","name":"Ethan Wuckert PhD","party":"Rep","address":"598 S 1470 W, Orem, UT 84058","precinct":"25OR34","hd":"57","v_score":"1.193887297","decile":"4","lat":40.285805979532,"lng":-111.730443701254},{"id":"123859","name":"Dr. Moses Huel MD","party":"Rep","address":"556 S 1540 W, Orem, UT 84058","precinct":"25OR34","hd":"57","v_score":"1.193887297","decile":"4","lat":40.286106884272,"lng":-111.732331827235},{"id":"124439","name":"Stanley Rippin","party":"","address":"1434 W 800 S, Orem, UT 84058","precinct":"25OR34","hd":"57","v_score":"1.193887297","decile":"4","lat":40.282539299923,"lng":-111.729457271246},{"id":"125002","name":"Ruffus Schmidt","party":"Dem","address":"1798 W 180 S, Orem, UT 84059","precinct":"25OR34","hd":"57","v_score":"0","decile":"2","lat":40.29385740304,"lng":-111.738340125338},{"id":"125811","name":"Theodocia Stracke","party":"Rep","address":"1555 W 650 S, Orem, UT 84058","precinct":"25OR34","hd":"57","v_score":"0","decile":"2","lat":40.285080968033,"lng":-111.732440857697},{"id":"126174","name":"Laureen Gerlach","party":"Rep","address":"1396 W 800 S, Orem, UT 84058","precinct":"25OR34","hd":"57","v_score":"0","decile":"2","lat":40.282543476814,"lng":-111.728684481283},{"id":"126931","name":"Mrs. Kaiya Ullrich","party":"Dem","address":"1535 W 650 S, Orem, UT 84058","precinct":"25OR34","hd":"57","v_score":"0","decile":"2","lat":40.285016708434,"lng":-111.731948336751},{"id":"128565","name":"Kassidy Crist","party":"Rep","address":"1812 W 140 S, Orem, UT 84059","precinct":"25OR34","hd":"57","v_score":"0","decile":"2","lat":40.294623450577,"lng":-111.739001256467},{"id":"129897","name":"Wess Kunze","party":"Dem","address":"1484 W 650 S, Orem, UT 84058","precinct":"25OR34","hd":"57","v_score":"0","decile":"2","lat":40.285131299732,"lng":-111.730827251195},{"id":"129916","name":"Len Harris","party":"","address":"1484 W 650 S, Orem, UT 84058","precinct":"25OR34","hd":"57","v_score":"0","decile":"2","lat":40.285131299732,"lng":-111.730827251195},{"id":"130098","name":"Ayana Schaden","party":"","address":"688 S 1525 W, Orem, UT 84058","precinct":"25OR34","hd":"57","v_score":"0","decile":"2","lat":40.284028638047,"lng":-111.731827967847},{"id":"130509","name":"Dr. Shellie Brakus PhD","party":"Rep","address":"763 S 1420 W, Orem, UT 84058","precinct":"25OR34","hd":"57","v_score":"0","decile":"2","lat":40.283281877798,"lng":-111.729374370739},{"id":"131606","name":"Lenon Spencer","party":"","address":"1519 W 740 S, Orem, UT 84058","precinct":"25OR34","hd":"57","v_score":"2.876042565","decile":"6","lat":40.283522708603,"lng":-111.731930141936},{"id":"131931","name":"Vivian Carroll","party":"","address":"600 S Geneva Rd, Vineyard, UT 84059","precinct":"25OR34","hd":"57","v_score":"0","decile":"2","lat":40.286104795812,"lng":-111.733856252422},{"id":"132897","name":"Elodie Koepp","party":"Rep","address":"535 S 1500 W, Orem, UT 84058","precinct":"25OR34","hd":"57","v_score":"0","decile":"2","lat":40.287422969248,"lng":-111.731398985777},{"id":"133010","name":"Tory Stoltenberg-Mante","party":"","address":"552 S 1540 W, Orem, UT 84058","precinct":"25OR34","hd":"57","v_score":"0","decile":"2","lat":40.286127973691,"lng":-111.732332104724},{"id":"133613","name":"Marin Willms","party":"Rep","address":"1498 W 575 S, Orem, UT 84058","precinct":"25OR34","hd":"57","v_score":"0","decile":"2","lat":40.286524486017,"lng":-111.731841798814},{"id":"133907","name":"Mrs. Juliet Johnson DVM","party":"","address":"1508 W 610 S, Orem, UT 84058","precinct":"25OR34","hd":"57","v_score":"0","decile":"2","lat":40.285833299727,"lng":-111.731807804225},{"id":"134226","name":"Dr. Devin Corwin","party":"Rep","address":"577 S Geneva Rd, Orem, UT 84058","precinct":"25OR34","hd":"57","v_score":"0","decile":"2","lat":40.286371985686,"lng":-111.733713376853},{"id":"134595","name":"Dr. Lew Bashirian I","party":"Dem","address":"798 S Geneva Rd, Orem, UT 84059","precinct":"25OR34","hd":"57","v_score":"3.93832808","decile":"6","lat":40.28232694601,"lng":-111.732240918434},{"id":"136012","name":"Warner Renner","party":"Rep","address":"1553 W 575 S, Orem, UT 84058","precinct":"25OR34","hd":"57","v_score":"5.40460374","decile":"7","lat":40.286405246401,"lng":-111.732693119874},{"id":"138814","name":"Kaitlyn Jast","party":"","address":"1798 W 180 S, Orem, UT 84059","precinct":"25OR34","hd":"57","v_score":"1.121327652","decile":"3","lat":40.29385740304,"lng":-111.738340125338},{"id":"140629","name":"Davion Lemke","party":"Dem","address":"742 S 1370 W, Orem, UT 84058","precinct":"25OR34","hd":"57","v_score":"1.193887297","decile":"4","lat":40.283067391489,"lng":-111.728352403616},{"id":"142292","name":"Zina Reilly","party":"","address":"535 S 1500 W, Orem, UT 84058","precinct":"25OR34","hd":"57","v_score":"23.95587272","decile":"10","lat":40.287422969248,"lng":-111.731398985777},{"id":"145371","name":"Alvin Upton","party":"","address":"1460 W 400 S, Orem, UT 84058","precinct":"25OR34","hd":"57","v_score":"2.744440783","decile":"6","lat":40.289886733413,"lng":-111.733300248306},{"id":"146377","name":"Arlington Howell","party":"","address":"1553 W 575 S, Orem, UT 84058","precinct":"25OR34","hd":"57","v_score":"5.40460374","decile":"7","lat":40.286405246401,"lng":-111.732693119874},{"id":"147301","name":"China Lueilwitz","party":"Rep","address":"154 S 1850 W, Orem, UT 84059","precinct":"25OR34","hd":"57","v_score":"13.61621523","decile":"9","lat":40.29413820387,"lng":-111.739919259446},{"id":"148356","name":"Shante Gorczany","party":"Dem","address":"1775 W 140 S, Orem, UT 84059","precinct":"25OR34","hd":"57","v_score":"26.49117954","decile":"10","lat":40.294513582436,"lng":-111.738346371413},{"id":"149655","name":"Lacey Bahringer","party":"Rep","address":"1907 W 180 S, Orem, UT 84059","precinct":"25OR34","hd":"57","v_score":"3.93832808","decile":"6","lat":40.293718857039,"lng":-111.741135452168},{"id":"150423","name":"Deion Johnston","party":"Dem","address":"702 S 1420 W, Orem, UT 84058","precinct":"25OR34","hd":"57","v_score":"25.56562396","decile":"10","lat":40.283995522848,"lng":-111.730049717886},{"id":"150971","name":"Odile Bruen","party":"","address":"759 S 1370 W, Orem, UT 84058","precinct":"25OR34","hd":"57","v_score":"23.37569167","decile":"10","lat":40.282968605966,"lng":-111.728117717297},{"id":"152806","name":"Miss Tatyana Luettgen","party":"Dem","address":"702 S 1420 W, Orem, UT 84058","precinct":"25OR34","hd":"57","v_score":"25.56562396","decile":"10","lat":40.283995522848,"lng":-111.730049717886},{"id":"154264","name":"Griffin Wiza","party":"","address":"556 S 1540 W, Orem, UT 84058","precinct":"25OR34","hd":"57","v_score":"39.63298886","decile":"10","lat":40.286106884272,"lng":-111.732331827235},{"id":"154435","name":"Rondal Kirlin II","party":"","address":"1714 W 180 S, Orem, UT 84059","precinct":"25OR34","hd":"57","v_score":"5.815909755","decile":"7","lat":40.294020756617,"lng":-111.73649867733},{"id":"154713","name":"Hugh White V","party":"","address":"1714 W 180 S, Orem, UT 84059","precinct":"25OR34","hd":"57","v_score":"0","decile":"3","lat":40.294020756617,"lng":-111.73649867733},{"id":"155946","name":"Jeramie Hane","party":"","address":"798 S Geneva Rd, Orem, UT 84059","precinct":"25OR34","hd":"57","v_score":"3.93832808","decile":"6","lat":40.28232694601,"lng":-111.732240918434},{"id":"156037","name":"Mr. Gaylord Franecki DVM","party":"","address":"1835 W 140 S, Orem, UT 84059","precinct":"25OR34","hd":"57","v_score":"3.93832808","decile":"6","lat":40.294503252881,"lng":-111.739777029901},{"id":"156182","name":"Alannah Beahan","party":"","address":"1497 W 610 S, Orem, UT 84058","precinct":"25OR34","hd":"57","v_score":"6.814370645","decile":"8","lat":40.285718708339,"lng":-111.731758544797},{"id":"156282","name":"Miss Maryellen Sawayn","party":"","address":"1950 W 140 S, Orem, UT 84059","precinct":"25OR34","hd":"57","v_score":"31.14994604","decile":"10","lat":40.294605289989,"lng":-111.741906769626},{"id":"156725","name":"Deshaun Jaskolski","party":"Dem","address":"1999 W 180 S, Orem, UT 84059","precinct":"25OR34","hd":"57","v_score":"3.93832808","decile":"6","lat":40.293701708303,"lng":-111.743161737923},{"id":"158228","name":"Korbin Harris","party":"Dem","address":"1738 W 180 S, Orem, UT 84059","precinct":"25OR34","hd":"57","v_score":"9.116556227","decile":"8","lat":40.293870616701,"lng":-111.736966098661},{"id":"160502","name":"Miss Johannah Runolfsson DVM","party":"Rep","address":"759 S 1370 W, Orem, UT 84058","precinct":"25OR34","hd":"57","v_score":"4.166348126","decile":"7","lat":40.282968605966,"lng":-111.728117717297},{"id":"161397","name":"Salome Hoeger","party":"Dem","address":"611 S 1470 W, Orem, UT 84058","precinct":"25OR34","hd":"57","v_score":"2.817000428","decile":"6","lat":40.285747869099,"lng":-111.730274909494},{"id":"161745","name":"Angelic Cruickshank","party":"Dem","address":"1577 W 575 S, Orem, UT 84058","precinct":"25OR34","hd":"57","v_score":"0","decile":"3","lat":40.286408388264,"lng":-111.733227229667},{"id":"162869","name":"Vernal Yost","party":"","address":"169 S 1990 W, Orem, UT 84059","precinct":"25OR34","hd":"57","v_score":"20.93928147","decile":"10","lat":40.294021846809,"lng":-111.742843319986},{"id":"163468","name":"Katelyn Fay PhD","party":"","address":"1926 W 180 S, Orem, UT 84059","precinct":"25OR34","hd":"57","v_score":"8.280646305","decile":"8","lat":40.29383232736,"lng":-111.741290875145},{"id":"163470","name":"Vera Ritchie-Von","party":"","address":"769 S 1370 W, Orem, UT 84058","precinct":"25OR34","hd":"57","v_score":"6.657533174","decile":"7","lat":40.282856056949,"lng":-111.728095818606},{"id":"164368","name":"Mrs. Minda Leannon DVM","party":"","address":"1835 W 140 S, Orem, UT 84059","precinct":"25OR34","hd":"57","v_score":"2.315214949","decile":"5","lat":40.294503252881,"lng":-111.739777029901},{"id":"164445","name":"Ezell Ondricka DVM","party":"Dem","address":"1881 W 180 S, Orem, UT 84059","precinct":"25OR34","hd":"57","v_score":"26.35608728","decile":"10","lat":40.293723141551,"lng":-111.740568198576},{"id":"164759","name":"Lorenza Quitzon II","party":"Rep","address":"1957 W 180 S, Orem, UT 84059","precinct":"25OR34","hd":"57","v_score":"1.46627566","decile":"4","lat":40.293710952751,"lng":-111.7422262553},{"id":"166768","name":"Cruz Grimes","party":"Rep","address":"1497 W 610 S, Orem, UT 84058","precinct":"25OR34","hd":"57","v_score":"15.97183385","decile":"9","lat":40.285718708339,"lng":-111.731758544797},{"id":"167345","name":"Arletta Schulist","party":"Dem","address":"1851 W 180 S, Orem, UT 84059","precinct":"25OR34","hd":"57","v_score":"22.98540223","decile":"10","lat":40.293728137523,"lng":-111.739913719851},{"id":"167793","name":"Henri Schmidt-McLaughlin","party":"Dem","address":"540 S 1500 W, Orem, UT 84058","precinct":"25OR34","hd":"57","v_score":"6.657533174","decile":"7","lat":40.287346053778,"lng":-111.7315126247},{"id":"167934","name":"Mr. Ivey Osinski Sr.","party":"Dem","address":"1527 W 550 S, Orem, UT 84058","precinct":"25OR34","hd":"57","v_score":"5.40460374","decile":"7","lat":40.287084987157,"lng":-111.731565515965},{"id":"170130","name":"Ms. Melissa Ullrich DDS","party":"","address":"552 S 1540 W, Orem, UT 84058","precinct":"25OR34","hd":"57","v_score":"16.22796003","decile":"9","lat":40.286127973691,"lng":-111.732332104724},{"id":"171178","name":"Iva Wiegand","party":"Rep","address":"1493 W 575 S, Orem, UT 84058","precinct":"25OR34","hd":"57","v_score":"1.121327652","decile":"3","lat":40.28641090957,"lng":-111.731780741398},{"id":"171662","name":"Charlize Eichmann","party":"Dem","address":"144 S 1990 W, Orem, UT 84059","precinct":"25OR34","hd":"57","v_score":"1.121327652","decile":"3","lat":40.29437918751,"lng":-111.743001918749},{"id":"173457","name":"Ashlyn Zulauf","party":"","address":"1936 W 140 S, Orem, UT 84059","precinct":"25OR34","hd":"57","v_score":"27.53969292","decile":"10","lat":40.294606909564,"lng":-111.741629818855},{"id":"173669","name":"Manuel Walter","party":"Rep","address":"715 S 1525 W, Orem, UT 84058","precinct":"25OR34","hd":"57","v_score":"23.22080154","decile":"10","lat":40.284241078701,"lng":-111.731677751888},{"id":"174108","name":"Leeann Muller","party":"Rep","address":"753 S 1420 W, Orem, UT 84058","precinct":"25OR34","hd":"57","v_score":"14.17747841","decile":"9","lat":40.28346089249,"lng":-111.729517582447},{"id":"176061","name":"Parrish Cormier-Wisozk","party":"Rep","address":"1919 W 180 S, Orem, UT 84059","precinct":"25OR34","hd":"57","v_score":"1.121327652","decile":"3","lat":40.29371696001,"lng":-111.74139724492},{"id":"176201","name":"Beyonce Dibbert MD","party":"","address":"1396 W 800 S, Orem, UT 84058","precinct":"25OR34","hd":"57","v_score":"0","decile":"3","lat":40.282543476814,"lng":-111.728684481283},{"id":"176417","name":"Kiel Greenholt","party":"Rep","address":"1498 W 575 S, Orem, UT 84058","precinct":"25OR34","hd":"57","v_score":"1.121327652","decile":"3","lat":40.286524486017,"lng":-111.731841798814},{"id":"176984","name":"Cecily Fay","party":"Rep","address":"1527 W 550 S, Orem, UT 84058","precinct":"25OR34","hd":"57","v_score":"3.93832808","decile":"6","lat":40.287084987157,"lng":-111.731565515965},{"id":"177320","name":"Leonie Connelly DVM","party":"","address":"715 S 1525 W, Orem, UT 84058","precinct":"25OR34","hd":"57","v_score":"23.22080154","decile":"10","lat":40.284241078701,"lng":-111.731677751888},{"id":"178027","name":"Pinkie Padberg","party":"","address":"1536 W 525 S, Orem, UT 84058","precinct":"25OR34","hd":"57","v_score":"29.98684248","decile":"10","lat":40.287571208122,"lng":-111.732236958135},{"id":"179673","name":"Jahir Lindgren-Parker","party":"Rep","address":"703 S 1490 W, Orem, UT 84058","precinct":"25OR34","hd":"57","v_score":"2.315214949","decile":"5","lat":40.284324125256,"lng":-111.730812220794},{"id":"180990","name":"Judah Beier","party":"","address":"571 S 1470 W, Orem, UT 84058","precinct":"25OR34","hd":"57","v_score":"0","decile":"3","lat":40.286020445398,"lng":-111.730409657138}]