[{"vid":"613770","name":"Gabriel Rippin","party":"","address":"73 W 2000 N, Orem, UT 84057","precinct":"25OR03","hd":"58","v_score":"5.693042993","decile":"7","lat":40.333647634326546,"lng":-111.69799176169235,"phone":"(848) 881-5875","sd":"23","ssbd":"12","lsbd":"School Board Timpanogos 5"},{"vid":"1335331","name":"Albina Mohr","party":"","address":"1914 N 50 W, Orem, UT 84057","precinct":"25OR03","hd":"58","v_score":"2.817000428","decile":"6","lat":40.331932445856125,"lng":-111.69710439872622,"phone":"(857) 930-6924","sd":"23","ssbd":"12","lsbd":"School Board Timpanogos 5"},{"vid":"d8c55c1ae60d04e7c5238f45bb2aa73a4d1c78de8a073790540d69df6322f5e1","name":"Aden Jacobi","party":"Rep","address":"1935 N 90 W, Orem, UT 84057","precinct":"25OR03","hd":"58","v_score":"26.24972019","decile":"10","lat":40.33267254275315,"lng":-111.69766933305422,"phone":"(346) 671-3314","sd":"23","ssbd":"12","lsbd":"School Board Timpanogos 5"},{"vid":"a680bf14b9d22f4179346513d2c9d8282f8044ec48d0ea3646f53f509f2ce8c6","name":"Tyshawn Morissette","party":"","address":"1909 N 50 W, Orem, UT 84057","precinct":"25OR03","hd":"58","v_score":"19.9314597","decile":"10","lat":40.331955736123994,"lng":-111.69743285819354,"phone":"(865) 823-2070","sd":"23","ssbd":"12","lsbd":"School Board Timpanogos 5"},{"vid":"1431054","name":"Dr. Jadon Bednar Jr.","party":"Dem","address":"140 W 1960 N, Orem, UT 84057","precinct":"25OR03","hd":"58","v_score":"7.947838735","decile":"8","lat":40.333309449866526,"lng":-111.69972507262558,"phone":"(921) 383-5822","sd":"23","ssbd":"12","lsbd":"School Board Timpanogos 5"},{"vid":"1544439","name":"Dr. Dickie Bruen PhD","party":"Rep","address":"89 W 2000 N, Orem, UT 84057","precinct":"25OR03","hd":"58","v_score":"11.2235539","decile":"9","lat":40.333642014365786,"lng":-111.69870563063456,"phone":"(416) 529-4259","sd":"23","ssbd":"12","lsbd":"School Board Timpanogos 5"},{"vid":"1576615","name":"Ms. Roxie Deckow","party":"Rep","address":"1898 N 50 W, Orem, UT 84057","precinct":"25OR03","hd":"58","v_score":"4.283276088","decile":"7","lat":40.33168573172872,"lng":-111.69703751394294,"phone":"(626) 337-8651","sd":"23","ssbd":"12","lsbd":"School Board Timpanogos 5"},{"vid":"1608893","name":"Francine Zboncak PhD","party":"Dem","address":"1902 N 180 W, Orem, UT 84057","precinct":"25OR03","hd":"58","v_score":"10.22509301","decile":"9","lat":40.332119246654855,"lng":-111.70032244152203,"phone":"(976) 160-6529","sd":"23","ssbd":"12","lsbd":"School Board Timpanogos 5"},{"vid":"1629714","name":"Abram Barton","party":"","address":"1922 N 135 W, Orem, UT 84057","precinct":"25OR03","hd":"58","v_score":"2.315214949","decile":"5","lat":40.332499945074616,"lng":-111.69911080201284,"phone":"(804) 634-3898","sd":"23","ssbd":"12","lsbd":"School Board Timpanogos 5"},{"vid":"1652083","name":"Lavonia Zieme-Medhurst","party":"Rep","address":"105 W 2000 N, Orem, UT 84057","precinct":"25OR03","hd":"58","v_score":"5.815909755","decile":"7","lat":40.33357702011526,"lng":-111.6989265186973,"phone":"(894) 082-5346","sd":"23","ssbd":"12","lsbd":"School Board Timpanogos 5"},{"vid":"07d8697bd2d805de48b88b00907bb404cb6ddc694f9d299e06b9aea5d9862d26","name":"Ingram Kris","party":"Dem","address":"153 W 1960 N, Orem, UT 84057","precinct":"25OR03","hd":"58","v_score":"3.93832808","decile":"6","lat":40.332802769690005,"lng":-111.69996870276744,"phone":"(172) 427-9363","sd":"23","ssbd":"12","lsbd":"School Board Timpanogos 5"},{"vid":"1812037","name":"Deryl Hane-Prohaska","party":"","address":"89 W 2000 N, Orem, UT 84057","precinct":"25OR03","hd":"58","v_score":"11.2235539","decile":"9","lat":40.333642014365786,"lng":-111.69870563063456,"phone":"(706) 040-7861","sd":"23","ssbd":"12","lsbd":"School Board Timpanogos 5"},{"vid":"1817847","name":"Edwardo Corkery","party":"Rep","address":"140 W 1960 N, Orem, UT 84057","precinct":"25OR03","hd":"58","v_score":"1.193887297","decile":"3","lat":40.333309449866526,"lng":-111.69972507262558,"phone":"(272) 789-9067","sd":"23","ssbd":"12","lsbd":"School Board Timpanogos 5"},{"vid":"1858814","name":"Patti Morar","party":"Dem","address":"1974 N 45 W, Orem, UT 84057","precinct":"25OR03","hd":"58","v_score":"2.315214949","decile":"5","lat":40.333410310988256,"lng":-111.6971595890248,"phone":"(399) 532-4211","sd":"23","ssbd":"12","lsbd":"School Board Timpanogos 5"},{"vid":"c068d84bd75ef9a037362892a182065d3027e1808f53141192e9bcf6eae70753","name":"Melody Herzog PhD","party":"Rep","address":"1927 N 90 W, Orem, UT 84057","precinct":"25OR03","hd":"58","v_score":"4.069929862","decile":"6","lat":40.33258877728862,"lng":-111.69791555701336,"phone":"(556) 929-0268","sd":"23","ssbd":"12","lsbd":"School Board Timpanogos 5"},{"vid":"1985598","name":"Achsah Corwin","party":"Rep","address":"1898 N 50 W, Orem, UT 84057","precinct":"25OR03","hd":"58","v_score":"3.781490609","decile":"6","lat":40.33168573172872,"lng":-111.69703751394294,"phone":"(171) 986-1451","sd":"23","ssbd":"12","lsbd":"School Board Timpanogos 5"},{"vid":"2021217","name":"Chestina Spencer","party":"","address":"1970 N 45 W, Orem, UT 84057","precinct":"25OR03","hd":"58","v_score":"6.884189957","decile":"8","lat":40.33327092348429,"lng":-111.697372895783,"phone":"(726) 053-6504","sd":"23","ssbd":"12","lsbd":"School Board Timpanogos 5"},{"vid":"2055675","name":"Nyasia Goyette","party":"Rep","address":"12 W 1880 N, Orem, UT 84057","precinct":"25OR03","hd":"58","v_score":"34.03160254","decile":"10","lat":40.33110353013114,"lng":-111.69661021805697,"phone":"(123) 688-0831","sd":"23","ssbd":"12","lsbd":"School Board Timpanogos 5"},{"vid":"7307f99c5d227e83379a698a3a7f1922c1e52e223c805de391f4dfcddaf35f22","name":"Leopoldo Dicki DVM","party":"Rep","address":"24 W 1880 N, Orem, UT 84057","precinct":"25OR03","hd":"58","v_score":"1.193887297","decile":"3","lat":40.331357365263685,"lng":-111.69697860968523,"phone":"(226) 175-7320","sd":"23","ssbd":"12","lsbd":"School Board Timpanogos 5"},{"vid":"2242783","name":"Love Swaniawski","party":"","address":"1939 N 90 W, Orem, UT 84057","precinct":"25OR03","hd":"58","v_score":"0","decile":"1","lat":40.3327477174479,"lng":-111.69733603219946,"phone":"(882) 718-6693","sd":"23","ssbd":"12","lsbd":"School Board Timpanogos 5"},{"vid":"7b66881e6fb5b37247323d98324d4e2db0d8d3b5c4625549a6bf02c2a154d10a","name":"Makhi Pollich","party":"Dem","address":"122 W 1880 N, Orem, UT 84057","precinct":"25OR03","hd":"58","v_score":"1.121327652","decile":"3","lat":40.33189072684995,"lng":-111.69902197681625,"phone":"(612) 314-4356","sd":"23","ssbd":"12","lsbd":"School Board Timpanogos 5"},{"vid":"2332665","name":"Jordi Gutkowski-Fahey","party":"","address":"1976 N 85 W, Orem, UT 84057","precinct":"25OR03","hd":"58","v_score":"0","decile":"1","lat":40.333348168708035,"lng":-111.6981119074849,"phone":"(282) 230-9360","sd":"23","ssbd":"12","lsbd":"School Board Timpanogos 5"},{"vid":"2345908","name":"Ms. Almyra Towne PhD","party":"Rep","address":"1909 N 90 W, Orem, UT 84057","precinct":"25OR03","hd":"58","v_score":"6.814370645","decile":"8","lat":40.332156568778196,"lng":-111.69867729976421,"phone":"(618) 850-9662","sd":"23","ssbd":"12","lsbd":"School Board Timpanogos 5"},{"vid":"2374530","name":"Dr. Nayeli Jakubowski","party":"","address":"105 W 2000 N, Orem, UT 84057","precinct":"25OR03","hd":"58","v_score":"0","decile":"1","lat":40.33357702011526,"lng":-111.6989265186973,"phone":"(141) 814-8609","sd":"23","ssbd":"12","lsbd":"School Board Timpanogos 5"},{"vid":"2405974","name":"Lucinda Little MD","party":"","address":"111 W 1960 N, Orem, UT 84057","precinct":"25OR03","hd":"58","v_score":"2.315214949","decile":"5","lat":40.33288800353943,"lng":-111.69915629683342,"phone":"(835) 922-4556","sd":"23","ssbd":"12","lsbd":"School Board Timpanogos 5"},{"vid":"2416749","name":"Fleta Watsica","party":"Rep","address":"147 W 2000 N, Orem, UT 84057","precinct":"25OR03","hd":"58","v_score":"9.907118004","decile":"8","lat":40.33356358047179,"lng":-111.6998618264551,"phone":"(763) 411-2917","sd":"23","ssbd":"12","lsbd":"School Board Timpanogos 5"},{"vid":"2426041","name":"Ragna Sporer","party":"Dem","address":"1892 N 50 W, Orem, UT 84057","precinct":"25OR03","hd":"58","v_score":"1.121327652","decile":"3","lat":40.33160217778531,"lng":-111.69735021910996,"phone":"(103) 205-1337","sd":"23","ssbd":"12","lsbd":"School Board Timpanogos 5"},{"vid":"2496430","name":"Halsey Fisher","party":"Rep","address":"140 W 1960 N, Orem, UT 84057","precinct":"25OR03","hd":"58","v_score":"1.193887297","decile":"3","lat":40.333309449866526,"lng":-111.69972507262558,"phone":"(113) 113-9153","sd":"23","ssbd":"12","lsbd":"School Board Timpanogos 5"},{"vid":"2507588","name":"Dr. Ardella Crona DDS","party":"Dem","address":"61 W 2000 N, Orem, UT 84057","precinct":"25OR03","hd":"58","v_score":"5.83359168","decile":"7","lat":40.33361707363751,"lng":-111.69750702419108,"phone":"(404) 823-9815","sd":"23","ssbd":"12","lsbd":"School Board Timpanogos 5"},{"vid":"2525217","name":"Miss Teela Herzog DVM","party":"Dem","address":"1914 N 50 W, Orem, UT 84057","precinct":"25OR03","hd":"58","v_score":"2.817000428","decile":"6","lat":40.331932445856125,"lng":-111.69710439872622,"phone":"(498) 445-6641","sd":"23","ssbd":"12","lsbd":"School Board Timpanogos 5"},{"vid":"2644879","name":"Ell Kerluke","party":"","address":"1910 N 135 W, Orem, UT 84057","precinct":"25OR03","hd":"58","v_score":"2.817000428","decile":"6","lat":40.33236299210547,"lng":-111.69906565097281,"phone":"(382) 104-5861","sd":"23","ssbd":"12","lsbd":"School Board Timpanogos 5"},{"vid":"2730750","name":"Laurie Zulauf","party":"Rep","address":"1923 N 135 W, Orem, UT 84057","precinct":"25OR03","hd":"58","v_score":"2.876042565","decile":"6","lat":40.33249682332539,"lng":-111.69949990028022,"phone":"(538) 033-0747","sd":"23","ssbd":"12","lsbd":"School Board Timpanogos 5"},{"vid":"2739036","name":"Niki Daniel","party":"Rep","address":"89 W 2000 N, Orem, UT 84057","precinct":"25OR03","hd":"58","v_score":"4.069929862","decile":"7","lat":40.333642014365786,"lng":-111.69870563063456,"phone":"(270) 987-9754","sd":"23","ssbd":"12","lsbd":"School Board Timpanogos 5"},{"vid":"2786191","name":"Leisha Turner","party":"Dem","address":"133 W 2000 N, Orem, UT 84057","precinct":"25OR03","hd":"58","v_score":"1.193887297","decile":"4","lat":40.333565101930226,"lng":-111.69956000449716,"phone":"(937) 122-5276","sd":"23","ssbd":"12","lsbd":"School Board Timpanogos 5"},{"vid":"2798674","name":"Mr. Fritz Kerluke","party":"","address":"1896 N 135 W, Orem, UT 84057","precinct":"25OR03","hd":"58","v_score":"1.193887297","decile":"4","lat":40.33211876663455,"lng":-111.69911410880128,"phone":"(771) 477-2559","sd":"23","ssbd":"12","lsbd":"School Board Timpanogos 5"},{"vid":"2808753","name":"Dr. Ezekiel Walsh Sr.","party":"","address":"1934 N 90 W, Orem, UT 84057","precinct":"25OR03","hd":"58","v_score":"4.069929862","decile":"7","lat":40.332303938866595,"lng":-111.6973542861096,"phone":"(582) 980-4607","sd":"23","ssbd":"12","lsbd":"School Board Timpanogos 5"},{"vid":"2825566","name":"Dr. Vincenza McGlynn","party":"","address":"141 W 1960 N, Orem, UT 84057","precinct":"25OR03","hd":"58","v_score":"1.193887297","decile":"4","lat":40.3326057448736,"lng":-111.69985948873929,"phone":"(292) 471-0569","sd":"23","ssbd":"12","lsbd":"School Board Timpanogos 5"},{"vid":"2839272","name":"Jaylyn Jacobson","party":"","address":"24 W 1880 N, Orem, UT 84057","precinct":"25OR03","hd":"58","v_score":"1.193887297","decile":"4","lat":40.331357365263685,"lng":-111.69697860968523,"phone":"(948) 938-9310","sd":"23","ssbd":"12","lsbd":"School Board Timpanogos 5"},{"vid":"2861409","name":"Peggie Keeling","party":"","address":"1976 N 85 W, Orem, UT 84057","precinct":"25OR03","hd":"58","v_score":"0","decile":"2","lat":40.333348168708035,"lng":-111.6981119074849,"phone":"(513) 670-8704","sd":"23","ssbd":"12","lsbd":"School Board Timpanogos 5"},{"vid":"2894301","name":"Ximena Hessel DVM","party":"","address":"147 W 2000 N, Orem, UT 84057","precinct":"25OR03","hd":"58","v_score":"7.090117576","decile":"8","lat":40.33356358047179,"lng":-111.6998618264551,"phone":"(363) 165-6486","sd":"23","ssbd":"12","lsbd":"School Board Timpanogos 5"},{"vid":"2900760","name":"Alfred Connelly","party":"Dem","address":"1976 N 85 W, Orem, UT 84057","precinct":"25OR03","hd":"58","v_score":"0","decile":"2","lat":40.333348168708035,"lng":-111.6981119074849,"phone":"(435) 235-0213","sd":"23","ssbd":"12","lsbd":"School Board Timpanogos 5"},{"vid":"2978295","name":"Lamont Kautzer-Zieme","party":"Rep","address":"61 W 2000 N, Orem, UT 84057","precinct":"25OR03","hd":"58","v_score":"0","decile":"2","lat":40.33361707363751,"lng":-111.69750702419108,"phone":"(721) 023-0115","sd":"23","ssbd":"12","lsbd":"School Board Timpanogos 5"},{"vid":"5c1788b63200b571918ad816e2068b6f587c98c885915a3cdb20df59450c0297","name":"Corbin Heaney-Green","party":"Dem","address":"1914 N 50 W, Orem, UT 84057","precinct":"25OR03","hd":"58","v_score":"38.24567755","decile":"10","lat":40.331932445856125,"lng":-111.69710439872622,"phone":"(932) 853-1866","sd":"23","ssbd":"12","lsbd":"School Board Timpanogos 5"},{"vid":"3458455","name":"Lucian Johns DVM","party":"Dem","address":"1976 N 85 W, Orem, UT 84057","precinct":"25OR03","hd":"58","v_score":"3.93832808","decile":"6","lat":40.333348168708035,"lng":-111.6981119074849,"phone":"(779) 223-1105","sd":"23","ssbd":"12","lsbd":"School Board Timpanogos 5"},{"vid":"4307152","name":"Guido Windler","party":"Rep","address":"106 W 1960 N, Orem, UT 84057","precinct":"25OR03","hd":"58","v_score":"0","decile":"2","lat":40.33304310345971,"lng":-111.6991016980931,"phone":"(378) 892-4927","sd":"23","ssbd":"12","lsbd":"School Board Timpanogos 5"},{"vid":"5311190","name":"Cortney Brakus","party":"Dem","address":"140 W 1960 N, Orem, UT 84057","precinct":"25OR03","hd":"58","v_score":"6.027167436","decile":"7","lat":40.333309449866526,"lng":-111.69972507262558,"phone":"(302) 633-7536","sd":"23","ssbd":"12","lsbd":"School Board Timpanogos 5"},{"vid":"6170698","name":"Beau Hegmann","party":"Dem","address":"1988 N 180 W, Orem, UT 84057","precinct":"25OR03","hd":"58","v_score":"17.75698939","decile":"10","lat":40.333579116785145,"lng":-111.70024823146834,"phone":"(482) 492-1828","sd":"23","ssbd":"12","lsbd":"School Board Timpanogos 5"},{"vid":"6170735","name":"Ruth Conn","party":"Dem","address":"1896 N 135 W, Orem, UT 84057","precinct":"25OR03","hd":"58","v_score":"2.315214949","decile":"5","lat":40.33211876663455,"lng":-111.69911410880128,"phone":"(499) 554-8829","sd":"23","ssbd":"12","lsbd":"School Board Timpanogos 5"},{"vid":"6170849","name":"Consuelo Hahn-Ledner","party":"Rep","address":"1988 N 180 W, Orem, UT 84057","precinct":"25OR03","hd":"58","v_score":"17.75698939","decile":"10","lat":40.333579116785145,"lng":-111.70024823146834,"phone":"(320) 665-8199","sd":"23","ssbd":"12","lsbd":"School Board Timpanogos 5"},{"vid":"6207379","name":"Mr. Reese Dickinson","party":"","address":"1948 N 85 W, Orem, UT 84057","precinct":"25OR03","hd":"58","v_score":"1.193887297","decile":"4","lat":40.33293414509511,"lng":-111.69821515165913,"phone":"(277) 592-1981","sd":"23","ssbd":"12","lsbd":"School Board Timpanogos 5"},{"vid":"6220012","name":"Evalyn Ruecker MD","party":"","address":"105 W 2000 N, Orem, UT 84057","precinct":"25OR03","hd":"58","v_score":"5.815909755","decile":"7","lat":40.33357702011526,"lng":-111.6989265186973,"phone":"(266) 619-6506","sd":"23","ssbd":"12","lsbd":"School Board Timpanogos 5"},{"vid":"6229510","name":"Kenyatta Renner","party":"Rep","address":"153 W 1960 N, Orem, UT 84057","precinct":"25OR03","hd":"58","v_score":"18.74706992","decile":"10","lat":40.332802769690005,"lng":-111.69996870276744,"phone":"(143) 948-0683","sd":"23","ssbd":"12","lsbd":"School Board Timpanogos 5"},{"vid":"6237521","name":"Tanesha Nolan MD","party":"Dem","address":"133 W 2000 N, Orem, UT 84057","precinct":"25OR03","hd":"58","v_score":"5.40460374","decile":"7","lat":40.333565101930226,"lng":-111.69956000449716,"phone":"(939) 560-9430","sd":"23","ssbd":"12","lsbd":"School Board Timpanogos 5"},{"vid":"6237840","name":"Therman Will","party":"Rep","address":"1935 N 90 W, Orem, UT 84057","precinct":"25OR03","hd":"58","v_score":"43.51438145","decile":"10","lat":40.33267254275315,"lng":-111.69766933305422,"phone":"(173) 369-8868","sd":"23","ssbd":"12","lsbd":"School Board Timpanogos 5"},{"vid":"6256698","name":"Shiela Koss","party":"Dem","address":"105 W 2000 N, Orem, UT 84057","precinct":"25OR03","hd":"58","v_score":"7.282185415","decile":"8","lat":40.33357702011526,"lng":-111.6989265186973,"phone":"(754) 404-8545","sd":"23","ssbd":"12","lsbd":"School Board Timpanogos 5"},{"vid":"6288259","name":"Shelvia Beahan","party":"Rep","address":"1918 N 180 W, Orem, UT 84057","precinct":"25OR03","hd":"58","v_score":"0","decile":"3","lat":40.332333878624894,"lng":-111.70030416433181,"phone":"(104) 855-4196","sd":"23","ssbd":"12","lsbd":"School Board Timpanogos 5"},{"vid":"6343171","name":"Gretchen Smith","party":"","address":"152 W 1960 N, Orem, UT 84057","precinct":"25OR03","hd":"58","v_score":"23.48004472","decile":"10","lat":40.333307973826,"lng":-111.70001792730092,"phone":"(670) 033-5650","sd":"23","ssbd":"12","lsbd":"School Board Timpanogos 5"},{"vid":"6408447","name":"Royce Friesen","party":"Rep","address":"141 W 1960 N, Orem, UT 84057","precinct":"25OR03","hd":"58","v_score":"32.28617871","decile":"10","lat":40.3326057448736,"lng":-111.69985948873929,"phone":"(918) 442-8950","sd":"23","ssbd":"12","lsbd":"School Board Timpanogos 5"},{"vid":"6458349","name":"Dr. Pablo Goyette III","party":"Dem","address":"1922 N 135 W, Orem, UT 84057","precinct":"25OR03","hd":"58","v_score":"2.315214949","decile":"5","lat":40.332499945074616,"lng":-111.69911080201284,"phone":"(257) 797-0529","sd":"23","ssbd":"12","lsbd":"School Board Timpanogos 5"},{"vid":"6466065","name":"Maximo Breitenberg-Lebsack","party":"Dem","address":"152 W 1960 N, Orem, UT 84057","precinct":"25OR03","hd":"58","v_score":"23.48004472","decile":"10","lat":40.333307973826,"lng":-111.70001792730092,"phone":"(300) 024-5607","sd":"23","ssbd":"12","lsbd":"School Board Timpanogos 5"},{"vid":"94f23a7228ec964a8aaa34ca92ecfee15171d5ed33591e91d90f5f6a96509a4e","name":"Barney O'Kon-Bogan","party":"","address":"153 W 1960 N, Orem, UT 84057","precinct":"25OR03","hd":"58","v_score":"2.315214949","decile":"5","lat":40.332802769690005,"lng":-111.69996870276744,"phone":"(950) 944-4143","sd":"23","ssbd":"12","lsbd":"School Board Timpanogos 5"},{"vid":"6481948","name":"Miss Elfie Koch","party":"Rep","address":"152 W 1960 N, Orem, UT 84057","precinct":"25OR03","hd":"58","v_score":"23.48004472","decile":"10","lat":40.333307973826,"lng":-111.70001792730092,"phone":"(728) 326-1139","sd":"23","ssbd":"12","lsbd":"School Board Timpanogos 5"},{"vid":"e8c4ebce48adec7b7625423b2ede0e7cb784aff85cc5bb22d7743d2c6ec45a8e","name":"Herschel Russel-Mills","party":"Rep","address":"1909 N 90 W, Orem, UT 84057","precinct":"25OR03","hd":"58","v_score":"5.191257514","decile":"7","lat":40.332156568778196,"lng":-111.69867729976421,"phone":"(350) 954-9806","sd":"23","ssbd":"12","lsbd":"School Board Timpanogos 5"},{"vid":"eaa77982de77f2a9d30ba2e154a77458c7e470ff39d01e196257861234e7daf8","name":"Pattie Howell DVM","party":"","address":"1918 N 90 W, Orem, UT 84057","precinct":"25OR03","hd":"58","v_score":"11.1324014","decile":"9","lat":40.33217370842543,"lng":-111.69795326991274,"phone":"(250) 294-0160","sd":"23","ssbd":"12","lsbd":"School Board Timpanogos 5"},{"vid":"6531144","name":"Joette Macejkovic-Beatty","party":"Rep","address":"122 W 1880 N, Orem, UT 84057","precinct":"25OR03","hd":"58","v_score":"2.587603312","decile":"5","lat":40.33189072684995,"lng":-111.69902197681625,"phone":"(600) 891-2274","sd":"23","ssbd":"12","lsbd":"School Board Timpanogos 5"}]