[{"id":"85","name":"Esco Wehner-Kirlin","party":"Rep","address":"380 E 1200 N, Orem, UT 84057","precinct":"25OR13","hd":"58","v_score":"3.93832808","decile":"6","lat":40.319198701092,"lng":-111.686868824585},{"id":"349","name":"Joselyn Runolfsdottir","party":"","address":"160 E 1200 N, Orem, UT 84057","precinct":"25OR13","hd":"58","v_score":"36.49741484","decile":"10","lat":40.319189701499,"lng":-111.692171551944},{"id":"471","name":"Patric Yost","party":"Rep","address":"883 N 235 E, Orem, UT 84057","precinct":"25OR13","hd":"58","v_score":"3.781490609","decile":"6","lat":40.313186483328,"lng":-111.690243670372},{"id":"519","name":"Marchello Gutmann","party":"","address":"1036 N 250 E, Orem, UT 84057","precinct":"25OR13","hd":"58","v_score":"3.781490609","decile":"6","lat":40.316149292928,"lng":-111.689803605137},{"id":"825","name":"Hope Bernier","party":"","address":"836 N 235 E, Orem, UT 84057","precinct":"25OR13","hd":"58","v_score":"1.193887297","decile":"3","lat":40.312437113389,"lng":-111.690077639821},{"id":"1345","name":"Corrine Harvey","party":"Dem","address":"259 E 1090 N, Orem, UT 84057","precinct":"25OR13","hd":"58","v_score":"13.75326469","decile":"9","lat":40.317139947162,"lng":-111.689274905404},{"id":"1637","name":"Bjorn Trantow","party":"Dem","address":"358 E 1200 N, Orem, UT 84057","precinct":"25OR13","hd":"58","v_score":"0","decile":"1","lat":40.319198701132,"lng":-111.687391707573},{"id":"3849","name":"Dillon Roberts-Murray","party":"Rep","address":"965 N 350 E, Orem, UT 84057","precinct":"25OR13","hd":"58","v_score":"14.95117867","decile":"9","lat":40.314913189789,"lng":-111.6875521965},{"id":"4687","name":"Mr. Landan Franecki I","party":"Rep","address":"883 N 350 E, Orem, UT 84057","precinct":"25OR13","hd":"58","v_score":"4.465184987","decile":"7","lat":40.313419700415,"lng":-111.68754092203},{"id":"4856","name":"Admiral Ondricka","party":"Rep","address":"349 E 1040 N, Orem, UT 84057","precinct":"25OR13","hd":"58","v_score":"20.05083686","decile":"10","lat":40.316397292858,"lng":-111.687518259665},{"id":"5388","name":"Dr. Izora Russel DVM","party":"Rep","address":"997 N 400 E, Orem, UT 84097","precinct":"25OR13","hd":"58","v_score":"3.93832808","decile":"6","lat":40.315500419406,"lng":-111.686362428015},{"id":"5841","name":"Cayla Schuppe","party":"Rep","address":"856 N 350 E, Orem, UT 84057","precinct":"25OR13","hd":"58","v_score":"8.280646305","decile":"8","lat":40.31308323819,"lng":-111.687387362727},{"id":"5893","name":"Mr. Madden Koepp","party":"Dem","address":"967 N 250 E, Orem, UT 84057","precinct":"25OR13","hd":"58","v_score":"12.05946382","decile":"9","lat":40.315317262227,"lng":-111.689951006097},{"id":"6040","name":"Marlene Kutch","party":"Dem","address":"891 N 235 E, Orem, UT 84057","precinct":"25OR13","hd":"58","v_score":"0","decile":"1","lat":40.311943190249,"lng":-111.690067420787},{"id":"6061","name":"Taraji McKenzie","party":"","address":"1050 N 200 E, Orem, UT 84057","precinct":"25OR13","hd":"58","v_score":"3.93832808","decile":"6","lat":40.316371888024,"lng":-111.69101990758},{"id":"6434","name":"Samual Rodriguez","party":"","address":"151 E 1060 N, Orem, UT 84057","precinct":"25OR13","hd":"58","v_score":"14.63972567","decile":"9","lat":40.316662713244,"lng":-111.692383462104},{"id":"6978","name":"Jenniffer McCullough","party":"Dem","address":"1118 N 520 E, Orem, UT 84097","precinct":"25OR13","hd":"58","v_score":"5.40460374","decile":"7","lat":40.317435250216,"lng":-111.683473720739},{"id":"6989","name":"Adele Kling","party":"","address":"1118 N 520 E, Orem, UT 84097","precinct":"25OR13","hd":"58","v_score":"5.40460374","decile":"7","lat":40.317435250216,"lng":-111.683473720739},{"id":"7019","name":"Roby Trantow-Durgan","party":"Rep","address":"957 N 200 E, Orem, UT 84057","precinct":"25OR13","hd":"58","v_score":"26.9144526","decile":"10","lat":40.314631658689,"lng":-111.691151134556},{"id":"7055","name":"Winfred Rau","party":"","address":"146 E 1020 N, Orem, UT 84057","precinct":"25OR13","hd":"58","v_score":"5.40460374","decile":"7","lat":40.315895701852,"lng":-111.691871834648},{"id":"7144","name":"Hannah O'Conner","party":"","address":"491 E 1090 N, Orem, UT 84097","precinct":"25OR13","hd":"58","v_score":"18.27911851","decile":"10","lat":40.317369292466,"lng":-111.683839280203},{"id":"7445","name":"Keyshawn Littel","party":"Dem","address":"867 N 235 E, Orem, UT 84057","precinct":"25OR13","hd":"58","v_score":"9.207031979","decile":"8","lat":40.312949809039,"lng":-111.690238543002},{"id":"7906","name":"Glynis Gleason","party":"Rep","address":"376 E 1090 N, Orem, UT 84057","precinct":"25OR13","hd":"58","v_score":"1.121327652","decile":"3","lat":40.317022879,"lng":-111.686883540785},{"id":"7959","name":"Brittny Emmerich","party":"Dem","address":"1114 N 140 E, Orem, UT 84057","precinct":"25OR13","hd":"58","v_score":"21.24900695","decile":"10","lat":40.317583350904,"lng":-111.692408870278},{"id":"8585","name":"Gilmore Moore-Reichel","party":"Rep","address":"587 E 950 N, Orem, UT 84097","precinct":"25OR13","hd":"58","v_score":"1.193887297","decile":"3","lat":40.314801197118,"lng":-111.681818409287},{"id":"8805","name":"Irvine Streich","party":"Rep","address":"1169 N 200 E, Orem, UT 84057","precinct":"25OR13","hd":"58","v_score":"28.6662113","decile":"10","lat":40.318474993539,"lng":-111.691204080992},{"id":"8851","name":"Ritchie Wilkinson-Fahey","party":"","address":"872 N 200 E, Orem, UT 84057","precinct":"25OR13","hd":"58","v_score":"0","decile":"1","lat":40.313256469441,"lng":-111.690985371362},{"id":"9186","name":"Dr. Eduardo Lakin DVM","party":"Rep","address":"1192 N 475 E, Orem, UT 84097","precinct":"25OR13","hd":"58","v_score":"2.817000428","decile":"6","lat":40.319054285671,"lng":-111.684520110645},{"id":"9268","name":"Andon Labadie","party":"","address":"291 E 1090 N, Orem, UT 84057","precinct":"25OR13","hd":"58","v_score":"2.315214949","decile":"5","lat":40.317142976289,"lng":-111.688865969122},{"id":"9739","name":"Shawnte Bosco","party":"Dem","address":"1007 N 475 E, Orem, UT 84097","precinct":"25OR13","hd":"58","v_score":"6.528952915","decile":"7","lat":40.315782711248,"lng":-111.684495059427},{"id":"10038","name":"Roena Davis","party":"Dem","address":"305 E 1090 N, Orem, UT 84057","precinct":"25OR13","hd":"58","v_score":"2.587603312","decile":"5","lat":40.317143663891,"lng":-111.688521319225},{"id":"10464","name":"Robbin Rau","party":"Rep","address":"957 N Garden Dr, Orem, UT 84057","precinct":"25OR13","hd":"58","v_score":"7.47704845","decile":"8","lat":40.314443454616,"lng":-111.69210919601},{"id":"10969","name":"Evans Ferry","party":"Dem","address":"1077 N 400 E, Orem, UT 84097","precinct":"25OR13","hd":"58","v_score":"1.121327652","decile":"3","lat":40.31678370385,"lng":-111.686378922621},{"id":"11103","name":"Dr. Calhoun Becker DDS","party":"Rep","address":"142 E 1020 N, Orem, UT 84057","precinct":"25OR13","hd":"58","v_score":"1.121327652","decile":"3","lat":40.315895701856,"lng":-111.691926129081},{"id":"11115","name":"Denzell Purdy","party":"Dem","address":"326 E 1000 N, Orem, UT 84057","precinct":"25OR13","hd":"58","v_score":"8.280646305","decile":"8","lat":40.315531532301,"lng":-111.688036010294},{"id":"11306","name":"Jami Lang MD","party":"","address":"1152 N 400 E, Orem, UT 84097","precinct":"25OR13","hd":"58","v_score":"6.884189957","decile":"8","lat":40.31828133472,"lng":-111.686250446711},{"id":"11335","name":"Lesly Sauer","party":"Rep","address":"835 N 235 E, Orem, UT 84057","precinct":"25OR13","hd":"58","v_score":"17.26130269","decile":"9","lat":40.312460875021,"lng":-111.690228427191},{"id":"11684","name":"Eli Larkin PhD","party":"Rep","address":"1170 N 520 E, Orem, UT 84097","precinct":"25OR13","hd":"58","v_score":"9.405332525","decile":"8","lat":40.317557743233,"lng":-111.683473720723},{"id":"12276","name":"Katelyn Hills","party":"Dem","address":"199 E 865 N, Orem, UT 84057","precinct":"25OR13","hd":"58","v_score":"19.49429204","decile":"10","lat":40.313140631007,"lng":-111.691132708209},{"id":"13500","name":"Mozelle Howell","party":"","address":"1162 N 140 E, Orem, UT 84057","precinct":"25OR13","hd":"58","v_score":"26.58953925","decile":"10","lat":40.318079811849,"lng":-111.692319718932},{"id":"14072","name":"Stephany Aufderhar DDS","party":"Rep","address":"1035 N 250 E, Orem, UT 84057","precinct":"25OR13","hd":"58","v_score":"14.45484031","decile":"9","lat":40.316120637299,"lng":-111.689953745361},{"id":"14223","name":"Hoyt Hackett","party":"Rep","address":"1046 N 200 E, Orem, UT 84057","precinct":"25OR13","hd":"58","v_score":"3.93832808","decile":"6","lat":40.316311694748,"lng":-111.691019305655},{"id":"14491","name":"Clemence Sanford","party":"","address":"334 E 1040 N, Orem, UT 84057","precinct":"25OR13","hd":"58","v_score":"6.52928996","decile":"7","lat":40.316282701499,"lng":-111.687838790044},{"id":"14546","name":"Devonta Leannon","party":"Dem","address":"980 N 200 E, Orem, UT 84057","precinct":"25OR13","hd":"58","v_score":"19.30937315","decile":"10","lat":40.315272836723,"lng":-111.691007441402},{"id":"14698","name":"Jimmy Wehner IV","party":"","address":"1021 N 560 E, Orem, UT 84097","precinct":"25OR13","hd":"58","v_score":"0","decile":"1","lat":40.316241903464,"lng":-111.682555635389},{"id":"14720","name":"Bryana Hartmann-Jacobs","party":"","address":"1000 N 560 E, Orem, UT 84097","precinct":"25OR13","hd":"58","v_score":"14.58356067","decile":"9","lat":40.316001181183,"lng":-111.682404210173},{"id":"14838","name":"Belinda Hand","party":"","address":"274 E 1165 N, Orem, UT 84057","precinct":"25OR13","hd":"58","v_score":"2.315214949","decile":"5","lat":40.318477750921,"lng":-111.688691087578},{"id":"15205","name":"Maximiliano Runolfsson","party":"Dem","address":"1128 N 475 E, Orem, UT 84097","precinct":"25OR13","hd":"58","v_score":"2.315214949","decile":"5","lat":40.317937496755,"lng":-111.684526719719},{"id":"15796","name":"Noelia Haag","party":"Rep","address":"853 N 235 E, Orem, UT 84057","precinct":"25OR13","hd":"58","v_score":"0","decile":"1","lat":40.312735900406,"lng":-111.690234117335},{"id":"16175","name":"Edie Homenick DDS","party":"Dem","address":"1170 N 520 E, Orem, UT 84097","precinct":"25OR13","hd":"58","v_score":"12.49472132","decile":"9","lat":40.317557743233,"lng":-111.683473720723},{"id":"16420","name":"Verlie Schaden","party":"Rep","address":"1065 N 250 E, Orem, UT 84057","precinct":"25OR13","hd":"58","v_score":"8.280646305","decile":"8","lat":40.316534053826,"lng":-111.689970628356},{"id":"16676","name":"Margret Will-Hegmann","party":"","address":"893 N 235 E, Orem, UT 84057","precinct":"25OR13","hd":"58","v_score":"2.315214949","decile":"5","lat":40.312279332386,"lng":-111.690074375407},{"id":"16701","name":"Hurley Gaylord","party":"Dem","address":"334 E 1040 N, Orem, UT 84057","precinct":"25OR13","hd":"58","v_score":"6.52928996","decile":"7","lat":40.316282701499,"lng":-111.687838790044},{"id":"17239","name":"Dr. Kelan Orn","party":"Rep","address":"589 E 1050 N, Orem, UT 84097","precinct":"25OR13","hd":"58","v_score":"4.064235245","decile":"6","lat":40.316694292387,"lng":-111.681805065464},{"id":"17480","name":"Kaeden Purdy","party":"","address":"264 E 1090 N, Orem, UT 84057","precinct":"25OR13","hd":"58","v_score":"5.40460374","decile":"7","lat":40.317025929139,"lng":-111.689196769889},{"id":"17481","name":"Karyme Simonis-Bartoletti","party":"Dem","address":"1049 N 140 E, Orem, UT 84057","precinct":"25OR13","hd":"58","v_score":"2.958579882","decile":"6","lat":40.316425003289,"lng":-111.692715565619},{"id":"17541","name":"Anona Parisian","party":"","address":"999 N 600 E, Orem, UT 84097","precinct":"25OR13","hd":"58","v_score":"18.35167816","decile":"10","lat":40.315379200503,"lng":-111.681567554159},{"id":"18058","name":"Joselyn Bartell","party":"Rep","address":"1029 N 520 E, Orem, UT 84097","precinct":"25OR13","hd":"58","v_score":"6.814370645","decile":"8","lat":40.316265104399,"lng":-111.683561008643},{"id":"18212","name":"Adelaide Marquardt","party":"","address":"305 E 1090 N, Orem, UT 84057","precinct":"25OR13","hd":"58","v_score":"2.587603312","decile":"5","lat":40.317143663891,"lng":-111.688521319225},{"id":"18230","name":"Leandro Will","party":"Dem","address":"587 E 950 N, Orem, UT 84097","precinct":"25OR13","hd":"58","v_score":"2.315214949","decile":"5","lat":40.314801197118,"lng":-111.681818409287},{"id":"18375","name":"Salvatore Welch","party":"","address":"1152 N 475 E, Orem, UT 84097","precinct":"25OR13","hd":"58","v_score":"16.95363675","decile":"9","lat":40.318035292443,"lng":-111.684526719706},{"id":"18434","name":"Geraldine Anderson","party":"Dem","address":"936 N Garden Dr, Orem, UT 84057","precinct":"25OR13","hd":"58","v_score":"0","decile":"1","lat":40.314712250563,"lng":-111.692008416742},{"id":"18570","name":"Christophe Heidenreich Sr.","party":"","address":"933 N Garden Dr, Orem, UT 84057","precinct":"25OR13","hd":"58","v_score":"14.24189593","decile":"9","lat":40.314746293584,"lng":-111.692166735368},{"id":"18929","name":"Ilona Jakubowski","party":"Rep","address":"957 N Garden Dr, Orem, UT 84057","precinct":"25OR13","hd":"58","v_score":"2.744440783","decile":"5","lat":40.314443454616,"lng":-111.69210919601},{"id":"19792","name":"Ms. Savilla Ratke","party":"Rep","address":"882 N 350 E, Orem, UT 84057","precinct":"25OR13","hd":"58","v_score":"11.50568204","decile":"9","lat":40.313420551477,"lng":-111.687390648201},{"id":"20473","name":"Presley Emard","party":"Dem","address":"1022 N 560 E, Orem, UT 84097","precinct":"25OR13","hd":"58","v_score":"2.315214949","decile":"5","lat":40.316266431192,"lng":-111.682405467248},{"id":"20953","name":"Imani Kuhn","party":"Dem","address":"375 E 900 N, Orem, UT 84057","precinct":"25OR13","hd":"58","v_score":"0","decile":"1","lat":40.313746790391,"lng":-111.686863847742},{"id":"21226","name":"Kit Wolff","party":"","address":"347 E 1090 N, Orem, UT 84057","precinct":"25OR13","hd":"58","v_score":"15.53273099","decile":"9","lat":40.317140050186,"lng":-111.687565513763},{"id":"21597","name":"Lorri Willms PhD","party":"","address":"258 E 1140 N, Orem, UT 84057","precinct":"25OR13","hd":"58","v_score":"11.04986408","decile":"9","lat":40.317752028846,"lng":-111.689619715278},{"id":"21647","name":"Miss Latifah Oberbrunner","party":"Rep","address":"366 E 1040 N, Orem, UT 84057","precinct":"25OR13","hd":"58","v_score":"27.37702365","decile":"10","lat":40.316282701443,"lng":-111.687106149212},{"id":"21716","name":"Mr. Matteo Prohaska","party":"Dem","address":"1023 N 250 E, Orem, UT 84057","precinct":"25OR13","hd":"58","v_score":"1.193887297","decile":"3","lat":40.315951378183,"lng":-111.689952881816},{"id":"21776","name":"Anders Koss","party":"","address":"344 E 1165 N, Orem, UT 84057","precinct":"25OR13","hd":"58","v_score":"2.315214949","decile":"5","lat":40.318493031188,"lng":-111.687399896756},{"id":"21847","name":"Charleen Dietrich-Wisozk","party":"Dem","address":"347 E 1090 N, Orem, UT 84057","precinct":"25OR13","hd":"58","v_score":"18.21927925","decile":"10","lat":40.317140050186,"lng":-111.687565513763},{"id":"21889","name":"Cordaro Hoppe-Mills","party":"Dem","address":"142 E 1020 N, Orem, UT 84057","precinct":"25OR13","hd":"58","v_score":"6.45639327","decile":"7","lat":40.315895701856,"lng":-111.691926129081},{"id":"21890","name":"Mr. Ewell Adams","party":"Rep","address":"882 N 300 E, Orem, UT 84057","precinct":"25OR13","hd":"58","v_score":"0","decile":"1","lat":40.313031117545,"lng":-111.688530361617},{"id":"21937","name":"Vernelle Reynolds-Cummerata","party":"","address":"276 E 1200 N, Orem, UT 84057","precinct":"25OR13","hd":"58","v_score":"35.30276996","decile":"10","lat":40.319198701276,"lng":-111.689264446644},{"id":"22139","name":"Almus Huels","party":"Dem","address":"1162 N 140 E, Orem, UT 84057","precinct":"25OR13","hd":"58","v_score":"9.509645007","decile":"8","lat":40.318079811849,"lng":-111.692319718932},{"id":"22364","name":"Azzie Hilpert-Mohr","party":"Dem","address":"1114 N 200 E, Orem, UT 84057","precinct":"25OR13","hd":"58","v_score":"1.193887297","decile":"3","lat":40.317334980449,"lng":-111.691029538377},{"id":"22885","name":"Dr. Makenzie Crona DDS","party":"","address":"920 N 275 E, Orem, UT 84057","precinct":"25OR13","hd":"58","v_score":"0","decile":"1","lat":40.313638356761,"lng":-111.689172414011},{"id":"22936","name":"Harlow Strosin-Becker","party":"Rep","address":"1092 N 140 E, Orem, UT 84057","precinct":"25OR13","hd":"58","v_score":"14.52230958","decile":"9","lat":40.317404966056,"lng":-111.692443803998},{"id":"22972","name":"Byron Klein V","party":"Rep","address":"325 E 900 N, Orem, UT 84057","precinct":"25OR13","hd":"58","v_score":"3.93832808","decile":"6","lat":40.31374783387,"lng":-111.687703613918},{"id":"23143","name":"Mavis Ruecker","party":"","address":"887 N 275 E, Orem, UT 84057","precinct":"25OR13","hd":"58","v_score":"3.93832808","decile":"6","lat":40.313477756024,"lng":-111.689315891765},{"id":"23213","name":"Aryanna Macejkovic","party":"","address":"169 E 1130 N, Orem, UT 84057","precinct":"25OR13","hd":"58","v_score":"6.881235673","decile":"8","lat":40.317813241441,"lng":-111.691547849175},{"id":"23927","name":"Mrs. Bird Ratke","party":"Dem","address":"916 N 350 E, Orem, UT 84057","precinct":"25OR13","hd":"58","v_score":"3.93832808","decile":"6","lat":40.314035403075,"lng":-111.687395702615},{"id":"24188","name":"Demarion Hickle Jr.","party":"Dem","address":"156 E 1020 N, Orem, UT 84057","precinct":"25OR13","hd":"58","v_score":"45.09250101","decile":"10","lat":40.315895701841,"lng":-111.691736098567},{"id":"24353","name":"Georgine Spinka","party":"Rep","address":"1143 N 200 E, Orem, UT 84057","precinct":"25OR13","hd":"58","v_score":"0","decile":"1","lat":40.317856633089,"lng":-111.691186904395},{"id":"24405","name":"Alvia Bins","party":"Dem","address":"291 E 1090 N, Orem, UT 84057","precinct":"25OR13","hd":"58","v_score":"2.744440783","decile":"5","lat":40.317142976289,"lng":-111.688865969122},{"id":"24911","name":"Arjun Hilll","party":"","address":"298 E 1165 N, Orem, UT 84057","precinct":"25OR13","hd":"58","v_score":"13.91847152","decile":"9","lat":40.31848298987,"lng":-111.688248393582},{"id":"25005","name":"Emil Rempel-Ward","party":"","address":"1051 N 140 E, Orem, UT 84057","precinct":"25OR13","hd":"58","v_score":"18.35167816","decile":"10","lat":40.316442563641,"lng":-111.692717580739},{"id":"25006","name":"Rowena Welch MD","party":"Rep","address":"1051 N 140 E, Orem, UT 84057","precinct":"25OR13","hd":"58","v_score":"18.35167816","decile":"10","lat":40.316442563641,"lng":-111.692717580739},{"id":"25062","name":"Felice Rolfson","party":"","address":"856 N 275 E, Orem, UT 84057","precinct":"25OR13","hd":"58","v_score":"3.93832808","decile":"6","lat":40.31302456226,"lng":-111.689158440352},{"id":"25374","name":"Alferd Hackett","party":"","address":"848 N 200 E, Orem, UT 84057","precinct":"25OR13","hd":"58","v_score":"18.1905579","decile":"10","lat":40.312754593775,"lng":-111.69098053056},{"id":"25452","name":"Jessi Trantow","party":"Dem","address":"990 N 350 E, Orem, UT 84057","precinct":"25OR13","hd":"58","v_score":"3.93832808","decile":"6","lat":40.315389610677,"lng":-111.687405284095},{"id":"25669","name":"Lawyer Larkin","party":"Rep","address":"225 E 905 N, Orem, UT 84057","precinct":"25OR13","hd":"58","v_score":"1.121327652","decile":"3","lat":40.313877293391,"lng":-111.690731282324},{"id":"25713","name":"Johnna Stokes MD","party":"Rep","address":"1169 N 200 E, Orem, UT 84057","precinct":"25OR13","hd":"58","v_score":"10.36948566","decile":"9","lat":40.318474993539,"lng":-111.691204080992},{"id":"26137","name":"Ruth Predovic","party":"","address":"385 E 1000 N, Orem, UT 84057","precinct":"25OR13","hd":"58","v_score":"3.343857335","decile":"6","lat":40.315660669788,"lng":-111.686795139401},{"id":"26163","name":"Davonta Goodwin","party":"Rep","address":"450 E 1200 N, Orem, UT 84097","precinct":"25OR13","hd":"58","v_score":"2.587603312","decile":"5","lat":40.319200097477,"lng":-111.685162468824},{"id":"26726","name":"Young Kuhn","party":"Rep","address":"587 E 950 N, Orem, UT 84097","precinct":"25OR13","hd":"58","v_score":"2.958579882","decile":"6","lat":40.314801197118,"lng":-111.681818409287},{"id":"26733","name":"Kylene Brown","party":"Rep","address":"1165 N 475 E, Orem, UT 84097","precinct":"25OR13","hd":"58","v_score":"2.587603312","decile":"5","lat":40.318035292454,"lng":-111.684677010319},{"id":"27103","name":"Dr. Oley Swaniawski Jr.","party":"Rep","address":"1163 N 600 E, Orem, UT 84097","precinct":"25OR13","hd":"58","v_score":"22.57788051","decile":"10","lat":40.318599995733,"lng":-111.681629385214},{"id":"27384","name":"Sharon Farrell I","party":"Rep","address":"835 N 350 E, Orem, UT 84057","precinct":"25OR13","hd":"58","v_score":"4.210716443","decile":"7","lat":40.312796968193,"lng":-111.687534856539},{"id":"27415","name":"Dr. Florian Jaskolski PhD","party":"Dem","address":"889 N 235 E, Orem, UT 84057","precinct":"25OR13","hd":"58","v_score":"13.76678889","decile":"9","lat":40.313305598636,"lng":-111.690235980021},{"id":"27436","name":"Deeann Williamson","party":"Rep","address":"891 N 235 E, Orem, UT 84057","precinct":"25OR13","hd":"58","v_score":"2.587603312","decile":"5","lat":40.311943190249,"lng":-111.690067420787},{"id":"27666","name":"Nikia Effertz","party":"","address":"870 N 235 E, Orem, UT 84057","precinct":"25OR13","hd":"58","v_score":"12.56158634","decile":"9","lat":40.312903596355,"lng":-111.690087291131},{"id":"28072","name":"Ima Brown","party":"","address":"879 N 275 E, Orem, UT 84057","precinct":"25OR13","hd":"58","v_score":"0","decile":"1","lat":40.313443391378,"lng":-111.689314418999},{"id":"28164","name":"Dr. Robin Ryan","party":"","address":"1065 N 250 E, Orem, UT 84057","precinct":"25OR13","hd":"58","v_score":"16.72856503","decile":"9","lat":40.316534053826,"lng":-111.689970628356},{"id":"28371","name":"Camilo Ledner","party":"Dem","address":"458 E 1200 N, Orem, UT 84097","precinct":"25OR13","hd":"58","v_score":"2.315214949","decile":"5","lat":40.319202501258,"lng":-111.684982184227},{"id":"28567","name":"Arnav McGlynn","party":"","address":"1046 N 200 E, Orem, UT 84057","precinct":"25OR13","hd":"58","v_score":"5.604194564","decile":"7","lat":40.316311694748,"lng":-111.691019305655},{"id":"28787","name":"Minerva Hegmann PhD","party":"Dem","address":"847 N 350 E, Orem, UT 84057","precinct":"25OR13","hd":"58","v_score":"8.363183621","decile":"8","lat":40.312952651248,"lng":-111.687536372912},{"id":"28893","name":"Geovanni Rempel","party":"","address":"182 E 910 N, Orem, UT 84057","precinct":"25OR13","hd":"58","v_score":"0","decile":"1","lat":40.313814705475,"lng":-111.691257519019},{"id":"28904","name":"Ingram Emard","party":"","address":"1162 N 140 E, Orem, UT 84057","precinct":"25OR13","hd":"58","v_score":"21.68369947","decile":"10","lat":40.318079811849,"lng":-111.692319718932},{"id":"29600","name":"Vara Mayert-Crooks","party":"Rep","address":"856 N 275 E, Orem, UT 84057","precinct":"25OR13","hd":"58","v_score":"3.93832808","decile":"6","lat":40.31302456226,"lng":-111.689158440352},{"id":"29958","name":"Miss Cher Rempel","party":"","address":"841 N 235 E, Orem, UT 84057","precinct":"25OR13","hd":"58","v_score":"0","decile":"1","lat":40.312552550149,"lng":-111.690230323905},{"id":"30369","name":"Dr. Karim Mueller","party":"Dem","address":"386 E 900 N, Orem, UT 84057","precinct":"25OR13","hd":"58","v_score":"3.781490609","decile":"6","lat":40.313634175105,"lng":-111.686597326042},{"id":"30633","name":"Fleming Okuneva","party":"Rep","address":"972 N 475 E, Orem, UT 84097","precinct":"25OR13","hd":"58","v_score":"2.744440783","decile":"5","lat":40.315145097345,"lng":-111.684343306861},{"id":"30754","name":"Renea Erdman","party":"Rep","address":"1165 N 140 E, Orem, UT 84057","precinct":"25OR13","hd":"58","v_score":"2.587603312","decile":"5","lat":40.318111407215,"lng":-111.692465877427},{"id":"30816","name":"Dr. Aletha Ward DDS","party":"","address":"198 E 910 N, Orem, UT 84057","precinct":"25OR13","hd":"58","v_score":"2.315214949","decile":"5","lat":40.313815916608,"lng":-111.691142460623},{"id":"31283","name":"Benjiman Nader","party":"","address":"1145 N 140 E, Orem, UT 84057","precinct":"25OR13","hd":"58","v_score":"18.36165583","decile":"10","lat":40.31794365108,"lng":-111.692494572574},{"id":"31306","name":"Brenda Okuneva MD","party":"Rep","address":"197 E 980 N, Orem, UT 84057","precinct":"25OR13","hd":"58","v_score":"6.724398202","decile":"8","lat":40.315272293266,"lng":-111.691176347418},{"id":"31595","name":"Mr. Mickey Jacobs Sr.","party":"Rep","address":"198 E 865 N, Orem, UT 84057","precinct":"25OR13","hd":"58","v_score":"6.724398202","decile":"8","lat":40.313026071609,"lng":-111.691136258276},{"id":"31602","name":"Carlton Cummings-Gibson","party":"Dem","address":"872 N 350 E, Orem, UT 84057","precinct":"25OR13","hd":"58","v_score":"9.600440767","decile":"8","lat":40.313290815597,"lng":-111.687389384557},{"id":"31620","name":"Jaimee VonRueden","party":"Dem","address":"276 E 1090 N, Orem, UT 84057","precinct":"25OR13","hd":"58","v_score":"6.299555799","decile":"7","lat":40.317027065061,"lng":-111.689043418783},{"id":"32172","name":"Miss Selma Macejkovic","party":"","address":"880 N 275 E, Orem, UT 84057","precinct":"25OR13","hd":"58","v_score":"18.81608303","decile":"10","lat":40.313472076217,"lng":-111.689165287724},{"id":"32577","name":"Mr. Chris Quitzon III","party":"","address":"199 E 910 N, Orem, UT 84057","precinct":"25OR13","hd":"58","v_score":"5.258122542","decile":"7","lat":40.313930497082,"lng":-111.691144535014},{"id":"32635","name":"Luverne Schimmel","party":"Rep","address":"577 E 1090 N, Orem, UT 84097","precinct":"25OR13","hd":"58","v_score":"28.10869664","decile":"10","lat":40.317378292329,"lng":-111.682066211204},{"id":"32898","name":"Tolbert Kunze DVM","party":"","address":"186 E 865 N, Orem, UT 84057","precinct":"25OR13","hd":"58","v_score":"1.193887297","decile":"3","lat":40.313026842185,"lng":-111.691179025065},{"id":"32943","name":"Braydon Glover","party":"Dem","address":"587 E 950 N, Orem, UT 84097","precinct":"25OR13","hd":"58","v_score":"2.587603312","decile":"5","lat":40.314801197118,"lng":-111.681818409287},{"id":"33495","name":"Miss Ason Miller PhD","party":"","address":"973 N Garden Dr, Orem, UT 84057","precinct":"25OR13","hd":"58","v_score":"14.22014046","decile":"9","lat":40.314241561971,"lng":-111.692070836437},{"id":"34228","name":"Toby Heidenreich","party":"Rep","address":"944 N Garden Dr, Orem, UT 84057","precinct":"25OR13","hd":"58","v_score":"0","decile":"1","lat":40.31461130424,"lng":-111.691989236956},{"id":"34783","name":"Mr. Savon Skiles I","party":"Rep","address":"1075 N 200 E, Orem, UT 84057","precinct":"25OR13","hd":"58","v_score":"3.781490609","decile":"6","lat":40.316732173975,"lng":-111.691173800866},{"id":"34844","name":"Mr. Oscar Rippin","party":"Rep","address":"861 N 400 E, Orem, UT 84097","precinct":"25OR13","hd":"58","v_score":"4.210716443","decile":"7","lat":40.312982521509,"lng":-111.68632233665},{"id":"35978","name":"Shaylee Franecki","party":"Rep","address":"1023 N 250 E, Orem, UT 84057","precinct":"25OR13","hd":"58","v_score":"5.40460374","decile":"7","lat":40.315951378183,"lng":-111.689952881816},{"id":"36620","name":"Miss Maudie Dicki","party":"Dem","address":"867 N 235 E, Orem, UT 84057","precinct":"25OR13","hd":"58","v_score":"5.273794831","decile":"7","lat":40.312949809039,"lng":-111.690238543002},{"id":"37105","name":"Brenden O'Keefe","party":"","address":"865 N 350 E, Orem, UT 84057","precinct":"25OR13","hd":"58","v_score":"1.121327652","decile":"3","lat":40.313186175832,"lng":-111.687538647471},{"id":"37347","name":"Dr. Precious Daniel","party":"Dem","address":"1007 N 475 E, Orem, UT 84097","precinct":"25OR13","hd":"58","v_score":"3.93832808","decile":"6","lat":40.315782711248,"lng":-111.684495059427},{"id":"37494","name":"Valentino Jaskolski","party":"Rep","address":"880 N 350 E, Orem, UT 84057","precinct":"25OR13","hd":"58","v_score":"2.315214949","decile":"5","lat":40.313394604301,"lng":-111.687390395473},{"id":"37742","name":"Dr. Caitlin Bernier MD","party":"","address":"1032 N 475 E, Orem, UT 84097","precinct":"25OR13","hd":"58","v_score":"3.781490609","decile":"6","lat":40.316270653613,"lng":-111.684345900161},{"id":"37989","name":"Vernita Bayer DDS","party":"","address":"343 E 1140 N, Orem, UT 84057","precinct":"25OR13","hd":"58","v_score":"1.121327652","decile":"3","lat":40.317875807921,"lng":-111.687686146577},{"id":"38008","name":"Mr. Donald Mayer","party":"","address":"343 E 1140 N, Orem, UT 84057","precinct":"25OR13","hd":"58","v_score":"0","decile":"1","lat":40.317875807921,"lng":-111.687686146577},{"id":"38696","name":"Carin Torphy-Kihn","party":"","address":"149 E 1130 N, Orem, UT 84057","precinct":"25OR13","hd":"58","v_score":"3.93832808","decile":"6","lat":40.317814872353,"lng":-111.691790852323},{"id":"38901","name":"Dr. Jaylon Funk IV","party":"","address":"1117 N 520 E, Orem, UT 84097","precinct":"25OR13","hd":"58","v_score":"2.660162957","decile":"5","lat":40.317430538958,"lng":-111.68362400987},{"id":"39049","name":"Roel Lockman","party":"Rep","address":"1024 N 250 E, Orem, UT 84057","precinct":"25OR13","hd":"58","v_score":"8.091152","decile":"8","lat":40.315980033812,"lng":-111.689802741593},{"id":"39074","name":"Kerwin Herzog III","party":"Dem","address":"311 E 1000 N, Orem, UT 84057","precinct":"25OR13","hd":"58","v_score":"0","decile":"1","lat":40.315643124557,"lng":-111.688435640343},{"id":"39202","name":"Algot Gleichner-Klocko","party":"","address":"326 E 1090 N, Orem, UT 84057","precinct":"25OR13","hd":"58","v_score":"1.121327652","decile":"3","lat":40.31702718103,"lng":-111.68802140443},{"id":"39494","name":"Nash Marquardt-Kreiger","party":"","address":"856 N 275 E, Orem, UT 84057","precinct":"25OR13","hd":"58","v_score":"2.315214949","decile":"5","lat":40.31302456226,"lng":-111.689158440352},{"id":"39572","name":"Fran Rice","party":"Dem","address":"273 E 1140 N, Orem, UT 84057","precinct":"25OR13","hd":"58","v_score":"2.744440783","decile":"5","lat":40.317868149671,"lng":-111.689298234127},{"id":"39763","name":"Porsche Goldner","party":"","address":"505 E 950 N, Orem, UT 84097","precinct":"25OR13","hd":"58","v_score":"9.61867875","decile":"8","lat":40.314763321373,"lng":-111.683897860279},{"id":"39907","name":"Layla Beier","party":"Dem","address":"381 E 1165 N, Orem, UT 84057","precinct":"25OR13","hd":"58","v_score":"2.587603312","decile":"5","lat":40.318615467233,"lng":-111.686738188183},{"id":"40089","name":"Mr. Beryl Beatty MD","party":"Dem","address":"386 E 1165 N, Orem, UT 84057","precinct":"25OR13","hd":"58","v_score":"11.2494549","decile":"9","lat":40.318502199349,"lng":-111.686625182262},{"id":"40739","name":"Virgle Denesik","party":"","address":"1128 N 475 E, Orem, UT 84097","precinct":"25OR13","hd":"58","v_score":"2.315214949","decile":"5","lat":40.317937496755,"lng":-111.684526719719},{"id":"40766","name":"Marcia Nolan-Sanford","party":"","address":"315 E 900 N, Orem, UT 84057","precinct":"25OR13","hd":"58","v_score":"2.315214949","decile":"5","lat":40.313749420324,"lng":-111.687771302405},{"id":"41092","name":"Arba Rosenbaum MD","party":"Rep","address":"385 E 900 N, Orem, UT 84057","precinct":"25OR13","hd":"58","v_score":"12.63270431","decile":"9","lat":40.313748432607,"lng":-111.68664296736},{"id":"41427","name":"Easton Wilderman-Hilpert","party":"Dem","address":"279 E 1090 N, Orem, UT 84057","precinct":"25OR13","hd":"58","v_score":"1.46627566","decile":"4","lat":40.317141840367,"lng":-111.689019320227},{"id":"41609","name":"Dr. Vela Skiles","party":"","address":"1077 N 250 E, Orem, UT 84057","precinct":"25OR13","hd":"58","v_score":"2.315214949","decile":"5","lat":40.316681518693,"lng":-111.690031046023},{"id":"42964","name":"Rolland Shields PhD","party":"","address":"987 N 600 E, Orem, UT 84097","precinct":"25OR13","hd":"58","v_score":"31.15555998","decile":"10","lat":40.315235233416,"lng":-111.681564983337},{"id":"43042","name":"Francesca Kiehn MD","party":"Dem","address":"492 E 1200 N, Orem, UT 84097","precinct":"25OR13","hd":"58","v_score":"2.315214949","decile":"5","lat":40.31920770088,"lng":-111.684110688336},{"id":"43263","name":"Dr. Amma Stokes","party":"Rep","address":"162 E 1200 N, Orem, UT 84057","precinct":"25OR13","hd":"58","v_score":"0","decile":"1","lat":40.319189701496,"lng":-111.692121707644},{"id":"43390","name":"Tyrek Conn-Wyman","party":"","address":"1035 N 600 E, Orem, UT 84097","precinct":"25OR13","hd":"58","v_score":"23.75314872","decile":"10","lat":40.315811101763,"lng":-111.681575266624},{"id":"43984","name":"Dorathea Bode","party":"Rep","address":"966 N 350 E, Orem, UT 84057","precinct":"25OR13","hd":"58","v_score":"11.02844566","decile":"9","lat":40.314950408211,"lng":-111.687402176588},{"id":"44964","name":"Mr. Robb Heidenreich","party":"Dem","address":"197 E 980 N, Orem, UT 84057","precinct":"25OR13","hd":"58","v_score":"0","decile":"1","lat":40.315272293266,"lng":-111.691176347418},{"id":"45280","name":"Lera Larson","party":"Rep","address":"587 E 950 N, Orem, UT 84097","precinct":"25OR13","hd":"58","v_score":"6.324725604","decile":"7","lat":40.314801197118,"lng":-111.681818409287},{"id":"45381","name":"Gwyn Vandervort DVM","party":"Dem","address":"181 E 910 N, Orem, UT 84057","precinct":"25OR13","hd":"58","v_score":"0","decile":"1","lat":40.313929134558,"lng":-111.69127397571},{"id":"45406","name":"Dr. Patric Casper","party":"","address":"349 E 1000 N, Orem, UT 84057","precinct":"25OR13","hd":"58","v_score":"9.61867875","decile":"8","lat":40.315647948111,"lng":-111.687794101194},{"id":"45448","name":"Tomie Swift","party":"Dem","address":"492 E 1200 N, Orem, UT 84097","precinct":"25OR13","hd":"58","v_score":"2.315214949","decile":"5","lat":40.31920770088,"lng":-111.684110688336},{"id":"45507","name":"Ms. Lakendra Lindgren DVM","party":"","address":"864 N 350 E, Orem, UT 84057","precinct":"25OR13","hd":"58","v_score":"5.687348376","decile":"7","lat":40.313187026894,"lng":-111.687388373642},{"id":"46766","name":"Lem Cronin","party":"Dem","address":"574 E 1050 N, Orem, UT 84097","precinct":"25OR13","hd":"58","v_score":"5.191257514","decile":"7","lat":40.316579701026,"lng":-111.682106143649},{"id":"46949","name":"Miss Natalee Tillman","party":"Rep","address":"1043 N 520 E, Orem, UT 84097","precinct":"25OR13","hd":"58","v_score":"0","decile":"1","lat":40.316338510304,"lng":-111.683561008634},{"id":"47090","name":"Sammie Reynolds","party":"Dem","address":"1017 N 520 E, Orem, UT 84097","precinct":"25OR13","hd":"58","v_score":"14.06645533","decile":"9","lat":40.316202185051,"lng":-111.683561008651},{"id":"47133","name":"Ms. Leafy Rohan","party":"","address":"854 N 200 E, Orem, UT 84057","precinct":"25OR13","hd":"58","v_score":"4.064235245","decile":"6","lat":40.312856069967,"lng":-111.690981675015},{"id":"48023","name":"Mrs. Journey Nolan MD","party":"","address":"384 E 1140 N, Orem, UT 84057","precinct":"25OR13","hd":"58","v_score":"8.958408171","decile":"8","lat":40.317765813697,"lng":-111.686717957689},{"id":"48481","name":"Dr. Nathen Paucek I","party":"","address":"865 N 350 E, Orem, UT 84057","precinct":"25OR13","hd":"58","v_score":"12.03607147","decile":"9","lat":40.313186175832,"lng":-111.687538647471},{"id":"49129","name":"Ezekiel Armstrong","party":"Dem","address":"371 E 1140 N, Orem, UT 84057","precinct":"25OR13","hd":"58","v_score":"5.273794831","decile":"7","lat":40.317878871222,"lng":-111.687041311558},{"id":"50049","name":"Boston Abshire","party":"Rep","address":"336 E 1000 N, Orem, UT 84057","precinct":"25OR13","hd":"58","v_score":"1.121327652","decile":"3","lat":40.315533171887,"lng":-111.687817943259},{"id":"50125","name":"Orene Hackett","party":"Rep","address":"190 E 980 N, Orem, UT 84057","precinct":"25OR13","hd":"58","v_score":"2.587603312","decile":"5","lat":40.315157701887,"lng":-111.691234370819},{"id":"50374","name":"Oma Wolf DVM","party":"","address":"533 E 950 N, Orem, UT 84097","precinct":"25OR13","hd":"58","v_score":"11.09531068","decile":"9","lat":40.31479529271,"lng":-111.683199313509},{"id":"50523","name":"Cherrelle Mraz","party":"Rep","address":"222 E 1140 N, Orem, UT 84057","precinct":"25OR13","hd":"58","v_score":"23.63610586","decile":"10","lat":40.317719896671,"lng":-111.690534887741},{"id":"50598","name":"Thad Emard","party":"","address":"151 E 1060 N, Orem, UT 84057","precinct":"25OR13","hd":"58","v_score":"9.750280533","decile":"8","lat":40.316662713244,"lng":-111.692383462104},{"id":"50626","name":"Sydnee Rodriguez","party":"","address":"190 E 980 N, Orem, UT 84057","precinct":"25OR13","hd":"58","v_score":"1.46627566","decile":"4","lat":40.315157701887,"lng":-111.691234370819},{"id":"50820","name":"Lashawn Bartell","party":"Rep","address":"1025 N 200 E, Orem, UT 84057","precinct":"25OR13","hd":"58","v_score":"0","decile":"1","lat":40.31589518409,"lng":-111.691165321447},{"id":"51011","name":"Halley Moore","party":"Dem","address":"1145 N 200 E, Orem, UT 84057","precinct":"25OR13","hd":"58","v_score":"3.781490609","decile":"6","lat":40.317904199278,"lng":-111.691188225672},{"id":"51596","name":"Loula Zemlak","party":"","address":"381 E 1165 N, Orem, UT 84057","precinct":"25OR13","hd":"58","v_score":"2.660162957","decile":"5","lat":40.318615467233,"lng":-111.686738188183},{"id":"52394","name":"Rayburn Koch-Von","party":"","address":"937 N 200 E, Orem, UT 84057","precinct":"25OR13","hd":"58","v_score":"0","decile":"1","lat":40.314381370558,"lng":-111.691148614909},{"id":"52843","name":"Attilio Boyer","party":"Dem","address":"889 N 235 E, Orem, UT 84057","precinct":"25OR13","hd":"58","v_score":"6.657533174","decile":"7","lat":40.313305598636,"lng":-111.690235980021},{"id":"53157","name":"Sharita Bahringer","party":"","address":"386 E 900 N, Orem, UT 84057","precinct":"25OR13","hd":"58","v_score":"2.315214949","decile":"5","lat":40.313634175105,"lng":-111.686597326042},{"id":"53804","name":"Charisse Klein","party":"Dem","address":"1075 N 200 E, Orem, UT 84057","precinct":"25OR13","hd":"58","v_score":"3.781490609","decile":"6","lat":40.316732173975,"lng":-111.691173800866},{"id":"53851","name":"Mrs. Jamey Zulauf","party":"Dem","address":"395 E 900 N, Orem, UT 84057","precinct":"25OR13","hd":"58","v_score":"2.587603312","decile":"5","lat":40.313750074824,"lng":-111.686422086979},{"id":"54288","name":"Ms. Kaela Lynch DDS","party":"Rep","address":"1092 N 140 E, Orem, UT 84057","precinct":"25OR13","hd":"58","v_score":"13.92577445","decile":"9","lat":40.317404966056,"lng":-111.692443803998},{"id":"54298","name":"Cinda Grant","party":"","address":"168 E 1020 N, Orem, UT 84057","precinct":"25OR13","hd":"58","v_score":"9.600440767","decile":"8","lat":40.315895701829,"lng":-111.69157321527},{"id":"54329","name":"Orrin Turner","party":"","address":"1177 N 600 E, Orem, UT 84097","precinct":"25OR13","hd":"58","v_score":"13.64956069","decile":"9","lat":40.318842964411,"lng":-111.681634591653},{"id":"54418","name":"Domenico Harris-Miller","party":"Rep","address":"300 E 1200 N, Orem, UT 84057","precinct":"25OR13","hd":"58","v_score":"5.243007221","decile":"7","lat":40.319198701238,"lng":-111.68877021727},{"id":"55059","name":"Genaro Dooley","party":"Rep","address":"326 E 1090 N, Orem, UT 84057","precinct":"25OR13","hd":"58","v_score":"1.121327652","decile":"3","lat":40.31702718103,"lng":-111.68802140443},{"id":"55183","name":"Rhianna Hessel","party":"Rep","address":"836 N 200 E, Orem, UT 84057","precinct":"25OR13","hd":"58","v_score":"2.315214949","decile":"5","lat":40.31255164139,"lng":-111.69097824165},{"id":"55188","name":"Rylee Roob","party":"Rep","address":"955 N 250 E, Orem, UT 84057","precinct":"25OR13","hd":"58","v_score":"1.121327652","decile":"3","lat":40.315238722407,"lng":-111.689951006108},{"id":"55273","name":"Elianna Leannon DDS","party":"Rep","address":"848 N 200 E, Orem, UT 84057","precinct":"25OR13","hd":"58","v_score":"0","decile":"1","lat":40.312754593775,"lng":-111.69098053056},{"id":"55468","name":"Mrs. Michelle D'Amore PhD","party":"","address":"859 N 235 E, Orem, UT 84057","precinct":"25OR13","hd":"58","v_score":"0","decile":"1","lat":40.312827575534,"lng":-111.690236014049},{"id":"55989","name":"Dennis Smitham","party":"Dem","address":"296 E 1140 N, Orem, UT 84057","precinct":"25OR13","hd":"58","v_score":"7.650280567","decile":"8","lat":40.317756186182,"lng":-111.688744582037},{"id":"56127","name":"Esther Kuphal","party":"Dem","address":"848 N 235 E, Orem, UT 84057","precinct":"25OR13","hd":"58","v_score":"1.121327652","decile":"3","lat":40.312601754436,"lng":-111.690081046165},{"id":"56608","name":"Demetrius Ernser","party":"","address":"237 E 1000 N, Orem, UT 84057","precinct":"25OR13","hd":"58","v_score":"13.46923073","decile":"9","lat":40.315632293152,"lng":-111.69021586384},{"id":"56659","name":"Ronaldo Farrell","party":"Rep","address":"383 E 1090 N, Orem, UT 84057","precinct":"25OR13","hd":"58","v_score":"2.315214949","decile":"5","lat":40.317136952725,"lng":-111.686746251939},{"id":"56874","name":"Mrs. Ashlyn Kovacek DVM","party":"Rep","address":"945 N 400 E, Orem, UT 84097","precinct":"25OR13","hd":"58","v_score":"2.315214949","decile":"5","lat":40.314333962721,"lng":-111.686341981467},{"id":"57481","name":"Shiloh Wehner-Schaden","party":"Dem","address":"300 E 1200 N, Orem, UT 84057","precinct":"25OR13","hd":"58","v_score":"10.83254138","decile":"9","lat":40.319198701238,"lng":-111.68877021727},{"id":"57521","name":"Pleas Kuhn-Yost","party":"Dem","address":"1075 N 140 E, Orem, UT 84057","precinct":"25OR13","hd":"58","v_score":"0","decile":"1","lat":40.316838083893,"lng":-111.692706774752},{"id":"57708","name":"Dr. Emma Hagenes Sr.","party":"Rep","address":"547 E 1090 N, Orem, UT 84097","precinct":"25OR13","hd":"58","v_score":"2.315214949","decile":"5","lat":40.317375214177,"lng":-111.682844587281},{"id":"59134","name":"Mellissa Hilll","party":"Dem","address":"975 N 600 E, Orem, UT 84097","precinct":"25OR13","hd":"58","v_score":"2.315214949","decile":"5","lat":40.315091266329,"lng":-111.681562412515},{"id":"59653","name":"Dr. Layne Gaylord","party":"","address":"1075 N 140 E, Orem, UT 84057","precinct":"25OR13","hd":"58","v_score":"6.881235673","decile":"8","lat":40.316838083893,"lng":-111.692706774752},{"id":"59666","name":"Dr. Whitney Anderson","party":"Dem","address":"836 N 235 E, Orem, UT 84057","precinct":"25OR13","hd":"58","v_score":"0","decile":"1","lat":40.312437113389,"lng":-111.690077639821},{"id":"59930","name":"Dr. Aron Shanahan","party":"Dem","address":"1077 N 250 E, Orem, UT 84057","precinct":"25OR13","hd":"58","v_score":"0","decile":"1","lat":40.316681518693,"lng":-111.690031046023},{"id":"60315","name":"Dr. Zana Konopelski","party":"Rep","address":"247 E 1090 N, Orem, UT 84057","precinct":"25OR13","hd":"58","v_score":"2.315214949","decile":"5","lat":40.31713881124,"lng":-111.689428256509},{"id":"60465","name":"Fabian Vandervort","party":"Rep","address":"1165 N 140 E, Orem, UT 84057","precinct":"25OR13","hd":"58","v_score":"1.121327652","decile":"3","lat":40.318111407215,"lng":-111.692465877427},{"id":"60751","name":"Alto Runte PhD","party":"Dem","address":"578 E 1090 N, Orem, UT 84097","precinct":"25OR13","hd":"58","v_score":"1.193887297","decile":"3","lat":40.317263700942,"lng":-111.6820241475},{"id":"60836","name":"Bartholomew Gibson","party":"Dem","address":"414 E 1200 N, Orem, UT 84097","precinct":"25OR13","hd":"58","v_score":"0","decile":"1","lat":40.319198701024,"lng":-111.685975171513},{"id":"61409","name":"Dr. Corey D'Amore IV","party":"","address":"270 E 1140 N, Orem, UT 84057","precinct":"25OR13","hd":"58","v_score":"0","decile":"1","lat":40.317753341689,"lng":-111.689343357413},{"id":"62053","name":"Miss Jeanmarie Howell DVM","party":"Dem","address":"1157 N 200 E, Orem, UT 84057","precinct":"25OR13","hd":"58","v_score":"2.315214949","decile":"5","lat":40.318189596409,"lng":-111.691196153332},{"id":"62206","name":"Micheal Hauck","party":"Dem","address":"161 E 1060 N, Orem, UT 84057","precinct":"25OR13","hd":"58","v_score":"12.38288823","decile":"9","lat":40.316662048293,"lng":-111.692343232754},{"id":"62576","name":"Marrion Doyle MD","party":"","address":"883 N 235 E, Orem, UT 84057","precinct":"25OR13","hd":"58","v_score":"1.121327652","decile":"3","lat":40.313186483328,"lng":-111.690243670372},{"id":"62682","name":"Dr. Autry Senger","party":"","address":"365 E 1040 N, Orem, UT 84057","precinct":"25OR13","hd":"58","v_score":"1.121327652","decile":"3","lat":40.31639729283,"lng":-111.687151939249},{"id":"63591","name":"Dafne Kuhic","party":"Dem","address":"1032 N 475 E, Orem, UT 84097","precinct":"25OR13","hd":"58","v_score":"2.315214949","decile":"5","lat":40.316270653613,"lng":-111.684345900161},{"id":"63798","name":"Minna Johnston","party":"Rep","address":"1049 N 140 E, Orem, UT 84057","precinct":"25OR13","hd":"58","v_score":"0","decile":"1","lat":40.316425003289,"lng":-111.692715565619},{"id":"65303","name":"Cornelious Oberbrunner-Tillman","party":"Dem","address":"886 N 350 E, Orem, UT 84057","precinct":"25OR13","hd":"58","v_score":"14.4898859","decile":"9","lat":40.313472445829,"lng":-111.687391153659},{"id":"65592","name":"Lavar Walker","party":"Dem","address":"975 N 400 E, Orem, UT 84097","precinct":"25OR13","hd":"58","v_score":"2.744440783","decile":"5","lat":40.314923317904,"lng":-111.686351539384},{"id":"66032","name":"Dr. Roscoe Kutch","party":"","address":"198 E 910 N, Orem, UT 84057","precinct":"25OR13","hd":"58","v_score":"5.818950158","decile":"7","lat":40.313815916608,"lng":-111.691142460623},{"id":"66147","name":"General Schmitt","party":"Dem","address":"937 N 200 E, Orem, UT 84057","precinct":"25OR13","hd":"58","v_score":"0","decile":"1","lat":40.314381370558,"lng":-111.691148614909},{"id":"66376","name":"Teddie Schinner","party":"","address":"151 E 1060 N, Orem, UT 84057","precinct":"25OR13","hd":"58","v_score":"17.75698939","decile":"10","lat":40.316662713244,"lng":-111.692383462104},{"id":"66536","name":"Verna Turcotte","party":"Rep","address":"924 N 200 E, Orem, UT 84057","precinct":"25OR13","hd":"58","v_score":"5.693042993","decile":"7","lat":40.314309089012,"lng":-111.690997601346},{"id":"66587","name":"Berenice Walsh-Ebert","party":"Dem","address":"222 E 1140 N, Orem, UT 84057","precinct":"25OR13","hd":"58","v_score":"19.47429609","decile":"10","lat":40.317719896671,"lng":-111.690534887741},{"id":"66761","name":"Craig Kerluke IV","party":"Rep","address":"1172 N 400 E, Orem, UT 84097","precinct":"25OR13","hd":"58","v_score":"11.885774","decile":"9","lat":40.31837917476,"lng":-111.686251929123},{"id":"66924","name":"Demetra Rempel DVM","party":"Rep","address":"984 N 475 E, Orem, UT 84097","precinct":"25OR13","hd":"58","v_score":"1.121327652","decile":"3","lat":40.315370208599,"lng":-111.684343825521},{"id":"67455","name":"Niko Hoppe II","party":"Dem","address":"987 N 600 E, Orem, UT 84097","precinct":"25OR13","hd":"58","v_score":"0","decile":"1","lat":40.315235233416,"lng":-111.681564983337},{"id":"67882","name":"Mr. Colter Brown DVM","party":"","address":"873 N 235 E, Orem, UT 84057","precinct":"25OR13","hd":"58","v_score":"2.315214949","decile":"5","lat":40.313041484167,"lng":-111.690240439717},{"id":"67995","name":"Violetta Cartwright-Purdy","party":"Rep","address":"259 E 1090 N, Orem, UT 84057","precinct":"25OR13","hd":"58","v_score":"12.28698903","decile":"9","lat":40.317139947162,"lng":-111.689274905404},{"id":"68119","name":"Lovett Hahn","party":"Rep","address":"1114 N 200 E, Orem, UT 84057","precinct":"25OR13","hd":"58","v_score":"7.650280567","decile":"8","lat":40.317334980449,"lng":-111.691029538377},{"id":"68449","name":"Alcie Ernser-Ruecker","party":"Dem","address":"1065 N 250 E, Orem, UT 84057","precinct":"25OR13","hd":"58","v_score":"2.998909327","decile":"6","lat":40.316534053826,"lng":-111.689970628356},{"id":"68465","name":"Viola Herzog PhD","party":"","address":"542 E 1090 N, Orem, UT 84097","precinct":"25OR13","hd":"58","v_score":"0","decile":"1","lat":40.317259815315,"lng":-111.682939848901},{"id":"68917","name":"Ms. Faith Turner MD","party":"","address":"1046 N 200 E, Orem, UT 84057","precinct":"25OR13","hd":"58","v_score":"3.93832808","decile":"6","lat":40.316311694748,"lng":-111.691019305655},{"id":"68979","name":"Manley Simonis","party":"Rep","address":"160 E 1200 N, Orem, UT 84057","precinct":"25OR13","hd":"58","v_score":"9.907118004","decile":"8","lat":40.319189701499,"lng":-111.692171551944},{"id":"69054","name":"Orange Greenholt","party":"","address":"326 E 1000 N, Orem, UT 84057","precinct":"25OR13","hd":"58","v_score":"6.814370645","decile":"8","lat":40.315531532301,"lng":-111.688036010294},{"id":"69512","name":"Rodrick Bauch-Hilll","party":"","address":"880 N 275 E, Orem, UT 84057","precinct":"25OR13","hd":"58","v_score":"2.315214949","decile":"5","lat":40.313472076217,"lng":-111.689165287724},{"id":"69910","name":"Dr. Burdette Prohaska I","party":"","address":"574 E 1050 N, Orem, UT 84097","precinct":"25OR13","hd":"58","v_score":"0","decile":"1","lat":40.316579701026,"lng":-111.682106143649},{"id":"69971","name":"Mr. Ewell Hauck","party":"Rep","address":"1114 N 140 E, Orem, UT 84057","precinct":"25OR13","hd":"58","v_score":"6.52928996","decile":"7","lat":40.317583350904,"lng":-111.692408870278},{"id":"69980","name":"Ms. Jolette Kerluke DDS","party":"Rep","address":"882 N 300 E, Orem, UT 84057","precinct":"25OR13","hd":"58","v_score":"0","decile":"1","lat":40.313031117545,"lng":-111.688530361617},{"id":"70048","name":"Magan Trantow-Hagenes","party":"","address":"504 E 1090 N, Orem, UT 84097","precinct":"25OR13","hd":"58","v_score":"9.043758688","decile":"8","lat":40.317254701074,"lng":-111.683731645056},{"id":"70051","name":"Khari Kulas-Schuppe","party":"Dem","address":"375 E 900 N, Orem, UT 84057","precinct":"25OR13","hd":"58","v_score":"1.193887297","decile":"3","lat":40.313746790391,"lng":-111.686863847742},{"id":"70178","name":"Ms. Dusty Kassulke PhD","party":"","address":"1035 N 250 E, Orem, UT 84057","precinct":"25OR13","hd":"58","v_score":"1.121327652","decile":"3","lat":40.316120637299,"lng":-111.689953745361},{"id":"70495","name":"Miss Bernice Prohaska","party":"Rep","address":"542 E 1090 N, Orem, UT 84097","precinct":"25OR13","hd":"58","v_score":"5.853935319","decile":"7","lat":40.317259815315,"lng":-111.682939848901},{"id":"70728","name":"Nico Oberbrunner","party":"","address":"375 E 900 N, Orem, UT 84057","precinct":"25OR13","hd":"58","v_score":"1.121327652","decile":"3","lat":40.313746790391,"lng":-111.686863847742},{"id":"71222","name":"Heber Cassin","party":"Dem","address":"1115 N 140 E, Orem, UT 84057","precinct":"25OR13","hd":"58","v_score":"0","decile":"1","lat":40.317486756067,"lng":-111.692579743043},{"id":"71637","name":"Dorine Trantow","party":"","address":"589 E 1050 N, Orem, UT 84097","precinct":"25OR13","hd":"58","v_score":"3.93832808","decile":"6","lat":40.316694292387,"lng":-111.681805065464},{"id":"72284","name":"Dr. Avon Rowe Jr.","party":"Rep","address":"556 E 1200 N, Orem, UT 84097","precinct":"25OR13","hd":"58","v_score":"19.74515628","decile":"10","lat":40.319224898513,"lng":-111.682686944869},{"id":"72855","name":"Zaniyah Koss","party":"","address":"1032 N 475 E, Orem, UT 84097","precinct":"25OR13","hd":"58","v_score":"2.315214949","decile":"5","lat":40.316270653613,"lng":-111.684345900161},{"id":"73014","name":"Harlon Jenkins-Adams","party":"Rep","address":"966 N Garden Dr, Orem, UT 84057","precinct":"25OR13","hd":"58","v_score":"1.121327652","decile":"3","lat":40.314333701852,"lng":-111.691936492544},{"id":"73569","name":"Aylin Hyatt","party":"","address":"1130 N 560 E, Orem, UT 84097","precinct":"25OR13","hd":"58","v_score":"19.49442423","decile":"10","lat":40.317466968199,"lng":-111.682406449442},{"id":"74195","name":"Yadiel Walsh","party":"Rep","address":"842 N 235 E, Orem, UT 84057","precinct":"25OR13","hd":"58","v_score":"9.207031979","decile":"8","lat":40.312519433913,"lng":-111.690079342993},{"id":"74367","name":"Rosella Rutherford","party":"Rep","address":"343 E 1140 N, Orem, UT 84057","precinct":"25OR13","hd":"58","v_score":"2.315214949","decile":"5","lat":40.317875807921,"lng":-111.687686146577},{"id":"74539","name":"Renee Weissnat","party":"Rep","address":"1043 N 520 E, Orem, UT 84097","precinct":"25OR13","hd":"58","v_score":"0","decile":"1","lat":40.316338510304,"lng":-111.683561008634},{"id":"74579","name":"Waino Osinski","party":"Dem","address":"279 E 1090 N, Orem, UT 84057","precinct":"25OR13","hd":"58","v_score":"0","decile":"1","lat":40.317141840367,"lng":-111.689019320227},{"id":"74582","name":"Dr. Audie Murphy I","party":"","address":"909 N Garden Dr, Orem, UT 84057","precinct":"25OR13","hd":"58","v_score":"1.121327652","decile":"3","lat":40.315049132552,"lng":-111.692224274727},{"id":"74738","name":"Humberto Gerhold II","party":"Dem","address":"1114 N 200 E, Orem, UT 84057","precinct":"25OR13","hd":"58","v_score":"0","decile":"1","lat":40.317334980449,"lng":-111.691029538377},{"id":"74795","name":"Norine Denesik","party":"Dem","address":"990 N 350 E, Orem, UT 84057","precinct":"25OR13","hd":"58","v_score":"2.315214949","decile":"5","lat":40.315389610677,"lng":-111.687405284095},{"id":"75109","name":"Mr. Benji Block DDS","party":"Dem","address":"225 E 905 N, Orem, UT 84057","precinct":"25OR13","hd":"58","v_score":"2.315214949","decile":"5","lat":40.313877293391,"lng":-111.690731282324},{"id":"75317","name":"Koby Thiel Jr.","party":"","address":"1185 N 400 E, Orem, UT 84097","precinct":"25OR13","hd":"58","v_score":"6.027167436","decile":"7","lat":40.319113835729,"lng":-111.686433684406},{"id":"75385","name":"Dr. Mose Bergstrom Sr.","party":"Rep","address":"288 E 1090 N, Orem, UT 84057","precinct":"25OR13","hd":"58","v_score":"2.315214949","decile":"5","lat":40.317028200984,"lng":-111.688890067678},{"id":"75517","name":"Damon Ondricka","party":"Rep","address":"161 E 1060 N, Orem, UT 84057","precinct":"25OR13","hd":"58","v_score":"12.38288823","decile":"9","lat":40.316662048293,"lng":-111.692343232754},{"id":"75651","name":"Robbin Corwin","party":"Dem","address":"1000 N 560 E, Orem, UT 84097","precinct":"25OR13","hd":"58","v_score":"9.405332525","decile":"8","lat":40.316001181183,"lng":-111.682404210173},{"id":"75695","name":"Sage Harris","party":"","address":"365 E 1165 N, Orem, UT 84057","precinct":"25OR13","hd":"58","v_score":"2.315214949","decile":"5","lat":40.318611974601,"lng":-111.687033317514},{"id":"76106","name":"Kalvin O'Reilly","party":"Rep","address":"870 N 235 E, Orem, UT 84057","precinct":"25OR13","hd":"58","v_score":"8.15240309","decile":"8","lat":40.312903596355,"lng":-111.690087291131},{"id":"76256","name":"Gay Thiel","party":"Rep","address":"914 N 200 E, Orem, UT 84057","precinct":"25OR13","hd":"58","v_score":"1.121327652","decile":"3","lat":40.314151856725,"lng":-111.690996018491},{"id":"76688","name":"Essex Hettinger","party":"Rep","address":"990 N 350 E, Orem, UT 84057","precinct":"25OR13","hd":"58","v_score":"2.315214949","decile":"5","lat":40.315389610677,"lng":-111.687405284095},{"id":"76921","name":"John Auer","party":"","address":"225 E 905 N, Orem, UT 84057","precinct":"25OR13","hd":"58","v_score":"1.193887297","decile":"3","lat":40.313877293391,"lng":-111.690731282324},{"id":"77207","name":"Burnie Lynch-Schiller","party":"Dem","address":"577 E 1090 N, Orem, UT 84097","precinct":"25OR13","hd":"58","v_score":"1.121327652","decile":"3","lat":40.317378292329,"lng":-111.682066211204},{"id":"77289","name":"Orlo Gislason","party":"","address":"848 N 235 E, Orem, UT 84057","precinct":"25OR13","hd":"58","v_score":"2.315214949","decile":"5","lat":40.312601754436,"lng":-111.690081046165},{"id":"77570","name":"Lucas Prosacco","party":"","address":"842 N 200 E, Orem, UT 84057","precinct":"25OR13","hd":"58","v_score":"0","decile":"1","lat":40.312653117583,"lng":-111.690979386105},{"id":"77668","name":"Jacquez Steuber","party":"","address":"856 N 275 E, Orem, UT 84057","precinct":"25OR13","hd":"58","v_score":"3.93832808","decile":"6","lat":40.31302456226,"lng":-111.689158440352},{"id":"77791","name":"Randi Jast","party":"","address":"1023 N 250 E, Orem, UT 84057","precinct":"25OR13","hd":"58","v_score":"3.93832808","decile":"6","lat":40.315951378183,"lng":-111.689952881816},{"id":"78243","name":"Kale Cole","party":"Dem","address":"847 N 275 E, Orem, UT 84057","precinct":"25OR13","hd":"58","v_score":"0","decile":"1","lat":40.312785804121,"lng":-111.68930656357},{"id":"78310","name":"Makayla Schiller","party":"Dem","address":"327 E 1140 N, Orem, UT 84057","precinct":"25OR13","hd":"58","v_score":"2.744440783","decile":"5","lat":40.317874057464,"lng":-111.688054623732},{"id":"78903","name":"Yair Walsh","party":"","address":"990 N 250 E, Orem, UT 84057","precinct":"25OR13","hd":"58","v_score":"1.121327652","decile":"3","lat":40.315474341855,"lng":-111.689800722475},{"id":"79515","name":"Kaycee Wisozk","party":"Dem","address":"1049 N 140 E, Orem, UT 84057","precinct":"25OR13","hd":"58","v_score":"1.121327652","decile":"3","lat":40.316425003289,"lng":-111.692715565619},{"id":"79552","name":"Krish Zulauf DVM","party":"Dem","address":"311 E 1000 N, Orem, UT 84057","precinct":"25OR13","hd":"58","v_score":"1.121327652","decile":"3","lat":40.315643124557,"lng":-111.688435640343},{"id":"79667","name":"Jerrilyn McClure","party":"","address":"327 E 1140 N, Orem, UT 84057","precinct":"25OR13","hd":"58","v_score":"1.121327652","decile":"3","lat":40.317874057464,"lng":-111.688054623732},{"id":"81106","name":"Melinda Blanda-Towne","party":"Dem","address":"288 E 1090 N, Orem, UT 84057","precinct":"25OR13","hd":"58","v_score":"0","decile":"1","lat":40.317028200984,"lng":-111.688890067678},{"id":"81566","name":"Nestor Hilpert Sr.","party":"Dem","address":"197 E 980 N, Orem, UT 84057","precinct":"25OR13","hd":"58","v_score":"0","decile":"1","lat":40.315272293266,"lng":-111.691176347418},{"id":"82042","name":"Tatyana Greenfelder","party":"Dem","address":"364 E 900 N, Orem, UT 84057","precinct":"25OR13","hd":"58","v_score":"0","decile":"1","lat":40.313630562229,"lng":-111.687083262881},{"id":"84094","name":"Davey Rutherford","party":"Dem","address":"578 E 1090 N, Orem, UT 84097","precinct":"25OR13","hd":"58","v_score":"1.193887297","decile":"3","lat":40.317263700942,"lng":-111.6820241475},{"id":"84700","name":"Dr. Milford Wehner","party":"Dem","address":"1072 N 200 E, Orem, UT 84057","precinct":"25OR13","hd":"58","v_score":"17.15779086","decile":"9","lat":40.316702951045,"lng":-111.691023218167},{"id":"85315","name":"Lanie Marquardt","party":"","address":"291 E 1090 N, Orem, UT 84057","precinct":"25OR13","hd":"58","v_score":"1.193887297","decile":"3","lat":40.317142976289,"lng":-111.688865969122},{"id":"86028","name":"Dr. Penny Heathcote","party":"","address":"991 N 560 E, Orem, UT 84097","precinct":"25OR13","hd":"58","v_score":"14.27815183","decile":"9","lat":40.315880198907,"lng":-111.682553921196},{"id":"86935","name":"Warren Bauch","party":"Rep","address":"149 E 1130 N, Orem, UT 84057","precinct":"25OR13","hd":"58","v_score":"0","decile":"1","lat":40.317814872353,"lng":-111.691790852323},{"id":"86971","name":"Ismael Wuckert-Grady","party":"Dem","address":"941 N Garden Dr, Orem, UT 84057","precinct":"25OR13","hd":"58","v_score":"0","decile":"1","lat":40.314645347261,"lng":-111.692147555582},{"id":"87680","name":"Hertha Herman-Hickle","party":"","address":"588 E 1050 N, Orem, UT 84097","precinct":"25OR13","hd":"58","v_score":"14.13760315","decile":"9","lat":40.316579701003,"lng":-111.681805065479},{"id":"88025","name":"Dr. Leroy Bednar III","party":"Dem","address":"990 N 250 E, Orem, UT 84057","precinct":"25OR13","hd":"58","v_score":"0","decile":"1","lat":40.315474341855,"lng":-111.689800722475},{"id":"88063","name":"Jerald Schmeler","party":"Rep","address":"916 N 350 E, Orem, UT 84057","precinct":"25OR13","hd":"58","v_score":"13.61907049","decile":"9","lat":40.314035403075,"lng":-111.687395702615},{"id":"88123","name":"Edra Langosh","party":"Rep","address":"1024 N 200 E, Orem, UT 84057","precinct":"25OR13","hd":"58","v_score":"5.693042993","decile":"7","lat":40.315896224215,"lng":-111.691015042374},{"id":"88606","name":"Mindy Ruecker","party":"Rep","address":"296 E 1140 N, Orem, UT 84057","precinct":"25OR13","hd":"58","v_score":"3.711952487","decile":"6","lat":40.317756186182,"lng":-111.688744582037},{"id":"88612","name":"Ballard Lynch","party":"Dem","address":"1172 N 400 E, Orem, UT 84097","precinct":"25OR13","hd":"58","v_score":"6.528952915","decile":"7","lat":40.31837917476,"lng":-111.686251929123},{"id":"88982","name":"Susann Weissnat","party":"Rep","address":"1145 N 200 E, Orem, UT 84057","precinct":"25OR13","hd":"58","v_score":"1.193887297","decile":"4","lat":40.317904199278,"lng":-111.691188225672},{"id":"90081","name":"Fed Ziemann III","party":"Dem","address":"941 N Garden Dr, Orem, UT 84057","precinct":"25OR13","hd":"58","v_score":"1.193887297","decile":"4","lat":40.314645347261,"lng":-111.692147555582},{"id":"90422","name":"Freida Jast","party":"Rep","address":"836 N 200 E, Orem, UT 84057","precinct":"25OR13","hd":"58","v_score":"0","decile":"1","lat":40.31255164139,"lng":-111.69097824165},{"id":"91885","name":"Ms. Katlin Koelpin PhD","party":"","address":"945 N 400 E, Orem, UT 84097","precinct":"25OR13","hd":"58","v_score":"1.193887297","decile":"4","lat":40.314333962721,"lng":-111.686341981467},{"id":"92578","name":"Davonte O'Connell","party":"","address":"986 N 520 E, Orem, UT 84097","precinct":"25OR13","hd":"58","v_score":"0","decile":"1","lat":40.315194411817,"lng":-111.683400908434},{"id":"93523","name":"Tressie Lueilwitz","party":"Dem","address":"1054 N 200 E, Orem, UT 84057","precinct":"25OR13","hd":"58","v_score":"0","decile":"1","lat":40.316432081301,"lng":-111.691020509505},{"id":"93775","name":"Rosie Simonis","party":"","address":"853 N 275 E, Orem, UT 84057","precinct":"25OR13","hd":"58","v_score":"2.817000428","decile":"6","lat":40.312894705002,"lng":-111.689307547599},{"id":"93998","name":"Diandra Davis","party":"Dem","address":"326 E 1000 N, Orem, UT 84057","precinct":"25OR13","hd":"58","v_score":"5.693042993","decile":"7","lat":40.315531532301,"lng":-111.688036010294},{"id":"94474","name":"Agustin Green","party":"Rep","address":"1024 N 250 E, Orem, UT 84057","precinct":"25OR13","hd":"58","v_score":"0","decile":"1","lat":40.315980033812,"lng":-111.689802741593},{"id":"95093","name":"Guido Kemmer I","party":"","address":"848 N 235 E, Orem, UT 84057","precinct":"25OR13","hd":"58","v_score":"0","decile":"1","lat":40.312601754436,"lng":-111.690081046165},{"id":"95242","name":"Lacy Kirlin-Terry","party":"Rep","address":"958 N Garden Dr, Orem, UT 84057","precinct":"25OR13","hd":"58","v_score":"1.193887297","decile":"4","lat":40.314434648175,"lng":-111.69195567233},{"id":"95450","name":"Roel Howell PhD","party":"","address":"916 N 350 E, Orem, UT 84057","precinct":"25OR13","hd":"58","v_score":"13.61907049","decile":"9","lat":40.314035403075,"lng":-111.687395702615},{"id":"96289","name":"Duwayne Lesch","party":"Rep","address":"343 E 1140 N, Orem, UT 84057","precinct":"25OR13","hd":"58","v_score":"2.817000428","decile":"6","lat":40.317875807921,"lng":-111.687686146577},{"id":"96584","name":"Jaunita Osinski","party":"","address":"349 E 1040 N, Orem, UT 84057","precinct":"25OR13","hd":"58","v_score":"18.35167816","decile":"10","lat":40.316397292858,"lng":-111.687518259665},{"id":"96685","name":"Erika Beier","party":"","address":"994 N 520 E, Orem, UT 84097","precinct":"25OR13","hd":"58","v_score":"1.623113131","decile":"5","lat":40.315231349288,"lng":-111.683402667356},{"id":"98077","name":"Dr. Hervey Botsford","party":"Rep","address":"995 N 475 E, Orem, UT 84097","precinct":"25OR13","hd":"58","v_score":"1.623113131","decile":"5","lat":40.315557599994,"lng":-111.684494540767},{"id":"98128","name":"Spurgeon Schroeder","party":"","address":"518 E 1090 N, Orem, UT 84097","precinct":"25OR13","hd":"58","v_score":"1.623113131","decile":"5","lat":40.317254701065,"lng":-111.683624009893},{"id":"98237","name":"Drake Bogan Sr.","party":"Dem","address":"349 E 1040 N, Orem, UT 84057","precinct":"25OR13","hd":"58","v_score":"18.35167816","decile":"10","lat":40.316397292858,"lng":-111.687518259665},{"id":"98583","name":"Joseph Hilpert","party":"","address":"1185 N 400 E, Orem, UT 84097","precinct":"25OR13","hd":"58","v_score":"1.193887297","decile":"4","lat":40.319113835729,"lng":-111.686433684406},{"id":"99015","name":"Mrs. Neva Robel DDS","party":"","address":"853 N 235 E, Orem, UT 84057","precinct":"25OR13","hd":"58","v_score":"1.193887297","decile":"4","lat":40.312735900406,"lng":-111.690234117335},{"id":"99142","name":"Mr. Fernand Abernathy DDS","party":"Dem","address":"976 N 560 E, Orem, UT 84097","precinct":"25OR13","hd":"58","v_score":"1.193887297","decile":"4","lat":40.315711817537,"lng":-111.68240283882},{"id":"99325","name":"Mr. Darnell Hessel","party":"Dem","address":"278 E 1000 N, Orem, UT 84057","precinct":"25OR13","hd":"58","v_score":"0","decile":"1","lat":40.315526701688,"lng":-111.689190138185},{"id":"99331","name":"London Bernier","party":"","address":"1155 N 200 E, Orem, UT 84057","precinct":"25OR13","hd":"58","v_score":"1.193887297","decile":"4","lat":40.31814203022,"lng":-111.691194832055},{"id":"100325","name":"Dr. Rodrick Lindgren","party":"","address":"348 E 1040 N, Orem, UT 84057","precinct":"25OR13","hd":"58","v_score":"11.54592159","decile":"9","lat":40.316282701474,"lng":-111.68751825968},{"id":"101135","name":"Beverlee Ruecker-Bode","party":"","address":"1015 N 560 E, Orem, UT 84097","precinct":"25OR13","hd":"58","v_score":"0","decile":"2","lat":40.316169562552,"lng":-111.68255529255},{"id":"101403","name":"Wilford Bailey","party":"Dem","address":"956 N 350 E, Orem, UT 84057","precinct":"25OR13","hd":"58","v_score":"0","decile":"2","lat":40.314767407184,"lng":-111.687400881793},{"id":"101655","name":"Claudette Schmidt","party":"Dem","address":"974 N 520 E, Orem, UT 84097","precinct":"25OR13","hd":"58","v_score":"4.214075011","decile":"7","lat":40.315139005611,"lng":-111.683398270051},{"id":"103087","name":"Darrick Bartoletti","party":"Dem","address":"362 E 900 N, Orem, UT 84057","precinct":"25OR13","hd":"58","v_score":"0","decile":"2","lat":40.313630233786,"lng":-111.687127438958},{"id":"103196","name":"Ms. Francina Hegmann","party":"","address":"182 E 910 N, Orem, UT 84057","precinct":"25OR13","hd":"58","v_score":"1.193887297","decile":"4","lat":40.313814705475,"lng":-111.691257519019},{"id":"103882","name":"Mrs. Bina Streich","party":"","address":"162 E 1200 N, Orem, UT 84057","precinct":"25OR13","hd":"58","v_score":"0","decile":"2","lat":40.319189701496,"lng":-111.692121707644},{"id":"104193","name":"Addison Lueilwitz","party":"Dem","address":"1152 N 400 E, Orem, UT 84097","precinct":"25OR13","hd":"58","v_score":"1.193887297","decile":"4","lat":40.31828133472,"lng":-111.686250446711},{"id":"105140","name":"Mr. Ross Dickinson","party":"Dem","address":"1042 N 520 E, Orem, UT 84097","precinct":"25OR13","hd":"58","v_score":"0","decile":"2","lat":40.316338510293,"lng":-111.683410722288},{"id":"105356","name":"Harlow Boyle-O'Conner","party":"Rep","address":"991 N 560 E, Orem, UT 84097","precinct":"25OR13","hd":"58","v_score":"9.638447451","decile":"8","lat":40.315880198907,"lng":-111.682553921196},{"id":"105448","name":"Herbert Kovacek","party":"Dem","address":"1155 N 200 E, Orem, UT 84057","precinct":"25OR13","hd":"58","v_score":"1.193887297","decile":"4","lat":40.31814203022,"lng":-111.691194832055},{"id":"105577","name":"Attilio Gleichner","party":"Dem","address":"149 E 1130 N, Orem, UT 84057","precinct":"25OR13","hd":"58","v_score":"0","decile":"2","lat":40.317814872353,"lng":-111.691790852323},{"id":"106749","name":"Celena O'Reilly","party":"","address":"973 N 250 E, Orem, UT 84057","precinct":"25OR13","hd":"58","v_score":"1.193887297","decile":"4","lat":40.315356532136,"lng":-111.689951006092},{"id":"107398","name":"Charlie Bartell-Little","party":"","address":"955 N 400 E, Orem, UT 84097","precinct":"25OR13","hd":"58","v_score":"1.193887297","decile":"4","lat":40.314466527573,"lng":-111.686343839836},{"id":"107446","name":"Dr. Payton Wunsch","party":"Dem","address":"848 N 275 E, Orem, UT 84057","precinct":"25OR13","hd":"58","v_score":"1.193887297","decile":"4","lat":40.312871294353,"lng":-111.689157055421},{"id":"107948","name":"Koen Wisoky","party":"","address":"556 E 1200 N, Orem, UT 84097","precinct":"25OR13","hd":"58","v_score":"7.090117576","decile":"8","lat":40.319224898513,"lng":-111.682686944869},{"id":"108512","name":"Crista Bailey MD","party":"Dem","address":"193 E 865 N, Orem, UT 84057","precinct":"25OR13","hd":"58","v_score":"0","decile":"2","lat":40.313141016295,"lng":-111.691154091603},{"id":"108722","name":"Florian Bernhard","party":"","address":"1115 N 140 E, Orem, UT 84057","precinct":"25OR13","hd":"58","v_score":"1.193887297","decile":"4","lat":40.317486756067,"lng":-111.692579743043},{"id":"108941","name":"Tangela Doyle","party":"Dem","address":"345 E 1000 N, Orem, UT 84057","precinct":"25OR13","hd":"58","v_score":"4.069929862","decile":"7","lat":40.315647440369,"lng":-111.687861631631},{"id":"110153","name":"Cynthia Herman","party":"Dem","address":"237 E 1000 N, Orem, UT 84057","precinct":"25OR13","hd":"58","v_score":"1.193887297","decile":"4","lat":40.315632293152,"lng":-111.69021586384},{"id":"110739","name":"Dr. Lacey Ziemann PhD","party":"Rep","address":"504 E 1090 N, Orem, UT 84097","precinct":"25OR13","hd":"58","v_score":"1.193887297","decile":"4","lat":40.317254701074,"lng":-111.683731645056},{"id":"110747","name":"Amir Keebler","party":"Rep","address":"1192 N 475 E, Orem, UT 84097","precinct":"25OR13","hd":"58","v_score":"0","decile":"2","lat":40.319054285671,"lng":-111.684520110645},{"id":"111687","name":"Creola Reilly","party":"Rep","address":"273 E 1140 N, Orem, UT 84057","precinct":"25OR13","hd":"58","v_score":"0","decile":"2","lat":40.317868149671,"lng":-111.689298234127},{"id":"111697","name":"Margot Muller","party":"Dem","address":"273 E 1140 N, Orem, UT 84057","precinct":"25OR13","hd":"58","v_score":"0","decile":"2","lat":40.317868149671,"lng":-111.689298234127},{"id":"111801","name":"Marshal Hoppe II","party":"","address":"1176 N 400 E, Orem, UT 84097","precinct":"25OR13","hd":"58","v_score":"1.193887297","decile":"4","lat":40.318398742768,"lng":-111.686252225606},{"id":"112598","name":"Janine Kassulke","party":"Rep","address":"888 N 200 E, Orem, UT 84057","precinct":"25OR13","hd":"58","v_score":"4.214075011","decile":"7","lat":40.313568174089,"lng":-111.690987422009},{"id":"112784","name":"Darius Hayes DDS","party":"Rep","address":"988 N 560 E, Orem, UT 84097","precinct":"25OR13","hd":"58","v_score":"1.193887297","decile":"4","lat":40.31585649936,"lng":-111.682403524497},{"id":"112942","name":"Kamden Keebler-Wisozk","party":"","address":"956 N 350 E, Orem, UT 84057","precinct":"25OR13","hd":"58","v_score":"0","decile":"2","lat":40.314767407184,"lng":-111.687400881793},{"id":"113756","name":"Tuan Brekke","party":"Rep","address":"1169 N 200 E, Orem, UT 84057","precinct":"25OR13","hd":"58","v_score":"1.193887297","decile":"4","lat":40.318474993539,"lng":-111.691204080992},{"id":"113848","name":"Deane Upton","party":"Rep","address":"888 N 200 E, Orem, UT 84057","precinct":"25OR13","hd":"58","v_score":"5.407962308","decile":"7","lat":40.313568174089,"lng":-111.690987422009},{"id":"114091","name":"Dr. Westin Hessel","party":"Rep","address":"956 N 200 E, Orem, UT 84057","precinct":"25OR13","hd":"58","v_score":"0","decile":"2","lat":40.314812232331,"lng":-111.691002666481},{"id":"114182","name":"Kinsey Bradtke","party":"Dem","address":"1024 N 250 E, Orem, UT 84057","precinct":"25OR13","hd":"58","v_score":"1.193887297","decile":"4","lat":40.315980033812,"lng":-111.689802741593},{"id":"115020","name":"Starla Wilderman","party":"Dem","address":"1118 N 520 E, Orem, UT 84097","precinct":"25OR13","hd":"58","v_score":"1.193887297","decile":"4","lat":40.317435250216,"lng":-111.683473720739},{"id":"115053","name":"Lavelle Pagac","party":"Dem","address":"264 E 1200 N, Orem, UT 84057","precinct":"25OR13","hd":"58","v_score":"0","decile":"2","lat":40.31919870129,"lng":-111.689452048053},{"id":"115198","name":"Shelly Bergstrom","party":"Dem","address":"1169 N 200 E, Orem, UT 84057","precinct":"25OR13","hd":"58","v_score":"4.069929862","decile":"7","lat":40.318474993539,"lng":-111.691204080992},{"id":"115299","name":"Terry Shanahan II","party":"Rep","address":"872 N 350 E, Orem, UT 84057","precinct":"25OR13","hd":"58","v_score":"2.876042565","decile":"6","lat":40.313290815597,"lng":-111.687389384557},{"id":"115338","name":"Lavona Carter-Jenkins","party":"Rep","address":"1025 N 300 E, Orem, UT 84057","precinct":"25OR13","hd":"58","v_score":"0","decile":"2","lat":40.315905922488,"lng":-111.688759762733},{"id":"115477","name":"Trace Davis-McLaughlin","party":"","address":"315 E 900 N, Orem, UT 84057","precinct":"25OR13","hd":"58","v_score":"0","decile":"2","lat":40.313749420324,"lng":-111.687771302405},{"id":"115682","name":"Yael Kris II","party":"Dem","address":"847 N 350 E, Orem, UT 84057","precinct":"25OR13","hd":"58","v_score":"0","decile":"2","lat":40.312952651248,"lng":-111.687536372912},{"id":"116467","name":"Dr. Russel Block","party":"Rep","address":"186 E 865 N, Orem, UT 84057","precinct":"25OR13","hd":"58","v_score":"1.193887297","decile":"4","lat":40.313026842185,"lng":-111.691179025065},{"id":"116893","name":"Rayne Ruecker","party":"Dem","address":"937 N 200 E, Orem, UT 84057","precinct":"25OR13","hd":"58","v_score":"0","decile":"2","lat":40.314381370558,"lng":-111.691148614909},{"id":"118536","name":"Tiarra Funk","party":"Rep","address":"525 E 1050 N, Orem, UT 84097","precinct":"25OR13","hd":"58","v_score":"0","decile":"2","lat":40.316694292503,"lng":-111.683320909793},{"id":"118957","name":"Sincere Ziemann","party":"Dem","address":"193 E 865 N, Orem, UT 84057","precinct":"25OR13","hd":"58","v_score":"0","decile":"2","lat":40.313141016295,"lng":-111.691154091603},{"id":"119280","name":"Dolphus McCullough-Gottlieb","party":"Dem","address":"327 E 1140 N, Orem, UT 84057","precinct":"25OR13","hd":"58","v_score":"0","decile":"2","lat":40.317874057464,"lng":-111.688054623732},{"id":"119301","name":"Mallie Goldner MD","party":"","address":"1162 N 140 E, Orem, UT 84057","precinct":"25OR13","hd":"58","v_score":"1.193887297","decile":"4","lat":40.318079811849,"lng":-111.692319718932},{"id":"120475","name":"Johnathon Smitham","party":"Rep","address":"275 E 1165 N, Orem, UT 84057","precinct":"25OR13","hd":"58","v_score":"5.407962308","decile":"7","lat":40.318592328543,"lng":-111.68869342},{"id":"121010","name":"Paola Ratke","party":"","address":"168 E 1020 N, Orem, UT 84057","precinct":"25OR13","hd":"58","v_score":"4.069929862","decile":"7","lat":40.315895701829,"lng":-111.69157321527},{"id":"121084","name":"Dr. Vennie Baumbach PhD","party":"Rep","address":"1093 N 475 E, Orem, UT 84097","precinct":"25OR13","hd":"58","v_score":"1.193887297","decile":"4","lat":40.317160821215,"lng":-111.684617415746},{"id":"122414","name":"Ashely Dibbert","party":"Rep","address":"262 E 1165 N, Orem, UT 84057","precinct":"25OR13","hd":"58","v_score":"1.193887297","decile":"4","lat":40.318475131447,"lng":-111.688912434576},{"id":"122528","name":"Dr. Alvin Rath V","party":"","address":"276 E 1090 N, Orem, UT 84057","precinct":"25OR13","hd":"58","v_score":"1.193887297","decile":"4","lat":40.317027065061,"lng":-111.689043418783},{"id":"123051","name":"Jammie Roob-Beier","party":"","address":"186 E 1200 N, Orem, UT 84057","precinct":"25OR13","hd":"58","v_score":"1.193887297","decile":"4","lat":40.31918970145,"lng":-111.691523576049},{"id":"124033","name":"Irva Torp","party":"Dem","address":"883 N 350 E, Orem, UT 84057","precinct":"25OR13","hd":"58","v_score":"1.193887297","decile":"4","lat":40.313419700415,"lng":-111.68754092203},{"id":"125123","name":"Zain Tremblay MD","party":"Rep","address":"381 E 1165 N, Orem, UT 84057","precinct":"25OR13","hd":"58","v_score":"0","decile":"2","lat":40.318615467233,"lng":-111.686738188183},{"id":"125421","name":"Emerson Hills","party":"Rep","address":"867 N 400 E, Orem, UT 84097","precinct":"25OR13","hd":"58","v_score":"0","decile":"2","lat":40.313085710238,"lng":-111.686323884467},{"id":"125896","name":"Arlyne Lynch","party":"","address":"186 E 865 N, Orem, UT 84057","precinct":"25OR13","hd":"58","v_score":"0","decile":"2","lat":40.313026842185,"lng":-111.691179025065},{"id":"125920","name":"Cedric Heathcote","party":"Dem","address":"263 E 1165 N, Orem, UT 84057","precinct":"25OR13","hd":"58","v_score":"0","decile":"2","lat":40.318589709069,"lng":-111.688914766998},{"id":"126026","name":"Merl Schulist","party":"","address":"976 N 250 E, Orem, UT 84057","precinct":"25OR13","hd":"58","v_score":"0","decile":"2","lat":40.315382712065,"lng":-111.689800722487},{"id":"126388","name":"Sudie Macejkovic-Bergstrom","party":"Dem","address":"324 E 900 N, Orem, UT 84057","precinct":"25OR13","hd":"58","v_score":"2.876042565","decile":"6","lat":40.313633296602,"lng":-111.687708230967},{"id":"126879","name":"Alvena Fahey DDS","party":"","address":"362 E 1090 N, Orem, UT 84057","precinct":"25OR13","hd":"58","v_score":"7.090117576","decile":"8","lat":40.317024083569,"lng":-111.687202142606},{"id":"128026","name":"Tori Howe","party":"Dem","address":"937 N 200 E, Orem, UT 84057","precinct":"25OR13","hd":"58","v_score":"2.876042565","decile":"6","lat":40.314381370558,"lng":-111.691148614909},{"id":"128033","name":"Dr. Greyson Prohaska","party":"Dem","address":"504 E 1090 N, Orem, UT 84097","precinct":"25OR13","hd":"58","v_score":"4.214075011","decile":"7","lat":40.317254701074,"lng":-111.683731645056},{"id":"128256","name":"Evelynn Corkery DDS","party":"Dem","address":"945 N 200 E, Orem, UT 84057","precinct":"25OR13","hd":"58","v_score":"0","decile":"2","lat":40.314481485811,"lng":-111.691149622768},{"id":"129005","name":"Jameel Raynor IV","party":"","address":"182 E 910 N, Orem, UT 84057","precinct":"25OR13","hd":"58","v_score":"4.214075011","decile":"7","lat":40.313814705475,"lng":-111.691257519019},{"id":"129107","name":"Hansel Paucek","party":"Dem","address":"1146 N 200 E, Orem, UT 84057","precinct":"25OR13","hd":"58","v_score":"2.876042565","decile":"6","lat":40.317954191917,"lng":-111.691039290533},{"id":"129899","name":"Federico Bergstrom","party":"Dem","address":"872 N 350 E, Orem, UT 84057","precinct":"25OR13","hd":"58","v_score":"2.876042565","decile":"6","lat":40.313290815597,"lng":-111.687389384557},{"id":"130061","name":"Dimitrios Russel","party":"","address":"574 E 1050 N, Orem, UT 84097","precinct":"25OR13","hd":"58","v_score":"0","decile":"2","lat":40.316579701026,"lng":-111.682106143649},{"id":"130361","name":"Anissa Nader","party":"","address":"365 E 1165 N, Orem, UT 84057","precinct":"25OR13","hd":"58","v_score":"0","decile":"2","lat":40.318611974601,"lng":-111.687033317514},{"id":"130710","name":"North Labadie","party":"Rep","address":"386 E 1165 N, Orem, UT 84057","precinct":"25OR13","hd":"58","v_score":"0","decile":"2","lat":40.318502199349,"lng":-111.686625182262},{"id":"131356","name":"Carlos Durgan","party":"Dem","address":"1162 N 140 E, Orem, UT 84057","precinct":"25OR13","hd":"58","v_score":"0","decile":"2","lat":40.318079811849,"lng":-111.692319718932},{"id":"131518","name":"Vonda Auer-Kihn","party":"Dem","address":"370 E 1000 N, Orem, UT 84057","precinct":"25OR13","hd":"58","v_score":"0","decile":"2","lat":40.315543401733,"lng":-111.686970981293},{"id":"132243","name":"Finley Bartell PhD","party":"","address":"1157 N 200 E, Orem, UT 84057","precinct":"25OR13","hd":"58","v_score":"0","decile":"2","lat":40.318189596409,"lng":-111.691196153332},{"id":"134099","name":"Miss Abigail Treutel","party":"","address":"1165 N 140 E, Orem, UT 84057","precinct":"25OR13","hd":"58","v_score":"0","decile":"2","lat":40.318111407215,"lng":-111.692465877427},{"id":"135664","name":"Dr. Marcella Halvorson","party":"Dem","address":"1021 N 560 E, Orem, UT 84097","precinct":"25OR13","hd":"58","v_score":"0","decile":"2","lat":40.316241903464,"lng":-111.682555635389},{"id":"135871","name":"Danial Abbott","party":"Rep","address":"533 E 1090 N, Orem, UT 84097","precinct":"25OR13","hd":"58","v_score":"1.193887297","decile":"4","lat":40.317372363677,"lng":-111.683183799827},{"id":"138087","name":"Hertha Sauer","party":"","address":"533 E 1090 N, Orem, UT 84097","precinct":"25OR13","hd":"58","v_score":"2.315214949","decile":"5","lat":40.317372363677,"lng":-111.683183799827},{"id":"138433","name":"Alpheus Barrows","party":"Rep","address":"198 E 865 N, Orem, UT 84057","precinct":"25OR13","hd":"58","v_score":"12.70314012","decile":"9","lat":40.313026071609,"lng":-111.691136258276},{"id":"138456","name":"Kaylah Schimmel","party":"Dem","address":"237 E 1000 N, Orem, UT 84057","precinct":"25OR13","hd":"58","v_score":"13.61907049","decile":"9","lat":40.315632293152,"lng":-111.69021586384},{"id":"141045","name":"Yulissa Tremblay","party":"","address":"1114 N 200 E, Orem, UT 84057","precinct":"25OR13","hd":"58","v_score":"2.587603312","decile":"5","lat":40.317334980449,"lng":-111.691029538377},{"id":"142042","name":"Mr. Lonzo Runte","party":"","address":"925 N 200 E, Orem, UT 84057","precinct":"25OR13","hd":"58","v_score":"11.2235539","decile":"9","lat":40.31423119768,"lng":-111.691147103122},{"id":"142544","name":"Hamza Toy","party":"Dem","address":"385 E 1165 N, Orem, UT 84057","precinct":"25OR13","hd":"58","v_score":"5.693042993","decile":"7","lat":40.318616340391,"lng":-111.68666440585},{"id":"142808","name":"Franz Jakubowski","party":"","address":"937 N 200 E, Orem, UT 84057","precinct":"25OR13","hd":"58","v_score":"1.193887297","decile":"4","lat":40.314381370558,"lng":-111.691148614909},{"id":"144555","name":"Cassius Gibson","party":"","address":"879 N 275 E, Orem, UT 84057","precinct":"25OR13","hd":"58","v_score":"10.0296666","decile":"9","lat":40.313443391378,"lng":-111.689314418999},{"id":"144664","name":"Dr. Corbin Lockman","party":"Rep","address":"1181 N 200 E, Orem, UT 84057","precinct":"25OR13","hd":"58","v_score":"5.530510904","decile":"7","lat":40.31876039067,"lng":-111.691212008652},{"id":"144702","name":"Isham Reichert","party":"Dem","address":"841 N 275 E, Orem, UT 84057","precinct":"25OR13","hd":"58","v_score":"0","decile":"3","lat":40.312676903239,"lng":-111.68930557954},{"id":"145112","name":"Jailene Koelpin","party":"Dem","address":"999 N 600 E, Orem, UT 84097","precinct":"25OR13","hd":"58","v_score":"18.35167816","decile":"10","lat":40.315379200503,"lng":-111.681567554159},{"id":"145167","name":"Arno Fahey-Hauck","party":"","address":"937 N 200 E, Orem, UT 84057","precinct":"25OR13","hd":"58","v_score":"3.93832808","decile":"6","lat":40.314381370558,"lng":-111.691148614909},{"id":"145175","name":"Shavonne Altenwerth","party":"","address":"1169 N 200 E, Orem, UT 84057","precinct":"25OR13","hd":"58","v_score":"28.6662113","decile":"10","lat":40.318474993539,"lng":-111.691204080992},{"id":"145328","name":"Leandra Cummerata","party":"","address":"142 E 1020 N, Orem, UT 84057","precinct":"25OR13","hd":"58","v_score":"6.45639327","decile":"7","lat":40.315895701856,"lng":-111.691926129081},{"id":"145577","name":"Miracle Muller","party":"","address":"835 N 350 E, Orem, UT 84057","precinct":"25OR13","hd":"58","v_score":"5.40460374","decile":"7","lat":40.312796968193,"lng":-111.687534856539},{"id":"146430","name":"Risa Hilll-Pfannerstill","party":"Dem","address":"370 E 1000 N, Orem, UT 84057","precinct":"25OR13","hd":"58","v_score":"2.315214949","decile":"5","lat":40.315543401733,"lng":-111.686970981293},{"id":"147485","name":"Arch Reynolds-Windler","party":"Dem","address":"1175 N 475 E, Orem, UT 84097","precinct":"25OR13","hd":"58","v_score":"38.24567755","decile":"10","lat":40.318380127218,"lng":-111.684677010684},{"id":"147486","name":"Jonathon Durgan","party":"","address":"1175 N 475 E, Orem, UT 84097","precinct":"25OR13","hd":"58","v_score":"38.24567755","decile":"10","lat":40.318380127218,"lng":-111.684677010684},{"id":"147701","name":"Coralie Walter","party":"Rep","address":"1020 N 475 E, Orem, UT 84097","precinct":"25OR13","hd":"58","v_score":"34.03160254","decile":"10","lat":40.316045542359,"lng":-111.684345381501},{"id":"147807","name":"Bronson McKenzie-Howell","party":"Dem","address":"391 E 1040 N, Orem, UT 84057","precinct":"25OR13","hd":"58","v_score":"6.814370645","decile":"8","lat":40.316397292785,"lng":-111.686556668573},{"id":"148193","name":"Ayaan Abbott","party":"Rep","address":"1080 N 140 E, Orem, UT 84057","precinct":"25OR13","hd":"58","v_score":"2.587603312","decile":"5","lat":40.31730766523,"lng":-111.692462858755},{"id":"148672","name":"Mr. Kanye Hahn MD","party":"Dem","address":"928 N Garden Dr, Orem, UT 84057","precinct":"25OR13","hd":"58","v_score":"35.30276996","decile":"10","lat":40.314813196885,"lng":-111.692027596528},{"id":"148955","name":"Almer DuBuque PhD","party":"","address":"385 E 1165 N, Orem, UT 84057","precinct":"25OR13","hd":"58","v_score":"3.93832808","decile":"6","lat":40.318616340391,"lng":-111.68666440585},{"id":"149193","name":"Ms. Sheilah Mueller","party":"","address":"1149 N 600 E, Orem, UT 84097","precinct":"25OR13","hd":"58","v_score":"35.30276996","decile":"10","lat":40.318357027055,"lng":-111.681624178774},{"id":"149204","name":"Dr. Leslie Ankunding","party":"Rep","address":"1111 N 200 E, Orem, UT 84057","precinct":"25OR13","hd":"58","v_score":"1.46627566","decile":"4","lat":40.317273913463,"lng":-111.69117921819},{"id":"149271","name":"Dr. Newt Rutherford II","party":"","address":"192 E 865 N, Orem, UT 84057","precinct":"25OR13","hd":"58","v_score":"38.24567755","decile":"10","lat":40.313026456897,"lng":-111.69115764167},{"id":"149303","name":"Alferd Thiel","party":"","address":"556 E 1200 N, Orem, UT 84097","precinct":"25OR13","hd":"58","v_score":"23.95587272","decile":"10","lat":40.319224898513,"lng":-111.682686944869},{"id":"149432","name":"Sylvan Gottlieb","party":"","address":"1183 N 240 E, Orem, UT 84057","precinct":"25OR13","hd":"58","v_score":"35.30276996","decile":"10","lat":40.318737605664,"lng":-111.690212000608},{"id":"149435","name":"Denver Krajcik-Swift","party":"Rep","address":"990 N 350 E, Orem, UT 84057","precinct":"25OR13","hd":"58","v_score":"3.93832808","decile":"6","lat":40.315389610677,"lng":-111.687405284095},{"id":"149491","name":"Uriah Adams","party":"","address":"1020 N 475 E, Orem, UT 84097","precinct":"25OR13","hd":"58","v_score":"34.03160254","decile":"10","lat":40.316045542359,"lng":-111.684345381501},{"id":"149591","name":"Mr. Adrien Mayert PhD","party":"","address":"362 E 1090 N, Orem, UT 84057","precinct":"25OR13","hd":"58","v_score":"26.41733837","decile":"10","lat":40.317024083569,"lng":-111.687202142606},{"id":"149854","name":"Ms. Margrett White PhD","party":"Dem","address":"169 E 1060 N, Orem, UT 84057","precinct":"25OR13","hd":"58","v_score":"29.60100086","decile":"10","lat":40.316661516332,"lng":-111.692311049274},{"id":"150055","name":"Jamison Smith","party":"","address":"992 N 300 E, Orem, UT 84057","precinct":"25OR13","hd":"58","v_score":"31.14994604","decile":"10","lat":40.315453819492,"lng":-111.688603722961},{"id":"150098","name":"Virgel Waters","party":"Rep","address":"169 E 1060 N, Orem, UT 84057","precinct":"25OR13","hd":"58","v_score":"29.60100086","decile":"10","lat":40.316661516332,"lng":-111.692311049274},{"id":"150111","name":"Hettie Nienow","party":"Rep","address":"375 E 1090 N, Orem, UT 84057","precinct":"25OR13","hd":"58","v_score":"48.19520036","decile":"10","lat":40.317137641049,"lng":-111.686928310122},{"id":"150139","name":"Foch Haley","party":"","address":"379 E 1040 N, Orem, UT 84057","precinct":"25OR13","hd":"58","v_score":"4.210716443","decile":"7","lat":40.316397292806,"lng":-111.686831408885},{"id":"150141","name":"Needham Metz","party":"Rep","address":"379 E 1040 N, Orem, UT 84057","precinct":"25OR13","hd":"58","v_score":"4.210716443","decile":"7","lat":40.316397292806,"lng":-111.686831408885},{"id":"150223","name":"Adron Stracke","party":"Dem","address":"880 N 200 E, Orem, UT 84057","precinct":"25OR13","hd":"58","v_score":"35.30276996","decile":"10","lat":40.313412321765,"lng":-111.690986396685},{"id":"150227","name":"Domenick Fahey","party":"Dem","address":"885 N 400 E, Orem, UT 84097","precinct":"25OR13","hd":"58","v_score":"45.76919357","decile":"10","lat":40.313395276425,"lng":-111.68632852792},{"id":"150814","name":"Miss Merrie Shields","party":"Dem","address":"299 E 1165 N, Orem, UT 84057","precinct":"25OR13","hd":"58","v_score":"26.58440961","decile":"10","lat":40.318597567492,"lng":-111.688250726003},{"id":"150877","name":"Kaye Lakin","party":"Rep","address":"574 E 1050 N, Orem, UT 84097","precinct":"25OR13","hd":"58","v_score":"5.191257514","decile":"7","lat":40.316579701026,"lng":-111.682106143649},{"id":"151272","name":"Mrs. Evelin Kilback","party":"","address":"1042 N 520 E, Orem, UT 84097","precinct":"25OR13","hd":"58","v_score":"10.87160818","decile":"9","lat":40.316338510293,"lng":-111.683410722288},{"id":"151526","name":"Leona Willms","party":"","address":"573 E 950 N, Orem, UT 84097","precinct":"25OR13","hd":"58","v_score":"25.06350144","decile":"10","lat":40.314798380125,"lng":-111.682131098135},{"id":"151716","name":"Tom Nienow","party":"","address":"269 E 1090 N, Orem, UT 84057","precinct":"25OR13","hd":"58","v_score":"15.2589308","decile":"9","lat":40.317140893764,"lng":-111.689147112816},{"id":"152579","name":"Bianca Bartell","party":"","address":"1092 N 140 E, Orem, UT 84057","precinct":"25OR13","hd":"58","v_score":"16.22796003","decile":"9","lat":40.317404966056,"lng":-111.692443803998},{"id":"152650","name":"Lynwood Koss","party":"","address":"566 E 1090 N, Orem, UT 84097","precinct":"25OR13","hd":"58","v_score":"35.30276996","decile":"10","lat":40.317263700961,"lng":-111.682276529813},{"id":"152726","name":"Maegan Morar DVM","party":"Dem","address":"237 E 1000 N, Orem, UT 84057","precinct":"25OR13","hd":"58","v_score":"13.61907049","decile":"9","lat":40.315632293152,"lng":-111.69021586384},{"id":"153382","name":"Cooper Marks","party":"","address":"1092 N 140 E, Orem, UT 84057","precinct":"25OR13","hd":"58","v_score":"16.22796003","decile":"9","lat":40.317404966056,"lng":-111.692443803998},{"id":"153439","name":"Maxx Tillman","party":"Dem","address":"518 E 1090 N, Orem, UT 84097","precinct":"25OR13","hd":"58","v_score":"5.40460374","decile":"7","lat":40.317254701065,"lng":-111.683624009893},{"id":"154190","name":"Alcee Bernier","party":"Rep","address":"1023 N 250 E, Orem, UT 84057","precinct":"25OR13","hd":"58","v_score":"5.40460374","decile":"7","lat":40.315951378183,"lng":-111.689952881816},{"id":"154191","name":"Birt Ullrich","party":"Rep","address":"1023 N 250 E, Orem, UT 84057","precinct":"25OR13","hd":"58","v_score":"5.40460374","decile":"7","lat":40.315951378183,"lng":-111.689952881816},{"id":"154578","name":"Jase Crooks","party":"Dem","address":"504 E 1090 N, Orem, UT 84097","precinct":"25OR13","hd":"58","v_score":"6.954919332","decile":"8","lat":40.317254701074,"lng":-111.683731645056},{"id":"155017","name":"Devan Sanford","party":"Dem","address":"847 N 235 E, Orem, UT 84057","precinct":"25OR13","hd":"58","v_score":"43.51438145","decile":"10","lat":40.312644225277,"lng":-111.69023222062},{"id":"155677","name":"Giuseppe Brakus Jr.","party":"","address":"847 N 235 E, Orem, UT 84057","precinct":"25OR13","hd":"58","v_score":"35.30276996","decile":"10","lat":40.312644225277,"lng":-111.69023222062},{"id":"155828","name":"Ms. Aliza Legros","party":"Rep","address":"848 N 200 E, Orem, UT 84057","precinct":"25OR13","hd":"58","v_score":"27.50485858","decile":"10","lat":40.312754593775,"lng":-111.69098053056},{"id":"156187","name":"Mr. Jarod Grant MD","party":"","address":"225 E 1000 N, Orem, UT 84057","precinct":"25OR13","hd":"58","v_score":"43.51438145","decile":"10","lat":40.315632293172,"lng":-111.690480983019},{"id":"156246","name":"Dr. Celestine Donnelly","party":"Dem","address":"566 E 1090 N, Orem, UT 84097","precinct":"25OR13","hd":"58","v_score":"43.22595857","decile":"10","lat":40.317263700961,"lng":-111.682276529813},{"id":"156355","name":"Ms. Elmina Bins DVM","party":"Rep","address":"988 N 560 E, Orem, UT 84097","precinct":"25OR13","hd":"58","v_score":"14.74039814","decile":"9","lat":40.31585649936,"lng":-111.682403524497},{"id":"156871","name":"Eddy Ryan","party":"Rep","address":"872 N 350 E, Orem, UT 84057","precinct":"25OR13","hd":"58","v_score":"7.068839189","decile":"8","lat":40.313290815597,"lng":-111.687389384557},{"id":"156904","name":"Lucius Abbott","party":"Dem","address":"845 N 200 E, Orem, UT 84057","precinct":"25OR13","hd":"58","v_score":"8.347511332","decile":"8","lat":40.312709962662,"lng":-111.691130309817},{"id":"156906","name":"Wm Dooley","party":"Rep","address":"384 E 1140 N, Orem, UT 84057","precinct":"25OR13","hd":"58","v_score":"26.35608728","decile":"10","lat":40.317765813697,"lng":-111.686717957689},{"id":"157100","name":"Vashti Collier","party":"Rep","address":"505 E 950 N, Orem, UT 84097","precinct":"25OR13","hd":"58","v_score":"8.280646305","decile":"8","lat":40.314763321373,"lng":-111.683897860279},{"id":"158019","name":"Kalel Kunze","party":"Rep","address":"589 E 1050 N, Orem, UT 84097","precinct":"25OR13","hd":"58","v_score":"12.58300477","decile":"9","lat":40.316694292387,"lng":-111.681805065464},{"id":"158021","name":"Cathrine VonRueden","party":"","address":"984 N 475 E, Orem, UT 84097","precinct":"25OR13","hd":"58","v_score":"1.121327652","decile":"3","lat":40.315370208599,"lng":-111.684343825521},{"id":"158108","name":"Miss Estefany Hansen PhD","party":"Rep","address":"326 E 1000 N, Orem, UT 84057","precinct":"25OR13","hd":"58","v_score":"8.280646305","decile":"8","lat":40.315531532301,"lng":-111.688036010294},{"id":"158200","name":"Andrae Ernser","party":"Dem","address":"984 N 475 E, Orem, UT 84097","precinct":"25OR13","hd":"58","v_score":"1.121327652","decile":"3","lat":40.315370208599,"lng":-111.684343825521},{"id":"159749","name":"Jamari Waelchi-Shields","party":"Rep","address":"370 E 1140 N, Orem, UT 84057","precinct":"25OR13","hd":"58","v_score":"43.22595857","decile":"10","lat":40.317764282046,"lng":-111.687040375199},{"id":"159750","name":"Marty Keeling","party":"Rep","address":"370 E 1140 N, Orem, UT 84057","precinct":"25OR13","hd":"58","v_score":"43.22595857","decile":"10","lat":40.317764282046,"lng":-111.687040375199},{"id":"159865","name":"Trena Reinger DVM","party":"","address":"1081 N 475 E, Orem, UT 84097","precinct":"25OR13","hd":"58","v_score":"7.169296324","decile":"8","lat":40.317038328905,"lng":-111.684531951105},{"id":"159909","name":"Harrison Dibbert III","party":"Dem","address":"957 N 200 E, Orem, UT 84057","precinct":"25OR13","hd":"58","v_score":"26.9144526","decile":"10","lat":40.314631658689,"lng":-111.691151134556},{"id":"159948","name":"Dr. Shoji Berge PhD","party":"Dem","address":"338 E 1090 N, Orem, UT 84057","precinct":"25OR13","hd":"58","v_score":"38.24567755","decile":"10","lat":40.317026148543,"lng":-111.687748317155},{"id":"159969","name":"Nallely Shanahan-Ledner","party":"","address":"1095 N 200 E, Orem, UT 84057","precinct":"25OR13","hd":"58","v_score":"12.64191471","decile":"9","lat":40.317033140357,"lng":-111.691176810491},{"id":"159982","name":"Kinte Brown","party":"","address":"976 N 300 E, Orem, UT 84057","precinct":"25OR13","hd":"58","v_score":"35.30276996","decile":"10","lat":40.31525946709,"lng":-111.688603722987},{"id":"160072","name":"Demi Hudson","party":"Dem","address":"507 E 1090 N, Orem, UT 84097","precinct":"25OR13","hd":"58","v_score":"45.25229277","decile":"10","lat":40.317369292457,"lng":-111.683716268589},{"id":"161791","name":"Clarnce Roob","party":"","address":"990 N 350 E, Orem, UT 84057","precinct":"25OR13","hd":"58","v_score":"3.93832808","decile":"6","lat":40.315389610677,"lng":-111.687405284095},{"id":"162603","name":"Biddie Crooks","party":"Dem","address":"1114 N 140 E, Orem, UT 84057","precinct":"25OR13","hd":"58","v_score":"11.69112346","decile":"9","lat":40.317583350904,"lng":-111.692408870278},{"id":"163005","name":"Analia Hills","party":"","address":"1045 N 475 E, Orem, UT 84097","precinct":"25OR13","hd":"58","v_score":"33.02752771","decile":"10","lat":40.31649556355,"lng":-111.684496701851},{"id":"163190","name":"Dr. Glendon Howell I","party":"Rep","address":"1031 N 400 E, Orem, UT 84097","precinct":"25OR13","hd":"58","v_score":"13.06193014","decile":"9","lat":40.316152814363,"lng":-111.686371200018},{"id":"163301","name":"Archibald Reilly","party":"Dem","address":"192 E 865 N, Orem, UT 84057","precinct":"25OR13","hd":"58","v_score":"8.863731383","decile":"8","lat":40.313026456897,"lng":-111.69115764167},{"id":"163302","name":"Savion Schultz","party":"","address":"265 E 1000 N, Orem, UT 84057","precinct":"25OR13","hd":"58","v_score":"31.14994604","decile":"10","lat":40.315641293096,"lng":-111.689495429891},{"id":"163476","name":"Ronaldo Reichert-Kris","party":"Rep","address":"909 N Garden Dr, Orem, UT 84057","precinct":"25OR13","hd":"58","v_score":"2.744440783","decile":"6","lat":40.315049132552,"lng":-111.692224274727},{"id":"163762","name":"Jaquan Ondricka","party":"Rep","address":"987 N 600 E, Orem, UT 84097","precinct":"25OR13","hd":"58","v_score":"38.24567755","decile":"10","lat":40.315235233416,"lng":-111.681564983337},{"id":"164116","name":"Mena Yundt PhD","party":"","address":"361 E 1090 N, Orem, UT 84057","precinct":"25OR13","hd":"58","v_score":"16.72520646","decile":"9","lat":40.317138845617,"lng":-111.687246911943},{"id":"164580","name":"Freida Lueilwitz","party":"","address":"342 E 1140 N, Orem, UT 84057","precinct":"25OR13","hd":"58","v_score":"10.13721141","decile":"9","lat":40.317761218746,"lng":-111.687685210219},{"id":"164656","name":"Dale Crist","party":"Dem","address":"1152 N 475 E, Orem, UT 84097","precinct":"25OR13","hd":"58","v_score":"8.832501007","decile":"8","lat":40.318035292443,"lng":-111.684526719706},{"id":"165068","name":"Dionne Baumbach PhD","party":"Dem","address":"1011 N 600 E, Orem, UT 84097","precinct":"25OR13","hd":"58","v_score":"15.00919004","decile":"9","lat":40.31552316759,"lng":-111.68157012498},{"id":"165468","name":"Carleton Rau","party":"Rep","address":"1192 N 475 E, Orem, UT 84097","precinct":"25OR13","hd":"58","v_score":"5.693042993","decile":"7","lat":40.319054285671,"lng":-111.684520110645},{"id":"165537","name":"Mariela D'Amore DVM","party":"","address":"358 E 1200 N, Orem, UT 84057","precinct":"25OR13","hd":"58","v_score":"7.169296324","decile":"8","lat":40.319198701132,"lng":-111.687391707573},{"id":"165722","name":"Phoebe Collins-Veum","party":"","address":"1117 N 520 E, Orem, UT 84097","precinct":"25OR13","hd":"58","v_score":"1.193887297","decile":"4","lat":40.317430538958,"lng":-111.68362400987},{"id":"166326","name":"Owens Wolff","party":"","address":"909 N Garden Dr, Orem, UT 84057","precinct":"25OR13","hd":"58","v_score":"2.744440783","decile":"6","lat":40.315049132552,"lng":-111.692224274727},{"id":"166453","name":"Dr. Taja Sanford","party":"Dem","address":"1034 N 560 E, Orem, UT 84097","precinct":"25OR13","hd":"58","v_score":"18.8983517","decile":"10","lat":40.316411113014,"lng":-111.682406152925},{"id":"166497","name":"Giancarlo Heaney","party":"Rep","address":"1063 N 140 E, Orem, UT 84057","precinct":"25OR13","hd":"58","v_score":"27.55357104","decile":"10","lat":40.316547925752,"lng":-111.692729671458},{"id":"166579","name":"Wilhelmina Littel","party":"","address":"344 E 1165 N, Orem, UT 84057","precinct":"25OR13","hd":"58","v_score":"15.57817759","decile":"9","lat":40.318493031188,"lng":-111.687399896756},{"id":"167433","name":"Elena Robel","party":"Dem","address":"518 E 1090 N, Orem, UT 84097","precinct":"25OR13","hd":"58","v_score":"5.40460374","decile":"7","lat":40.317254701065,"lng":-111.683624009893},