[{"id":"503","name":"Jethro Upton","party":"Dem","address":"306 S 230 W, Orem, UT 84058","precinct":"25OR31","hd":"57","v_score":"6.814370645","decile":"8","lat":40.291704587281,"lng":-111.701112766567},{"id":"593","name":"Ryley Leuschke","party":"Dem","address":"321 W 100 S, Orem, UT 84058","precinct":"25OR31","hd":"57","v_score":"13.5493502","decile":"9","lat":40.295260112653,"lng":-111.703304285526},{"id":"806","name":"Mr. Vergil Reilly","party":"Dem","address":"162 W 220 S, Orem, UT 84058","precinct":"25OR31","hd":"57","v_score":"4.210716443","decile":"7","lat":40.293214706076,"lng":-111.698731534324},{"id":"854","name":"Mr. Robin Brekke","party":"Rep","address":"90 W 255 S, Orem, UT 84058","precinct":"25OR31","hd":"57","v_score":"6.740427232","decile":"8","lat":40.292499515173,"lng":-111.697649880859},{"id":"939","name":"Morton Donnelly-Heaney","party":"Rep","address":"259 W 255 S, Orem, UT 84058","precinct":"25OR31","hd":"57","v_score":"0","decile":"1","lat":40.292451717142,"lng":-111.701656079697},{"id":"1197","name":"Josue Borer","party":"Dem","address":"268 W 185 S, Orem, UT 84058","precinct":"25OR31","hd":"57","v_score":"1.121327652","decile":"3","lat":40.293972267307,"lng":-111.702023325294},{"id":"1835","name":"Orvil Greenfelder","party":"","address":"325 W Center St, Apt 108, Orem, UT 84057","precinct":"25OR31","hd":"57","v_score":"20.43611432","decile":"10","lat":40.297082340895,"lng":-111.703637540574},{"id":"2287","name":"Crista Russel","party":"","address":"181 S Country Side Ln, Orem, UT 84058","precinct":"25OR31","hd":"57","v_score":"13.70847796","decile":"9","lat":40.294089389879,"lng":-111.703335846152},{"id":"2766","name":"Ira Morar","party":"Rep","address":"74 S 360 W, Orem, UT 84058","precinct":"25OR31","hd":"57","v_score":"2.744440783","decile":"5","lat":40.295519522711,"lng":-111.704277138863},{"id":"2874","name":"Amasa Stamm","party":"Rep","address":"229 W 255 S, Orem, UT 84058","precinct":"25OR31","hd":"57","v_score":"29.32275285","decile":"10","lat":40.292436708161,"lng":-111.700520406787},{"id":"2994","name":"Natalya Cartwright","party":"Dem","address":"243 S 335 W, Orem, UT 84058","precinct":"25OR31","hd":"57","v_score":"15.37637782","decile":"9","lat":40.292905798298,"lng":-111.703437733902},{"id":"3022","name":"Yolonda Pfeffer","party":"","address":"62 S 360 W, Orem, UT 84058","precinct":"25OR31","hd":"57","v_score":"3.93832808","decile":"6","lat":40.29558394963,"lng":-111.704278059239},{"id":"3183","name":"Miss Magdalen Larkin DDS","party":"Rep","address":"236 S 180 W, Orem, UT 84058","precinct":"25OR31","hd":"57","v_score":"11.09694254","decile":"9","lat":40.292990773954,"lng":-111.699403304217},{"id":"4124","name":"Shawnee O'Reilly","party":"Dem","address":"232 S 220 W, Orem, UT 84058","precinct":"25OR31","hd":"57","v_score":"1.193887297","decile":"3","lat":40.292918653324,"lng":-111.700291982818},{"id":"4534","name":"Dr. Avon VonRueden","party":"","address":"243 S 335 W, Orem, UT 84058","precinct":"25OR31","hd":"57","v_score":"19.61187125","decile":"10","lat":40.292905798298,"lng":-111.703437733902},{"id":"5341","name":"Miss Jazmin Quigley PhD","party":"Dem","address":"68 S 360 W, Orem, UT 84058","precinct":"25OR31","hd":"57","v_score":"5.40460374","decile":"7","lat":40.29555173617,"lng":-111.704277599051},{"id":"6071","name":"Valery Adams","party":"Rep","address":"250 W 255 S, Orem, UT 84058","precinct":"25OR31","hd":"57","v_score":"0","decile":"1","lat":40.292561219306,"lng":-111.701269697918},{"id":"6494","name":"Peter Macejkovic","party":"Dem","address":"242 W 100 S, Orem, UT 84058","precinct":"25OR31","hd":"57","v_score":"3.016591252","decile":"6","lat":40.295339419269,"lng":-111.701479807163},{"id":"6497","name":"Fronia Kuvalis","party":"Dem","address":"370 S 200 W, Orem, UT 84058","precinct":"25OR31","hd":"57","v_score":"8.280646305","decile":"8","lat":40.290096095758,"lng":-111.700215479771},{"id":"6621","name":"Carlee Hane","party":"Dem","address":"234 W 220 S, Orem, UT 84058","precinct":"25OR31","hd":"57","v_score":"5.620483348","decile":"7","lat":40.293223698291,"lng":-111.701152475962},{"id":"7401","name":"Dr. Jonatan Cronin","party":"Rep","address":"365 W 350 S, Orem, UT 84058","precinct":"25OR31","hd":"57","v_score":"48.19520036","decile":"10","lat":40.291081647989,"lng":-111.704250368834},{"id":"7733","name":"Drew Kilback","party":"Rep","address":"345 W 100 S, Orem, UT 84058","precinct":"25OR31","hd":"57","v_score":"2.315214949","decile":"5","lat":40.295269724434,"lng":-111.703823319534},{"id":"9289","name":"Blanche Goldner-Hudson","party":"","address":"167 S 240 W, Orem, UT 84058","precinct":"25OR31","hd":"57","v_score":"1.46627566","decile":"4","lat":40.294160108478,"lng":-111.701252976648},{"id":"9945","name":"Ms. Novella Senger PhD","party":"","address":"237 W 220 S, Orem, UT 84058","precinct":"25OR31","hd":"57","v_score":"0","decile":"1","lat":40.293108731921,"lng":-111.701119820337},{"id":"10369","name":"Ms. Dotty Hegmann DDS","party":"","address":"230 S 50 W, Orem, UT 84058","precinct":"25OR31","hd":"57","v_score":"16.2066738","decile":"9","lat":40.292712253577,"lng":-111.696361402132},{"id":"10983","name":"Norwood Jast-Corkery","party":"Dem","address":"328 W 220 S, Orem, UT 84058","precinct":"25OR31","hd":"57","v_score":"6.550708384","decile":"7","lat":40.293240172225,"lng":-111.702661763846},{"id":"11015","name":"Dink Boehm","party":"Dem","address":"371 S 100 W, Orem, UT 84058","precinct":"25OR31","hd":"57","v_score":"0","decile":"1","lat":40.290393694564,"lng":-111.697801756173},{"id":"11051","name":"Miss Monique Will","party":"Dem","address":"58 S 360 W, Orem, UT 84058","precinct":"25OR31","hd":"57","v_score":"3.781490609","decile":"6","lat":40.295605425269,"lng":-111.704278366031},{"id":"11089","name":"Branson Stoltenberg","party":"Rep","address":"87 W 165 S, Orem, UT 84058","precinct":"25OR31","hd":"57","v_score":"5.815909755","decile":"7","lat":40.294488240578,"lng":-111.697382487603},{"id":"11294","name":"Garry Block III","party":"","address":"194 S Countryside Ln, Orem, UT 84058","precinct":"25OR31","hd":"57","v_score":"18.47563858","decile":"10","lat":40.294018874379,"lng":-111.703488658839},{"id":"11354","name":"Emit Okuneva","party":"","address":"52 W 220 S, Orem, UT 84058","precinct":"25OR31","hd":"57","v_score":"13.01325397","decile":"9","lat":40.29319449479,"lng":-111.697162642707},{"id":"12000","name":"Colby Ebert","party":"Rep","address":"273 W 220 S, Orem, UT 84058","precinct":"25OR31","hd":"57","v_score":"3.93832808","decile":"6","lat":40.293118263317,"lng":-111.701982296574},{"id":"13888","name":"Brea Klein","party":"","address":"273 W 220 S, Orem, UT 84058","precinct":"25OR31","hd":"57","v_score":"9.050194508","decile":"8","lat":40.293118263317,"lng":-111.701982296574},{"id":"14097","name":"Cassandra Beer","party":"","address":"347 W 300 S, Orem, UT 84058","precinct":"25OR31","hd":"57","v_score":"3.781490609","decile":"6","lat":40.291797905292,"lng":-111.702537125305},{"id":"14788","name":"Madeline Gutmann-Boyer","party":"","address":"213 S 400 W, Orem, UT 84058","precinct":"25OR31","hd":"57","v_score":"17.89408627","decile":"10","lat":40.293220845369,"lng":-111.705105446518},{"id":"15135","name":"Dr. Roderic Wilderman Jr.","party":"","address":"74 S 270 W, Orem, UT 84058","precinct":"25OR31","hd":"57","v_score":"13.97135325","decile":"9","lat":40.295460382397,"lng":-111.702215485112},{"id":"15166","name":"Lanita Cole DVM","party":"Dem","address":"308 S 50 W, Orem, UT 84058","precinct":"25OR31","hd":"57","v_score":"4.210716443","decile":"7","lat":40.291534635334,"lng":-111.696309460836},{"id":"15378","name":"Wheeler McDermott","party":"Rep","address":"171 S 165 W, Orem, UT 84058","precinct":"25OR31","hd":"57","v_score":"1.121327652","decile":"3","lat":40.294171318066,"lng":-111.698333922398},{"id":"16227","name":"Brooks Sanford","party":"Rep","address":"8 W 400 S, Orem, UT 84058","precinct":"25OR31","hd":"57","v_score":"0","decile":"1","lat":40.289859094554,"lng":-111.695614125129},{"id":"16476","name":"Henderson Denesik-Torp","party":"Dem","address":"184 S 70 W, Orem, UT 84058","precinct":"25OR31","hd":"57","v_score":"1.623113131","decile":"4","lat":40.294222191604,"lng":-111.697218633255},{"id":"16573","name":"Ms. Domonique Hyatt DDS","party":"Dem","address":"259 S 50 W, Orem, UT 84058","precinct":"25OR31","hd":"57","v_score":"8.347511332","decile":"8","lat":40.292337715862,"lng":-111.696158903604},{"id":"17144","name":"Tyreese Feeney","party":"Dem","address":"158 W 300 S, Orem, UT 84058","precinct":"25OR31","hd":"57","v_score":"19.87451972","decile":"10","lat":40.291791607141,"lng":-111.699145712353},{"id":"17989","name":"Kathyrn Baumbach","party":"","address":"288 W 100 S, Orem, UT 84058","precinct":"25OR31","hd":"57","v_score":"21.03454587","decile":"10","lat":40.295409296402,"lng":-111.702585896287},{"id":"18290","name":"Chandler Dickens","party":"Rep","address":"155 S 240 W, Orem, UT 84058","precinct":"25OR31","hd":"57","v_score":"2.315214949","decile":"5","lat":40.294235343576,"lng":-111.701251583396},{"id":"18383","name":"Jayda Considine","party":"","address":"320 W 220 S, Orem, UT 84058","precinct":"25OR31","hd":"57","v_score":"9.677383843","decile":"8","lat":40.293239222379,"lng":-111.702573428824},{"id":"18865","name":"Brittny Streich MD","party":"Dem","address":"73 S 320 W, Orem, UT 84058","precinct":"25OR31","hd":"57","v_score":"25.13040659","decile":"10","lat":40.295511279402,"lng":-111.703157805627},{"id":"19270","name":"Dr. Garrison Gibson","party":"Dem","address":"70 W 255 S, Orem, UT 84058","precinct":"25OR31","hd":"57","v_score":"4.210716443","decile":"7","lat":40.292496239072,"lng":-111.697346024685},{"id":"19396","name":"Hamp Leannon PhD","party":"Rep","address":"80 W 255 S, Orem, UT 84058","precinct":"25OR31","hd":"57","v_score":"2.744440783","decile":"5","lat":40.292497877123,"lng":-111.697497952772},{"id":"19669","name":"Camille Kshlerin","party":"Rep","address":"191 S 180 W, Orem, UT 84058","precinct":"25OR31","hd":"57","v_score":"0","decile":"1","lat":40.293526287069,"lng":-111.699242010288},{"id":"19957","name":"Amma McGlynn","party":"Rep","address":"74 S 270 W, Orem, UT 84058","precinct":"25OR31","hd":"57","v_score":"14.74039814","decile":"9","lat":40.295460382397,"lng":-111.702215485112},{"id":"20067","name":"Granville Kassulke","party":"","address":"88 S 320 W, Orem, UT 84058","precinct":"25OR31","hd":"57","v_score":"0","decile":"1","lat":40.295425725791,"lng":-111.703305637117},{"id":"20603","name":"Christina Glover","party":"","address":"178 S 70 W, Orem, UT 84058","precinct":"25OR31","hd":"57","v_score":"4.069929862","decile":"6","lat":40.294241077453,"lng":-111.697217829599},{"id":"21155","name":"Evelyn Schmidt","party":"Rep","address":"115 W 220 S, Orem, UT 84058","precinct":"25OR31","hd":"57","v_score":"0","decile":"1","lat":40.293091467432,"lng":-111.69806156578},{"id":"21431","name":"Lovie Padberg III","party":"Dem","address":"221 W Countryside Dr, Orem, UT 84058","precinct":"25OR31","hd":"57","v_score":"2.744440783","decile":"5","lat":40.293838003433,"lng":-111.700927537947},{"id":"22218","name":"Lorne Schaefer","party":"Rep","address":"74 W 300 S, Orem, UT 84058","precinct":"25OR31","hd":"57","v_score":"7.153624035","decile":"8","lat":40.291756921132,"lng":-111.697441711099},{"id":"22627","name":"Kinley Funk","party":"","address":"325 W Center St, Apt 125, Orem, UT 84057","precinct":"25OR31","hd":"57","v_score":"5.40460374","decile":"7","lat":40.297082340895,"lng":-111.703637540574},{"id":"23548","name":"Ayanna Lehner","party":"Dem","address":"179 W 255 S, Orem, UT 84058","precinct":"25OR31","hd":"57","v_score":"2.744440783","decile":"5","lat":40.29241331439,"lng":-111.699275117093},{"id":"23796","name":"Colie Beer","party":"Dem","address":"76 W 350 S, Orem, UT 84058","precinct":"25OR31","hd":"57","v_score":"14.25581744","decile":"9","lat":40.291017296531,"lng":-111.697733803434},{"id":"24435","name":"Corliss Bergstrom","party":"","address":"344 S 100 W, Orem, UT 84058","precinct":"25OR31","hd":"57","v_score":"28.05068527","decile":"10","lat":40.291169419113,"lng":-111.697963508192},{"id":"24700","name":"Miss Sharla Durgan DDS","party":"Dem","address":"373 S 100 W, Orem, UT 84058","precinct":"25OR31","hd":"57","v_score":"5.273794831","decile":"7","lat":40.290357286818,"lng":-111.697801178277},{"id":"24788","name":"Blair Lowe-Heidenreich","party":"","address":"391 S 400 W, Orem, UT 84058","precinct":"25OR31","hd":"57","v_score":"9.116556227","decile":"8","lat":40.290016282829,"lng":-111.705036145165},{"id":"24917","name":"Eddie Kunze","party":"Dem","address":"189 W 255 S, Orem, UT 84058","precinct":"25OR31","hd":"57","v_score":"9.640097175","decile":"8","lat":40.292419260014,"lng":-111.699569159178},{"id":"25009","name":"Dr. Eulah Langosh DVM","party":"Dem","address":"121 W 255 S, Orem, UT 84058","precinct":"25OR31","hd":"57","v_score":"3.93832808","decile":"6","lat":40.29239533137,"lng":-111.69831602669},{"id":"26277","name":"Cecelia O'Keefe-Williamson","party":"Rep","address":"186 S Orem Blvd, Orem, UT 84058","precinct":"25OR31","hd":"57","v_score":"3.781490609","decile":"6","lat":40.293401759043,"lng":-111.695949842721},{"id":"26445","name":"Giana Buckridge","party":"Dem","address":"92 W 220 S, Orem, UT 84058","precinct":"25OR31","hd":"57","v_score":"3.93832808","decile":"6","lat":40.293201844349,"lng":-111.697733148749},{"id":"26553","name":"Jacalyn Johnson","party":"","address":"359 S 150 W, Orem, UT 84058","precinct":"25OR31","hd":"57","v_score":"6.881235673","decile":"8","lat":40.290622697678,"lng":-111.698781199232},{"id":"27113","name":"Dr. Darrel Quitzon","party":"Dem","address":"132 W 300 S, Orem, UT 84058","precinct":"25OR31","hd":"57","v_score":"1.193887297","decile":"3","lat":40.291775816091,"lng":-111.698516011137},{"id":"27158","name":"Fumiko Blanda","party":"Rep","address":"325 W Center St, Apt 332, Orem, UT 84057","precinct":"25OR31","hd":"57","v_score":"18.28195787","decile":"10","lat":40.297082340895,"lng":-111.703637540574},{"id":"27364","name":"Norris McDermott","party":"","address":"302 W 100 S, Orem, UT 84058","precinct":"25OR31","hd":"57","v_score":"1.121327652","decile":"3","lat":40.295409296422,"lng":-111.702851666277},{"id":"27467","name":"Kalel Bogisich","party":"Rep","address":"266 W 400 S, Orem, UT 84058","precinct":"25OR31","hd":"57","v_score":"9.405332525","decile":"8","lat":40.289916247108,"lng":-111.701556368884},{"id":"28088","name":"Izaiah Dickinson","party":"Dem","address":"183 S 70 W, Orem, UT 84058","precinct":"25OR31","hd":"57","v_score":"0","decile":"1","lat":40.294224769587,"lng":-111.697068205964},{"id":"28936","name":"Laken Rath","party":"Rep","address":"75 S 270 W, Orem, UT 84058","precinct":"25OR31","hd":"57","v_score":"18.02805114","decile":"10","lat":40.295438234644,"lng":-111.702068068066},{"id":"29177","name":"Mrs. Alys Graham MD","party":"Dem","address":"262 W 300 S, Orem, UT 84058","precinct":"25OR31","hd":"57","v_score":"5.40460374","decile":"7","lat":40.291885161128,"lng":-111.701865734929},{"id":"29398","name":"Park Quitzon DVM","party":"Rep","address":"39 W 315 S, Orem, UT 84058","precinct":"25OR31","hd":"57","v_score":"5.258122542","decile":"7","lat":40.291334704971,"lng":-111.696070402358},{"id":"29514","name":"Bernie Zemlak","party":"Dem","address":"189 W 255 S, Orem, UT 84058","precinct":"25OR31","hd":"57","v_score":"5.60307055","decile":"7","lat":40.292419260014,"lng":-111.699569159178},{"id":"29644","name":"Yetta Powlowski","party":"","address":"65 W 255 S, Orem, UT 84058","precinct":"25OR31","hd":"57","v_score":"23.50393489","decile":"10","lat":40.292381217879,"lng":-111.697307220506},{"id":"30185","name":"Ruben Quitzon","party":"Rep","address":"205 W 100 S, Orem, UT 84058","precinct":"25OR31","hd":"57","v_score":"25.64328519","decile":"10","lat":40.295209106122,"lng":-111.700762854768},{"id":"31010","name":"Nancy Renner","party":"","address":"377 S 100 W, Orem, UT 84058","precinct":"25OR31","hd":"57","v_score":"23.09341896","decile":"10","lat":40.290284471326,"lng":-111.697800022486},{"id":"31513","name":"Carmen Bernhard","party":"Rep","address":"134 W 400 S, Orem, UT 84058","precinct":"25OR31","hd":"57","v_score":"2.315214949","decile":"5","lat":40.289898037323,"lng":-111.698519024802},{"id":"31683","name":"Rubi Dicki","party":"Dem","address":"315 W 255 S, Orem, UT 84058","precinct":"25OR31","hd":"57","v_score":"8.347511332","decile":"8","lat":40.292477736314,"lng":-111.703099362358},{"id":"31731","name":"Mr. Lavern Sporer","party":"Rep","address":"84 W 300 S, Orem, UT 84058","precinct":"25OR31","hd":"57","v_score":"2.587603312","decile":"5","lat":40.291759478552,"lng":-111.697598565456},{"id":"32013","name":"Orma Armstrong","party":"Dem","address":"236 S 180 W, Orem, UT 84058","precinct":"25OR31","hd":"57","v_score":"10.95989164","decile":"9","lat":40.292990773954,"lng":-111.699403304217},{"id":"32061","name":"Sunny Howe","party":"","address":"59 W 300 S, Orem, UT 84058","precinct":"25OR31","hd":"57","v_score":"24.93681795","decile":"10","lat":40.291638472791,"lng":-111.69720675912},{"id":"32187","name":"Tyrik Jaskolski II","party":"","address":"118 W 300 S, Orem, UT 84058","precinct":"25OR31","hd":"57","v_score":"1.193887297","decile":"3","lat":40.291771377273,"lng":-111.69827631601},{"id":"32188","name":"Miracle Heathcote","party":"Dem","address":"118 W 300 S, Orem, UT 84058","precinct":"25OR31","hd":"57","v_score":"1.193887297","decile":"3","lat":40.291771377273,"lng":-111.69827631601},{"id":"32384","name":"Hamp Dickinson MD","party":"Dem","address":"194 S Countryside Ln, Orem, UT 84058","precinct":"25OR31","hd":"57","v_score":"16.65741721","decile":"9","lat":40.294018874379,"lng":-111.703488658839},{"id":"32807","name":"Ana Gerlach","party":"","address":"67 S 320 W, Orem, UT 84058","precinct":"25OR31","hd":"57","v_score":"3.781490609","decile":"6","lat":40.295542836692,"lng":-111.70315870726},{"id":"32872","name":"Dr. Gerardo Lehner Jr.","party":"","address":"331 S 150 W, Orem, UT 84058","precinct":"25OR31","hd":"57","v_score":"6.814370645","decile":"8","lat":40.291127386665,"lng":-111.698786028725},{"id":"32948","name":"Shirlene Barrows DDS","party":"","address":"221 W Countryside Dr, Orem, UT 84058","precinct":"25OR31","hd":"57","v_score":"12.13314748","decile":"9","lat":40.293838003433,"lng":-111.700927537947},{"id":"33200","name":"Reece Morissette","party":"Rep","address":"235 S 220 W, Orem, UT 84058","precinct":"25OR31","hd":"57","v_score":"1.121327652","decile":"3","lat":40.292907400077,"lng":-111.700141747425},{"id":"33248","name":"Elsa Daugherty","party":"","address":"331 S 150 W, Orem, UT 84058","precinct":"25OR31","hd":"57","v_score":"5.693042993","decile":"7","lat":40.291127386665,"lng":-111.698786028725},{"id":"33471","name":"Ms. Kylah Gutmann","party":"Dem","address":"245 W 255 S, Orem, UT 84058","precinct":"25OR31","hd":"57","v_score":"2.817000428","decile":"6","lat":40.292444712951,"lng":-111.701126099005},{"id":"34356","name":"Kandace Yost","party":"","address":"356 S 50 W, Orem, UT 84058","precinct":"25OR31","hd":"57","v_score":"1.193887297","decile":"3","lat":40.290658766481,"lng":-111.696330003971},{"id":"34605","name":"Caswell Bechtelar-Renner","party":"Dem","address":"282 W 255 S, Orem, UT 84058","precinct":"25OR31","hd":"57","v_score":"11.30609121","decile":"9","lat":40.292576769125,"lng":-111.702373772853},{"id":"34631","name":"Nathan Sanford","party":"Rep","address":"221 W Countryside Dr, Orem, UT 84058","precinct":"25OR31","hd":"57","v_score":"12.13314748","decile":"9","lat":40.293838003433,"lng":-111.700927537947},{"id":"34645","name":"Dr. Concepcion Nitzsche","party":"Dem","address":"73 W 300 S, Orem, UT 84058","precinct":"25OR31","hd":"57","v_score":"8.387960614","decile":"8","lat":40.29164198011,"lng":-111.697421873666},{"id":"34969","name":"Manly Runte","party":"","address":"309 S 150 W, Orem, UT 84058","precinct":"25OR31","hd":"57","v_score":"2.315214949","decile":"5","lat":40.291523928013,"lng":-111.698789823327},{"id":"35109","name":"Mr. Orange Fritsch","party":"Dem","address":"38 W 355 S, Orem, UT 84058","precinct":"25OR31","hd":"57","v_score":"2.587603312","decile":"5","lat":40.290657296446,"lng":-111.696081582473},{"id":"35502","name":"Steve Jast III","party":"Rep","address":"347 S 150 W, Orem, UT 84058","precinct":"25OR31","hd":"57","v_score":"10.15822798","decile":"9","lat":40.290838992958,"lng":-111.698783269015},{"id":"35902","name":"Bo Lynch","party":"Dem","address":"266 W 100 S, Orem, UT 84058","precinct":"25OR31","hd":"57","v_score":"8.280646305","decile":"8","lat":40.295368767802,"lng":-111.702039467036},{"id":"36203","name":"Mr. Isaac Sawayn","party":"Dem","address":"361 S 100 W, Apt B, Orem, UT 84058","precinct":"25OR31","hd":"57","v_score":"4.069929862","decile":"6","lat":40.290575733293,"lng":-111.697804645653},{"id":"36624","name":"Nichelle Zemlak","party":"Dem","address":"75 S 270 W, Orem, UT 84058","precinct":"25OR31","hd":"57","v_score":"4.079907534","decile":"7","lat":40.295438234644,"lng":-111.702068068066},{"id":"36662","name":"Lulie McGlynn","party":"Dem","address":"247 S 180 W, Orem, UT 84058","precinct":"25OR31","hd":"57","v_score":"3.781490609","decile":"6","lat":40.292913208669,"lng":-111.699256024513},{"id":"37244","name":"Chancy Corwin","party":"Rep","address":"76 W 350 S, Orem, UT 84058","precinct":"25OR31","hd":"57","v_score":"14.25581744","decile":"9","lat":40.291017296531,"lng":-111.697733803434},{"id":"37866","name":"Rice Kuphal","party":"Rep","address":"373 S 100 W, Orem, UT 84058","precinct":"25OR31","hd":"57","v_score":"0","decile":"1","lat":40.290357286818,"lng":-111.697801178277},{"id":"38222","name":"Marget Koch","party":"","address":"344 S 100 W, Orem, UT 84058","precinct":"25OR31","hd":"57","v_score":"26.84076894","decile":"10","lat":40.291169419113,"lng":-111.697963508192},{"id":"38384","name":"Jaquelin Nienow","party":"","address":"377 S 150 W, Orem, UT 84058","precinct":"25OR31","hd":"57","v_score":"1.46627566","decile":"4","lat":40.290298254758,"lng":-111.698778094557},{"id":"39018","name":"Daquan Johnston","party":"Rep","address":"50 W 255 S, Orem, UT 84058","precinct":"25OR31","hd":"57","v_score":"1.193887297","decile":"3","lat":40.292492962972,"lng":-111.697042168511},{"id":"39219","name":"Annika Turcotte","party":"","address":"337 W 350 S, Orem, UT 84058","precinct":"25OR31","hd":"57","v_score":"1.121327652","decile":"3","lat":40.29107370557,"lng":-111.703516022322},{"id":"39851","name":"Gail Feil","party":"","address":"342 W Country Side Dr, Orem, UT 84058","precinct":"25OR31","hd":"57","v_score":"3.016591252","decile":"6","lat":40.294630082896,"lng":-111.703874336939},{"id":"40232","name":"Lennie Wunsch","party":"","address":"85 W 255 S, Orem, UT 84058","precinct":"25OR31","hd":"57","v_score":"1.193887297","decile":"3","lat":40.292384560839,"lng":-111.697617277826},{"id":"40319","name":"Mr. Merwin Cartwright","party":"Rep","address":"359 S 150 W, Orem, UT 84058","precinct":"25OR31","hd":"57","v_score":"6.881235673","decile":"8","lat":40.290622697678,"lng":-111.698781199232},{"id":"40820","name":"Tristan Reilly Sr.","party":"","address":"306 S 50 W, Orem, UT 84058","precinct":"25OR31","hd":"57","v_score":"18.56279573","decile":"10","lat":40.291556315475,"lng":-111.696310138338},{"id":"41302","name":"Jazlyn Schaden","party":"Dem","address":"347 S 150 W, Orem, UT 84058","precinct":"25OR31","hd":"57","v_score":"6.814370645","decile":"8","lat":40.290838992958,"lng":-111.698783269015},{"id":"41460","name":"Dr. Jamie Bartell","party":"Rep","address":"118 W 300 S, Orem, UT 84058","precinct":"25OR31","hd":"57","v_score":"3.781490609","decile":"6","lat":40.291771377273,"lng":-111.69827631601},{"id":"41497","name":"Laquan Keebler","party":"Rep","address":"377 W 350 S, Orem, UT 84058","precinct":"25OR31","hd":"57","v_score":"1.121327652","decile":"3","lat":40.291046107992,"lng":-111.704508803384},{"id":"41547","name":"Miss Cornie Blanda","party":"Rep","address":"69 W 350 S, Orem, UT 84058","precinct":"25OR31","hd":"57","v_score":"0","decile":"1","lat":40.290902705145,"lng":-111.697707964053},{"id":"42025","name":"Dr. Louetta Block","party":"","address":"342 W Country Side Dr, Orem, UT 84058","precinct":"25OR31","hd":"57","v_score":"36.76500675","decile":"10","lat":40.294630082896,"lng":-111.703874336939},{"id":"42088","name":"Rohan Emard","party":"Dem","address":"305 S 50 W, Orem, UT 84058","precinct":"25OR31","hd":"57","v_score":"5.40460374","decile":"7","lat":40.291580726264,"lng":-111.696160626386},{"id":"42100","name":"Cassidy Carter-Hammes","party":"Rep","address":"331 S 50 W, Orem, UT 84058","precinct":"25OR31","hd":"57","v_score":"1.46627566","decile":"4","lat":40.291062256063,"lng":-111.696165966337},{"id":"42255","name":"Arvilla Goyette","party":"","address":"88 W 300 S, Orem, UT 84058","precinct":"25OR31","hd":"57","v_score":"0","decile":"1","lat":40.29176050152,"lng":-111.697661307199},{"id":"42345","name":"Bethel Price","party":"Rep","address":"333 S 150 W, Orem, UT 84058","precinct":"25OR31","hd":"57","v_score":"3.781490609","decile":"6","lat":40.291091337452,"lng":-111.698785683761},{"id":"43204","name":"Agustus Jacobs","party":"","address":"375 W 300 S, Orem, UT 84058","precinct":"25OR31","hd":"57","v_score":"11.02844566","decile":"9","lat":40.29179659835,"lng":-111.702593323962},{"id":"43395","name":"Demarcus Dach","party":"","address":"55 W 350 S, Orem, UT 84058","precinct":"25OR31","hd":"57","v_score":"0","decile":"1","lat":40.290902705141,"lng":-111.697659996997},{"id":"43408","name":"Octave Herman","party":"Rep","address":"185 S 70 W, Orem, UT 84058","precinct":"25OR31","hd":"57","v_score":"5.40460374","decile":"7","lat":40.294218474304,"lng":-111.69706847385},{"id":"43696","name":"Duwayne Berge-Strosin","party":"Dem","address":"274 W 255 S, Orem, UT 84058","precinct":"25OR31","hd":"57","v_score":"1.121327652","decile":"3","lat":40.292571570327,"lng":-111.702052920614},{"id":"43866","name":"Margot Fadel","party":"Rep","address":"366 W 350 S, Orem, UT 84058","precinct":"25OR31","hd":"57","v_score":"6.027167436","decile":"7","lat":40.291185269831,"lng":-111.704413084226},{"id":"43988","name":"Abril Yost","party":"Dem","address":"365 S 100 W, Apt A, Orem, UT 84058","precinct":"25OR31","hd":"57","v_score":"2.315214949","decile":"5","lat":40.290502917801,"lng":-111.697803489861},{"id":"44042","name":"Kai Beier","party":"","address":"158 W 300 S, Orem, UT 84058","precinct":"25OR31","hd":"57","v_score":"16.91593984","decile":"9","lat":40.291791607141,"lng":-111.699145712353},{"id":"45133","name":"Missy Morissette-Torphy","party":"Dem","address":"262 W 300 S, Orem, UT 84058","precinct":"25OR31","hd":"57","v_score":"14.40879056","decile":"9","lat":40.291885161128,"lng":-111.701865734929},{"id":"45409","name":"Terence Walter","party":"Dem","address":"194 W 300 S, Orem, UT 84058","precinct":"25OR31","hd":"57","v_score":"14.31864359","decile":"9","lat":40.291822538478,"lng":-111.700077516655},{"id":"45597","name":"Felicity Maggio","party":"","address":"74 S 270 W, Orem, UT 84058","precinct":"25OR31","hd":"57","v_score":"29.4576876","decile":"10","lat":40.295460382397,"lng":-111.702215485112},{"id":"46487","name":"Levina Wilkinson DDS","party":"Dem","address":"342 S 150 W, Orem, UT 84058","precinct":"25OR31","hd":"57","v_score":"1.121327652","decile":"3","lat":40.290910254999,"lng":-111.698934187154},{"id":"46805","name":"Olie Senger","party":"Rep","address":"377 S 100 W, Orem, UT 84058","precinct":"25OR31","hd":"57","v_score":"4.069929862","decile":"6","lat":40.290284471326,"lng":-111.697800022486},{"id":"46991","name":"Cicero Howe-Conn","party":"","address":"339 W 100 S, Orem, UT 84058","precinct":"25OR31","hd":"57","v_score":"38.24567755","decile":"10","lat":40.295267321489,"lng":-111.703693561032},{"id":"47028","name":"Ashly Weimann","party":"","address":"357 S 280 W, Orem, UT 84058","precinct":"25OR31","hd":"57","v_score":"8.347511332","decile":"8","lat":40.290726554756,"lng":-111.70219488847},{"id":"47535","name":"Leonce Swift","party":"","address":"371 S 100 W, Orem, UT 84058","precinct":"25OR31","hd":"57","v_score":"2.315214949","decile":"5","lat":40.290393694564,"lng":-111.697801756173},{"id":"47996","name":"Dr. Scarlett Pollich PhD","party":"","address":"309 S 150 W, Orem, UT 84058","precinct":"25OR31","hd":"57","v_score":"28.9661873","decile":"10","lat":40.291523928013,"lng":-111.698789823327},{"id":"48187","name":"Burnell Morissette V","party":"","address":"318 W 255 S, Orem, UT 84058","precinct":"25OR31","hd":"57","v_score":"10.02942871","decile":"9","lat":40.292592616142,"lng":-111.703110656463},{"id":"49220","name":"Ms. Ellyn Blick","party":"","address":"114 W 300 S, Orem, UT 84058","precinct":"25OR31","hd":"57","v_score":"1.193887297","decile":"3","lat":40.29177010904,"lng":-111.698207831688},{"id":"49543","name":"Dr. Janae Abshire","party":"Dem","address":"21 W 270 S, Orem, UT 84058","precinct":"25OR31","hd":"57","v_score":"1.193887297","decile":"3","lat":40.292117704878,"lng":-111.6960226902},{"id":"50176","name":"Ridge Nitzsche-Dickens","party":"","address":"182 W 300 S, Orem, UT 84058","precinct":"25OR31","hd":"57","v_score":"8.347511332","decile":"8","lat":40.291812228032,"lng":-111.699766915221},{"id":"50781","name":"Isreal Bogan IV","party":"Dem","address":"316 S 150 W, Orem, UT 84058","precinct":"25OR31","hd":"57","v_score":"6.881235673","decile":"8","lat":40.291378894773,"lng":-111.698938671684},{"id":"51357","name":"Mr. Gabe Fritsch II","party":"Rep","address":"262 W 300 S, Orem, UT 84058","precinct":"25OR31","hd":"57","v_score":"5.40460374","decile":"7","lat":40.291885161128,"lng":-111.701865734929},{"id":"51449","name":"Alesha Botsford PhD","party":"Rep","address":"249 S 50 W, Orem, UT 84058","precinct":"25OR31","hd":"57","v_score":"8.347511332","decile":"8","lat":40.2925337936,"lng":-111.696180695567},{"id":"51497","name":"Osie Marvin Jr.","party":"Dem","address":"189 W 255 S, Orem, UT 84058","precinct":"25OR31","hd":"57","v_score":"8.016984044","decile":"8","lat":40.292419260014,"lng":-111.699569159178},{"id":"51841","name":"Ninnie Abshire","party":"Rep","address":"179 S Country Side Cir, Orem, UT 84058","precinct":"25OR31","hd":"57","v_score":"29.26832549","decile":"10","lat":40.294084538928,"lng":-111.704449167376},{"id":"51852","name":"Kwame Weissnat","party":"","address":"326 W Country Side Dr, Orem, UT 84058","precinct":"25OR31","hd":"57","v_score":"4.858449944","decile":"7","lat":40.294627240294,"lng":-111.703513329947},{"id":"52285","name":"Dr. Dion Conroy","party":"","address":"56 W 350 S, Orem, UT 84058","precinct":"25OR31","hd":"57","v_score":"1.193887297","decile":"3","lat":40.291017296526,"lng":-111.697663851478},{"id":"53080","name":"Fulton Treutel","party":"Rep","address":"61 W 220 S, Orem, UT 84058","precinct":"25OR31","hd":"57","v_score":"2.315214949","decile":"5","lat":40.293081645749,"lng":-111.69729916225},{"id":"53214","name":"Mr. Fuller Johnson","party":"","address":"65 W 255 S, Orem, UT 84058","precinct":"25OR31","hd":"57","v_score":"30.61533869","decile":"10","lat":40.292381217879,"lng":-111.697307220506},{"id":"53795","name":"Jace Koelpin","party":"Rep","address":"249 S 50 W, Orem, UT 84058","precinct":"25OR31","hd":"57","v_score":"8.347511332","decile":"8","lat":40.2925337936,"lng":-111.696180695567},{"id":"53972","name":"Dr. Isiah Ortiz","party":"","address":"325 W Center St, Apt 318, Orem, UT 84057","precinct":"25OR31","hd":"57","v_score":"2.587603312","decile":"5","lat":40.297082340895,"lng":-111.703637540574},{"id":"54274","name":"Rosa Berge","party":"","address":"249 S 50 W, Orem, UT 84058","precinct":"25OR31","hd":"57","v_score":"5.40460374","decile":"7","lat":40.2925337936,"lng":-111.696180695567},{"id":"54367","name":"Dr. Mateo Gislason Sr.","party":"","address":"240 W 220 S, Orem, UT 84058","precinct":"25OR31","hd":"57","v_score":"0","decile":"1","lat":40.293225387705,"lng":-111.701304522189},{"id":"54590","name":"Mr. Raekwon Mann PhD","party":"Rep","address":"333 W 100 S, Orem, UT 84058","precinct":"25OR31","hd":"57","v_score":"6.481563075","decile":"7","lat":40.295264918544,"lng":-111.70356380253},{"id":"56286","name":"Ms. Iza Marquardt","party":"","address":"128 W 300 S, Orem, UT 84058","precinct":"25OR31","hd":"57","v_score":"0","decile":"1","lat":40.291774547857,"lng":-111.698447526815},{"id":"56646","name":"Suzann Schumm","party":"","address":"306 S 230 W, Orem, UT 84058","precinct":"25OR31","hd":"57","v_score":"1.121327652","decile":"3","lat":40.291704587281,"lng":-111.701112766567},{"id":"56802","name":"Elba Kertzmann","party":"Dem","address":"70 S 220 W, Orem, UT 84058","precinct":"25OR31","hd":"57","v_score":"0","decile":"1","lat":40.295413483471,"lng":-111.700956404714},{"id":"56913","name":"Mr. Rey Kemmer","party":"Rep","address":"247 S 180 W, Orem, UT 84058","precinct":"25OR31","hd":"57","v_score":"1.121327652","decile":"3","lat":40.292913208669,"lng":-111.699256024513},{"id":"57106","name":"Mr. Byron Stroman MD","party":"Rep","address":"310 W 220 S, Orem, UT 84058","precinct":"25OR31","hd":"57","v_score":"1.121327652","decile":"3","lat":40.293238035072,"lng":-111.702463010047},{"id":"57424","name":"Tammi Bins","party":"","address":"39 W 315 S, Orem, UT 84058","precinct":"25OR31","hd":"57","v_score":"2.315214949","decile":"5","lat":40.291334704971,"lng":-111.696070402358},{"id":"57818","name":"Gerhard Hoppe-Mante","party":"Rep","address":"36 W 315 S, Orem, UT 84058","precinct":"25OR31","hd":"57","v_score":"9.426618751","decile":"8","lat":40.291449296354,"lng":-111.696065774916},{"id":"57925","name":"Flora Macejkovic","party":"","address":"79 W 165 S, Orem, UT 84058","precinct":"25OR31","hd":"57","v_score":"2.817000428","decile":"6","lat":40.294486827971,"lng":-111.697281839899},{"id":"58490","name":"Miss Jennette Mayert DVM","party":"","address":"179 W 255 S, Orem, UT 84058","precinct":"25OR31","hd":"57","v_score":"36.22444185","decile":"10","lat":40.29241331439,"lng":-111.699275117093},{"id":"58622","name":"Hugo Ziemann","party":"Dem","address":"267 W 185 S, Orem, UT 84058","precinct":"25OR31","hd":"57","v_score":"10.06441387","decile":"9","lat":40.293854471518,"lng":-111.701839976033},{"id":"58638","name":"Burnice Keebler","party":"","address":"217 W 100 S, Orem, UT 84058","precinct":"25OR31","hd":"57","v_score":"0","decile":"1","lat":40.295210681124,"lng":-111.700804592219},{"id":"58642","name":"Wava Nitzsche","party":"Dem","address":"213 S 260 W, Orem, UT 84058","precinct":"25OR31","hd":"57","v_score":"0","decile":"1","lat":40.293412676375,"lng":-111.701748419851},{"id":"59477","name":"Miss Citlali Fritsch","party":"","address":"380 W 400 S, Orem, UT 84058","precinct":"25OR31","hd":"57","v_score":"1.121327652","decile":"3","lat":40.289950026576,"lng":-111.704540000083},{"id":"61024","name":"Mr. Ernesto Purdy","party":"","address":"65 S 360 W, Orem, UT 84058","precinct":"25OR31","hd":"57","v_score":"0","decile":"1","lat":40.295570734947,"lng":-111.704127621304},{"id":"61041","name":"Mr. Emiliano Prosacco PhD","party":"Rep","address":"274 W 255 S, Orem, UT 84058","precinct":"25OR31","hd":"57","v_score":"2.315214949","decile":"5","lat":40.292571570327,"lng":-111.702052920614},{"id":"61295","name":"Dr. Pranav Hane","party":"Rep","address":"320 S 150 W, Orem, UT 84058","precinct":"25OR31","hd":"57","v_score":"1.121327652","decile":"3","lat":40.291306796346,"lng":-111.698937981756},{"id":"61618","name":"Melisa Williamson","party":"Dem","address":"174 S 180 W, Orem, UT 84058","precinct":"25OR31","hd":"57","v_score":"29.19593211","decile":"10","lat":40.293699546145,"lng":-111.699392957153},{"id":"61904","name":"Rutha Waters-Dickens","party":"","address":"329 S 100 W, Orem, UT 84058","precinct":"25OR31","hd":"57","v_score":"0","decile":"1","lat":40.291207544648,"lng":-111.697813729013},{"id":"62013","name":"Dr. Freddy Lind","party":"Dem","address":"104 W 220 S, Orem, UT 84058","precinct":"25OR31","hd":"57","v_score":"1.121327652","decile":"3","lat":40.293204049216,"lng":-111.697904300562},{"id":"62055","name":"Arch Bosco","party":"","address":"92 W 220 S, Orem, UT 84058","precinct":"25OR31","hd":"57","v_score":"5.258122542","decile":"7","lat":40.293201844349,"lng":-111.697733148749},{"id":"62190","name":"Amiyah Bergstrom","party":"Rep","address":"196 S 165 W, Orem, UT 84058","precinct":"25OR31","hd":"57","v_score":"8.670935747","decile":"8","lat":40.294047345388,"lng":-111.698483104527},{"id":"62353","name":"Oris Jones","party":"","address":"92 W 220 S, Orem, UT 84058","precinct":"25OR31","hd":"57","v_score":"7.650280567","decile":"8","lat":40.293201844349,"lng":-111.697733148749},{"id":"63025","name":"Isaias Mraz","party":"Dem","address":"160 W 255 S, Orem, UT 84058","precinct":"25OR31","hd":"57","v_score":"9.40499548","decile":"8","lat":40.292521988535,"lng":-111.698957687278},{"id":"63116","name":"Alto Dickinson-Spencer","party":"Rep","address":"305 S 50 W, Orem, UT 84058","precinct":"25OR31","hd":"57","v_score":"2.744440783","decile":"5","lat":40.291580726264,"lng":-111.696160626386},{"id":"63442","name":"Bart Gutkowski","party":"Dem","address":"217 W 100 S, Orem, UT 84058","precinct":"25OR31","hd":"57","v_score":"0","decile":"1","lat":40.295210681124,"lng":-111.700804592219},{"id":"63577","name":"Karlene Hettinger","party":"Dem","address":"306 S 230 W, Orem, UT 84058","precinct":"25OR31","hd":"57","v_score":"5.191257514","decile":"7","lat":40.291704587281,"lng":-111.701112766567},{"id":"63767","name":"Cinda Abshire","party":"Dem","address":"195 S Countryside Ln, Orem, UT 84058","precinct":"25OR31","hd":"57","v_score":"24.53571782","decile":"10","lat":40.294015754017,"lng":-111.703338476013},{"id":"64440","name":"Rafe Zboncak","party":"Dem","address":"232 S 220 W, Orem, UT 84058","precinct":"25OR31","hd":"57","v_score":"0","decile":"1","lat":40.292918653324,"lng":-111.700291982818},{"id":"64898","name":"Mr. Tilden Hayes Sr.","party":"","address":"250 W 255 S, Orem, UT 84058","precinct":"25OR31","hd":"57","v_score":"4.069929862","decile":"6","lat":40.292561219306,"lng":-111.701269697918},{"id":"64920","name":"Velvet Ward","party":"Rep","address":"59 W 300 S, Orem, UT 84058","precinct":"25OR31","hd":"57","v_score":"27.30636313","decile":"10","lat":40.291638472791,"lng":-111.69720675912},{"id":"65025","name":"Clemente Kunze","party":"Rep","address":"377 S 100 W, Orem, UT 84058","precinct":"25OR31","hd":"57","v_score":"0","decile":"1","lat":40.290284471326,"lng":-111.697800022486},{"id":"65834","name":"Harvie Schuster-Cassin","party":"Rep","address":"145 W 220 S, Orem, UT 84058","precinct":"25OR31","hd":"57","v_score":"5.258122542","decile":"7","lat":40.293096923922,"lng":-111.698485123297},{"id":"66275","name":"Josie Ortiz PhD","party":"","address":"226 W 220 S, Orem, UT 84058","precinct":"25OR31","hd":"57","v_score":"0","decile":"1","lat":40.293221445739,"lng":-111.70094974766},{"id":"68000","name":"Ms. Girtha Cruickshank","party":"Dem","address":"174 S 180 W, Orem, UT 84058","precinct":"25OR31","hd":"57","v_score":"19.07349948","decile":"10","lat":40.293699546145,"lng":-111.699392957153},{"id":"68383","name":"Pauletta Yundt","party":"","address":"332 S 230 W, Orem, UT 84058","precinct":"25OR31","hd":"57","v_score":"12.08307454","decile":"9","lat":40.29154874093,"lng":-111.701115763632},{"id":"68430","name":"Toby Kirlin","party":"Dem","address":"315 S 150 W, Orem, UT 84058","precinct":"25OR31","hd":"57","v_score":"1.121327652","decile":"3","lat":40.291415780372,"lng":-111.698788788436},{"id":"68874","name":"Delma Crist","party":"","address":"290 W 220 S, Orem, UT 84058","precinct":"25OR31","hd":"57","v_score":"0","decile":"1","lat":40.293235660457,"lng":-111.702242172492},{"id":"68912","name":"Mr. Allyn Zemlak","party":"Rep","address":"231 S 180 W, Orem, UT 84058","precinct":"25OR31","hd":"57","v_score":"0","decile":"1","lat":40.293031866946,"lng":-111.699251401448},{"id":"69948","name":"Julius DuBuque","party":"Rep","address":"76 S 270 W, Orem, UT 84058","precinct":"25OR31","hd":"57","v_score":"0","decile":"1","lat":40.295455417053,"lng":-111.702216694619},{"id":"69961","name":"Colton Kris-Kshlerin","party":"","address":"213 S 260 W, Orem, UT 84058","precinct":"25OR31","hd":"57","v_score":"0","decile":"1","lat":40.293412676375,"lng":-111.701748419851},{"id":"70374","name":"Reubin Grady Jr.","party":"Rep","address":"75 W 300 S, Orem, UT 84058","precinct":"25OR31","hd":"57","v_score":"6.481563075","decile":"7","lat":40.291642481156,"lng":-111.697452604316},{"id":"70942","name":"Harley Hoppe-Hoeger","party":"Dem","address":"338 S 100 W, Orem, UT 84058","precinct":"25OR31","hd":"57","v_score":"1.193887297","decile":"3","lat":40.291234841186,"lng":-111.697964296401},{"id":"71142","name":"Tristin Greenholt","party":"Dem","address":"180 S 70 W, Orem, UT 84058","precinct":"25OR31","hd":"57","v_score":"1.121327652","decile":"3","lat":40.29423478217,"lng":-111.697218097484},{"id":"71359","name":"Kaye Kirlin","party":"","address":"188 S 70 W, Orem, UT 84058","precinct":"25OR31","hd":"57","v_score":"1.121327652","decile":"3","lat":40.294209601037,"lng":-111.697219169025},{"id":"72010","name":"Reinhold Little","party":"Dem","address":"189 W 255 S, Orem, UT 84058","precinct":"25OR31","hd":"57","v_score":"6.979934218","decile":"8","lat":40.292419260014,"lng":-111.699569159178},{"id":"72146","name":"Mr. Matteo Goodwin Sr.","party":"","address":"368 W Country Side Dr, Orem, UT 84058","precinct":"25OR31","hd":"57","v_score":"9.40499548","decile":"8","lat":40.294634702126,"lng":-111.704460973299},{"id":"73216","name":"Elmore Kris V","party":"","address":"132 W 300 S, Orem, UT 84058","precinct":"25OR31","hd":"57","v_score":"3.93832808","decile":"6","lat":40.291775816091,"lng":-111.698516011137},{"id":"73377","name":"Mr. Milburn Pouros MD","party":"Dem","address":"124 W 400 S, Orem, UT 84058","precinct":"25OR31","hd":"57","v_score":"11.04986408","decile":"9","lat":40.289894193493,"lng":-111.698348935931},{"id":"73719","name":"Meyer Blanda","party":"Dem","address":"199 S 180 W, Orem, UT 84058","precinct":"25OR31","hd":"57","v_score":"23.86036318","decile":"10","lat":40.293438638624,"lng":-111.699242096482},{"id":"74029","name":"Dr. Marlena McDermott MD","party":"Rep","address":"365 W 350 S, Orem, UT 84058","precinct":"25OR31","hd":"57","v_score":"8.284004873","decile":"8","lat":40.291081647989,"lng":-111.704250368834},{"id":"74811","name":"Phyllis Ziemann","party":"Dem","address":"276 W 400 S, Orem, UT 84058","precinct":"25OR31","hd":"57","v_score":"10.71705651","decile":"9","lat":40.289917100674,"lng":-111.701758233559},{"id":"75136","name":"Page Moore","party":"Rep","address":"196 W 400 S, Orem, UT 84058","precinct":"25OR31","hd":"57","v_score":"1.193887297","decile":"3","lat":40.289910296833,"lng":-111.700034584343},{"id":"75697","name":"Campbell Harris","party":"Dem","address":"80 W 255 S, Orem, UT 84058","precinct":"25OR31","hd":"57","v_score":"2.744440783","decile":"5","lat":40.292497877123,"lng":-111.697497952772},{"id":"75753","name":"Shyann Zboncak","party":"","address":"189 S 70 W, Orem, UT 84058","precinct":"25OR31","hd":"57","v_score":"1.121327652","decile":"3","lat":40.294205883737,"lng":-111.69706900962},{"id":"76303","name":"Miss Sunday Deckow DDS","party":"Dem","address":"341 S 340 W, Orem, UT 84058","precinct":"25OR31","hd":"57","v_score":"10.66687182","decile":"9","lat":40.291536227178,"lng":-111.703541845869},{"id":"76448","name":"Kayleen Jast","party":"","address":"80 W 255 S, Orem, UT 84058","precinct":"25OR31","hd":"57","v_score":"1.121327652","decile":"3","lat":40.292497877123,"lng":-111.697497952772},{"id":"76695","name":"Clarisa Reinger","party":"","address":"372 S 150 W, Orem, UT 84058","precinct":"25OR31","hd":"57","v_score":"3.93832808","decile":"6","lat":40.290369516798,"lng":-111.698929012697},{"id":"77399","name":"Felicia Moen-Bartoletti","party":"","address":"134 W 400 S, Orem, UT 84058","precinct":"25OR31","hd":"57","v_score":"2.315214949","decile":"5","lat":40.289898037323,"lng":-111.698519024802},{"id":"77535","name":"Ollie Blick","party":"Rep","address":"77 W 165 S, Orem, UT 84058","precinct":"25OR31","hd":"57","v_score":"2.315214949","decile":"5","lat":40.294486474819,"lng":-111.697256677973},{"id":"77771","name":"Dr. Odus Huels III","party":"","address":"368 W Country Side Dr, Orem, UT 84058","precinct":"25OR31","hd":"57","v_score":"17.77840782","decile":"10","lat":40.294634702126,"lng":-111.704460973299},{"id":"78036","name":"Marco Daniel","party":"Dem","address":"92 W 220 S, Orem, UT 84058","precinct":"25OR31","hd":"57","v_score":"2.315214949","decile":"5","lat":40.293201844349,"lng":-111.697733148749},{"id":"79423","name":"Ruffus Pfeffer","party":"Rep","address":"359 W 300 S, Orem, UT 84058","precinct":"25OR31","hd":"57","v_score":"1.121327652","decile":"3","lat":40.291797345174,"lng":-111.702561210443},{"id":"79603","name":"Bernardine Blick","party":"Rep","address":"72 S 220 W, Orem, UT 84058","precinct":"25OR31","hd":"57","v_score":"1.121327652","decile":"3","lat":40.295407433207,"lng":-111.70095647194},{"id":"81269","name":"Mrs. Caitlyn Bauch","party":"","address":"279 S 280 W, Orem, UT 84058","precinct":"25OR31","hd":"57","v_score":"1.193887297","decile":"3","lat":40.292015503326,"lng":-111.702239385645},{"id":"81850","name":"Amie Parisian","party":"","address":"188 S 70 W, Orem, UT 84058","precinct":"25OR31","hd":"57","v_score":"0","decile":"1","lat":40.294209601037,"lng":-111.697219169025},{"id":"82001","name":"Cheri Shanahan-Tromp","party":"Dem","address":"290 W 220 S, Orem, UT 84058","precinct":"25OR31","hd":"57","v_score":"1.193887297","decile":"3","lat":40.293235660457,"lng":-111.702242172492},{"id":"82121","name":"Clell O'Reilly","party":"","address":"242 W 100 S, Orem, UT 84058","precinct":"25OR31","hd":"57","v_score":"9.119914795","decile":"8","lat":40.295339419269,"lng":-111.701479807163},{"id":"82261","name":"Dr. Gianni Keeling Jr.","party":"Dem","address":"243 W 100 S, Orem, UT 84058","precinct":"25OR31","hd":"57","v_score":"16.18372391","decile":"9","lat":40.295224861976,"lng":-111.701483470814},{"id":"82348","name":"Ms. Rosalind Terry PhD","party":"","address":"338 S 100 W, Orem, UT 84058","precinct":"25OR31","hd":"57","v_score":"0","decile":"1","lat":40.291234841186,"lng":-111.697964296401},{"id":"82479","name":"Mr. Butch Schuster","party":"","address":"339 S 340 W, Orem, UT 84058","precinct":"25OR31","hd":"57","v_score":"0","decile":"1","lat":40.291548215135,"lng":-111.703541922713},{"id":"82610","name":"Zion Luettgen-Greenholt","party":"Dem","address":"72 S 220 W, Orem, UT 84058","precinct":"25OR31","hd":"57","v_score":"6.372115444","decile":"7","lat":40.295407433207,"lng":-111.70095647194},{"id":"82931","name":"Mr. Bruno Jones","party":"","address":"222 W 300 S, Orem, UT 84058","precinct":"25OR31","hd":"57","v_score":"3.711952487","decile":"6","lat":40.291846596185,"lng":-111.700802253335},{"id":"83811","name":"Dinah Hauck","party":"Dem","address":"282 W 255 S, Orem, UT 84058","precinct":"25OR31","hd":"57","v_score":"2.817000428","decile":"6","lat":40.292576769125,"lng":-111.702373772853},{"id":"84155","name":"Dr. Devon Kemmer","party":"","address":"240 W 220 S, Orem, UT 84058","precinct":"25OR31","hd":"57","v_score":"1.193887297","decile":"3","lat":40.293225387705,"lng":-111.701304522189},{"id":"84157","name":"Lottie Russel-Bergnaum","party":"Rep","address":"58 W 300 S, Orem, UT 84058","precinct":"25OR31","hd":"57","v_score":"1.193887297","decile":"3","lat":40.291752829259,"lng":-111.697190744128},{"id":"84328","name":"Marleigh Konopelski","party":"Rep","address":"74 S 270 W, Orem, UT 84058","precinct":"25OR31","hd":"57","v_score":"16.63566174","decile":"9","lat":40.295460382397,"lng":-111.702215485112},{"id":"84543","name":"Miss Taryn Johnston MD","party":"Rep","address":"331 S 100 W, Orem, UT 84058","precinct":"25OR31","hd":"57","v_score":"0","decile":"1","lat":40.29117592398,"lng":-111.697813348046},{"id":"85498","name":"Adolph Gislason","party":"","address":"94 W 400 S, Orem, UT 84058","precinct":"25OR31","hd":"57","v_score":"0","decile":"1","lat":40.289881890389,"lng":-111.697699404441},{"id":"86652","name":"Jimmie Hilpert","party":"Dem","address":"357 S 280 W, Orem, UT 84058","precinct":"25OR31","hd":"57","v_score":"2.817000428","decile":"6","lat":40.290726554756,"lng":-111.70219488847},{"id":"86942","name":"Ciara Monahan","party":"Rep","address":"325 S 280 W, Orem, UT 84058","precinct":"25OR31","hd":"57","v_score":"0","decile":"1","lat":40.291344493226,"lng":-111.702224444094},{"id":"87338","name":"Samiyah Schulist","party":"Rep","address":"218 W 220 S, Orem, UT 84058","precinct":"25OR31","hd":"57","v_score":"1.193887297","decile":"4","lat":40.293219193186,"lng":-111.700747019358},{"id":"88279","name":"Kade Schneider","party":"Rep","address":"189 S 70 W, Orem, UT 84058","precinct":"25OR31","hd":"57","v_score":"7.781882349","decile":"8","lat":40.294205883737,"lng":-111.69706900962},{"id":"88341","name":"Cinnamon Wintheiser","party":"Dem","address":"104 W 220 S, Orem, UT 84058","precinct":"25OR31","hd":"57","v_score":"0","decile":"1","lat":40.293204049216,"lng":-111.697904300562},{"id":"88520","name":"Jack Hartmann","party":"","address":"231 W 100 S, Orem, UT 84058","precinct":"25OR31","hd":"57","v_score":"0","decile":"1","lat":40.295219547688,"lng":-111.701197829038},{"id":"88543","name":"Derrick VonRueden","party":"Dem","address":"365 W 350 S, Orem, UT 84058","precinct":"25OR31","hd":"57","v_score":"0","decile":"1","lat":40.291081647989,"lng":-111.704250368834},{"id":"88851","name":"Jaimee Parisian-Murray","party":"Dem","address":"310 W 220 S, Orem, UT 84058","precinct":"25OR31","hd":"57","v_score":"0","decile":"1","lat":40.293238035072,"lng":-111.702463010047},{"id":"90151","name":"Tarik Kuphal","party":"Dem","address":"195 S Countryside Ln, Orem, UT 84058","precinct":"25OR31","hd":"57","v_score":"2.876042565","decile":"6","lat":40.294015754017,"lng":-111.703338476013},{"id":"90993","name":"Dimitrios Olson-Harris","party":"Dem","address":"39 W 315 S, Orem, UT 84058","precinct":"25OR31","hd":"57","v_score":"0","decile":"1","lat":40.291334704971,"lng":-111.696070402358},{"id":"91064","name":"Leatrice Kuvalis-Wisozk","party":"","address":"345 S 280 W, Orem, UT 84058","precinct":"25OR31","hd":"57","v_score":"1.623113131","decile":"5","lat":40.290960321982,"lng":-111.702200433444},{"id":"91130","name":"Shanon Leuschke-Konopelski","party":"","address":"357 S 280 W, Orem, UT 84058","precinct":"25OR31","hd":"57","v_score":"1.193887297","decile":"4","lat":40.290726554756,"lng":-111.70219488847},{"id":"91529","name":"Buel Williamson Sr.","party":"Rep","address":"88 W 300 S, Orem, UT 84058","precinct":"25OR31","hd":"57","v_score":"0","decile":"1","lat":40.29176050152,"lng":-111.697661307199},{"id":"91611","name":"Nancie Sawayn","party":"Rep","address":"339 W 100 S, Orem, UT 84058","precinct":"25OR31","hd":"57","v_score":"2.817000428","decile":"6","lat":40.295267321489,"lng":-111.703693561032},{"id":"92361","name":"Eddie Schmidt","party":"Dem","address":"332 S 230 W, Orem, UT 84058","precinct":"25OR31","hd":"57","v_score":"5.693042993","decile":"7","lat":40.29154874093,"lng":-111.701115763632},{"id":"94220","name":"Lucindy Morissette","party":"","address":"334 W 300 S, Orem, UT 84058","precinct":"25OR31","hd":"57","v_score":"1.623113131","decile":"5","lat":40.291913003562,"lng":-111.702517618467},{"id":"94363","name":"Adrienne Conn PhD","party":"","address":"232 W 100 S, Orem, UT 84058","precinct":"25OR31","hd":"57","v_score":"0","decile":"1","lat":40.295334990696,"lng":-111.70124177235},{"id":"95012","name":"Dr. Canyon Runolfsson I","party":"Rep","address":"172 W 400 S, Orem, UT 84058","precinct":"25OR31","hd":"57","v_score":"1.193887297","decile":"4","lat":40.289908250206,"lng":-111.699557630321},{"id":"95433","name":"Miss Isobel Bernier","party":"","address":"225 S 220 W, Orem, UT 84058","precinct":"25OR31","hd":"57","v_score":"0","decile":"1","lat":40.292963666255,"lng":-111.700141747417},{"id":"95452","name":"Shelia Gleason","party":"","address":"75 W 300 S, Orem, UT 84058","precinct":"25OR31","hd":"57","v_score":"1.193887297","decile":"4","lat":40.291642481156,"lng":-111.697452604316},{"id":"96669","name":"Leva Ziemann","party":"","address":"179 S Country Side Cir, Orem, UT 84058","precinct":"25OR31","hd":"57","v_score":"13.61907049","decile":"9","lat":40.294084538928,"lng":-111.704449167376},{"id":"96684","name":"Lamonte Stanton","party":"","address":"345 S 280 W, Orem, UT 84058","precinct":"25OR31","hd":"57","v_score":"14.13760315","decile":"9","lat":40.290960321982,"lng":-111.702200433444},{"id":"97906","name":"Eugenio Dietrich","party":"","address":"341 S 340 W, Orem, UT 84058","precinct":"25OR31","hd":"57","v_score":"1.623113131","decile":"5","lat":40.291536227178,"lng":-111.703541845869},{"id":"98500","name":"Mr. Evertt Fay","party":"Dem","address":"88 S 320 W, Orem, UT 84058","precinct":"25OR31","hd":"57","v_score":"1.193887297","decile":"4","lat":40.295425725791,"lng":-111.703305637117},{"id":"98785","name":"Dr. Alvina Altenwerth DVM","party":"Dem","address":"65 S 360 W, Orem, UT 84058","precinct":"25OR31","hd":"57","v_score":"0","decile":"1","lat":40.295570734947,"lng":-111.704127621304},{"id":"98802","name":"Gussie Mante","party":"Rep","address":"92 W 220 S, Orem, UT 84058","precinct":"25OR31","hd":"57","v_score":"1.193887297","decile":"4","lat":40.293201844349,"lng":-111.697733148749},{"id":"99224","name":"Leopold Schaefer I","party":"Dem","address":"341 S 340 W, Orem, UT 84058","precinct":"25OR31","hd":"57","v_score":"4.214075011","decile":"7","lat":40.291536227178,"lng":-111.703541845869},{"id":"99516","name":"Mr. Fleet Kertzmann Sr.","party":"Dem","address":"70 S 220 W, Orem, UT 84058","precinct":"25OR31","hd":"57","v_score":"0","decile":"1","lat":40.295413483471,"lng":-111.700956404714},{"id":"99850","name":"Desmond Schuster","party":"Rep","address":"361 S 100 W, Apt B, Orem, UT 84058","precinct":"25OR31","hd":"57","v_score":"9.338633761","decile":"8","lat":40.290575733293,"lng":-111.697804645653},{"id":"100121","name":"Jermain Barton","party":"","address":"61 W 220 S, Orem, UT 84058","precinct":"25OR31","hd":"57","v_score":"0","decile":"1","lat":40.293081645749,"lng":-111.69729916225},{"id":"100182","name":"Cilla Walsh MD","party":"Rep","address":"310 W 220 S, Orem, UT 84058","precinct":"25OR31","hd":"57","v_score":"0","decile":"1","lat":40.293238035072,"lng":-111.702463010047},{"id":"100732","name":"Eryn Schoen-Schroeder","party":"Rep","address":"318 W 255 S, Orem, UT 84058","precinct":"25OR31","hd":"57","v_score":"1.193887297","decile":"4","lat":40.292592616142,"lng":-111.703110656463},{"id":"101298","name":"Dawson Smith","party":"Rep","address":"320 S 50 W, Orem, UT 84058","precinct":"25OR31","hd":"57","v_score":"0","decile":"2","lat":40.291300558609,"lng":-111.696308124612},{"id":"101877","name":"Rosie Kautzer","party":"Dem","address":"279 S 280 W, Orem, UT 84058","precinct":"25OR31","hd":"57","v_score":"0","decile":"2","lat":40.292015503326,"lng":-111.702239385645},{"id":"103141","name":"Tari Mraz","party":"","address":"76 S 270 W, Orem, UT 84058","precinct":"25OR31","hd":"57","v_score":"0","decile":"2","lat":40.295455417053,"lng":-111.702216694619},{"id":"103705","name":"Alvin Padberg MD","party":"","address":"185 S 70 W, Orem, UT 84058","precinct":"25OR31","hd":"57","v_score":"1.193887297","decile":"4","lat":40.294218474304,"lng":-111.69706847385},{"id":"104519","name":"Beverlee Steuber","party":"","address":"61 W 165 S, Orem, UT 84058","precinct":"25OR31","hd":"57","v_score":"9.638447451","decile":"8","lat":40.294482787249,"lng":-111.69696938783},{"id":"104972","name":"Alanna Goldner","party":"","address":"226 W 220 S, Orem, UT 84058","precinct":"25OR31","hd":"57","v_score":"4.069929862","decile":"7","lat":40.293221445739,"lng":-111.70094974766},{"id":"104973","name":"Amy Ferry","party":"","address":"226 W 220 S, Orem, UT 84058","precinct":"25OR31","hd":"57","v_score":"4.069929862","decile":"7","lat":40.293221445739,"lng":-111.70094974766},{"id":"105155","name":"Whitley Williamson","party":"Rep","address":"366 W 350 S, Orem, UT 84058","precinct":"25OR31","hd":"57","v_score":"3.711952487","decile":"6","lat":40.291185269831,"lng":-111.704413084226},{"id":"105795","name":"Hakeem Kautzer","party":"Dem","address":"38 W 355 S, Orem, UT 84058","precinct":"25OR31","hd":"57","v_score":"1.193887297","decile":"4","lat":40.290657296446,"lng":-111.696081582473},{"id":"105822","name":"Thaddeus Bernhard","party":"","address":"57 W 350 S, Orem, UT 84058","precinct":"25OR31","hd":"57","v_score":"0","decile":"2","lat":40.290902705142,"lng":-111.697666849434},{"id":"106679","name":"Stephany Reilly-Bailey","party":"Dem","address":"72 S 220 W, Orem, UT 84058","precinct":"25OR31","hd":"57","v_score":"11.99595736","decile":"9","lat":40.295407433207,"lng":-111.70095647194},{"id":"107185","name":"Archibald Gulgowski","party":"Dem","address":"94 W 400 S, Orem, UT 84058","precinct":"25OR31","hd":"57","v_score":"0","decile":"2","lat":40.289881890389,"lng":-111.697699404441},{"id":"107766","name":"Hope Kshlerin","party":"","address":"231 W 100 S, Orem, UT 84058","precinct":"25OR31","hd":"57","v_score":"0","decile":"2","lat":40.295219547688,"lng":-111.701197829038},{"id":"107947","name":"Nallely Hamill-Sawayn","party":"Dem","address":"274 W 255 S, Orem, UT 84058","precinct":"25OR31","hd":"57","v_score":"1.193887297","decile":"4","lat":40.292571570327,"lng":-111.702052920614},{"id":"109569","name":"Mrs. Margretta Larson MD","party":"","address":"365 W 350 S, Orem, UT 84058","precinct":"25OR31","hd":"57","v_score":"8.284004873","decile":"8","lat":40.291081647989,"lng":-111.704250368834},{"id":"109851","name":"Luciana Heaney","party":"Dem","address":"311 S 150 W, Orem, UT 84058","precinct":"25OR31","hd":"57","v_score":"6.462591196","decile":"7","lat":40.291487878799,"lng":-111.698789478363},{"id":"110295","name":"Dr. Lucian Hamill","party":"","address":"311 S 150 W, Orem, UT 84058","precinct":"25OR31","hd":"57","v_score":"6.462591196","decile":"7","lat":40.291487878799,"lng":-111.698789478363},{"id":"110991","name":"Farrell Breitenberg","party":"Dem","address":"365 W 350 S, Orem, UT 84058","precinct":"25OR31","hd":"57","v_score":"7.090117576","decile":"8","lat":40.291081647989,"lng":-111.704250368834},{"id":"111012","name":"Mrs. Shawna Macejkovic","party":"","address":"65 W 350 S, Orem, UT 84058","precinct":"25OR31","hd":"57","v_score":"1.193887297","decile":"4","lat":40.290902705144,"lng":-111.69769425918},{"id":"111372","name":"Mr. Finn Walker","party":"","address":"362 W 300 S, Orem, UT 84058","precinct":"25OR31","hd":"57","v_score":"1.193887297","decile":"4","lat":40.291911696621,"lng":-111.702573817123},{"id":"111500","name":"Janessa Anderson","party":"","address":"356 S 50 W, Orem, UT 84058","precinct":"25OR31","hd":"57","v_score":"1.193887297","decile":"4","lat":40.290658766481,"lng":-111.696330003971},{"id":"112839","name":"Mayra Considine","party":"Rep","address":"59 W 165 S, Orem, UT 84058","precinct":"25OR31","hd":"57","v_score":"0","decile":"2","lat":40.2944825812,"lng":-111.696952079839},{"id":"113171","name":"Emanuel Gibson","party":"","address":"217 S 400 W, Orem, UT 84058","precinct":"25OR31","hd":"57","v_score":"5.407962308","decile":"7","lat":40.293165086466,"lng":-111.705104571088},{"id":"113238","name":"Bonny Stracke","party":"Dem","address":"56 W 300 S, Orem, UT 84058","precinct":"25OR31","hd":"57","v_score":"0","decile":"2","lat":40.291752317775,"lng":-111.697159373257},{"id":"113282","name":"Tory McKenzie DDS","party":"","address":"243 W 100 S, Orem, UT 84058","precinct":"25OR31","hd":"57","v_score":"4.069929862","decile":"7","lat":40.295224861976,"lng":-111.701483470814},{"id":"113623","name":"Miss Shelba Hills","party":"","address":"160 W 255 S, Orem, UT 84058","precinct":"25OR31","hd":"57","v_score":"1.193887297","decile":"4","lat":40.292521988535,"lng":-111.698957687278},{"id":"114403","name":"Landan Kiehn","party":"","address":"357 S 280 W, Orem, UT 84058","precinct":"25OR31","hd":"57","v_score":"1.193887297","decile":"4","lat":40.290726554756,"lng":-111.70219488847},{"id":"114465","name":"Mr. Val Little II","party":"Dem","address":"172 W 400 S, Orem, UT 84058","precinct":"25OR31","hd":"57","v_score":"0","decile":"2","lat":40.289908250206,"lng":-111.699557630321},{"id":"114541","name":"Lurline Eichmann DVM","party":"","address":"367 W 300 S, Orem, UT 84058","precinct":"25OR31","hd":"57","v_score":"1.193887297","decile":"4","lat":40.291796971762,"lng":-111.702577267202},{"id":"115988","name":"Deidra O'Reilly-Simonis","party":"","address":"58 W 300 S, Orem, UT 84058","precinct":"25OR31","hd":"57","v_score":"0","decile":"2","lat":40.291752829259,"lng":-111.697190744128},{"id":"116020","name":"Art Deckow","party":"","address":"357 S 280 W, Orem, UT 84058","precinct":"25OR31","hd":"57","v_score":"0","decile":"2","lat":40.290726554756,"lng":-111.70219488847},{"id":"116054","name":"Mr. Cameron Okuneva","party":"","address":"321 W 100 S, Orem, UT 84058","precinct":"25OR31","hd":"57","v_score":"1.193887297","decile":"4","lat":40.295260112653,"lng":-111.703304285526},{"id":"117106","name":"Ozella Lesch","party":"Dem","address":"121 W 255 S, Orem, UT 84058","precinct":"25OR31","hd":"57","v_score":"1.193887297","decile":"4","lat":40.29239533137,"lng":-111.69831602669},{"id":"117966","name":"Mr. Adelard Friesen PhD","party":"","address":"196 S 165 W, Orem, UT 84058","precinct":"25OR31","hd":"57","v_score":"1.193887297","decile":"4","lat":40.294047345388,"lng":-111.698483104527},{"id":"119208","name":"Jerimiah Dooley","party":"Rep","address":"178 S 70 W, Orem, UT 84058","precinct":"25OR31","hd":"57","v_score":"4.069929862","decile":"7","lat":40.294241077453,"lng":-111.697217829599},{"id":"119606","name":"Vennie Bogisich","party":"","address":"263 S 100 W, Orem, UT 84058","precinct":"25OR31","hd":"57","v_score":"1.193887297","decile":"4","lat":40.291994101547,"lng":-111.697824993337},{"id":"119890","name":"Steven Hills PhD","party":"Rep","address":"179 S Country Side Cir, Orem, UT 84058","precinct":"25OR31","hd":"57","v_score":"1.193887297","decile":"4","lat":40.294084538928,"lng":-111.704449167376},{"id":"119928","name":"Stafford Hessel","party":"Dem","address":"388 W 100 S, Orem, UT 84058","precinct":"25OR31","hd":"57","v_score":"1.193887297","decile":"4","lat":40.295397600632,"lng":-111.704892361539},{"id":"120418","name":"Mardell Nolan MD","party":"Dem","address":"349 W 350 S, Orem, UT 84058","precinct":"25OR31","hd":"57","v_score":"1.193887297","decile":"4","lat":40.291076560067,"lng":-111.703843337567},{"id":"120856","name":"Glynda Gottlieb MD","party":"","address":"50 W 255 S, Orem, UT 84058","precinct":"25OR31","hd":"57","v_score":"1.193887297","decile":"4","lat":40.292492962972,"lng":-111.697042168511},{"id":"120899","name":"Myrna Hamill","party":"Dem","address":"56 W 350 S, Apt 56, Orem, UT 84058","precinct":"25OR31","hd":"57","v_score":"0","decile":"2","lat":40.291017296526,"lng":-111.697663851478},{"id":"121294","name":"Dr. Skyler Daugherty DVM","party":"Rep","address":"142 W 300 S, Orem, UT 84058","precinct":"25OR31","hd":"57","v_score":"0","decile":"2","lat":40.291778986674,"lng":-111.698687221942},{"id":"122202","name":"Darryle Bednar","party":"","address":"60 W 255 S, Orem, UT 84058","precinct":"25OR31","hd":"57","v_score":"1.193887297","decile":"4","lat":40.292494601022,"lng":-111.697194096598},{"id":"122491","name":"Keyla Collins DDS","party":"","address":"240 W 220 S, Orem, UT 84058","precinct":"25OR31","hd":"57","v_score":"1.193887297","decile":"4","lat":40.293225387705,"lng":-111.701304522189},{"id":"122909","name":"Paityn Emmerich","party":"Rep","address":"236 S 180 W, Orem, UT 84058","precinct":"25OR31","hd":"57","v_score":"0","decile":"2","lat":40.292990773954,"lng":-111.699403304217},{"id":"124105","name":"Corda Satterfield","party":"Rep","address":"36 W 315 S, Orem, UT 84058","precinct":"25OR31","hd":"57","v_score":"1.193887297","decile":"4","lat":40.291449296354,"lng":-111.696065774916},{"id":"124335","name":"Sigurd Klein Sr.","party":"Dem","address":"267 W 255 S, Orem, UT 84058","precinct":"25OR31","hd":"57","v_score":"1.193887297","decile":"4","lat":40.292455719537,"lng":-111.701958925806},{"id":"125028","name":"Dr. Nery Bednar","party":"Dem","address":"363 S 150 W, Orem, UT 84058","precinct":"25OR31","hd":"57","v_score":"0","decile":"2","lat":40.290550599251,"lng":-111.698780509304},{"id":"125814","name":"Senora King","party":"Rep","address":"267 W 255 S, Orem, UT 84058","precinct":"25OR31","hd":"57","v_score":"0","decile":"2","lat":40.292455719537,"lng":-111.701958925806},{"id":"125901","name":"Joesph Emard","party":"Rep","address":"249 S 50 W, Orem, UT 84058","precinct":"25OR31","hd":"57","v_score":"0","decile":"2","lat":40.2925337936,"lng":-111.696180695567},{"id":"126038","name":"Kyrie Carroll","party":"","address":"76 S 270 W, Orem, UT 84058","precinct":"25OR31","hd":"57","v_score":"0","decile":"2","lat":40.295455417053,"lng":-111.702216694619},{"id":"126054","name":"Mr. Archer Rippin","party":"Rep","address":"76 S 270 W, Orem, UT 84058","precinct":"25OR31","hd":"57","v_score":"0","decile":"2","lat":40.295455417053,"lng":-111.702216694619},{"id":"127617","name":"Gannon Brakus","party":"","address":"325 W Center St, Apt 330, Orem, UT 84057","precinct":"25OR31","hd":"57","v_score":"0","decile":"2","lat":40.297082340895,"lng":-111.703637540574},{"id":"127660","name":"Ms. Cannie White DDS","party":"Rep","address":"321 W 100 S, Orem, UT 84058","precinct":"25OR31","hd":"57","v_score":"0","decile":"2","lat":40.295260112653,"lng":-111.703304285526},{"id":"127771","name":"Dr. Orlo Cruickshank III","party":"Dem","address":"303 W 220 S, Orem, UT 84058","precinct":"25OR31","hd":"57","v_score":"4.214075011","decile":"7","lat":40.293121987145,"lng":-111.702328610013},{"id":"128371","name":"Domenic Feest-Wisoky","party":"Dem","address":"148 W 300 S, Orem, UT 84058","precinct":"25OR31","hd":"57","v_score":"6.724398202","decile":"8","lat":40.291780889025,"lng":-111.698789948425},{"id":"128535","name":"Mae Corkery","party":"","address":"70 W 350 S, Orem, UT 84058","precinct":"25OR31","hd":"57","v_score":"0","decile":"2","lat":40.291017296529,"lng":-111.697712817847},{"id":"128926","name":"Steven Jaskolski","party":"Rep","address":"391 W 100 S, Orem, UT 84058","precinct":"25OR31","hd":"57","v_score":"0","decile":"2","lat":40.295283419187,"lng":-111.704938350581},{"id":"129011","name":"Marcel Steuber","party":"","address":"96 W 400 S, Orem, UT 84058","precinct":"25OR31","hd":"57","v_score":"0","decile":"2","lat":40.28988227754,"lng":-111.697745668483},{"id":"129290","name":"Dr. Lorin Koepp I","party":"Rep","address":"181 S 70 W, Orem, UT 84058","precinct":"25OR31","hd":"57","v_score":"0","decile":"2","lat":40.29423106487,"lng":-111.697067938079},{"id":"129305","name":"Rocco Medhurst","party":"Dem","address":"381 S 100 W, Orem, UT 84058","precinct":"25OR31","hd":"57","v_score":"2.876042565","decile":"6","lat":40.290211655834,"lng":-111.697798866694},{"id":"129641","name":"Harry VonRueden DVM","party":"","address":"342 W 255 S, Orem, UT 84058","precinct":"25OR31","hd":"57","v_score":"0","decile":"2","lat":40.292625808266,"lng":-111.7037229859},{"id":"129938","name":"Emmaline Moen","party":"Dem","address":"251 W 255 S, Orem, UT 84058","precinct":"25OR31","hd":"57","v_score":"4.214075011","decile":"7","lat":40.292447714747,"lng":-111.701353233587},{"id":"130118","name":"Abbigail Heaney","party":"Dem","address":"361 W Country Side Dr, Orem, UT 84058","precinct":"25OR31","hd":"57","v_score":"0","decile":"2","lat":40.294519197174,"lng":-111.704345727835},{"id":"130218","name":"Jory Goldner","party":"Dem","address":"206 W 100 S, Orem, UT 84058","precinct":"25OR31","hd":"57","v_score":"0","decile":"2","lat":40.29532382003,"lng":-111.700762386911},{"id":"130451","name":"Patrice Mills","party":"Rep","address":"202 S 165 W, Orem, UT 84058","precinct":"25OR31","hd":"57","v_score":"0","decile":"2","lat":40.294018908693,"lng":-111.698482861482},{"id":"130914","name":"Zeb Batz PhD","party":"Rep","address":"267 W 255 S, Orem, UT 84058","precinct":"25OR31","hd":"57","v_score":"0","decile":"2","lat":40.292455719537,"lng":-111.701958925806},{"id":"130942","name":"Werner Douglas IV","party":"","address":"195 S Country Side Ln, Orem, UT 84058","precinct":"25OR31","hd":"57","v_score":"2.876042565","decile":"6","lat":40.294015754017,"lng":-111.703338476013},{"id":"131368","name":"Rory Dooley PhD","party":"","address":"178 S Orem Blvd, Orem, UT 84058","precinct":"25OR31","hd":"57","v_score":"0","decile":"2","lat":40.293500230826,"lng":-111.69599365813},{"id":"131598","name":"Koby Turcotte","party":"","address":"329 W 350 S, Orem, UT 84058","precinct":"25OR31","hd":"57","v_score":"2.876042565","decile":"6","lat":40.291073705566,"lng":-111.703469568516},{"id":"132872","name":"Lonzo McLaughlin Sr.","party":"","address":"42 W 220 S, Orem, UT 84058","precinct":"25OR31","hd":"57","v_score":"0","decile":"2","lat":40.2931926574,"lng":-111.697020016196},{"id":"133191","name":"Miss Josefa Nolan DDS","party":"","address":"361 S 100 W, Apt A, Orem, UT 84058","precinct":"25OR31","hd":"57","v_score":"0","decile":"2","lat":40.290575733293,"lng":-111.697804645653},{"id":"133398","name":"Leroy Wisozk","party":"Dem","address":"366 W 350 S, Orem, UT 84058","precinct":"25OR31","hd":"57","v_score":"0","decile":"2","lat":40.291185269831,"lng":-111.704413084226},{"id":"133504","name":"Jamarcus Parker","party":"","address":"366 W 350 S, Orem, UT 84058","precinct":"25OR31","hd":"57","v_score":"0","decile":"2","lat":40.291185269831,"lng":-111.704413084226},{"id":"134165","name":"Mrs. Michaela Schoen MD","party":"Dem","address":"162 W 300 S, Orem, UT 84058","precinct":"25OR31","hd":"57","v_score":"0","decile":"2","lat":40.291795043956,"lng":-111.699249246164},{"id":"134331","name":"Jaylin O'Keefe","party":"Dem","address":"243 W 100 S, Orem, UT 84058","precinct":"25OR31","hd":"57","v_score":"0","decile":"2","lat":40.295224861976,"lng":-111.701483470814},{"id":"134508","name":"Emily Crooks","party":"","address":"310 S 100 W, Orem, UT 84058","precinct":"25OR31","hd":"57","v_score":"0","decile":"2","lat":40.291540144192,"lng":-111.69796797471},{"id":"134679","name":"Daniela Daugherty PhD","party":"Dem","address":"61 W 165 S, Orem, UT 84058","precinct":"25OR31","hd":"57","v_score":"1.193887297","decile":"4","lat":40.294482787249,"lng":-111.69696938783},{"id":"136561","name":"Madilyn Wisoky-Cummings","party":"Dem","address":"86 S 360 W, Orem, UT 84058","precinct":"25OR31","hd":"57","v_score":"1.193887297","decile":"4","lat":40.295455095793,"lng":-111.704276218487},{"id":"138140","name":"Pedro Wolff","party":"Rep","address":"370 W 300 S, Orem, UT 84058","precinct":"25OR31","hd":"57","v_score":"0","decile":"2","lat":40.291911323209,"lng":-111.702589873882},{"id":"138404","name":"Elle Kirlin-Dickens","party":"Rep","address":"367 W 300 S, Orem, UT 84058","precinct":"25OR31","hd":"57","v_score":"7.111403802","decile":"8","lat":40.291796971762,"lng":-111.702577267202},{"id":"139374","name":"Kenji Ziemann-Murazik","party":"Rep","address":"58 W 400 S, Orem, UT 84058","precinct":"25OR31","hd":"57","v_score":"0","decile":"2","lat":40.289874921682,"lng":-111.696866651687},{"id":"141384","name":"Jill Lindgren","party":"Rep","address":"391 W 350 S, Orem, UT 84058","precinct":"25OR31","hd":"57","v_score":"17.28363314","decile":"9","lat":40.290914381827,"lng":-111.704822173462},{"id":"142722","name":"Amerigo Kiehn","party":"Rep","address":"325 W Center St, Apt 103, Orem, UT 84057","precinct":"25OR31","hd":"57","v_score":"2.315214949","decile":"5","lat":40.297082340895,"lng":-111.703637540574},{"id":"143171","name":"Farrell Kshlerin","party":"Dem","address":"344 S 150 W, Orem, UT 84058","precinct":"25OR31","hd":"57","v_score":"11.56055976","decile":"9","lat":40.290874205785,"lng":-111.69893384219},{"id":"143759","name":"Olivine Roob","party":"","address":"124 W 400 S, Orem, UT 84058","precinct":"25OR31","hd":"57","v_score":"33.69318103","decile":"10","lat":40.289894193493,"lng":-111.698348935931},{"id":"144792","name":"Jerica Bergstrom","party":"","address":"357 W 100 S, Orem, UT 84058","precinct":"25OR31","hd":"57","v_score":"16.60969033","decile":"9","lat":40.295274530325,"lng":-111.704082836538},{"id":"145759","name":"Jakayla Lakin","party":"","address":"262 W 300 S, Orem, UT 84058","precinct":"25OR31","hd":"57","v_score":"5.40460374","decile":"7","lat":40.291885161128,"lng":-111.701865734929},{"id":"146440","name":"Windy Ledner","party":"Dem","address":"181 S 70 W, Orem, UT 84058","precinct":"25OR31","hd":"57","v_score":"10.22509301","decile":"9","lat":40.29423106487,"lng":-111.697067938079},{"id":"146896","name":"Ruffin Walter","party":"Rep","address":"306 S 230 W, Orem, UT 84058","precinct":"25OR31","hd":"57","v_score":"1.46627566","decile":"4","lat":40.291704587281,"lng":-111.701112766567},{"id":"147316","name":"Anjali Bruen","party":"Rep","address":"36 W 355 S, Orem, UT 84058","precinct":"25OR31","hd":"57","v_score":"28.10869664","decile":"10","lat":40.290657296446,"lng":-111.69607824351},{"id":"147341","name":"Deedee Hermiston","party":"","address":"201 S 165 W, Orem, UT 84058","precinct":"25OR31","hd":"57","v_score":"40.78891255","decile":"10","lat":40.294029134592,"lng":-111.698332707173},{"id":"147988","name":"Jonnie Senger","party":"","address":"213 S 260 W, Orem, UT 84058","precinct":"25OR31","hd":"57","v_score":"8.280646305","decile":"8","lat":40.293412676375,"lng":-111.701748419851},{"id":"147989","name":"Lucio Moen","party":"Dem","address":"213 S 260 W, Orem, UT 84058","precinct":"25OR31","hd":"57","v_score":"11.99259879","decile":"9","lat":40.293412676375,"lng":-111.701748419851},{"id":"148269","name":"Valentin Jones","party":"Dem","address":"237 W 220 S, Orem, UT 84058","precinct":"25OR31","hd":"57","v_score":"17.30662658","decile":"9","lat":40.293108731921,"lng":-111.701119820337},{"id":"148438","name":"Mrs. Aryana Baumbach","party":"Dem","address":"267 W 100 S, Orem, UT 84058","precinct":"25OR31","hd":"57","v_score":"15.53273099","decile":"9","lat":40.295255465608,"lng":-111.702061939718},{"id":"148537","name":"Dr. Gus Dare","party":"","address":"267 W 100 S, Orem, UT 84058","precinct":"25OR31","hd":"57","v_score":"34.09285363","decile":"10","lat":40.295255465608,"lng":-111.702061939718},{"id":"148731","name":"Burnice Murazik","party":"Rep","address":"345 S 280 W, Orem, UT 84058","precinct":"25OR31","hd":"57","v_score":"16.72520646","decile":"9","lat":40.290960321982,"lng":-111.702200433444},{"id":"148977","name":"Alpha Kuhlman","party":"Dem","address":"83 S 360 W, Orem, UT 84058","precinct":"25OR31","hd":"57","v_score":"42.66649422","decile":"10","lat":40.295476066823,"lng":-111.704126268915},{"id":"149130","name":"Dave Bahringer","party":"","address":"77 S 400 W, Orem, UT 84058","precinct":"25OR31","hd":"57","v_score":"0","decile":"3","lat":40.295782344251,"lng":-111.705131781889},{"id":"149643","name":"Alivia Haley","party":"","address":"230 W 400 S, Orem, UT 84058","precinct":"25OR31","hd":"57","v_score":"11.99259879","decile":"9","lat":40.289913174271,"lng":-111.700829656055},{"id":"150125","name":"Berenice Schinner","party":"","address":"325 W Center St, Apt 207, Orem, UT 84057","precinct":"25OR31","hd":"57","v_score":"1.193887297","decile":"4","lat":40.297082340895,"lng":-111.703637540574},{"id":"150437","name":"Tonja Emard","party":"Dem","address":"132 W 300 S, Orem, UT 84058","precinct":"25OR31","hd":"57","v_score":"5.40460374","decile":"7","lat":40.291775816091,"lng":-111.698516011137},{"id":"150660","name":"Mr. Lary Hauck I","party":"Rep","address":"172 S 165 W, Orem, UT 84058","precinct":"25OR31","hd":"57","v_score":"36.63608863","decile":"10","lat":40.294161092167,"lng":-111.698484076707},{"id":"150806","name":"Georgiana Koelpin-Batz","party":"Dem","address":"317 S 340 W, Orem, UT 84058","precinct":"25OR31","hd":"57","v_score":"5.40460374","decile":"7","lat":40.291680082665,"lng":-111.703542768},{"id":"150988","name":"Volney Schmitt","party":"Rep","address":"201 S 165 W, Orem, UT 84058","precinct":"25OR31","hd":"57","v_score":"45.76919357","decile":"10","lat":40.294029134592,"lng":-111.698332707173},{"id":"151446","name":"Mr. Gaston Trantow","party":"","address":"336 W 220 S, Orem, UT 84058","precinct":"25OR31","hd":"57","v_score":"23.26455041","decile":"10","lat":40.293241122071,"lng":-111.702750098868},{"id":"153483","name":"Desean Brekke","party":"Dem","address":"160 W 255 S, Orem, UT 84058","precinct":"25OR31","hd":"57","v_score":"29.29899487","decile":"10","lat":40.292521988535,"lng":-111.698957687278},{"id":"153484","name":"Jerri Thiel","party":"Rep","address":"160 W 255 S, Orem, UT 84058","precinct":"25OR31","hd":"57","v_score":"29.29899487","decile":"10","lat":40.292521988535,"lng":-111.698957687278},{"id":"154048","name":"Mr. Pete Abbott","party":"","address":"71 S 400 W, Orem, UT 84058","precinct":"25OR31","hd":"57","v_score":"35.30276996","decile":"10","lat":40.295885773417,"lng":-111.705135270421},{"id":"154602","name":"Clemence Heathcote MD","party":"Rep","address":"296 W Countryside Dr, Orem, UT 84058","precinct":"25OR31","hd":"57","v_score":"35.30276996","decile":"10","lat":40.293976667087,"lng":-111.702277411412},{"id":"154603","name":"Barrie Reichel","party":"Dem","address":"296 W Countryside Dr, Orem, UT 84058","precinct":"25OR31","hd":"57","v_score":"35.30276996","decile":"10","lat":40.293976667087,"lng":-111.702277411412},{"id":"155230","name":"Harvy O'Conner","party":"Dem","address":"333 W 100 S, Orem, UT 84058","precinct":"25OR31","hd":"57","v_score":"37.84600495","decile":"10","lat":40.295264918544,"lng":-111.70356380253},{"id":"155541","name":"Hayward Schimmel","party":"","address":"168 S 240 W, Orem, UT 84058","precinct":"25OR31","hd":"57","v_score":"34.45938705","decile":"10","lat":40.294149187704,"lng":-111.701403432548},{"id":"155827","name":"Brynn Homenick DVM","party":"Rep","address":"236 S 180 W, Orem, UT 84058","precinct":"25OR31","hd":"57","v_score":"20.33220369","decile":"10","lat":40.292990773954,"lng":-111.699403304217},{"id":"155976","name":"London Schiller","party":"","address":"315 W 255 S, Orem, UT 84058","precinct":"25OR31","hd":"57","v_score":"11.2235539","decile":"9","lat":40.292477736314,"lng":-111.703099362358},{"id":"156380","name":"Berniece Casper DVM","party":"","address":"146 W 255 S, Orem, UT 84058","precinct":"25OR31","hd":"57","v_score":"0","decile":"3","lat":40.292517413172,"lng":-111.698713668937},{"id":"156438","name":"Deforest Carter","party":"","address":"310 W 220 S, Orem, UT 84058","precinct":"25OR31","hd":"57","v_score":"1.121327652","decile":"3","lat":40.293238035072,"lng":-111.702463010047},{"id":"156570","name":"Drew Paucek","party":"","address":"265 W 220 S, Orem, UT 84058","precinct":"25OR31","hd":"57","v_score":"5.40460374","decile":"7","lat":40.293115876736,"lng":-111.701762849171},{"id":"156758","name":"Blanch Trantow","party":"","address":"199 S 180 W, Orem, UT 84058","precinct":"25OR31","hd":"57","v_score":"33.69318103","decile":"10","lat":40.293438638624,"lng":-111.699242096482},{"id":"156916","name":"Britany Hansen PhD","party":"Dem","address":"75 W 255 S, Orem, UT 84058","precinct":"25OR31","hd":"57","v_score":"5.40460374","decile":"7","lat":40.292382889359,"lng":-111.697462249166},{"id":"157170","name":"Konner Howe","party":"","address":"325 W Center St, Apt 206, Orem, UT 84057","precinct":"25OR31","hd":"57","v_score":"7.567884335","decile":"8","lat":40.297082340895,"lng":-111.703637540574},{"id":"158012","name":"Dr. Shanta Pfannerstill","party":"Dem","address":"268 W 185 S, Orem, UT 84058","precinct":"25OR31","hd":"57","v_score":"8.445971984","decile":"8","lat":40.293972267307,"lng":-111.702023325294},{"id":"158175","name":"Cristofer Wisoky","party":"Dem","address":"289 W 100 S, Orem, UT 84058","precinct":"25OR31","hd":"57","v_score":"8.085704327","decile":"8","lat":40.295294705018,"lng":-111.702585896302},{"id":"158665","name":"Dr. Ramon Kunde","party":"Rep","address":"179 S Country Side Cir, Orem, UT 84058","precinct":"25OR31","hd":"57","v_score":"36.37972929","decile":"10","lat":40.294084538928,"lng":-111.704449167376},{"id":"159119","name":"Brandon Quigley","party":"Dem","address":"379 W 255 S, Orem, UT 84058","precinct":"25OR31","hd":"57","v_score":"28.19136616","decile":"10","lat":40.292541928638,"lng":-111.70462574204},{"id":"159344","name":"Mrs. Misti Wilderman","party":"Dem","address":"242 W 400 S, Orem, UT 84058","precinct":"25OR31","hd":"57","v_score":"15.05924254","decile":"9","lat":40.28991419855,"lng":-111.701071893665},{"id":"159504","name":"Randal Kris","party":"Dem","address":"325 W Center St, Apt 128, Orem, UT 84057","precinct":"25OR31","hd":"57","v_score":"44.04237644","decile":"10","lat":40.297082340895,"lng":-111.703637540574},{"id":"159709","name":"Essie Ferry","party":"","address":"289 W 100 S, Orem, UT 84058","precinct":"25OR31","hd":"57","v_score":"27.45629497","decile":"10","lat":40.295294705018,"lng":-111.702585896302},{"id":"159853","name":"Randel Stokes","party":"Rep","address":"180 S Orem Blvd, Orem, UT 84058","precinct":"25OR31","hd":"57","v_score":"19.74179771","decile":"10","lat":40.29347561288,"lng":-111.695982704277},{"id":"160022","name":"Miss Claudia Dickens","party":"Dem","address":"62 W 220 S, Orem, UT 84058","precinct":"25OR31","hd":"57","v_score":"9.116556227","decile":"8","lat":40.29319633218,"lng":-111.697305269217},{"id":"160210","name":"Lorrie Marks PhD","party":"","address":"352 W 400 S, Orem, UT 84058","precinct":"25OR31","hd":"57","v_score":"24.08893072","decile":"10","lat":40.289942918717,"lng":-111.703774134622},{"id":"160280","name":"Amberly Flatley","party":"Dem","address":"211 S 180 W, Orem, UT 84058","precinct":"25OR31","hd":"57","v_score":"20.18590886","decile":"10","lat":40.293308433727,"lng":-111.699244069301},{"id":"161629","name":"Edmond Nienow","party":"Rep","address":"332 W 100 S, Orem, UT 84058","precinct":"25OR31","hd":"57","v_score":"33.55824628","decile":"10","lat":40.295379476182,"lng":-111.703560155826},{"id":"161655","name":"Alijah Schneider","party":"Rep","address":"317 W 220 S, Orem, UT 84058","precinct":"25OR31","hd":"57","v_score":"12.01543255","decile":"9","lat":40.293123724931,"lng":-111.70249022295},{"id":"161905","name":"Mr. Chin Kuhn III","party":"Rep","address":"172 S 165 W, Orem, UT 84058","precinct":"25OR31","hd":"57","v_score":"41.90479252","decile":"10","lat":40.294161092167,"lng":-111.698484076707},{"id":"162270","name":"Coleton Ward","party":"Dem","address":"243 W 100 S, Orem, UT 84058","precinct":"25OR31","hd":"57","v_score":"28.87284927","decile":"10","lat":40.295224861976,"lng":-111.701483470814},{"id":"162275","name":"Dr. Ossie Prosacco Sr.","party":"Rep","address":"71 W 300 S, Orem, UT 84058","precinct":"25OR31","hd":"57","v_score":"2.315214949","decile":"5","lat":40.291641479065,"lng":-111.697391143017},{"id":"162775","name":"Aric Breitenberg-Boehm","party":"Dem","address":"365 W 350 S, Orem, UT 84058","precinct":"25OR31","hd":"57","v_score":"28.19136616","decile":"10","lat":40.291081647989,"lng":-111.704250368834},{"id":"163947","name":"Miss Zula Mante","party":"Rep","address":"345 S 280 W, Orem, UT 84058","precinct":"25OR31","hd":"57","v_score":"15.2589308","decile":"9","lat":40.290960321982,"lng":-111.702200433444},{"id":"164249","name":"Verner Kilback","party":"Rep","address":"315 W 255 S, Orem, UT 84058","precinct":"25OR31","hd":"57","v_score":"1.46627566","decile":"4","lat":40.292477736314,"lng":-111.703099362358},{"id":"164572","name":"Audry O'Conner","party":"Dem","address":"327 W 255 S, Orem, UT 84058","precinct":"25OR31","hd":"57","v_score":"3.781490609","decile":"6","lat":40.292482654353,"lng":-111.703328050375},{"id":"165029","name":"Benito Hintz","party":"Rep","address":"289 W 100 S, Orem, UT 84058","precinct":"25OR31","hd":"57","v_score":"15.02598214","decile":"9","lat":40.295294705018,"lng":-111.702585896302},{"id":"165033","name":"Rory Kirlin","party":"Dem","address":"8 W 400 S, Orem, UT 84058","precinct":"25OR31","hd":"57","v_score":"3.781490609","decile":"6","lat":40.289859094554,"lng":-111.695614125129},{"id":"165075","name":"Josie Harvey","party":"Dem","address":"84 W 300 S, Orem, UT 84058","precinct":"25OR31","hd":"57","v_score":"5.273794831","decile":"7","lat":40.291759478552,"lng":-111.697598565456},{"id":"165483","name":"Miss Jimena Lowe","party":"Dem","address":"61 W 220 S, Orem, UT 84058","precinct":"25OR31","hd":"57","v_score":"2.315214949","decile":"5","lat":40.293081645749,"lng":-111.69729916225},{"id":"166080","name":"Marlyn Hodkiewicz-Howe","party":"Rep","address":"174 S 180 W, Orem, UT 84058","precinct":"25OR31","hd":"57","v_score":"30.73460115","decile":"10","lat":40.293699546145,"lng":-111.699392957153},{"id":"166327","name":"Mitchel Conn","party":"","address":"179 S Country Side Cir, Orem, UT 84058","precinct":"25OR31","hd":"57","v_score":"36.37972929","decile":"10","lat":40.294084538928,"lng":-111.704449167376},{"id":"167281","name":"Kirk Romaguera-Bogisich","party":"","address":"290 W 220 S, Orem, UT 84058","precinct":"25OR31","hd":"57","v_score":"1.46627566","decile":"4","lat":40.293235660457,"lng":-111.702242172492},{"id":"167807","name":"Louis McClure-Ziemann","party":"Dem","address":"159 W 220 S, Orem, UT 84058","precinct":"25OR31","hd":"57","v_score":"20.93928147","decile":"10","lat":40.293099470284,"lng":-111.698682783471},{"id":"167833","name":"Mr. Abdul Connelly","party":"Dem","address":"118 W 220 S, Orem, UT 84058","precinct":"25OR31","hd":"57","v_score":"6.481563075","decile":"7","lat":40.293206621562,"lng":-111.698103977677},{"id":"168888","name":"Jadyn Schinner","party":"","address":"266 W 100 S, Orem, UT 84058","precinct":"25OR31","hd":"57","v_score":"8.280646305","decile":"8","lat":40.295368767802,"lng":-111.702039467036},{"id":"169416","name":"Ms. Trina Fisher DDS","party":"Dem","address":"289 W 100 S, Orem, UT 84058","precinct":"25OR31","hd":"57","v_score":"2.315214949","decile":"5","lat":40.295294705018,"lng":-111.702585896302},{"id":"170230","name":"Ms. Gayla Ward","party":"","address":"68 S 360 W, Orem, UT 84058","precinct":"25OR31","hd":"57","v_score":"5.40460374","decile":"7","lat":40.29555173617,"lng":-111.704277599051},{"id":"170599","name":"Chantel Kirlin","party":"","address":"250 W 255 S, Orem, UT 84058","precinct":"25OR31","hd":"57","v_score":"2.315214949","decile":"5","lat":40.292561219306,"lng":-111.701269697918},{"id":"170686","name":"Randel Goldner-Huel","party":"Dem","address":"36 W 355 S, Orem, UT 84058","precinct":"25OR31","hd":"57","v_score":"8.284004873","decile":"8","lat":40.290657296446,"lng":-111.69607824351},{"id":"171550","name":"Paige Kirlin","party":"Dem","address":"146 W 255 S, Orem, UT 84058","precinct":"25OR31","hd":"57","v_score":"0","decile":"3","lat":40.292517413172,"lng":-111.698713668937},{"id":"172041","name":"Tempie Morar","party":"","address":"262 W 300 S, Orem, UT 84058","precinct":"25OR31","hd":"57","v_score":"5.40460374","decile":"7","lat":40.291885161128,"lng":-111.701865734929},{"id":"172434","name":"Elias Smitham","party":"Rep","address":"391 S 400 W, Orem, UT 84058","precinct":"25OR31","hd":"57","v_score":"9.116556227","decile":"8","lat":40.290016282829,"lng":-111.705036145165},{"id":"172721","name":"Adrain Gleason","party":"","address":"85 W 165 S, Orem, UT 84058","precinct":"25OR31","hd":"57","v_score":"10.51003435","decile":"9","lat":40.294487887426,"lng":-111.697357325677},{"id":"173221","name":"Mckenna Aufderhar","party":"Rep","address":"8 W 400 S, Orem, UT 84058","precinct":"25OR31","hd":"57","v_score":"3.781490609","decile":"6","lat":40.289859094554,"lng":-111.695614125129},{"id":"173280","name":"Ms. Shardae Jacobs","party":"Rep","address":"159 W 220 S, Orem, UT 84058","precinct":"25OR31","hd":"57","v_score":"20.93928147","decile":"10","lat":40.293099470284,"lng":-111.698682783471},{"id":"173643","name":"Arlyn Grant","party":"Dem","address":"357 W 350 S, Orem, UT 84058","precinct":"25OR31","hd":"57","v_score":"3.93832808","decile":"6","lat":40.291079104028,"lng":-111.704046853201},{"id":"173862","name":"Roosevelt Goyette","party":"","address":"332 S 230 W, Orem, UT 84058","precinct":"25OR31","hd":"57","v_score":"19.45083768","decile":"10","lat":40.29154874093,"lng":-111.701115763632},{"id":"174113","name":"Raquel Mayert-Luettgen","party":"Rep","address":"236 W 255 S, Orem, UT 84058","precinct":"25OR31","hd":"57","v_score":"46.05761644","decile":"10","lat":40.29255518121,"lng":-111.700812818012},{"id":"174438","name":"Ottis Swift","party":"Dem","address":"53 W 165 S, Orem, UT 84058","precinct":"25OR31","hd":"57","v_score":"14.93550638","decile":"9","lat":40.294481963054,"lng":-111.696900155867},{"id":"174554","name":"Charles Kreiger-Schmeler","party":"Rep","address":"325 W Center St, Apt 203, Orem, UT 84057","precinct":"25OR31","hd":"57","v_score":"6.823096747","decile":"8","lat":40.297082340895,"lng":-111.703637540574},{"id":"174611","name":"Doshie Hansen","party":"Rep","address":"242 W 100 S, Orem, UT 84058","precinct":"25OR31","hd":"57","v_score":"35.59765397","decile":"10","lat":40.295339419269,"lng":-111.701479807163},{"id":"175554","name":"Dr. Esequiel Littel","party":"Dem","address":"75 W 255 S, Orem, UT 84058","precinct":"25OR31","hd":"57","v_score":"1.121327652","decile":"3","lat":40.292382889359,"lng":-111.697462249166},{"id":"175798","name":"Monserrat Goldner","party":"","address":"237 W 220 S, Orem, UT 84058","precinct":"25OR31","hd":"57","v_score":"11.687527","decile":"9","lat":40.293108731921,"lng":-111.701119820337},{"id":"175982","name":"Sydni Hoppe","party":"","address":"244 W 255 S, Orem, UT 84058","precinct":"25OR31","hd":"57","v_score":"1.121327652","decile":"3","lat":40.29255863155,"lng":-111.701073892244},{"id":"176058","name":"Gidget Howell","party":"Dem","address":"233 S 335 W, Orem, UT 84058","precinct":"25OR31","hd":"57","v_score":"2.660162957","decile":"5","lat":40.292960227905,"lng":-111.703437355911},{"id":"176067","name":"Tamya Champlin DDS","party":"","address":"378 W 350 S, Orem, UT 84058","precinct":"25OR31","hd":"57","v_score":"3.781490609","decile":"6","lat":40.291104225385,"lng":-111.704681640209},{"id":"176272","name":"Trudi Daniel","party":"Rep","address":"357 W 350 S, Orem, UT 84058","precinct":"25OR31","hd":"57","v_score":"3.93832808","decile":"6","lat":40.291079104028,"lng":-111.704046853201},{"id":"176293","name":"Mrs. Adriana Kunde","party":"Rep","address":"332 S 230 W, Orem, UT 84058","precinct":"25OR31","hd":"57","v_score":"13.5493502","decile":"9","lat":40.29154874093,"lng":-111.701115763632},{"id":"176298","name":"Dr. Gay Hagenes","party":"Rep","address":"332 S 230 W, Orem, UT 84058","precinct":"25OR31","hd":"57","v_score":"13.5493502","decile":"9","lat":40.29154874093,"lng":-111.701115763632},{"id":"176767","name":"Mr. Talen Sanford Jr.","party":"Rep","address":"378 W 350 S, Orem, UT 84058","precinct":"25OR31","hd":"57","v_score":"3.781490609","decile":"6","lat":40.291104225385,"lng":-111.704681640209},{"id":"177016","name":"Howell Zieme Sr.","party":"Rep","address":"361 S 100 W, Apt D, Orem, UT 84058","precinct":"25OR31","hd":"57","v_score":"43.11470885","decile":"10","lat":40.290575733293,"lng":-111.697804645653},{"id":"177474","name":"Kyrie Quitzon","party":"Dem","address":"132 W 300 S, Orem, UT 84058","precinct":"25OR31","hd":"57","v_score":"3.93832808","decile":"6","lat":40.291775816091,"lng":-111.698516011137},{"id":"177674","name":"Jeri Gottlieb","party":"Dem","address":"131 W 220 S, Orem, UT 84058","precinct":"25OR31","hd":"57","v_score":"4.137918904","decile":"7","lat":40.29309437756,"lng":-111.698287463122},{"id":"178228","name":"Dr. Carrie Sawayn DVM","party":"Dem","address":"294 W 255 S, Orem, UT 84058","precinct":"25OR31","hd":"57","v_score":"23.12885658","decile":"10","lat":40.292582051464,"lng":-111.702619400723},{"id":"178444","name":"Rozella Muller","party":"","address":"361 S 100 W, Apt D, Orem, UT 84058","precinct":"25OR31","hd":"57","v_score":"11.29723756","decile":"9","lat":40.290575733293,"lng":-111.697804645653},{"id":"178564","name":"Aiyana Becker","party":"","address":"174 S 180 W, Orem, UT 84058","precinct":"25OR31","hd":"57","v_score":"38.94621264","decile":"10","lat":40.293699546145,"lng":-111.699392957153},{"id":"179806","name":"Else Kub","party":"","address":"53 W 165 S, Orem, UT 84058","precinct":"25OR31","hd":"57","v_score":"1.121327652","decile":"3","lat":40.294481963054,"lng":-111.696900155867},{"id":"179888","name":"Jamel Maggio IV","party":"Rep","address":"53 W 300 S, Orem, UT 84058","precinct":"25OR31","hd":"57","v_score":"3.93832808","decile":"6","lat":40.291636969655,"lng":-111.697114567171},{"id":"179943","name":"Ora Gulgowski","party":"Rep","address":"370 S 200 W, Orem, UT 84058","precinct":"25OR31","hd":"57","v_score":"10.15822798","decile":"9","lat":40.290096095758,"lng":-111.700215479771},{"id":"180004","name":"Murphy Marks","party":"","address":"265 W 220 S, Orem, UT 84058","precinct":"25OR31","hd":"57","v_score":"1.193887297","decile":"4","lat":40.293115876736,"lng":-111.701762849171},{"id":"180172","name":"Delton McKenzie III","party":"Dem","address":"120 W 300 S, Orem, UT 84058","precinct":"25OR31","hd":"57","v_score":"0","decile":"3","lat":40.29177201139,"lng":-111.698310558171},{"id":"181006","name":"Mrs. Aleena Rogahn","party":"Rep","address":"39 W 315 S, Orem, UT 84058","precinct":"25OR31","hd":"57","v_score":"1.121327652","decile":"3","lat":40.291334704971,"lng":-111.696070402358}]