[{"id":"74","name":"Gabriel Rippin","party":"","address":"73 W 2000 N, Orem, UT 84057","precinct":"25OR03","hd":"58","v_score":"5.693042993","decile":"7","lat":40.333751700272,"lng":-111.697782949739},{"id":"2657","name":"Sandie O'Reilly","party":"Rep","address":"1931 N Main St, Orem, UT 84057","precinct":"25OR03","hd":"58","v_score":"5.40460374","decile":"7","lat":40.332873717964,"lng":-111.696620358605},{"id":"4362","name":"Albina Mohr","party":"","address":"1914 N 50 W, Orem, UT 84057","precinct":"25OR03","hd":"58","v_score":"2.817000428","decile":"6","lat":40.331618156438,"lng":-111.697498840852},{"id":"6585","name":"Aden Jacobi","party":"Rep","address":"1935 N 90 W, Orem, UT 84057","precinct":"25OR03","hd":"58","v_score":"26.24972019","decile":"10","lat":40.332332574121,"lng":-111.69804068099},{"id":"6784","name":"Tyshawn Morissette","party":"","address":"1909 N 50 W, Orem, UT 84057","precinct":"25OR03","hd":"58","v_score":"19.9314597","decile":"10","lat":40.331686414161,"lng":-111.697621157582},{"id":"8866","name":"Dr. Jadon Bednar Jr.","party":"Dem","address":"140 W 1960 N, Orem, UT 84057","precinct":"25OR03","hd":"58","v_score":"7.947838735","decile":"8","lat":40.33307950758,"lng":-111.699833138857},{"id":"9108","name":"Chloie Bogisich-Welch","party":"Rep","address":"1897 N 135 W, Orem, UT 84057","precinct":"25OR03","hd":"58","v_score":"3.93832808","decile":"6","lat":40.331936416797,"lng":-111.699425324114},{"id":"9110","name":"Grecia Ratke","party":"Dem","address":"1897 N 135 W, Orem, UT 84057","precinct":"25OR03","hd":"58","v_score":"3.93832808","decile":"6","lat":40.331936416797,"lng":-111.699425324114},{"id":"15667","name":"Ms. Roxie Deckow","party":"Rep","address":"1898 N 50 W, Orem, UT 84057","precinct":"25OR03","hd":"58","v_score":"4.283276088","decile":"7","lat":40.331589375244,"lng":-111.697534817349},{"id":"17290","name":"Francine Zboncak PhD","party":"Dem","address":"1902 N 180 W, Orem, UT 84057","precinct":"25OR03","hd":"58","v_score":"10.22509301","decile":"9","lat":40.332401546057,"lng":-111.700400819997},{"id":"18391","name":"Abram Barton","party":"","address":"1922 N 135 W, Orem, UT 84057","precinct":"25OR03","hd":"58","v_score":"2.315214949","decile":"5","lat":40.332004010346,"lng":-111.699278464777},{"id":"23355","name":"Ingram Kris","party":"Dem","address":"153 W 1960 N, Orem, UT 84057","precinct":"25OR03","hd":"58","v_score":"3.93832808","decile":"6","lat":40.332963963972,"lng":-111.699954253462},{"id":"28783","name":"Edwardo Corkery","party":"Rep","address":"140 W 1960 N, Orem, UT 84057","precinct":"25OR03","hd":"58","v_score":"1.193887297","decile":"3","lat":40.33307950758,"lng":-111.699833138857},{"id":"31604","name":"Patti Morar","party":"Dem","address":"1974 N 45 W, Orem, UT 84057","precinct":"25OR03","hd":"58","v_score":"2.315214949","decile":"5","lat":40.333674423387,"lng":-111.697260293764},{"id":"40197","name":"Melody Herzog PhD","party":"Rep","address":"1927 N 90 W, Orem, UT 84057","precinct":"25OR03","hd":"58","v_score":"4.069929862","decile":"6","lat":40.332302659584,"lng":-111.698092283572},{"id":"40515","name":"Achsah Corwin","party":"Rep","address":"1898 N 50 W, Orem, UT 84057","precinct":"25OR03","hd":"58","v_score":"3.781490609","decile":"6","lat":40.331589375244,"lng":-111.697534817349},{"id":"43330","name":"Chestina Spencer","party":"","address":"1970 N 45 W, Orem, UT 84057","precinct":"25OR03","hd":"58","v_score":"6.884189957","decile":"8","lat":40.333661467788,"lng":-111.697260158811},{"id":"45351","name":"Nyasia Goyette","party":"Rep","address":"12 W 1880 N, Orem, UT 84057","precinct":"25OR03","hd":"58","v_score":"34.03160254","decile":"10","lat":40.331022788617,"lng":-111.696739143539},{"id":"54405","name":"Leopoldo Dicki DVM","party":"Rep","address":"24 W 1880 N, Orem, UT 84057","precinct":"25OR03","hd":"58","v_score":"1.193887297","decile":"3","lat":40.33117550241,"lng":-111.696999506946},{"id":"59410","name":"Fannie Rogahn DDS","party":"Rep","address":"1911 N MAIN St, Orem, UT 84057","precinct":"25OR03","hd":"58","v_score":"43.62622535","decile":"10","lat":40.332590318177,"lng":-111.69670649593},{"id":"59443","name":"Jeanna Durgan","party":"Rep","address":"1891 N Main St, Orem, UT 84057","precinct":"25OR03","hd":"58","v_score":"1.193887297","decile":"3","lat":40.332300001731,"lng":-111.696658299341},{"id":"61005","name":"Love Swaniawski","party":"","address":"1939 N 90 W, Orem, UT 84057","precinct":"25OR03","hd":"58","v_score":"0","decile":"1","lat":40.332347531389,"lng":-111.6980148797},{"id":"64308","name":"Makhi Pollich","party":"Dem","address":"122 W 1880 N, Orem, UT 84057","precinct":"25OR03","hd":"58","v_score":"1.121327652","decile":"3","lat":40.33169207867,"lng":-111.699019928106},{"id":"69037","name":"Jordi Gutkowski-Fahey","party":"","address":"1976 N 85 W, Orem, UT 84057","precinct":"25OR03","hd":"58","v_score":"0","decile":"1","lat":40.333603656491,"lng":-111.698225312805},{"id":"70220","name":"Ms. Almyra Towne PhD","party":"Rep","address":"1909 N 90 W, Orem, UT 84057","precinct":"25OR03","hd":"58","v_score":"6.814370645","decile":"8","lat":40.332235351878,"lng":-111.698208389379},{"id":"75278","name":"Lucinda Little MD","party":"","address":"111 W 1960 N, Orem, UT 84057","precinct":"25OR03","hd":"58","v_score":"2.315214949","decile":"5","lat":40.33296731779,"lng":-111.699524960513},{"id":"77068","name":"Ragna Sporer","party":"Dem","address":"1892 N 50 W, Orem, UT 84057","precinct":"25OR03","hd":"58","v_score":"1.121327652","decile":"3","lat":40.331596570609,"lng":-111.697530138408},{"id":"79503","name":"Tate Hayes V","party":"","address":"1891 N Main St, Orem, UT 84057","precinct":"25OR03","hd":"58","v_score":"1.121327652","decile":"3","lat":40.332300001731,"lng":-111.696658299341},{"id":"82075","name":"Lucie Bednar DVM","party":"","address":"1891 N Main St, Orem, UT 84057","precinct":"25OR03","hd":"58","v_score":"0","decile":"1","lat":40.332300001731,"lng":-111.696658299341},{"id":"84638","name":"Halsey Fisher","party":"Rep","address":"140 W 1960 N, Orem, UT 84057","precinct":"25OR03","hd":"58","v_score":"1.193887297","decile":"3","lat":40.33307950758,"lng":-111.699833138857},{"id":"85851","name":"Dr. Ardella Crona DDS","party":"Dem","address":"61 W 2000 N, Orem, UT 84057","precinct":"25OR03","hd":"58","v_score":"5.83359168","decile":"7","lat":40.333751700243,"lng":-111.697412023305},{"id":"87611","name":"Miss Teela Herzog DVM","party":"Dem","address":"1914 N 50 W, Orem, UT 84057","precinct":"25OR03","hd":"58","v_score":"2.817000428","decile":"6","lat":40.331618156438,"lng":-111.697498840852},{"id":"88945","name":"Hosea Harris","party":"Rep","address":"1897 N 135 W, Orem, UT 84057","precinct":"25OR03","hd":"58","v_score":"1.193887297","decile":"4","lat":40.331936416797,"lng":-111.699425324114},{"id":"95883","name":"Mrs. Lucy Gibson","party":"","address":"1941 N Main St, Orem, UT 84057","precinct":"25OR03","hd":"58","v_score":"0","decile":"1","lat":40.333001631123,"lng":-111.696555011652},{"id":"98222","name":"Ell Kerluke","party":"","address":"1910 N 135 W, Orem, UT 84057","precinct":"25OR03","hd":"58","v_score":"2.817000428","decile":"6","lat":40.331974949615,"lng":-111.699276923682},{"id":"99967","name":"Sussie Metz","party":"Rep","address":"1901 N Main St, Orem, UT 84057","precinct":"25OR03","hd":"58","v_score":"0","decile":"1","lat":40.332453302274,"lng":-111.696717457219},{"id":"107567","name":"Laurie Zulauf","party":"Rep","address":"1923 N 135 W, Orem, UT 84057","precinct":"25OR03","hd":"58","v_score":"2.876042565","decile":"6","lat":40.331999381716,"lng":-111.699428663154},{"id":"114934","name":"Mr. Fritz Kerluke","party":"","address":"1896 N 135 W, Orem, UT 84057","precinct":"25OR03","hd":"58","v_score":"1.193887297","decile":"4","lat":40.331941045428,"lng":-111.699275125737},{"id":"115930","name":"Dr. Ezekiel Walsh Sr.","party":"","address":"1934 N 90 W, Orem, UT 84057","precinct":"25OR03","hd":"58","v_score":"4.069929862","decile":"7","lat":40.332241361347,"lng":-111.697949687915},{"id":"117688","name":"Dr. Vincenza McGlynn","party":"","address":"141 W 1960 N, Orem, UT 84057","precinct":"25OR03","hd":"58","v_score":"1.193887297","decile":"4","lat":40.332964922206,"lng":-111.699831598334},{"id":"118987","name":"Jaylyn Jacobson","party":"","address":"24 W 1880 N, Orem, UT 84057","precinct":"25OR03","hd":"58","v_score":"1.193887297","decile":"4","lat":40.33117550241,"lng":-111.696999506946},{"id":"121034","name":"Peggie Keeling","party":"","address":"1976 N 85 W, Orem, UT 84057","precinct":"25OR03","hd":"58","v_score":"0","decile":"2","lat":40.333603656491,"lng":-111.698225312805},{"id":"125541","name":"Alfred Connelly","party":"Dem","address":"1976 N 85 W, Orem, UT 84057","precinct":"25OR03","hd":"58","v_score":"0","decile":"2","lat":40.333603656491,"lng":-111.698225312805},{"id":"127153","name":"Golden Bosco","party":"Rep","address":"1901 N MAIN St, Orem, UT 84057","precinct":"25OR03","hd":"58","v_score":"0","decile":"2","lat":40.332453302274,"lng":-111.696717457219},{"id":"129589","name":"Merry Hahn","party":"Rep","address":"1931 N MAIN St, Orem, UT 84057","precinct":"25OR03","hd":"58","v_score":"0","decile":"2","lat":40.332873717964,"lng":-111.696620358605},{"id":"133720","name":"Lamont Kautzer-Zieme","party":"Rep","address":"61 W 2000 N, Orem, UT 84057","precinct":"25OR03","hd":"58","v_score":"0","decile":"2","lat":40.333751700243,"lng":-111.697412023305},{"id":"137059","name":"Corbin Heaney-Green","party":"Dem","address":"1914 N 50 W, Orem, UT 84057","precinct":"25OR03","hd":"58","v_score":"38.24567755","decile":"10","lat":40.331618156438,"lng":-111.697498840852},{"id":"139741","name":"Lucian Johns DVM","party":"Dem","address":"1976 N 85 W, Orem, UT 84057","precinct":"25OR03","hd":"58","v_score":"3.93832808","decile":"6","lat":40.333603656491,"lng":-111.698225312805},{"id":"141568","name":"Guido Windler","party":"Rep","address":"106 W 1960 N, Orem, UT 84057","precinct":"25OR03","hd":"58","v_score":"0","decile":"2","lat":40.333082222576,"lng":-111.699485615993},{"id":"142712","name":"Cortney Brakus","party":"Dem","address":"140 W 1960 N, Orem, UT 84057","precinct":"25OR03","hd":"58","v_score":"6.027167436","decile":"7","lat":40.33307950758,"lng":-111.699833138857},{"id":"144659","name":"Penny Macejkovic MD","party":"Rep","address":"1931 N Main St, Orem, UT 84057","precinct":"25OR03","hd":"58","v_score":"3.93832808","decile":"6","lat":40.332873717964,"lng":-111.696620358605},{"id":"146423","name":"Beau Hegmann","party":"Dem","address":"1988 N 180 W, Orem, UT 84057","precinct":"25OR03","hd":"58","v_score":"17.75698939","decile":"10","lat":40.333547713269,"lng":-111.700379725539},{"id":"146428","name":"Ruth Conn","party":"Dem","address":"1896 N 135 W, Orem, UT 84057","precinct":"25OR03","hd":"58","v_score":"2.315214949","decile":"5","lat":40.331941045428,"lng":-111.699275125737},{"id":"146436","name":"Consuelo Hahn-Ledner","party":"Rep","address":"1988 N 180 W, Orem, UT 84057","precinct":"25OR03","hd":"58","v_score":"17.75698939","decile":"10","lat":40.333547713269,"lng":-111.700379725539},{"id":"148085","name":"Mr. Reese Dickinson","party":"","address":"1948 N 85 W, Orem, UT 84057","precinct":"25OR03","hd":"58","v_score":"1.193887297","decile":"4","lat":40.333417804438,"lng":-111.698234058808},{"id":"150258","name":"Kenyatta Renner","party":"Rep","address":"153 W 1960 N, Orem, UT 84057","precinct":"25OR03","hd":"58","v_score":"18.74706992","decile":"10","lat":40.332963963972,"lng":-111.699954253462},{"id":"150911","name":"Therman Will","party":"Rep","address":"1935 N 90 W, Orem, UT 84057","precinct":"25OR03","hd":"58","v_score":"43.51438145","decile":"10","lat":40.332332574121,"lng":-111.69804068099},{"id":"153962","name":"Jess Lockman","party":"","address":"1901 N Main St, Orem, UT 84057","precinct":"25OR03","hd":"58","v_score":"5.40460374","decile":"7","lat":40.332453302274,"lng":-111.696717457219},{"id":"155169","name":"Shelvia Beahan","party":"Rep","address":"1918 N 180 W, Orem, UT 84057","precinct":"25OR03","hd":"58","v_score":"0","decile":"3","lat":40.332560897112,"lng":-111.70039499006},{"id":"159745","name":"Gretchen Smith","party":"","address":"152 W 1960 N, Orem, UT 84057","precinct":"25OR03","hd":"58","v_score":"23.48004472","decile":"10","lat":40.333078549346,"lng":-111.699955793986},{"id":"166378","name":"Royce Friesen","party":"Rep","address":"141 W 1960 N, Orem, UT 84057","precinct":"25OR03","hd":"58","v_score":"32.28617871","decile":"10","lat":40.332964922206,"lng":-111.699831598334},{"id":"170363","name":"Albin Jacobson","party":"Rep","address":"1901 N Main St, Orem, UT 84057","precinct":"25OR03","hd":"58","v_score":"5.40460374","decile":"7","lat":40.332453302274,"lng":-111.696717457219},{"id":"172384","name":"Dr. Pablo Goyette III","party":"Dem","address":"1922 N 135 W, Orem, UT 84057","precinct":"25OR03","hd":"58","v_score":"2.315214949","decile":"5","lat":40.332004010346,"lng":-111.699278464777},{"id":"173242","name":"Maximo Breitenberg-Lebsack","party":"Dem","address":"152 W 1960 N, Orem, UT 84057","precinct":"25OR03","hd":"58","v_score":"23.48004472","decile":"10","lat":40.333078549346,"lng":-111.699955793986},{"id":"173343","name":"Barney O'Kon-Bogan","party":"","address":"153 W 1960 N, Orem, UT 84057","precinct":"25OR03","hd":"58","v_score":"2.315214949","decile":"5","lat":40.332963963972,"lng":-111.699954253462},{"id":"175086","name":"Miss Elfie Koch","party":"Rep","address":"152 W 1960 N, Orem, UT 84057","precinct":"25OR03","hd":"58","v_score":"23.48004472","decile":"10","lat":40.333078549346,"lng":-111.699955793986},{"id":"178431","name":"Herschel Russel-Mills","party":"Rep","address":"1909 N 90 W, Orem, UT 84057","precinct":"25OR03","hd":"58","v_score":"5.191257514","decile":"7","lat":40.332235351878,"lng":-111.698208389379},{"id":"179882","name":"Pattie Howell DVM","party":"","address":"1918 N 90 W, Orem, UT 84057","precinct":"25OR03","hd":"58","v_score":"11.1324014","decile":"9","lat":40.332181532275,"lng":-111.698052893077},{"id":"181086","name":"Joette Macejkovic-Beatty","party":"Rep","address":"122 W 1880 N, Orem, UT 84057","precinct":"25OR03","hd":"58","v_score":"2.587603312","decile":"5","lat":40.33169207867,"lng":-111.699019928106}]