[{"vid":"616863","name":"Akira Nolan","party":"","address":"88 E 1850 N, Orem, UT 84057","precinct":"25OR04","hd":"58","v_score":"30.86020033","decile":"10","lat":40.33088373926509,"lng":-111.69437324972596,"phone":"(175) 056-1728","sd":"24","ssbd":"12","lsbd":"School Board Timpanogos 5"},{"vid":"799227","name":"Lorayne Larkin","party":"Rep","address":"286 E 1660 N, Orem, UT 84057","precinct":"25OR04","hd":"58","v_score":"24.33873278","decile":"10","lat":40.32768228740063,"lng":-111.68929091305648,"phone":"(380) 111-9272","sd":"24","ssbd":"12","lsbd":"School Board Timpanogos 5"},{"vid":"1247418","name":"Eryn Morar","party":"Rep","address":"1775 N 165 E, Orem, UT 84057","precinct":"25OR04","hd":"58","v_score":"11.29723756","decile":"9","lat":40.32995654794152,"lng":-111.6926386541762,"phone":"(163) 860-0906","sd":"24","ssbd":"12","lsbd":"School Board Timpanogos 5"},{"vid":"1253792","name":"Augustine Braun","party":"Dem","address":"218 E 2000 N, Orem, UT 84057","precinct":"25OR04","hd":"58","v_score":"9.567299636","decile":"8","lat":40.33362207418413,"lng":-111.6909989889325,"phone":"(919) 645-0226","sd":"24","ssbd":"12","lsbd":"School Board Timpanogos 5"},{"vid":"1318008","name":"Beatrix Halvorson MD","party":"Rep","address":"1963 N 190 E, Orem, UT 84057","precinct":"25OR04","hd":"58","v_score":"6.954919332","decile":"8","lat":40.33309546402759,"lng":-111.6920876099061,"phone":"(118) 409-1143","sd":"24","ssbd":"12","lsbd":"School Board Timpanogos 5"},{"vid":"1325639","name":"Genie Oberbrunner-Veum","party":"Rep","address":"16 E 1775 N, Orem, UT 84057","precinct":"25OR04","hd":"58","v_score":"3.93832808","decile":"6","lat":40.32964177403001,"lng":-111.69596835456198,"phone":"(891) 835-7045","sd":"24","ssbd":"12","lsbd":"School Board Timpanogos 5"},{"vid":"1334409","name":"Fritz Jerde","party":"","address":"348 E 2000 N, Orem, UT 84057","precinct":"25OR04","hd":"58","v_score":"11.29723756","decile":"9","lat":40.33359173138479,"lng":-111.68798940090548,"phone":"(494) 298-4455","sd":"24","ssbd":"12","lsbd":"School Board Timpanogos 5"},{"vid":"1345607","name":"Baldwin Lueilwitz","party":"","address":"172 E 2000 N, Orem, UT 84057","precinct":"25OR04","hd":"58","v_score":"17.95209764","decile":"10","lat":40.33359453953637,"lng":-111.69211655686642,"phone":"(174) 742-9462","sd":"24","ssbd":"12","lsbd":"School Board Timpanogos 5"},{"vid":"1347468","name":"Michell Bins","party":"Dem","address":"288 E Heather Rd, Orem, UT 84057","precinct":"25OR04","hd":"58","v_score":"13.24168426","decile":"9","lat":40.33081170792502,"lng":-111.6896055751604,"phone":"(581) 127-3370","sd":"24","ssbd":"12","lsbd":"School Board Timpanogos 5"},{"vid":"1383448","name":"Francesco Johnston PhD","party":"Rep","address":"1628 N 160 E, Orem, UT 84057","precinct":"25OR04","hd":"58","v_score":"1.193887297","decile":"3","lat":40.32720940874317,"lng":-111.69176848287894,"phone":"(150) 939-1505","sd":"24","ssbd":"12","lsbd":"School Board Timpanogos 5"},{"vid":"1395323","name":"Reinhold Douglas","party":"","address":"19 E 1775 N, Orem, UT 84057","precinct":"25OR04","hd":"58","v_score":"35.30276996","decile":"10","lat":40.32986575569942,"lng":-111.69595503555658,"phone":"(794) 029-2821","sd":"24","ssbd":"12","lsbd":"School Board Timpanogos 5"},{"vid":"1414568","name":"Woodson Grady","party":"","address":"172 E 2000 N, Orem, UT 84057","precinct":"25OR04","hd":"58","v_score":"11.65979122","decile":"9","lat":40.33359453953637,"lng":-111.69211655686642,"phone":"(131) 834-4756","sd":"24","ssbd":"12","lsbd":"School Board Timpanogos 5"},{"vid":"b6a00c5046304af377901e86ccf0da8fa77afdecdb11fe7b205ddf282aa39a2f","name":"Aida Marks","party":"","address":"1731 N 210 E, Orem, UT 84057","precinct":"25OR04","hd":"58","v_score":"22.16617265","decile":"10","lat":40.328978073280275,"lng":-111.69138859976965,"phone":"(116) 752-0209","sd":"24","ssbd":"12","lsbd":"School Board Timpanogos 5"},{"vid":"1424762","name":"Livia Bradtke","party":"","address":"1783 N 120 E, Orem, UT 84057","precinct":"25OR04","hd":"58","v_score":"3.93832808","decile":"6","lat":40.3300873897381,"lng":-111.69353265248299,"phone":"(442) 835-8124","sd":"24","ssbd":"12","lsbd":"School Board Timpanogos 5"},{"vid":"1425723","name":"Dow Hilll Jr.","party":"","address":"232 E 2000 N, Orem, UT 84057","precinct":"25OR04","hd":"58","v_score":"9.750280533","decile":"8","lat":40.33362208007319,"lng":-111.69070851437345,"phone":"(196) 676-9118","sd":"24","ssbd":"12","lsbd":"School Board Timpanogos 5"},{"vid":"1489746","name":"Mr. Terell Wyman PhD","party":"Rep","address":"1775 N 165 E, Orem, UT 84057","precinct":"25OR04","hd":"58","v_score":"11.29723756","decile":"9","lat":40.32995654794152,"lng":-111.6926386541762,"phone":"(172) 978-9768","sd":"24","ssbd":"12","lsbd":"School Board Timpanogos 5"},{"vid":"1493693","name":"Issac Jacobson","party":"Dem","address":"95 E 1960 N, Orem, UT 84057","precinct":"25OR04","hd":"58","v_score":"9.61867875","decile":"8","lat":40.33337737147561,"lng":-111.69431539765968,"phone":"(484) 096-3379","sd":"24","ssbd":"12","lsbd":"School Board Timpanogos 5"},{"vid":"1496500","name":"Syed Klein","party":"","address":"273 E Gold River Cir, Orem, UT 84057","precinct":"25OR04","hd":"58","v_score":"12.49472132","decile":"9","lat":40.329280464477584,"lng":-111.68968258696387,"phone":"(509) 452-1648","sd":"24","ssbd":"12","lsbd":"School Board Timpanogos 5"},{"vid":"660fb8aca04d2cba5cf5fd84360a3d0bf5655155bcf63df286b4fbb80c816f09","name":"Gisele Fay DVM","party":"","address":"221 E Ridge Rd, Orem, UT 84057","precinct":"25OR04","hd":"58","v_score":"1.121327652","decile":"3","lat":40.33199412747951,"lng":-111.69189326215619,"phone":"(716) 284-2992","sd":"24","ssbd":"12","lsbd":"School Board Timpanogos 5"},{"vid":"1541607","name":"Omar Grimes","party":"","address":"123 E 1850 N, Orem, UT 84057","precinct":"25OR04","hd":"58","v_score":"10.36948566","decile":"9","lat":40.331274299731746,"lng":-111.69346192595553,"phone":"(456) 972-6471","sd":"24","ssbd":"12","lsbd":"School Board Timpanogos 5"},{"vid":"1542498","name":"Miss Shannen Smitham DVM","party":"","address":"1973 N 400 E, Orem, UT 84097","precinct":"25OR04","hd":"58","v_score":"8.445971984","decile":"8","lat":40.333301979843334,"lng":-111.68699666894202,"phone":"(915) 623-0476","sd":"24","ssbd":"12","lsbd":"School Board Timpanogos 5"},{"vid":"1550517","name":"Kelley Boehm","party":"Rep","address":"1940 N 270 E, Orem, UT 84057","precinct":"25OR04","hd":"58","v_score":"2.744440783","decile":"5","lat":40.3327369070308,"lng":-111.68973990862453,"phone":"(683) 980-4018","sd":"24","ssbd":"12","lsbd":"School Board Timpanogos 5"},{"vid":"7d0b192d2a0f0b26f54a0579c161248cdf96e51b9f8985bd8865d5e0c1f87b3d","name":"Jules Rutherford-Johnson","party":"Dem","address":"1967 N 150 E, Orem, UT 84057","precinct":"25OR04","hd":"58","v_score":"8.601979876","decile":"8","lat":40.33335309531974,"lng":-111.69309607452224,"phone":"(522) 993-3077","sd":"24","ssbd":"12","lsbd":"School Board Timpanogos 5"},{"vid":"1590839","name":"Farris Hyatt","party":"","address":"122 E 2000 N, Orem, UT 84057","precinct":"25OR04","hd":"58","v_score":"6.897264703","decile":"8","lat":40.33363842877571,"lng":-111.69346523128377,"phone":"(944) 159-3558","sd":"24","ssbd":"12","lsbd":"School Board Timpanogos 5"},{"vid":"9f1b1d6c512376ef2c8c827872ab6a6fb9301523e30767c0f7c219318113d59a","name":"Twyla Rohan","party":"Rep","address":"1961 N 270 E, Orem, UT 84057","precinct":"25OR04","hd":"58","v_score":"1.46627566","decile":"4","lat":40.33307857866205,"lng":-111.69001452740314,"phone":"(707) 238-2326","sd":"24","ssbd":"12","lsbd":"School Board Timpanogos 5"},{"vid":"1604924","name":"Heath Hayes","party":"Rep","address":"164 E Ridge Rd, Orem, UT 84057","precinct":"25OR04","hd":"58","v_score":"5.530510904","decile":"7","lat":40.332060958576626,"lng":-111.69334887563447,"phone":"(537) 016-0703","sd":"24","ssbd":"12","lsbd":"School Board Timpanogos 5"},{"vid":"1612908","name":"Nakia Cummerata-Runolfsson","party":"Rep","address":"1937 N 325 E, Orem, UT 84057","precinct":"25OR04","hd":"58","v_score":"9.61867875","decile":"8","lat":40.332814083916254,"lng":-111.68869740797686,"phone":"(560) 136-3932","sd":"24","ssbd":"12","lsbd":"School Board Timpanogos 5"},{"vid":"ce40575cb71bee54f755fd6076a4eba8ee94e27ef23df885b15cba8f98cd000a","name":"Joye Yundt-Fay","party":"","address":"218 E 2000 N, Orem, UT 84057","precinct":"25OR04","hd":"58","v_score":"5.273794831","decile":"7","lat":40.33362207418413,"lng":-111.6909989889325,"phone":"(878) 037-0695","sd":"24","ssbd":"12","lsbd":"School Board Timpanogos 5"},{"vid":"1631241","name":"Dr. Trace Tremblay","party":"","address":"69 E 1960 N, Orem, UT 84057","precinct":"25OR04","hd":"58","v_score":"16.49595278","decile":"9","lat":40.33321229681579,"lng":-111.69492016353445,"phone":"(485) 014-8975","sd":"24","ssbd":"12","lsbd":"School Board Timpanogos 5"},{"vid":"a37ab03c4383cf5fcb7df242d7b26d47bdc6ea61f10203dc3bd4d6e7b1a3d6cf","name":"Oris Simonis","party":"Rep","address":"29 E 1700 N, Orem, UT 84057","precinct":"25OR04","hd":"58","v_score":"3.781490609","decile":"6","lat":40.32918521874979,"lng":-111.6957395905126,"phone":"(711) 139-0396","sd":"24","ssbd":"12","lsbd":"School Board Timpanogos 5"},{"vid":"1652577","name":"Dusty Ryan I","party":"Dem","address":"1683 N Moor Ln, Orem, UT 84057","precinct":"25OR04","hd":"58","v_score":"19.22326505","decile":"10","lat":40.3279096325701,"lng":-111.68790357682145,"phone":"(928) 160-8099","sd":"24","ssbd":"12","lsbd":"School Board Timpanogos 5"},{"vid":"1663217","name":"Winnie Dickinson","party":"","address":"1671 N 50 E, Orem, UT 84057","precinct":"25OR04","hd":"58","v_score":"0","decile":"1","lat":40.32834022869062,"lng":-111.69571673158708,"phone":"(884) 314-1021","sd":"24","ssbd":"12","lsbd":"School Board Timpanogos 5"},{"vid":"1664376","name":"Shara Ruecker","party":"","address":"282 E Gold River Cir, Orem, UT 84057","precinct":"25OR04","hd":"58","v_score":"3.089388791","decile":"6","lat":40.32924358392345,"lng":-111.6891934289805,"phone":"(840) 958-8532","sd":"24","ssbd":"12","lsbd":"School Board Timpanogos 5"},{"vid":"1683199","name":"Jenny Turcotte","party":"Rep","address":"33 E 1600 N, Orem, UT 84057","precinct":"25OR04","hd":"58","v_score":"2.315214949","decile":"5","lat":40.32693559362532,"lng":-111.69565388460138,"phone":"(141) 886-2635","sd":"24","ssbd":"12","lsbd":"School Board Timpanogos 5"},{"vid":"1707126","name":"Tiera Batz","party":"Dem","address":"1757 N Gold River Dr, Orem, UT 84057","precinct":"25OR04","hd":"58","v_score":"30.09399432","decile":"10","lat":40.328659904929026,"lng":-111.68929945393292,"phone":"(602) 536-3433","sd":"24","ssbd":"12","lsbd":"School Board Timpanogos 5"},{"vid":"1714288","name":"Rand Metz","party":"Dem","address":"16 E 1775 N, Orem, UT 84057","precinct":"25OR04","hd":"58","v_score":"1.121327652","decile":"3","lat":40.32964177403001,"lng":-111.69596835456198,"phone":"(220) 858-6372","sd":"24","ssbd":"12","lsbd":"School Board Timpanogos 5"},{"vid":"1720780","name":"Milburn Gusikowski","party":"","address":"298 E 1960 N, Orem, UT 84057","precinct":"25OR04","hd":"58","v_score":"11.02844566","decile":"9","lat":40.332898592382044,"lng":-111.6892649808913,"phone":"(362) 977-7248","sd":"24","ssbd":"12","lsbd":"School Board Timpanogos 5"},{"vid":"1724523","name":"Becky Cruickshank","party":"Dem","address":"1612 N 210 E, Orem, UT 84057","precinct":"25OR04","hd":"58","v_score":"20.35949772","decile":"10","lat":40.32689081833968,"lng":-111.69097127144508,"phone":"(232) 095-7004","sd":"24","ssbd":"12","lsbd":"School Board Timpanogos 5"},{"vid":"b02558727641239e5c724cd803c341af849e5e3e31296ab1473d7884346211ad","name":"Lotta McDermott","party":"","address":"1936 N 325 E, Orem, UT 84057","precinct":"25OR04","hd":"58","v_score":"0","decile":"1","lat":40.33288315581966,"lng":-111.68823756348218,"phone":"(750) 517-2382","sd":"24","ssbd":"12","lsbd":"School Board Timpanogos 5"},{"vid":"1759427","name":"Earl Will-Eichmann","party":"Rep","address":"1966 N 150 E, Orem, UT 84057","precinct":"25OR04","hd":"58","v_score":"14.74552778","decile":"9","lat":40.33308880179647,"lng":-111.69272346115007,"phone":"(413) 142-7746","sd":"24","ssbd":"12","lsbd":"School Board Timpanogos 5"},{"vid":"879c79c416e63d6dd2efd0a8dfded546167f85a39f4640b8c8b7e1437f6da6fb","name":"Gerry Little","party":"","address":"322 E 2000 N, Orem, UT 84057","precinct":"25OR04","hd":"58","v_score":"6.724398202","decile":"8","lat":40.33359169223842,"lng":-111.68864757285849,"phone":"(985) 767-8163","sd":"24","ssbd":"12","lsbd":"School Board Timpanogos 5"},{"vid":"1784556","name":"Lucian Schmeler-Von","party":"","address":"85 E 1600 N, Orem, UT 84057","precinct":"25OR04","hd":"58","v_score":"22.35404582","decile":"10","lat":40.327017024530036,"lng":-111.69426997460988,"phone":"(342) 638-3958","sd":"24","ssbd":"12","lsbd":"School Board Timpanogos 5"},{"vid":"1821672","name":"Lori Ziemann","party":"Rep","address":"1765 N Moor Ln, Orem, UT 84057","precinct":"25OR04","hd":"58","v_score":"5.40460374","decile":"7","lat":40.32950396228843,"lng":-111.68866169856692,"phone":"(951) 056-5722","sd":"24","ssbd":"12","lsbd":"School Board Timpanogos 5"},{"vid":"b0479d96c42b52fa1a305206a4a102c9fa19d809a86f4caaeaac8767fd449202","name":"Mabel Vandervort","party":"","address":"269 E 1620 N, Orem, UT 84057","precinct":"25OR04","hd":"58","v_score":"3.93832808","decile":"6","lat":40.327289663230204,"lng":-111.68983056784941,"phone":"(326) 802-3136","sd":"24","ssbd":"12","lsbd":"School Board Timpanogos 5"},{"vid":"1833133","name":"Eleanore Hermann-Padberg","party":"","address":"310 E 2000 N, Orem, UT 84057","precinct":"25OR04","hd":"58","v_score":"4.409183253","decile":"7","lat":40.33359167249407,"lng":-111.68895165512741,"phone":"(225) 079-8679","sd":"24","ssbd":"12","lsbd":"School Board Timpanogos 5"},{"vid":"9cb6d2887d52b2e2658241b76e3018f01699165fda646e79396e2e3b3b8d0d2f","name":"Kelton Mills","party":"Rep","address":"1889 N 285 E, Orem, UT 84057","precinct":"25OR04","hd":"58","v_score":"19.9122117","decile":"10","lat":40.332326382500675,"lng":-111.68948013831401,"phone":"(971) 649-6400","sd":"24","ssbd":"12","lsbd":"School Board Timpanogos 5"},{"vid":"1839403","name":"Duncan Grady-Cruickshank","party":"","address":"1810 N 80 E, Orem, UT 84057","precinct":"25OR04","hd":"58","v_score":"5.335065618","decile":"7","lat":40.33055619894583,"lng":-111.69411727176976,"phone":"(139) 421-7372","sd":"24","ssbd":"12","lsbd":"School Board Timpanogos 5"},{"vid":"1842175","name":"Jereme Aufderhar","party":"Dem","address":"95 E 1960 N, Orem, UT 84057","precinct":"25OR04","hd":"58","v_score":"8.15240309","decile":"8","lat":40.33337737147561,"lng":-111.69431539765968,"phone":"(945) 862-8356","sd":"24","ssbd":"12","lsbd":"School Board Timpanogos 5"},{"vid":"cd0273fcda9084f8dd7d69d12a1a32ae3971be7703bdf65d1fc7ee27b3ef3866","name":"Marylin Koch","party":"Rep","address":"322 E 2000 N, Orem, UT 84057","precinct":"25OR04","hd":"58","v_score":"6.724398202","decile":"8","lat":40.33359169223842,"lng":-111.68864757285849,"phone":"(461) 488-1992","sd":"24","ssbd":"12","lsbd":"School Board Timpanogos 5"},{"vid":"1856362","name":"Mikel Rau","party":"Rep","address":"1685 N 250 E, Orem, UT 84057","precinct":"25OR04","hd":"58","v_score":"9.839815554","decile":"8","lat":40.32817625184517,"lng":-111.69039336584986,"phone":"(652) 813-8886","sd":"24","ssbd":"12","lsbd":"School Board Timpanogos 5"},{"vid":"5115cd86b5f5a2e5d116c796f64776c18ef9da3faa1563361e8fffca99f5e512","name":"Precious Runte","party":"Rep","address":"322 E 2000 N, Orem, UT 84057","precinct":"25OR04","hd":"58","v_score":"7.153624035","decile":"8","lat":40.33359169223842,"lng":-111.68864757285849,"phone":"(284) 992-3675","sd":"24","ssbd":"12","lsbd":"School Board Timpanogos 5"},{"vid":"1876420","name":"Juliette Metz-Eichmann","party":"Dem","address":"218 E 2000 N, Orem, UT 84057","precinct":"25OR04","hd":"58","v_score":"7.934314529","decile":"8","lat":40.33362207418413,"lng":-111.6909989889325,"phone":"(732) 865-3545","sd":"24","ssbd":"12","lsbd":"School Board Timpanogos 5"},{"vid":"1888618","name":"Yareli Lehner-Williamson","party":"Rep","address":"107 E 1600 N, Orem, UT 84057","precinct":"25OR04","hd":"58","v_score":"0","decile":"1","lat":40.32692696096067,"lng":-111.69362826901556,"phone":"(822) 619-9850","sd":"24","ssbd":"12","lsbd":"School Board Timpanogos 5"},{"vid":"1891927","name":"Dewitt Kemmer","party":"","address":"1976 N 150 E, Orem, UT 84057","precinct":"25OR04","hd":"58","v_score":"1.121327652","decile":"3","lat":40.333379647163504,"lng":-111.69249103673563,"phone":"(465) 966-1888","sd":"24","ssbd":"12","lsbd":"School Board Timpanogos 5"},{"vid":"1894923","name":"Orla Bode-Jacobi","party":"Rep","address":"1670 N 250 E, Orem, UT 84057","precinct":"25OR04","hd":"58","v_score":"6.884189957","decile":"8","lat":40.32791196000885,"lng":-111.6900295609251,"phone":"(477) 276-0188","sd":"24","ssbd":"12","lsbd":"School Board Timpanogos 5"},{"vid":"1901620","name":"Dr. Cain Bednar","party":"","address":"1973 N 400 E, Orem, UT 84097","precinct":"25OR04","hd":"58","v_score":"1.121327652","decile":"3","lat":40.333301979843334,"lng":-111.68699666894202,"phone":"(638) 293-7574","sd":"24","ssbd":"12","lsbd":"School Board Timpanogos 5"},{"vid":"1906073","name":"Miss Danna McGlynn MD","party":"Dem","address":"289 E 1890 N, Orem, UT 84057","precinct":"25OR04","hd":"58","v_score":"1.193887297","decile":"3","lat":40.33249866296895,"lng":-111.6890470357248,"phone":"(604) 235-0683","sd":"24","ssbd":"12","lsbd":"School Board Timpanogos 5"},{"vid":"1919179","name":"Delano D'Amore","party":"Rep","address":"280 E Heather Rd, Orem, UT 84057","precinct":"25OR04","hd":"58","v_score":"31.13427375","decile":"10","lat":40.33117865402388,"lng":-111.69033973063173,"phone":"(159) 516-6894","sd":"24","ssbd":"12","lsbd":"School Board Timpanogos 5"},{"vid":"1927696","name":"Gregory Gottlieb","party":"Dem","address":"1964 N 230 E, Orem, UT 84057","precinct":"25OR04","hd":"58","v_score":"9.405332525","decile":"8","lat":40.33307863843184,"lng":-111.69045388444773,"phone":"(332) 858-7510","sd":"24","ssbd":"12","lsbd":"School Board Timpanogos 5"},{"vid":"1956007","name":"Graham Upton","party":"","address":"1945 N 150 E, Orem, UT 84057","precinct":"25OR04","hd":"58","v_score":"2.587603312","decile":"5","lat":40.33292575246804,"lng":-111.69341762827483,"phone":"(394) 908-0452","sd":"24","ssbd":"12","lsbd":"School Board Timpanogos 5"},{"vid":"1958504","name":"Genoveva Padberg DDS","party":"Dem","address":"232 E 2000 N, Orem, UT 84057","precinct":"25OR04","hd":"58","v_score":"11.99595736","decile":"9","lat":40.33362208007319,"lng":-111.69070851437345,"phone":"(128) 612-2062","sd":"24","ssbd":"12","lsbd":"School Board Timpanogos 5"},{"vid":"1966952","name":"Eldred Nikolaus","party":"","address":"1670 N 250 E, Orem, UT 84057","precinct":"25OR04","hd":"58","v_score":"2.315214949","decile":"5","lat":40.32791196000885,"lng":-111.6900295609251,"phone":"(502) 577-9634","sd":"24","ssbd":"12","lsbd":"School Board Timpanogos 5"},{"vid":"1967944","name":"Gardner O'Hara","party":"","address":"117 E Ridge Rd, Orem, UT 84057","precinct":"25OR04","hd":"58","v_score":"1.121327652","decile":"3","lat":40.332586006924636,"lng":-111.69395476180706,"phone":"(423) 414-8940","sd":"24","ssbd":"12","lsbd":"School Board Timpanogos 5"},{"vid":"1969255","name":"Randall Wilkinson","party":"Dem","address":"1928 N 230 E, Orem, UT 84057","precinct":"25OR04","hd":"58","v_score":"1.623113131","decile":"4","lat":40.33247611024335,"lng":-111.69082205352022,"phone":"(841) 936-6722","sd":"24","ssbd":"12","lsbd":"School Board Timpanogos 5"},{"vid":"1991183","name":"Herschel Zulauf I","party":"","address":"203 E Ridge Rd, Orem, UT 84057","precinct":"25OR04","hd":"58","v_score":"12.66012701","decile":"9","lat":40.332285827340804,"lng":-111.69248806491389,"phone":"(888) 557-0132","sd":"24","ssbd":"12","lsbd":"School Board Timpanogos 5"},{"vid":"1993034","name":"Dr. Liana Hand PhD","party":"Dem","address":"1774 N Gold River Dr, Orem, UT 84057","precinct":"25OR04","hd":"58","v_score":"15.51131257","decile":"9","lat":40.32954622703992,"lng":-111.68995203009726,"phone":"(352) 729-0996","sd":"24","ssbd":"12","lsbd":"School Board Timpanogos 5"},{"vid":"1998026","name":"Jonnie Veum","party":"Rep","address":"1945 N 150 E, Orem, UT 84057","precinct":"25OR04","hd":"58","v_score":"2.587603312","decile":"5","lat":40.33292575246804,"lng":-111.69341762827483,"phone":"(525) 685-2044","sd":"24","ssbd":"12","lsbd":"School Board Timpanogos 5"},{"vid":"2014228","name":"Melany Miller","party":"Rep","address":"395 E 1650 N, Orem, UT 84057","precinct":"25OR04","hd":"58","v_score":"0","decile":"1","lat":40.32772614730207,"lng":-111.68677558083877,"phone":"(432) 703-3430","sd":"24","ssbd":"12","lsbd":"School Board Timpanogos 5"},{"vid":"2027873","name":"Mr. Willis Oberbrunner","party":"Rep","address":"314 E Heather Cir, Orem, UT 84057","precinct":"25OR04","hd":"58","v_score":"10.42565066","decile":"9","lat":40.33132840384777,"lng":-111.68860717257385,"phone":"(698) 025-3664","sd":"24","ssbd":"12","lsbd":"School Board Timpanogos 5"},{"vid":"2028927","name":"Mr. Bjorn Nolan","party":"","address":"1789 N 80 E, Orem, UT 84057","precinct":"25OR04","hd":"58","v_score":"35.69840368","decile":"10","lat":40.33015051724742,"lng":-111.69451853083149,"phone":"(707) 042-4095","sd":"24","ssbd":"12","lsbd":"School Board Timpanogos 5"},{"vid":"2034675","name":"Elwood Kovacek IV","party":"","address":"122 E 2000 N, Orem, UT 84057","precinct":"25OR04","hd":"58","v_score":"8.091152","decile":"8","lat":40.33363842877571,"lng":-111.69346523128377,"phone":"(216) 963-6684","sd":"24","ssbd":"12","lsbd":"School Board Timpanogos 5"},{"vid":"2058202","name":"Winfred Cummerata","party":"Dem","address":"314 E Heather Cir, Orem, UT 84057","precinct":"25OR04","hd":"58","v_score":"15.02598214","decile":"9","lat":40.33132840384777,"lng":-111.68860717257385,"phone":"(169) 303-1076","sd":"24","ssbd":"12","lsbd":"School Board Timpanogos 5"},{"vid":"2069549","name":"Ima Reilly-Klocko","party":"Dem","address":"114 E Ridge Rd, Orem, UT 84057","precinct":"25OR04","hd":"58","v_score":"0","decile":"1","lat":40.33219176437344,"lng":-111.6939774320286,"phone":"(971) 825-4354","sd":"24","ssbd":"12","lsbd":"School Board Timpanogos 5"},{"vid":"d2e6d53ff335c7fdf7b73727cc10a8ab4dcf7aac0300f5dfc1b5870ad54012a4","name":"Kurt Raynor","party":"Rep","address":"384 E Heather Rd, Orem, UT 84057","precinct":"25OR04","hd":"58","v_score":"9.760232523","decile":"8","lat":40.33022964789614,"lng":-111.68788184355238,"phone":"(673) 711-0842","sd":"24","ssbd":"12","lsbd":"School Board Timpanogos 5"},{"vid":"2077872","name":"Edith Wunsch-Glover","party":"Rep","address":"354 E 1950 N, Orem, UT 84057","precinct":"25OR04","hd":"58","v_score":"10.52632313","decile":"9","lat":40.33288038599084,"lng":-111.68777271843696,"phone":"(197) 553-3737","sd":"24","ssbd":"12","lsbd":"School Board Timpanogos 5"},{"vid":"a3eb7479df22539b8c2f0aa06584b4079c5e76070aa4277316aada293f3b6b0f","name":"Darrin Ondricka","party":"","address":"1634 N 210 E, Orem, UT 84057","precinct":"25OR04","hd":"58","v_score":"4.069929862","decile":"6","lat":40.32719463251061,"lng":-111.69097707607895,"phone":"(752) 754-4925","sd":"24","ssbd":"12","lsbd":"School Board Timpanogos 5"},{"vid":"8a0879ac86ddbbe76d68cc02294f12810ca50385c51029653a9fed0f457d3079","name":"Randy Feest","party":"Dem","address":"134 E 1750 N, Orem, UT 84057","precinct":"25OR04","hd":"58","v_score":"6.657533174","decile":"7","lat":40.329319486684575,"lng":-111.69302487728676,"phone":"(596) 382-6090","sd":"24","ssbd":"12","lsbd":"School Board Timpanogos 5"},{"vid":"7382c62095cc2412dc28e535142013976171fb6ec7a514218ae6cfff5540fdb5","name":"Bethann Boyer","party":"","address":"16 E 1775 N, Orem, UT 84057","precinct":"25OR04","hd":"58","v_score":"2.587603312","decile":"5","lat":40.32964177403001,"lng":-111.69596835456198,"phone":"(534) 989-8385","sd":"24","ssbd":"12","lsbd":"School Board Timpanogos 5"},{"vid":"76f4a07804e5959ee652480849c27e83a7e1dd351fffcb757875a47a1fe4aaa3","name":"Farris Ruecker","party":"Dem","address":"33 E 1600 N, Orem, UT 84057","precinct":"25OR04","hd":"58","v_score":"1.193887297","decile":"3","lat":40.32693559362532,"lng":-111.69565388460138,"phone":"(733) 012-1766","sd":"24","ssbd":"12","lsbd":"School Board Timpanogos 5"},{"vid":"2109382","name":"Dr. Stuart McCullough","party":"","address":"1971 N 230 E, Orem, UT 84057","precinct":"25OR04","hd":"58","v_score":"20.93928147","decile":"10","lat":40.33326609652309,"lng":-111.69082179762941,"phone":"(705) 439-2532","sd":"24","ssbd":"12","lsbd":"School Board Timpanogos 5"},{"vid":"eb06bb424ce5572337944278a62574869b5a3204adebc7cfa74d259cb0cbad03","name":"Lisandro Brakus","party":"Rep","address":"1622 N 160 E, Orem, UT 84057","precinct":"25OR04","hd":"58","v_score":"2.587603312","decile":"5","lat":40.327092125557066,"lng":-111.69182261954155,"phone":"(192) 875-2220","sd":"24","ssbd":"12","lsbd":"School Board Timpanogos 5"},{"vid":"404f4ea2847bdadc704461de874a5f6fba1c95ffaaff630c8d506af3fcfc18e6","name":"Mr. Stone Schultz","party":"Dem","address":"134 E 1750 N, Orem, UT 84057","precinct":"25OR04","hd":"58","v_score":"13.93704549","decile":"9","lat":40.329319486684575,"lng":-111.69302487728676,"phone":"(384) 809-4488","sd":"24","ssbd":"12","lsbd":"School Board Timpanogos 5"},{"vid":"dec190e1df0c95532b7d70224d20d63dcd184221074116c49065e830e25d4306","name":"Dorathea Auer","party":"Dem","address":"83 E 1960 N, Orem, UT 84057","precinct":"25OR04","hd":"58","v_score":"0","decile":"1","lat":40.33331149005508,"lng":-111.69456865398786,"phone":"(158) 846-2698","sd":"24","ssbd":"12","lsbd":"School Board Timpanogos 5"},{"vid":"78b51eeee2c33a45cbb5aafef02d816444d550f7beb65573db53201daf8a73f3","name":"Rhiannon Mraz","party":"Rep","address":"76 E 1850 N, Orem, UT 84057","precinct":"25OR04","hd":"58","v_score":"12.43347023","decile":"9","lat":40.33086400851288,"lng":-111.69468027010615,"phone":"(857) 517-4140","sd":"24","ssbd":"12","lsbd":"School Board Timpanogos 5"},{"vid":"7c97c0c446cea3c935367f019aec586040dae712ff119384812a17121b38770d","name":"Geoff Parisian","party":"","address":"100 E 1850 N, Orem, UT 84057","precinct":"25OR04","hd":"58","v_score":"11.45700587","decile":"9","lat":40.33091129533476,"lng":-111.69410421172446,"phone":"(784) 198-6975","sd":"24","ssbd":"12","lsbd":"School Board Timpanogos 5"},{"vid":"2172730","name":"Evelyn Schultz-Streich","party":"","address":"29 E 1700 N, Orem, UT 84057","precinct":"25OR04","hd":"58","v_score":"2.315214949","decile":"5","lat":40.32918521874979,"lng":-111.6957395905126,"phone":"(590) 224-5722","sd":"24","ssbd":"12","lsbd":"School Board Timpanogos 5"},{"vid":"b96d2044cd28721d6802731dea3f520bb6aaa4d4357fe772f313b3496ee28e0a","name":"Rosanna Herman","party":"","address":"371 E 1890 N, Orem, UT 84057","precinct":"25OR04","hd":"58","v_score":"12.68005359","decile":"9","lat":40.332448868810516,"lng":-111.68762418513738,"phone":"(573) 895-0179","sd":"24","ssbd":"12","lsbd":"School Board Timpanogos 5"},{"vid":"3e8cd07141965bd8fda3392dd4276d090bb0fd07e32cb252ad948aea64031f73","name":"Kenia Koss-Casper","party":"Dem","address":"1860 N 40 E, Orem, UT 84057","precinct":"25OR04","hd":"58","v_score":"2.315214949","decile":"5","lat":40.331361908459186,"lng":-111.69507653441963,"phone":"(237) 360-6461","sd":"24","ssbd":"12","lsbd":"School Board Timpanogos 5"},{"vid":"37146c88e6ae9896b3222f3164779b1bb3f9bd6f87eb404ead091caa4711c22a","name":"Pate Harvey","party":"","address":"1683 N 210 E, Orem, UT 84057","precinct":"25OR04","hd":"58","v_score":"5.335065618","decile":"7","lat":40.32808435593322,"lng":-111.69148342690636,"phone":"(917) 033-3397","sd":"24","ssbd":"12","lsbd":"School Board Timpanogos 5"},{"vid":"2179085","name":"Mr. Murdock Cremin","party":"","address":"1621 N 50 E, Orem, UT 84057","precinct":"25OR04","hd":"58","v_score":"2.315214949","decile":"5","lat":40.32711022503329,"lng":-111.69562348125035,"phone":"(883) 864-0831","sd":"24","ssbd":"12","lsbd":"School Board Timpanogos 5"},{"vid":"ff3555baedf39d3ce4cc424c1f5dfb292d310f63686ee37a652386d3d154bbfb","name":"Violet Metz","party":"","address":"100 E 1850 N, Orem, UT 84057","precinct":"25OR04","hd":"58","v_score":"3.93832808","decile":"6","lat":40.33091129533476,"lng":-111.69410421172446,"phone":"(540) 456-9769","sd":"24","ssbd":"12","lsbd":"School Board Timpanogos 5"},{"vid":"c39517f61bf72bd1422c3ae59a0188d17c9d753b9192650a9c69a37bc6ab9566","name":"Berenice Schultz","party":"Rep","address":"1653 N 210 E, Orem, UT 84057","precinct":"25OR04","hd":"58","v_score":"0","decile":"1","lat":40.327544474655696,"lng":-111.69136127499502,"phone":"(643) 204-1038","sd":"24","ssbd":"12","lsbd":"School Board Timpanogos 5"},{"vid":"0218936513e60effc0c07baa522a77f3358a29ddeced9479a12e69b324badbc6","name":"Eve Kautzer PhD","party":"Rep","address":"133 E 1750 N, Orem, UT 84057","precinct":"25OR04","hd":"58","v_score":"0","decile":"1","lat":40.32963148044879,"lng":-111.69304985851518,"phone":"(217) 189-2749","sd":"24","ssbd":"12","lsbd":"School Board Timpanogos 5"},{"vid":"2216867","name":"Hayleigh Kunde-Brakus","party":"Rep","address":"28 E 1850 N, Orem, UT 84057","precinct":"25OR04","hd":"58","v_score":"2.315214949","decile":"5","lat":40.33091056451293,"lng":-111.69582544255864,"phone":"(385) 110-1063","sd":"24","ssbd":"12","lsbd":"School Board Timpanogos 5"},{"vid":"7beef35da4c41e16fff4fae816030f9080e3d92a3926062ca4640c441282b77f","name":"Damarcus Shanahan","party":"","address":"64 E 1850 N, Orem, UT 84057","precinct":"25OR04","hd":"58","v_score":"4.064235245","decile":"6","lat":40.33091093334784,"lng":-111.69496482759072,"phone":"(581) 971-1982","sd":"24","ssbd":"12","lsbd":"School Board Timpanogos 5"},{"vid":"2220571","name":"Kash Klocko III","party":"Dem","address":"1774 N 80 E, Orem, UT 84057","precinct":"25OR04","hd":"58","v_score":"1.121327652","decile":"3","lat":40.3299183298327,"lng":-111.69395301783608,"phone":"(362) 449-8212","sd":"24","ssbd":"12","lsbd":"School Board Timpanogos 5"},{"vid":"18f4aea2a64784b999d5ee421903a470a7864077adfa471d94ec2c9b8ba7c8a2","name":"Efren Rogahn","party":"Dem","address":"1949 N 325 E, Orem, UT 84057","precinct":"25OR04","hd":"58","v_score":"25.84039697","decile":"10","lat":40.333075764347065,"lng":-111.68861287832618,"phone":"(825) 806-5273","sd":"24","ssbd":"12","lsbd":"School Board Timpanogos 5"},{"vid":"a6a776f2674f3176085d24319082bb2aee4565d014c56450167073f7e8f4c5a9","name":"Wanda O'Kon","party":"Rep","address":"122 E 2000 N, Orem, UT 84057","precinct":"25OR04","hd":"58","v_score":"1.623113131","decile":"5","lat":40.33363842877571,"lng":-111.69346523128377,"phone":"(920) 450-4271","sd":"24","ssbd":"12","lsbd":"School Board Timpanogos 5"},{"vid":"7419f646ded7904ff305215c084303b1dd84c97a8432f380b76ffcfcb4824e78","name":"Icie Swift","party":"Rep","address":"1921 N 100 E, Orem, UT 84057","precinct":"25OR04","hd":"58","v_score":"4.499155696","decile":"7","lat":40.33238827245961,"lng":-111.69440898436727,"phone":"(555) 314-5488","sd":"24","ssbd":"12","lsbd":"School Board Timpanogos 5"},{"vid":"fc4e8138e85bdd9fe6217e30b111ed4b75ca814077ed6ae19472724b5a5e1e42","name":"Orvil Schaden","party":"","address":"15 E 1850 N, Orem, UT 84057","precinct":"25OR04","hd":"58","v_score":"5.273794831","decile":"7","lat":40.3312456061328,"lng":-111.6961279983224,"phone":"(700) 903-8452","sd":"24","ssbd":"12","lsbd":"School Board Timpanogos 5"},{"vid":"2238413","name":"Tiney Beer","party":"Dem","address":"293 E Heather Cir, Orem, UT 84057","precinct":"25OR04","hd":"58","v_score":"6.881235673","decile":"8","lat":40.331689632328136,"lng":-111.68890948977025,"phone":"(333) 287-2718","sd":"24","ssbd":"12","lsbd":"School Board Timpanogos 5"},{"vid":"1a9e9cdf4b8a34d1698351236a27d19a6d61d1bf5763757fd3a793b6c07c91e5","name":"Marisela McKenzie","party":"","address":"182 E Ridge Rd, Orem, UT 84057","precinct":"25OR04","hd":"58","v_score":"19.11387457","decile":"10","lat":40.331951025446436,"lng":-111.69303543608461,"phone":"(353) 204-1458","sd":"24","ssbd":"12","lsbd":"School Board Timpanogos 5"},{"vid":"668b134318a96423adc3270efeb2b0fd738f101442ea117743d1c44930ac0ed3","name":"Monika Feest","party":"Rep","address":"28 E 1850 N, Orem, UT 84057","precinct":"25OR04","hd":"58","v_score":"3.93832808","decile":"6","lat":40.33091056451293,"lng":-111.69582544255864,"phone":"(281) 451-6558","sd":"24","ssbd":"12","lsbd":"School Board Timpanogos 5"},{"vid":"2261039","name":"Naima D'Amore","party":"Dem","address":"1936 N 325 E, Orem, UT 84057","precinct":"25OR04","hd":"58","v_score":"1.121327652","decile":"3","lat":40.33288315581966,"lng":-111.68823756348218,"phone":"(214) 744-7223","sd":"24","ssbd":"12","lsbd":"School Board Timpanogos 5"},{"vid":"ebcee682ff6063a2a2011c80d0fae5e90dacbe4d11829ae7bf6f0051b18e80b4","name":"Barry Leuschke-Gaylord","party":"Dem","address":"95 E 1960 N, Orem, UT 84057","precinct":"25OR04","hd":"58","v_score":"6.814370645","decile":"8","lat":40.33337737147561,"lng":-111.69431539765968,"phone":"(734) 167-9839","sd":"24","ssbd":"12","lsbd":"School Board Timpanogos 5"},{"vid":"85b9fb739423439d2af8f6e463d7a5c47197f8f8e72bc5eeaa62d77b3e2bca1a","name":"Zollie Weimann","party":"","address":"17 E 1700 N, Orem, UT 84057","precinct":"25OR04","hd":"58","v_score":"0","decile":"1","lat":40.32914542710978,"lng":-111.69596316399966,"phone":"(476) 067-3048","sd":"24","ssbd":"12","lsbd":"School Board Timpanogos 5"},{"vid":"2271788","name":"Etha Wisoky","party":"Dem","address":"236 E 1660 N, Orem, UT 84057","precinct":"25OR04","hd":"58","v_score":"1.121327652","decile":"3","lat":40.32755926056348,"lng":-111.69050425310854,"phone":"(376) 362-5169","sd":"24","ssbd":"12","lsbd":"School Board Timpanogos 5"},{"vid":"2271868","name":"Leila Tremblay","party":"Dem","address":"236 E 1660 N, Orem, UT 84057","precinct":"25OR04","hd":"58","v_score":"2.315214949","decile":"5","lat":40.32755926056348,"lng":-111.69050425310854,"phone":"(430) 454-6364","sd":"24","ssbd":"12","lsbd":"School Board Timpanogos 5"},{"vid":"2277596","name":"Avis Marvin-Williamson","party":"","address":"1940 N 270 E, Orem, UT 84057","precinct":"25OR04","hd":"58","v_score":"1.121327652","decile":"3","lat":40.3327369070308,"lng":-111.68973990862453,"phone":"(969) 359-1494","sd":"24","ssbd":"12","lsbd":"School Board Timpanogos 5"},{"vid":"2278011","name":"Ms. Edris Luettgen","party":"","address":"287 E 1620 N, Orem, UT 84057","precinct":"25OR04","hd":"58","v_score":"2.315214949","decile":"5","lat":40.327232390173535,"lng":-111.68913000129254,"phone":"(952) 751-4809","sd":"24","ssbd":"12","lsbd":"School Board Timpanogos 5"},{"vid":"2279824","name":"Louetta Carter","party":"Rep","address":"1951 N 400 E, Orem, UT 84097","precinct":"25OR04","hd":"58","v_score":"1.121327652","decile":"3","lat":40.33304512647518,"lng":-111.68704367403785,"phone":"(905) 512-0846","sd":"24","ssbd":"12","lsbd":"School Board Timpanogos 5"},{"vid":"ae1acfd7b71e29201a178183a9c95b08f4008b93832d5cab5676e028915083f8","name":"Dr. Levy Renner PhD","party":"","address":"1849 N 400 E, Orem, UT 84097","precinct":"25OR04","hd":"58","v_score":"23.47054229","decile":"10","lat":40.33109083634985,"lng":-111.68794455634773,"phone":"(732) 139-5573","sd":"24","ssbd":"12","lsbd":"School Board Timpanogos 5"},{"vid":"2295818","name":"Hall Wunsch-O'Connell","party":"","address":"123 E 1850 N, Orem, UT 84057","precinct":"25OR04","hd":"58","v_score":"8.134165107","decile":"8","lat":40.331274299731746,"lng":-111.69346192595553,"phone":"(380) 086-7917","sd":"24","ssbd":"12","lsbd":"School Board Timpanogos 5"},{"vid":"bb16df8ff9ec7768ec9afc08c96910ab3ee20250cca5ede034b6aa938cea3b14","name":"Paris Murphy","party":"Rep","address":"384 E Heather Rd, Orem, UT 84057","precinct":"25OR04","hd":"58","v_score":"11.84611759","decile":"9","lat":40.33022964789614,"lng":-111.68788184355238,"phone":"(210) 007-4452","sd":"24","ssbd":"12","lsbd":"School Board Timpanogos 5"},{"vid":"20f35d18ca00c5dcbd9fb5e116869bbefbf32970adde52227a0ab71cb0bd3106","name":"Reilly Raynor","party":"","address":"1736 N 210 E, Orem, UT 84057","precinct":"25OR04","hd":"58","v_score":"4.137918904","decile":"7","lat":40.32914629637138,"lng":-111.69089729189713,"phone":"(393) 972-4182","sd":"24","ssbd":"12","lsbd":"School Board Timpanogos 5"},{"vid":"b9adcff38eb3998e53af089b92970254fb8baecb62d86238c63147b6fa49d5ec","name":"Haleigh Gutkowski","party":"Dem","address":"1964 N 100 E, Orem, UT 84057","precinct":"25OR04","hd":"58","v_score":"3.93832808","decile":"6","lat":40.333111186140485,"lng":-111.6937001453774,"phone":"(744) 267-1429","sd":"24","ssbd":"12","lsbd":"School Board Timpanogos 5"},{"vid":"2315209","name":"Lynn Feest","party":"Dem","address":"1910 N 270 E, Orem, UT 84057","precinct":"25OR04","hd":"58","v_score":"1.193887297","decile":"3","lat":40.33214703907245,"lng":-111.69010111526018,"phone":"(499) 414-3295","sd":"24","ssbd":"12","lsbd":"School Board Timpanogos 5"},{"vid":"2318578","name":"Janel Strosin","party":"","address":"1966 N 150 E, Orem, UT 84057","precinct":"25OR04","hd":"58","v_score":"2.315214949","decile":"5","lat":40.33308880179647,"lng":-111.69272346115007,"phone":"(929) 628-1747","sd":"24","ssbd":"12","lsbd":"School Board Timpanogos 5"},{"vid":"2345520","name":"Ulises Hoppe","party":"","address":"310 E 2000 N, Orem, UT 84057","precinct":"25OR04","hd":"58","v_score":"0","decile":"1","lat":40.33359167249407,"lng":-111.68895165512741,"phone":"(474) 574-8007","sd":"24","ssbd":"12","lsbd":"School Board Timpanogos 5"},{"vid":"2354408","name":"Raquan Windler","party":"","address":"1976 N 150 E, Orem, UT 84057","precinct":"25OR04","hd":"58","v_score":"7.090117576","decile":"8","lat":40.333379647163504,"lng":-111.69249103673563,"phone":"(231) 083-2608","sd":"24","ssbd":"12","lsbd":"School Board Timpanogos 5"},{"vid":"2364016","name":"Cale Denesik","party":"","address":"83 E 1960 N, Orem, UT 84057","precinct":"25OR04","hd":"58","v_score":"0","decile":"1","lat":40.33331149005508,"lng":-111.69456865398786,"phone":"(214) 185-1708","sd":"24","ssbd":"12","lsbd":"School Board Timpanogos 5"},{"vid":"2369169","name":"Nayeli Hahn","party":"","address":"1612 N 210 E, Orem, UT 84057","precinct":"25OR04","hd":"58","v_score":"6.027167436","decile":"7","lat":40.32689081833968,"lng":-111.69097127144508,"phone":"(467) 002-4149","sd":"24","ssbd":"12","lsbd":"School Board Timpanogos 5"},{"vid":"2369265","name":"Alvie Raynor","party":"","address":"365 E 1950 N, Apt B, Orem, UT 84057","precinct":"25OR04","hd":"58","v_score":"2.315214949","decile":"5","lat":40.333243820924885,"lng":-111.68751014895336,"phone":"(719) 570-8359","sd":"24","ssbd":"12","lsbd":"School Board Timpanogos 5"},{"vid":"2399446","name":"Hal Kulas I","party":"","address":"123 E 1850 N, Orem, UT 84057","precinct":"25OR04","hd":"58","v_score":"2.315214949","decile":"5","lat":40.331274299731746,"lng":-111.69346192595553,"phone":"(979) 311-7655","sd":"24","ssbd":"12","lsbd":"School Board Timpanogos 5"},{"vid":"2401721","name":"Deborrah Boyer","party":"Rep","address":"1976 N 150 E, Orem, UT 84057","precinct":"25OR04","hd":"58","v_score":"4.858449944","decile":"7","lat":40.333379647163504,"lng":-111.69249103673563,"phone":"(875) 912-7745","sd":"24","ssbd":"12","lsbd":"School Board Timpanogos 5"},{"vid":"2408975","name":"Henderson Bogan","party":"Rep","address":"32 E 2000 N, Orem, UT 84057","precinct":"25OR04","hd":"58","v_score":"10.66687182","decile":"9","lat":40.33361820649781,"lng":-111.69544586760962,"phone":"(769) 101-3599","sd":"24","ssbd":"12","lsbd":"School Board Timpanogos 5"},{"vid":"2409514","name":"Lesley Lueilwitz-Bernhard","party":"Rep","address":"1910 N 270 E, Orem, UT 84057","precinct":"25OR04","hd":"58","v_score":"5.331806201","decile":"7","lat":40.33214703907245,"lng":-111.69010111526018,"phone":"(571) 100-4694","sd":"24","ssbd":"12","lsbd":"School Board Timpanogos 5"},{"vid":"2410336","name":"Lamont Jakubowski-Dibbert","party":"","address":"33 E 1600 N, Orem, UT 84057","precinct":"25OR04","hd":"58","v_score":"1.121327652","decile":"3","lat":40.32693559362532,"lng":-111.69565388460138,"phone":"(191) 769-7936","sd":"24","ssbd":"12","lsbd":"School Board Timpanogos 5"},{"vid":"2412553","name":"Reece Conn","party":"Rep","address":"1915 N 270 E, Orem, UT 84057","precinct":"25OR04","hd":"58","v_score":"1.121327652","decile":"3","lat":40.33218564943685,"lng":-111.69056489323901,"phone":"(983) 952-3008","sd":"24","ssbd":"12","lsbd":"School Board Timpanogos 5"},{"vid":"2425938","name":"Cassandra Braun","party":"Dem","address":"372 E 2000 N, Orem, UT 84057","precinct":"25OR04","hd":"58","v_score":"2.315214949","decile":"5","lat":40.333619758684065,"lng":-111.68735307681857,"phone":"(857) 374-6857","sd":"24","ssbd":"12","lsbd":"School Board Timpanogos 5"},{"vid":"2431304","name":"Rhona Legros-Graham","party":"Dem","address":"1729 N 50 E, Orem, UT 84057","precinct":"25OR04","hd":"58","v_score":"0","decile":"1","lat":40.329103274114246,"lng":-111.69541588281444,"phone":"(341) 416-6295","sd":"24","ssbd":"12","lsbd":"School Board Timpanogos 5"},{"vid":"2436741","name":"Sheree Thompson","party":"","address":"61 E 1600 N, Orem, UT 84057","precinct":"25OR04","hd":"58","v_score":"1.121327652","decile":"3","lat":40.327017800182745,"lng":-111.6947332879042,"phone":"(725) 125-8385","sd":"24","ssbd":"12","lsbd":"School Board Timpanogos 5"},{"vid":"2439616","name":"Kamari Kuhlman","party":"","address":"1781 N Gold River Dr, Orem, UT 84057","precinct":"25OR04","hd":"58","v_score":"7.284456737","decile":"8","lat":40.32964647853757,"lng":-111.6904490780448,"phone":"(703) 674-5423","sd":"24","ssbd":"12","lsbd":"School Board Timpanogos 5"},{"vid":"2446058","name":"Ms. Hunter Erdman DDS","party":"Rep","address":"339 E 1950 N, Orem, UT 84057","precinct":"25OR04","hd":"58","v_score":"3.93832808","decile":"6","lat":40.33333172400267,"lng":-111.68815207038234,"phone":"(420) 110-5943","sd":"24","ssbd":"12","lsbd":"School Board Timpanogos 5"},{"vid":"2459363","name":"Della Reilly","party":"Dem","address":"1906 N 325 E, Orem, UT 84057","precinct":"25OR04","hd":"58","v_score":"0","decile":"1","lat":40.33245580304924,"lng":-111.68829686778213,"phone":"(324) 711-5852","sd":"24","ssbd":"12","lsbd":"School Board Timpanogos 5"},{"vid":"2460544","name":"Malissie Brakus","party":"Dem","address":"19 E 1775 N, Orem, UT 84057","precinct":"25OR04","hd":"58","v_score":"23.62038206","decile":"10","lat":40.32986575569942,"lng":-111.69595503555658,"phone":"(240) 795-7730","sd":"24","ssbd":"12","lsbd":"School Board Timpanogos 5"},{"vid":"2469844","name":"Ayla Aufderhar","party":"Rep","address":"111 E 1750 N, Orem, UT 84057","precinct":"25OR04","hd":"58","v_score":"0","decile":"1","lat":40.32960786818976,"lng":-111.69352335668873,"phone":"(657) 356-9225","sd":"24","ssbd":"12","lsbd":"School Board Timpanogos 5"},{"vid":"2484561","name":"Porter Fritsch-Keebler","party":"","address":"1931 N 230 E, Orem, UT 84057","precinct":"25OR04","hd":"58","v_score":"1.623113131","decile":"5","lat":40.332781983437926,"lng":-111.69132020779314,"phone":"(488) 048-5866","sd":"24","ssbd":"12","lsbd":"School Board Timpanogos 5"},{"vid":"2485389","name":"Braylon Erdman-Mraz","party":"","address":"1681 N 400 E, Orem, UT 84097","precinct":"25OR04","hd":"58","v_score":"5.693042993","decile":"7","lat":40.328243916642386,"lng":-111.68700162059876,"phone":"(942) 229-8885","sd":"24","ssbd":"12","lsbd":"School Board Timpanogos 5"},{"vid":"2487431","name":"Crysta Runte","party":"","address":"1683 N 210 E, Orem, UT 84057","precinct":"25OR04","hd":"58","v_score":"2.817000428","decile":"6","lat":40.32808435593322,"lng":-111.69148342690636,"phone":"(352) 806-7513","sd":"24","ssbd":"12","lsbd":"School Board Timpanogos 5"},{"vid":"2497904","name":"Ardelia Wehner","party":"","address":"353 E 1950 N, Orem, UT 84057","precinct":"25OR04","hd":"58","v_score":"21.36826941","decile":"10","lat":40.33321240621298,"lng":-111.68782203377295,"phone":"(493) 617-9913","sd":"24","ssbd":"12","lsbd":"School Board Timpanogos 5"},{"vid":"2498401","name":"Jaylon Legros III","party":"","address":"368 E 1950 N, Orem, UT 84057","precinct":"25OR04","hd":"58","v_score":"0","decile":"1","lat":40.3328735938077,"lng":-111.68741949545299,"phone":"(382) 290-1892","sd":"24","ssbd":"12","lsbd":"School Board Timpanogos 5"},{"vid":"2506286","name":"Cordia Wunsch","party":"Rep","address":"1775 N 165 E, Orem, UT 84057","precinct":"25OR04","hd":"58","v_score":"0","decile":"1","lat":40.32995654794152,"lng":-111.6926386541762,"phone":"(784) 483-0667","sd":"24","ssbd":"12","lsbd":"School Board Timpanogos 5"},{"vid":"2506966","name":"Cami King","party":"","address":"1789 N 80 E, Orem, UT 84057","precinct":"25OR04","hd":"58","v_score":"16.72856503","decile":"9","lat":40.33015051724742,"lng":-111.69451853083149,"phone":"(621) 557-2945","sd":"24","ssbd":"12","lsbd":"School Board Timpanogos 5"},{"vid":"2516039","name":"Mrs. Philomena Ritchie","party":"Rep","address":"1770 N 120 E, Orem, UT 84057","precinct":"25OR04","hd":"58","v_score":"1.193887297","decile":"4","lat":40.32987950632707,"lng":-111.69306658390944,"phone":"(893) 310-7061","sd":"24","ssbd":"12","lsbd":"School Board Timpanogos 5"},{"vid":"2517940","name":"Maebell Schoen","party":"","address":"83 E 1960 N, Orem, UT 84057","precinct":"25OR04","hd":"58","v_score":"4.069929862","decile":"6","lat":40.33331149005508,"lng":-111.69456865398786,"phone":"(955) 989-1401","sd":"24","ssbd":"12","lsbd":"School Board Timpanogos 5"},{"vid":"2528387","name":"Lilie Hudson","party":"","address":"83 E 1960 N, Orem, UT 84057","precinct":"25OR04","hd":"58","v_score":"1.193887297","decile":"4","lat":40.33331149005508,"lng":-111.69456865398786,"phone":"(364) 871-6282","sd":"24","ssbd":"12","lsbd":"School Board Timpanogos 5"},{"vid":"2531602","name":"Brenda Kessler","party":"","address":"1681 N 400 E, Orem, UT 84097","precinct":"25OR04","hd":"58","v_score":"7.549608095","decile":"8","lat":40.328243916642386,"lng":-111.68700162059876,"phone":"(258) 454-9320","sd":"24","ssbd":"12","lsbd":"School Board Timpanogos 5"},{"vid":"2531775","name":"Vick O'Connell","party":"","address":"1618 N 50 E, Orem, UT 84057","precinct":"25OR04","hd":"58","v_score":"13.61907049","decile":"9","lat":40.327093714116096,"lng":-111.69516723013864,"phone":"(957) 228-0257","sd":"24","ssbd":"12","lsbd":"School Board Timpanogos 5"},{"vid":"2538868","name":"Luz Kub","party":"Rep","address":"110 E 1750 N, Orem, UT 84057","precinct":"25OR04","hd":"58","v_score":"1.193887297","decile":"4","lat":40.32928232163873,"lng":-111.69370894042304,"phone":"(874) 111-5777","sd":"24","ssbd":"12","lsbd":"School Board Timpanogos 5"},{"vid":"2541598","name":"Icie Gusikowski-Dibbert","party":"Rep","address":"1869 N 80 E, Orem, UT 84057","precinct":"25OR04","hd":"58","v_score":"2.817000428","decile":"6","lat":40.33150276138267,"lng":-111.69455044723838,"phone":"(220) 659-4341","sd":"24","ssbd":"12","lsbd":"School Board Timpanogos 5"},{"vid":"2556042","name":"Elzy Kirlin I","party":"Rep","address":"1972 N 230 E, Orem, UT 84057","precinct":"25OR04","hd":"58","v_score":"0","decile":"1","lat":40.33325428067833,"lng":-111.69056999887897,"phone":"(431) 536-4030","sd":"24","ssbd":"12","lsbd":"School Board Timpanogos 5"},{"vid":"2560697","name":"Shelva Bednar","party":"Dem","address":"19 E 1775 N, Orem, UT 84057","precinct":"25OR04","hd":"58","v_score":"18.35167816","decile":"10","lat":40.32986575569942,"lng":-111.69595503555658,"phone":"(760) 824-6947","sd":"24","ssbd":"12","lsbd":"School Board Timpanogos 5"},{"vid":"2576319","name":"Alina Koss","party":"","address":"172 E 2000 N, Orem, UT 84057","precinct":"25OR04","hd":"58","v_score":"0","decile":"1","lat":40.33359453953637,"lng":-111.69211655686642,"phone":"(513) 650-1722","sd":"24","ssbd":"12","lsbd":"School Board Timpanogos 5"},{"vid":"2584961","name":"Lita Luettgen-Nolan","party":"Dem","address":"354 E 1950 N, Orem, UT 84057","precinct":"25OR04","hd":"58","v_score":"9.40499548","decile":"8","lat":40.33288038599084,"lng":-111.68777271843696,"phone":"(198) 557-5982","sd":"24","ssbd":"12","lsbd":"School Board Timpanogos 5"},{"vid":"2608062","name":"Clem Larson-Turcotte","party":"","address":"365 E 1950 N, Orem, UT 84057","precinct":"25OR04","hd":"58","v_score":"0","decile":"1","lat":40.333243820924885,"lng":-111.68751014895336,"phone":"(712) 700-3667","sd":"24","ssbd":"12","lsbd":"School Board Timpanogos 5"},{"vid":"2610926","name":"Metha Nolan","party":"","address":"368 E 1950 N, Orem, UT 84057","precinct":"25OR04","hd":"58","v_score":"15.47563559","decile":"9","lat":40.3328735938077,"lng":-111.68741949545299,"phone":"(291) 880-0220","sd":"24","ssbd":"12","lsbd":"School Board Timpanogos 5"},{"vid":"2640346","name":"Mauro Kerluke","party":"Dem","address":"134 E 1750 N, Orem, UT 84057","precinct":"25OR04","hd":"58","v_score":"4.069929862","decile":"6","lat":40.329319486684575,"lng":-111.69302487728676,"phone":"(656) 507-1730","sd":"24","ssbd":"12","lsbd":"School Board Timpanogos 5"},{"vid":"2667826","name":"Eric Hodkiewicz","party":"","address":"61 E 1960 N, Orem, UT 84057","precinct":"25OR04","hd":"58","v_score":"0","decile":"1","lat":40.333184877625776,"lng":-111.69523291300351,"phone":"(414) 661-4319","sd":"24","ssbd":"12","lsbd":"School Board Timpanogos 5"},{"vid":"2672822","name":"Mr. Joshua Senger I","party":"Dem","address":"1945 N 150 E, Orem, UT 84057","precinct":"25OR04","hd":"58","v_score":"0","decile":"2","lat":40.33292575246804,"lng":-111.69341762827483,"phone":"(418) 684-4043","sd":"24","ssbd":"12","lsbd":"School Board Timpanogos 5"},{"vid":"2683321","name":"Hannah Robel-Mosciski","party":"Rep","address":"1686 N 250 E, Orem, UT 84057","precinct":"25OR04","hd":"58","v_score":"1.193887297","decile":"4","lat":40.32822814984158,"lng":-111.69009055728222,"phone":"(782) 442-5769","sd":"24","ssbd":"12","lsbd":"School Board Timpanogos 5"},{"vid":"2692488","name":"Mrs. Viviana Murray DVM","party":"Dem","address":"1775 N 80 E, Orem, UT 84057","precinct":"25OR04","hd":"58","v_score":"1.193887297","decile":"4","lat":40.32991743539828,"lng":-111.69454882874209,"phone":"(594) 084-5199","sd":"24","ssbd":"12","lsbd":"School Board Timpanogos 5"},{"vid":"2699238","name":"Gladys Ritchie","party":"","address":"26 E 1775 N, Orem, UT 84057","precinct":"25OR04","hd":"58","v_score":"0","decile":"2","lat":40.3295530272842,"lng":-111.69579147018004,"phone":"(740) 850-3602","sd":"24","ssbd":"12","lsbd":"School Board Timpanogos 5"},{"vid":"2701050","name":"Tilla Hagenes DVM","party":"Dem","address":"52 E 1850 N, Orem, UT 84057","precinct":"25OR04","hd":"58","v_score":"0","decile":"2","lat":40.330883378716145,"lng":-111.69522442157371,"phone":"(184) 261-4674","sd":"24","ssbd":"12","lsbd":"School Board Timpanogos 5"},{"vid":"2705665","name":"Alisson Rice-Cummings","party":"Rep","address":"1859 N 80 E, Orem, UT 84057","precinct":"25OR04","hd":"58","v_score":"0","decile":"2","lat":40.331259055605564,"lng":-111.6945780950865,"phone":"(355) 952-3003","sd":"24","ssbd":"12","lsbd":"School Board Timpanogos 5"},{"vid":"2720957","name":"Daron Marks","party":"Rep","address":"1671 N 50 E, Orem, UT 84057","precinct":"25OR04","hd":"58","v_score":"0","decile":"2","lat":40.32834022869062,"lng":-111.69571673158708,"phone":"(704) 762-1331","sd":"24","ssbd":"12","lsbd":"School Board Timpanogos 5"},{"vid":"2735455","name":"Miss Rennie Pouros DVM","party":"","address":"279 E 1660 N, Orem, UT 84057","precinct":"25OR04","hd":"58","v_score":"0","decile":"2","lat":40.32796832799538,"lng":-111.68948097140199,"phone":"(403) 922-4096","sd":"24","ssbd":"12","lsbd":"School Board Timpanogos 5"},{"vid":"2741458","name":"Rianna Miller-O'Conner","party":"","address":"172 E 2000 N, Orem, UT 84057","precinct":"25OR04","hd":"58","v_score":"0","decile":"2","lat":40.33359453953637,"lng":-111.69211655686642,"phone":"(378) 796-1529","sd":"24","ssbd":"12","lsbd":"School Board Timpanogos 5"},{"vid":"2744375","name":"Hjalmer Gerhold","party":"Dem","address":"1631 N 50 E, Orem, UT 84057","precinct":"25OR04","hd":"58","v_score":"0","decile":"2","lat":40.327450166474485,"lng":-111.69564179518726,"phone":"(790) 070-5293","sd":"24","ssbd":"12","lsbd":"School Board Timpanogos 5"},{"vid":"2750546","name":"Dasia Rau DVM","party":"Rep","address":"1736 N 210 E, Orem, UT 84057","precinct":"25OR04","hd":"58","v_score":"7.090117576","decile":"8","lat":40.32914629637138,"lng":-111.69089729189713,"phone":"(825) 205-8458","sd":"24","ssbd":"12","lsbd":"School Board Timpanogos 5"},{"vid":"2760509","name":"Irene Hammes","party":"Rep","address":"1686 N 250 E, Orem, UT 84057","precinct":"25OR04","hd":"58","v_score":"0","decile":"2","lat":40.32822814984158,"lng":-111.69009055728222,"phone":"(636) 531-5243","sd":"24","ssbd":"12","lsbd":"School Board Timpanogos 5"},{"vid":"2764202","name":"Dr. Sudie Ratke PhD","party":"","address":"288 E Gold River Cir, Orem, UT 84057","precinct":"25OR04","hd":"58","v_score":"8.284004873","decile":"8","lat":40.32943828620346,"lng":-111.68912713738506,"phone":"(798) 471-7008","sd":"24","ssbd":"12","lsbd":"School Board Timpanogos 5"},{"vid":"2786472","name":"Darry Mann","party":"Dem","address":"1849 N 400 E, Orem, UT 84097","precinct":"25OR04","hd":"58","v_score":"8.284004873","decile":"8","lat":40.33109083634985,"lng":-111.68794455634773,"phone":"(414) 328-0744","sd":"24","ssbd":"12","lsbd":"School Board Timpanogos 5"},{"vid":"2790075","name":"Zachery Kassulke","party":"","address":"18 E 1700 N, Orem, UT 84057","precinct":"25OR04","hd":"58","v_score":"1.193887297","decile":"4","lat":40.328923887106036,"lng":-111.69592126751336,"phone":"(536) 001-9799","sd":"24","ssbd":"12","lsbd":"School Board Timpanogos 5"},{"vid":"2798425","name":"Firman Koelpin-Will","party":"Dem","address":"221 E Ridge Rd, Orem, UT 84057","precinct":"25OR04","hd":"58","v_score":"1.193887297","decile":"4","lat":40.33199412747951,"lng":-111.69189326215619,"phone":"(955) 307-2787","sd":"24","ssbd":"12","lsbd":"School Board Timpanogos 5"},{"vid":"2798896","name":"Ms. Helaine Hettinger","party":"Rep","address":"368 E 1950 N, Orem, UT 84057","precinct":"25OR04","hd":"58","v_score":"0","decile":"2","lat":40.3328735938077,"lng":-111.68741949545299,"phone":"(271) 127-3665","sd":"24","ssbd":"12","lsbd":"School Board Timpanogos 5"},{"vid":"2801025","name":"Rene Price","party":"","address":"114 E Ridge Rd, Orem, UT 84057","precinct":"25OR04","hd":"58","v_score":"0","decile":"2","lat":40.33219176437344,"lng":-111.6939774320286,"phone":"(245) 667-7654","sd":"24","ssbd":"12","lsbd":"School Board Timpanogos 5"},{"vid":"2802994","name":"Cassondra Lubowitz","party":"","address":"1973 N 270 E, Orem, UT 84057","precinct":"25OR04","hd":"58","v_score":"1.193887297","decile":"4","lat":40.333373499129955,"lng":-111.6901218185828,"phone":"(907) 293-7280","sd":"24","ssbd":"12","lsbd":"School Board Timpanogos 5"},{"vid":"2804188","name":"Blanca Thiel","party":"Rep","address":"269 E Ridge Rd, Orem, UT 84057","precinct":"25OR04","hd":"58","v_score":"1.193887297","decile":"4","lat":40.3304019814651,"lng":-111.6896402001008,"phone":"(655) 458-5752","sd":"24","ssbd":"12","lsbd":"School Board Timpanogos 5"},{"vid":"2804235","name":"Quintin Haley","party":"","address":"1872 N 40 E, Orem, UT 84057","precinct":"25OR04","hd":"58","v_score":"0","decile":"2","lat":40.331551798351754,"lng":-111.69506750817489,"phone":"(338) 565-1399","sd":"24","ssbd":"12","lsbd":"School Board Timpanogos 5"},{"vid":"2804261","name":"Vincent Weissnat","party":"Dem","address":"1872 N 40 E, Orem, UT 84057","precinct":"25OR04","hd":"58","v_score":"0","decile":"2","lat":40.331551798351754,"lng":-111.69506750817489,"phone":"(900) 083-1275","sd":"24","ssbd":"12","lsbd":"School Board Timpanogos 5"},{"vid":"2807619","name":"Buelah Nader","party":"","address":"244 E 2000 N, Orem, UT 84057","precinct":"25OR04","hd":"58","v_score":"0","decile":"2","lat":40.33359467455135,"lng":-111.69037882913084,"phone":"(187) 908-9929","sd":"24","ssbd":"12","lsbd":"School Board Timpanogos 5"},{"vid":"2813147","name":"Charline Renner","party":"","address":"55 E 1600 N, Orem, UT 84057","precinct":"25OR04","hd":"58","v_score":"1.193887297","decile":"4","lat":40.3268561528101,"lng":-111.6951850449204,"phone":"(918) 749-2863","sd":"24","ssbd":"12","lsbd":"School Board Timpanogos 5"},{"vid":"2813161","name":"Deborah Wolff","party":"Dem","address":"1761 N 165 E, Orem, UT 84057","precinct":"25OR04","hd":"58","v_score":"2.876042565","decile":"6","lat":40.32959978775101,"lng":-111.69262073430444,"phone":"(652) 089-5535","sd":"24","ssbd":"12","lsbd":"School Board Timpanogos 5"},{"vid":"2813241","name":"Teagan Osinski-Mante","party":"","address":"55 E 1600 N, Orem, UT 84057","precinct":"25OR04","hd":"58","v_score":"1.193887297","decile":"4","lat":40.3268561528101,"lng":-111.6951850449204,"phone":"(218) 945-5118","sd":"24","ssbd":"12","lsbd":"School Board Timpanogos 5"},{"vid":"2813336","name":"Brianna Emard","party":"","address":"26 E 1775 N, Orem, UT 84057","precinct":"25OR04","hd":"58","v_score":"4.069929862","decile":"7","lat":40.3295530272842,"lng":-111.69579147018004,"phone":"(441) 459-9188","sd":"24","ssbd":"12","lsbd":"School Board Timpanogos 5"},{"vid":"2829588","name":"Jaylen Swift","party":"Rep","address":"1880 N 40 E, Orem, UT 84057","precinct":"25OR04","hd":"58","v_score":"8.284004873","decile":"8","lat":40.3316845014332,"lng":-111.69544179360788,"phone":"(432) 994-0133","sd":"24","ssbd":"12","lsbd":"School Board Timpanogos 5"},{"vid":"2861500","name":"Hoover Davis","party":"","address":"1880 N 40 E, Orem, UT 84057","precinct":"25OR04","hd":"58","v_score":"1.193887297","decile":"4","lat":40.3316845014332,"lng":-111.69544179360788,"phone":"(984) 606-7144","sd":"24","ssbd":"12","lsbd":"School Board Timpanogos 5"},{"vid":"2861691","name":"Stella Hegmann","party":"Dem","address":"19 E 1775 N, Orem, UT 84057","precinct":"25OR04","hd":"58","v_score":"4.214075011","decile":"7","lat":40.32986575569942,"lng":-111.69595503555658,"phone":"(153) 593-6206","sd":"24","ssbd":"12","lsbd":"School Board Timpanogos 5"},{"vid":"2883390","name":"Margretta Reichel-Rohan","party":"","address":"1622 N 160 E, Orem, UT 84057","precinct":"25OR04","hd":"58","v_score":"1.193887297","decile":"4","lat":40.327092125557066,"lng":-111.69182261954155,"phone":"(887) 819-3448","sd":"24","ssbd":"12","lsbd":"School Board Timpanogos 5"},{"vid":"2888679","name":"Delphine Cole MD","party":"Rep","address":"1671 N 50 E, Orem, UT 84057","precinct":"25OR04","hd":"58","v_score":"1.193887297","decile":"4","lat":40.32834022869062,"lng":-111.69571673158708,"phone":"(201) 719-1389","sd":"24","ssbd":"12","lsbd":"School Board Timpanogos 5"},{"vid":"2903507","name":"Dr. Aura Hettinger","party":"Rep","address":"88 E 1850 N, Orem, UT 84057","precinct":"25OR04","hd":"58","v_score":"0","decile":"2","lat":40.33088373926509,"lng":-111.69437324972596,"phone":"(244) 650-4560","sd":"24","ssbd":"12","lsbd":"School Board Timpanogos 5"},{"vid":"2927260","name":"Ms. Bristol Greenfelder","party":"Rep","address":"1934 N 60 E, Orem, UT 84057","precinct":"25OR04","hd":"58","v_score":"2.876042565","decile":"6","lat":40.33261085135788,"lng":-111.6949102311895,"phone":"(954) 088-7923","sd":"24","ssbd":"12","lsbd":"School Board Timpanogos 5"},{"vid":"2932829","name":"Spenser Thompson","party":"","address":"1859 N 80 E, Orem, UT 84057","precinct":"25OR04","hd":"58","v_score":"0","decile":"2","lat":40.331259055605564,"lng":-111.6945780950865,"phone":"(697) 228-6131","sd":"24","ssbd":"12","lsbd":"School Board Timpanogos 5"},{"vid":"2935509","name":"Nigel Abernathy DDS","party":"Rep","address":"1849 N 400 E, Orem, UT 84097","precinct":"25OR04","hd":"58","v_score":"7.090117576","decile":"8","lat":40.33109083634985,"lng":-111.68794455634773,"phone":"(743) 156-1753","sd":"24","ssbd":"12","lsbd":"School Board Timpanogos 5"},{"vid":"2935612","name":"Reinaldo Kutch","party":"Rep","address":"1886 N 285 E, Orem, UT 84057","precinct":"25OR04","hd":"58","v_score":"0","decile":"2","lat":40.332129936123124,"lng":-111.68914444690422,"phone":"(225) 848-2861","sd":"24","ssbd":"12","lsbd":"School Board Timpanogos 5"},{"vid":"2971302","name":"Breonna Feil-Prosacco","party":"","address":"269 E Ridge Rd, Orem, UT 84057","precinct":"25OR04","hd":"58","v_score":"1.193887297","decile":"4","lat":40.3304019814651,"lng":-111.6896402001008,"phone":"(422) 505-5909","sd":"24","ssbd":"12","lsbd":"School Board Timpanogos 5"},{"vid":"2984708","name":"Missy West","party":"","address":"1701 N 400 E, Orem, UT 84097","precinct":"25OR04","hd":"58","v_score":"0","decile":"2","lat":40.328417462786874,"lng":-111.68723344583655,"phone":"(448) 467-6734","sd":"24","ssbd":"12","lsbd":"School Board Timpanogos 5"},{"vid":"3079670","name":"Kenan Bins","party":"","address":"1978 N 100 E, Orem, UT 84057","precinct":"25OR04","hd":"58","v_score":"2.587603312","decile":"5","lat":40.333422476505696,"lng":-111.69354692973258,"phone":"(199) 398-2312","sd":"24","ssbd":"12","lsbd":"School Board Timpanogos 5"},{"vid":"3253712","name":"Dr. Victoriano Zemlak DVM","party":"Rep","address":"1872 N 40 E, Orem, UT 84057","precinct":"25OR04","hd":"58","v_score":"8.347511332","decile":"8","lat":40.331551798351754,"lng":-111.69506750817489,"phone":"(792) 756-6026","sd":"24","ssbd":"12","lsbd":"School Board Timpanogos 5"},{"vid":"8c7a8993f086a8df279c2a460e7f527b21fbf35a642c437a2f9310aa70cad4ce","name":"Hardin Weissnat","party":"Rep","address":"1930 N 270 E, Orem, UT 84057","precinct":"25OR04","hd":"58","v_score":"2.315214949","decile":"5","lat":40.33252754362982,"lng":-111.68981482092148,"phone":"(869) 306-9815","sd":"24","ssbd":"12","lsbd":"School Board Timpanogos 5"},{"vid":"3519211","name":"Mari Cassin","party":"","address":"216 E Heather Rd, Orem, UT 84057","precinct":"25OR04","hd":"58","v_score":"8.347511332","decile":"8","lat":40.33231624192905,"lng":-111.69179571350575,"phone":"(606) 543-2799","sd":"24","ssbd":"12","lsbd":"School Board Timpanogos 5"},{"vid":"3539019","name":"Faustino Balistreri","party":"Dem","address":"1860 N 40 E, Orem, UT 84057","precinct":"25OR04","hd":"58","v_score":"8.280646305","decile":"8","lat":40.331361908459186,"lng":-111.69507653441963,"phone":"(953) 876-1172","sd":"24","ssbd":"12","lsbd":"School Board Timpanogos 5"},{"vid":"3554329","name":"Bree Doyle","party":"Dem","address":"1925 N 270 E, Orem, UT 84057","precinct":"25OR04","hd":"58","v_score":"5.40460374","decile":"7","lat":40.33248109672642,"lng":-111.69047049208454,"phone":"(924) 551-1598","sd":"24","ssbd":"12","lsbd":"School Board Timpanogos 5"},{"vid":"3591225","name":"Hill Nolan","party":"Rep","address":"298 E 1960 N, Orem, UT 84057","precinct":"25OR04","hd":"58","v_score":"11.02844566","decile":"9","lat":40.332898592382044,"lng":-111.6892649808913,"phone":"(580) 530-9220","sd":"24","ssbd":"12","lsbd":"School Board Timpanogos 5"},{"vid":"4101209","name":"Ms. Maryanne Mosciski DVM","party":"Dem","address":"98 E 1750 N, Orem, UT 84057","precinct":"25OR04","hd":"58","v_score":"40.5196851","decile":"10","lat":40.329282857030655,"lng":-111.69403166539908,"phone":"(164) 467-2365","sd":"24","ssbd":"12","lsbd":"School Board Timpanogos 5"},{"vid":"4439124","name":"Kallie Rempel","party":"","address":"218 E 2000 N, Orem, UT 84057","precinct":"25OR04","hd":"58","v_score":"25.90605151","decile":"10","lat":40.33362207418413,"lng":-111.6909989889325,"phone":"(757) 417-2876","sd":"24","ssbd":"12","lsbd":"School Board Timpanogos 5"},{"vid":"5da762b71cc19826cedcf6cbda45080dea1b6fce27c26a652dc7077bde6f107c","name":"Mr. Dillan Kihn I","party":"","address":"218 E 2000 N, Orem, UT 84057","precinct":"25OR04","hd":"58","v_score":"28.78209407","decile":"10","lat":40.33362207418413,"lng":-111.6909989889325,"phone":"(622) 627-1774","sd":"24","ssbd":"12","lsbd":"School Board Timpanogos 5"},{"vid":"5920105","name":"Sharon Kulas DDS","party":"","address":"1858 N 80 E, Orem, UT 84057","precinct":"25OR04","hd":"58","v_score":"0","decile":"3","lat":40.33124595445744,"lng":-111.69422260329641,"phone":"(178) 149-8156","sd":"24","ssbd":"12","lsbd":"School Board Timpanogos 5"},{"vid":"5934284","name":"Eva Lebsack","party":"","address":"1969 N 190 E, Orem, UT 84057","precinct":"25OR04","hd":"58","v_score":"0","decile":"3","lat":40.33327747022976,"lng":-111.69197612524715,"phone":"(326) 921-0503","sd":"24","ssbd":"12","lsbd":"School Board Timpanogos 5"},{"vid":"6061793","name":"Hansford Frami","party":"Rep","address":"1688 N 210 E, Orem, UT 84057","precinct":"25OR04","hd":"58","v_score":"4.210716443","decile":"7","lat":40.328236508429455,"lng":-111.69092243935489,"phone":"(305) 014-6163","sd":"24","ssbd":"12","lsbd":"School Board Timpanogos 5"},{"vid":"6069254","name":"Theodosia Weissnat","party":"Dem","address":"19 E 1775 N, Orem, UT 84057","precinct":"25OR04","hd":"58","v_score":"38.24567755","decile":"10","lat":40.32986575569942,"lng":-111.69595503555658,"phone":"(531) 312-5880","sd":"24","ssbd":"12","lsbd":"School Board Timpanogos 5"},{"vid":"6094615","name":"Garold Kris-Kunde","party":"","address":"1715 N 210 E, Orem, UT 84057","precinct":"25OR04","hd":"58","v_score":"23.40636106","decile":"10","lat":40.32862082554892,"lng":-111.69138086293944,"phone":"(976) 792-5726","sd":"24","ssbd":"12","lsbd":"School Board Timpanogos 5"},{"vid":"6094822","name":"Nunzio Mraz","party":"Rep","address":"244 E 2000 N, Orem, UT 84057","precinct":"25OR04","hd":"58","v_score":"3.781490609","decile":"6","lat":40.33359467455135,"lng":-111.69037882913084,"phone":"(821) 863-9661","sd":"24","ssbd":"12","lsbd":"School Board Timpanogos 5"},{"vid":"6095031","name":"Ashby Willms","party":"","address":"1688 N 210 E, Orem, UT 84057","precinct":"25OR04","hd":"58","v_score":"5.40460374","decile":"7","lat":40.328236508429455,"lng":-111.69092243935489,"phone":"(818) 798-1373","sd":"24","ssbd":"12","lsbd":"School Board Timpanogos 5"},{"vid":"6162440","name":"Judd Hegmann","party":"","address":"1685 N 250 E, Orem, UT 84057","precinct":"25OR04","hd":"58","v_score":"1.193887297","decile":"4","lat":40.32817625184517,"lng":-111.69039336584986,"phone":"(937) 902-6647","sd":"24","ssbd":"12","lsbd":"School Board Timpanogos 5"},{"vid":"6171553","name":"Dr. Rod Raynor II","party":"Dem","address":"1764 N Moor Ln, Orem, UT 84057","precinct":"25OR04","hd":"58","v_score":"8.347511332","decile":"8","lat":40.329284943675894,"lng":-111.68818103694795,"phone":"(952) 715-9974","sd":"24","ssbd":"12","lsbd":"School Board Timpanogos 5"},{"vid":"80320a9271544daa3b9e10f04459d2f44f25b5294af430104c7082debe1f6fb6","name":"Mr. Elisha Spencer Jr.","party":"Rep","address":"1667 N 210 E, Orem, UT 84057","precinct":"25OR04","hd":"58","v_score":"1.121327652","decile":"3","lat":40.327818988493476,"lng":-111.69144094567925,"phone":"(267) 945-5493","sd":"24","ssbd":"12","lsbd":"School Board Timpanogos 5"},{"vid":"6202706","name":"Angele Waters","party":"","address":"1973 N 270 E, Orem, UT 84057","precinct":"25OR04","hd":"58","v_score":"17.84989268","decile":"10","lat":40.333373499129955,"lng":-111.6901218185828,"phone":"(222) 861-5675","sd":"24","ssbd":"12","lsbd":"School Board Timpanogos 5"},{"vid":"6204867","name":"Ms. Porsche Reichel DDS","party":"","address":"1651 N 50 E, Orem, UT 84057","precinct":"25OR04","hd":"58","v_score":"34.09285363","decile":"10","lat":40.32789661238317,"lng":-111.69551757579644,"phone":"(455) 748-3694","sd":"24","ssbd":"12","lsbd":"School Board Timpanogos 5"},{"vid":"ac9cffcdbc78e8de3be4860ffface9ac6811725ccdad1b2816998247e63fec7a","name":"Carlo Hauck","party":"","address":"1697 N Moor Ln, Orem, UT 84057","precinct":"25OR04","hd":"58","v_score":"24.5885815","decile":"10","lat":40.32805696201238,"lng":-111.68811625817516,"phone":"(230) 305-9693","sd":"24","ssbd":"12","lsbd":"School Board Timpanogos 5"},{"vid":"6206653","name":"Jasiah Kshlerin","party":"","address":"1786 N 80 E, Orem, UT 84057","precinct":"25OR04","hd":"58","v_score":"38.24567755","decile":"10","lat":40.33017243215334,"lng":-111.69408475641393,"phone":"(784) 941-9729","sd":"24","ssbd":"12","lsbd":"School Board Timpanogos 5"},{"vid":"6207923","name":"Tia Medhurst","party":"Rep","address":"1685 N 250 E, Orem, UT 84057","precinct":"25OR04","hd":"58","v_score":"31.15555998","decile":"10","lat":40.32817625184517,"lng":-111.69039336584986,"phone":"(294) 579-9932","sd":"24","ssbd":"12","lsbd":"School Board Timpanogos 5"},{"vid":"7a68495b6ff846803ad632528e0acc0eb7c3eee4df7d73793ec07c9d92f8ce36","name":"Rhoda Wilkinson","party":"Dem","address":"1612 N 210 E, Orem, UT 84057","precinct":"25OR04","hd":"58","v_score":"20.35949772","decile":"10","lat":40.32689081833968,"lng":-111.69097127144508,"phone":"(488) 739-6040","sd":"24","ssbd":"12","lsbd":"School Board Timpanogos 5"},{"vid":"6210038","name":"Ms. Faith Hills DDS","party":"Rep","address":"1797 N 120 E, Orem, UT 84057","precinct":"25OR04","hd":"58","v_score":"40.5196851","decile":"10","lat":40.33047809538246,"lng":-111.69339989545477,"phone":"(718) 405-2621","sd":"24","ssbd":"12","lsbd":"School Board Timpanogos 5"},{"vid":"6214714","name":"Oda Wehner-Nikolaus","party":"Dem","address":"1918 N 230 E, Orem, UT 84057","precinct":"25OR04","hd":"58","v_score":"35.83886619","decile":"10","lat":40.33226653567028,"lng":-111.69108073680816,"phone":"(892) 513-1413","sd":"24","ssbd":"12","lsbd":"School Board Timpanogos 5"},{"vid":"6215284","name":"Ms. Laci Lakin","party":"","address":"1791 N 120 E, Orem, UT 84057","precinct":"25OR04","hd":"58","v_score":"23.52685352","decile":"10","lat":40.330325160903016,"lng":-111.69355971437703,"phone":"(550) 971-2800","sd":"24","ssbd":"12","lsbd":"School Board Timpanogos 5"},{"vid":"6221566","name":"Mrs. Ilona Gerhold","party":"Rep","address":"1704 N 210 E, Orem, UT 84057","precinct":"25OR04","hd":"58","v_score":"3.781490609","decile":"6","lat":40.32855588446806,"lng":-111.6907416248249,"phone":"(641) 140-7062","sd":"24","ssbd":"12","lsbd":"School Board Timpanogos 5"},{"vid":"6222465","name":"Minnie Larkin","party":"","address":"305 E 1960 N, Orem, UT 84057","precinct":"25OR04","hd":"58","v_score":"5.40460374","decile":"7","lat":40.33322596714209,"lng":-111.68902624810327,"phone":"(541) 096-9610","sd":"24","ssbd":"12","lsbd":"School Board Timpanogos 5"},{"vid":"6224126","name":"Kristian Parker","party":"Rep","address":"1765 N Moor Ln, Orem, UT 84057","precinct":"25OR04","hd":"58","v_score":"5.40460374","decile":"7","lat":40.32950396228843,"lng":-111.68866169856692,"phone":"(144) 242-2388","sd":"24","ssbd":"12","lsbd":"School Board Timpanogos 5"},{"vid":"6228640","name":"Nolie Brown","party":"","address":"281 E Ridge Rd, Orem, UT 84057","precinct":"25OR04","hd":"58","v_score":"40.12325923","decile":"10","lat":40.330404326036756,"lng":-111.68927210649744,"phone":"(251) 679-9777","sd":"24","ssbd":"12","lsbd":"School Board Timpanogos 5"},{"vid":"6232423","name":"Mr. Mikeal Friesen IV","party":"Dem","address":"1936 N 325 E, Orem, UT 84057","precinct":"25OR04","hd":"58","v_score":"1.121327652","decile":"3","lat":40.33288315581966,"lng":-111.68823756348218,"phone":"(300) 109-8660","sd":"24","ssbd":"12","lsbd":"School Board Timpanogos 5"},{"vid":"09e7e8749e5feab8706d3723f3e882c7d726429fa51cf4f66f4d44553d84696b","name":"Stuart Mertz","party":"Dem","address":"222 E 1660 N, Orem, UT 84057","precinct":"25OR04","hd":"58","v_score":"38.40546931","decile":"10","lat":40.32761625150969,"lng":-111.69097526171895,"phone":"(587) 108-6799","sd":"24","ssbd":"12","lsbd":"School Board Timpanogos 5"},{"vid":"6236667","name":"Mathews Kerluke","party":"Rep","address":"25 E 1600 N, Orem, UT 84057","precinct":"25OR04","hd":"58","v_score":"1.46627566","decile":"4","lat":40.327253198925085,"lng":-111.69611413279402,"phone":"(403) 631-1921","sd":"24","ssbd":"12","lsbd":"School Board Timpanogos 5"},{"vid":"3112316b4789d6d20ed99ac19ca793b448d29ae01bc9cf8bccf8ce11e0a38380","name":"Laurel O'Reilly","party":"Dem","address":"1667 N 210 E, Orem, UT 84057","precinct":"25OR04","hd":"58","v_score":"7.047822616","decile":"8","lat":40.327818988493476,"lng":-111.69144094567925,"phone":"(936) 328-3216","sd":"24","ssbd":"12","lsbd":"School Board Timpanogos 5"},{"vid":"6241741","name":"Adyson Metz","party":"Rep","address":"1667 N 210 E, Orem, UT 84057","precinct":"25OR04","hd":"58","v_score":"2.315214949","decile":"5","lat":40.327818988493476,"lng":-111.69144094567925,"phone":"(142) 913-2051","sd":"24","ssbd":"12","lsbd":"School Board Timpanogos 5"},{"vid":"6245089","name":"Donnell Beatty DVM","party":"","address":"1978 N 100 E, Orem, UT 84057","precinct":"25OR04","hd":"58","v_score":"8.347511332","decile":"8","lat":40.333422476505696,"lng":-111.69354692973258,"phone":"(270) 069-8752","sd":"24","ssbd":"12","lsbd":"School Board Timpanogos 5"},{"vid":"6246107","name":"Richmond Mante","party":"Rep","address":"353 E 1950 N, Orem, UT 84057","precinct":"25OR04","hd":"58","v_score":"21.36826941","decile":"10","lat":40.33321240621298,"lng":-111.68782203377295,"phone":"(418) 571-3361","sd":"24","ssbd":"12","lsbd":"School Board Timpanogos 5"},{"vid":"6254794","name":"Derek Hilpert","party":"Dem","address":"1777 N Gold River Dr, Orem, UT 84057","precinct":"25OR04","hd":"58","v_score":"33.69318103","decile":"10","lat":40.3293797126365,"lng":-111.69039206387531,"phone":"(234) 852-2441","sd":"24","ssbd":"12","lsbd":"School Board Timpanogos 5"},{"vid":"6265325","name":"Bell Lind","party":"Rep","address":"64 E 1850 N, Orem, UT 84057","precinct":"25OR04","hd":"58","v_score":"26.9144526","decile":"10","lat":40.33091093334784,"lng":-111.69496482759072,"phone":"(462) 401-9755","sd":"24","ssbd":"12","lsbd":"School Board Timpanogos 5"},{"vid":"6265327","name":"Cristobal Raynor","party":"Rep","address":"64 E 1850 N, Orem, UT 84057","precinct":"25OR04","hd":"58","v_score":"32.90381675","decile":"10","lat":40.33091093334784,"lng":-111.69496482759072,"phone":"(765) 713-6372","sd":"24","ssbd":"12","lsbd":"School Board Timpanogos 5"},{"vid":"6271258","name":"Milda Murphy","party":"Rep","address":"153 E 1850 N, Orem, UT 84057","precinct":"25OR04","hd":"58","v_score":"29.15089296","decile":"10","lat":40.33094525249549,"lng":-111.6924697163451,"phone":"(572) 196-8248","sd":"24","ssbd":"12","lsbd":"School Board Timpanogos 5"},{"vid":"6271263","name":"Lorne Williamson MD","party":"Dem","address":"153 E 1850 N, Orem, UT 84057","precinct":"25OR04","hd":"58","v_score":"3.93832808","decile":"6","lat":40.33094525249549,"lng":-111.6924697163451,"phone":"(849) 607-0145","sd":"24","ssbd":"12","lsbd":"School Board Timpanogos 5"},{"vid":"6272649","name":"Jessica Luettgen","party":"","address":"164 E Ridge Rd, Orem, UT 84057","precinct":"25OR04","hd":"58","v_score":"36.55341911","decile":"10","lat":40.332060958576626,"lng":-111.69334887563447,"phone":"(994) 332-0063","sd":"24","ssbd":"12","lsbd":"School Board Timpanogos 5"},{"vid":"8caac0b54c9cfcb236f4f5539b6c71defb534764424838bcda579675009d88b6","name":"Pascal Cronin V","party":"Dem","address":"232 E 2000 N, Orem, UT 84057","precinct":"25OR04","hd":"58","v_score":"27.05857207","decile":"10","lat":40.33362208007319,"lng":-111.69070851437345,"phone":"(311) 857-4217","sd":"24","ssbd":"12","lsbd":"School Board Timpanogos 5"},{"vid":"6279461","name":"Orelia Mosciski","party":"","address":"1880 N 40 E, Orem, UT 84057","precinct":"25OR04","hd":"58","v_score":"16.22809223","decile":"9","lat":40.3316845014332,"lng":-111.69544179360788,"phone":"(853) 125-7351","sd":"24","ssbd":"12","lsbd":"School Board Timpanogos 5"},{"vid":"e2cbd87022d4f7b06cce72f9c60b496b22bf0147c717a2464bb3b3cbdc9878ad","name":"Ms. Corinne Botsford","party":"Dem","address":"1933 N 100 E, Orem, UT 84057","precinct":"25OR04","hd":"58","v_score":"13.85417219","decile":"9","lat":40.332625679486355,"lng":-111.69433311061418,"phone":"(872) 886-9140","sd":"24","ssbd":"12","lsbd":"School Board Timpanogos 5"},{"vid":"6291228","name":"Dorinda Grimes-Krajcik","party":"Dem","address":"273 E Gold River Cir, Orem, UT 84057","precinct":"25OR04","hd":"58","v_score":"11.02844566","decile":"9","lat":40.329280464477584,"lng":-111.68968258696387,"phone":"(869) 673-1786","sd":"24","ssbd":"12","lsbd":"School Board Timpanogos 5"},{"vid":"23500fe3e0c4b316f34725858e057aae82c324860e0f845d999a427c7c8cb3a7","name":"Mrs. Villa Conroy DVM","party":"","address":"254 E 1620 N, Orem, UT 84057","precinct":"25OR04","hd":"58","v_score":"11.03405959","decile":"9","lat":40.3268838233408,"lng":-111.69015828081093,"phone":"(504) 135-1974","sd":"24","ssbd":"12","lsbd":"School Board Timpanogos 5"},{"vid":"6305558","name":"Karley Effertz","party":"Dem","address":"1873 N 400 E, Orem, UT 84097","precinct":"25OR04","hd":"58","v_score":"27.07999049","decile":"10","lat":40.33154485729959,"lng":-111.68784786935585,"phone":"(664) 673-0141","sd":"24","ssbd":"12","lsbd":"School Board Timpanogos 5"},{"vid":"6305974","name":"Mrs. Dorthey Brown","party":"Rep","address":"1936 N 325 E, Orem, UT 84057","precinct":"25OR04","hd":"58","v_score":"12.64191471","decile":"9","lat":40.33288315581966,"lng":-111.68823756348218,"phone":"(981) 948-9602","sd":"24","ssbd":"12","lsbd":"School Board Timpanogos 5"},{"vid":"6306086","name":"Budd McDermott","party":"Dem","address":"273 E Gold River Cir, Orem, UT 84057","precinct":"25OR04","hd":"58","v_score":"15.43762891","decile":"9","lat":40.329280464477584,"lng":-111.68968258696387,"phone":"(188) 456-0081","sd":"24","ssbd":"12","lsbd":"School Board Timpanogos 5"},{"vid":"6306119","name":"Melissia Cruickshank","party":"","address":"1886 N 285 E, Orem, UT 84057","precinct":"25OR04","hd":"58","v_score":"7.090117576","decile":"8","lat":40.332129936123124,"lng":-111.68914444690422,"phone":"(405) 041-4148","sd":"24","ssbd":"12","lsbd":"School Board Timpanogos 5"},{"vid":"6310183","name":"Lim Ledner","party":"","address":"1672 N 210 E, Orem, UT 84057","precinct":"25OR04","hd":"58","v_score":"2.817000428","decile":"6","lat":40.32787010413422,"lng":-111.6909897053791,"phone":"(124) 064-4886","sd":"24","ssbd":"12","lsbd":"School Board Timpanogos 5"},{"vid":"6320633","name":"Allena Mills DDS","party":"Dem","address":"273 E Gold River Cir, Orem, UT 84057","precinct":"25OR04","hd":"58","v_score":"15.43762891","decile":"9","lat":40.329280464477584,"lng":-111.68968258696387,"phone":"(261) 844-0266","sd":"24","ssbd":"12","lsbd":"School Board Timpanogos 5"},{"vid":"6321757","name":"Mr. Christophe Jones","party":"","address":"1789 N 80 E, Orem, UT 84057","precinct":"25OR04","hd":"58","v_score":"31.13427375","decile":"10","lat":40.33015051724742,"lng":-111.69451853083149,"phone":"(290) 947-6787","sd":"24","ssbd":"12","lsbd":"School Board Timpanogos 5"},{"vid":"6339342","name":"Dr. Esley Sporer","party":"Rep","address":"384 E Heather Rd, Orem, UT 84057","precinct":"25OR04","hd":"58","v_score":"26.41733837","decile":"10","lat":40.33022964789614,"lng":-111.68788184355238,"phone":"(921) 675-4410","sd":"24","ssbd":"12","lsbd":"School Board Timpanogos 5"},{"vid":"6339762","name":"Adams Witting","party":"","address":"1764 N Moor Ln, Orem, UT 84057","precinct":"25OR04","hd":"58","v_score":"8.347511332","decile":"8","lat":40.329284943675894,"lng":-111.68818103694795,"phone":"(707) 753-9226","sd":"24","ssbd":"12","lsbd":"School Board Timpanogos 5"},{"vid":"6346672","name":"Lorelai Herzog MD","party":"Dem","address":"1786 N 80 E, Orem, UT 84057","precinct":"25OR04","hd":"58","v_score":"43.22595857","decile":"10","lat":40.33017243215334,"lng":-111.69408475641393,"phone":"(390) 215-1465","sd":"24","ssbd":"12","lsbd":"School Board Timpanogos 5"},{"vid":"2f40660a447a4b14757fad755c7d75c0e838a856ffc4f01d9e0455304074ffe7","name":"Mr. Boss King","party":"Dem","address":"365 E 1950 N, Orem, UT 84057","precinct":"25OR04","hd":"58","v_score":"6.52928996","decile":"7","lat":40.333243820924885,"lng":-111.68751014895336,"phone":"(931) 170-8491","sd":"24","ssbd":"12","lsbd":"School Board Timpanogos 5"},{"vid":"6350074","name":"Presley Nikolaus-Swift","party":"Rep","address":"1765 N Moor Ln, Orem, UT 84057","precinct":"25OR04","hd":"58","v_score":"9.640097175","decile":"8","lat":40.32950396228843,"lng":-111.68866169856692,"phone":"(641) 187-9872","sd":"24","ssbd":"12","lsbd":"School Board Timpanogos 5"},{"vid":"6350350","name":"Teena Spencer","party":"","address":"1973 N 270 E, Orem, UT 84057","precinct":"25OR04","hd":"58","v_score":"42.75260232","decile":"10","lat":40.333373499129955,"lng":-111.6901218185828,"phone":"(987) 387-6713","sd":"24","ssbd":"12","lsbd":"School Board Timpanogos 5"},{"vid":"6350558","name":"Dr. Nanci Doyle","party":"","address":"273 E Gold River Cir, Orem, UT 84057","precinct":"25OR04","hd":"58","v_score":"12.49472132","decile":"9","lat":40.329280464477584,"lng":-111.68968258696387,"phone":"(422) 923-6589","sd":"24","ssbd":"12","lsbd":"School Board Timpanogos 5"},{"vid":"6354042","name":"Azul Rosenbaum","party":"","address":"305 E 1960 N, Orem, UT 84057","precinct":"25OR04","hd":"58","v_score":"5.40460374","decile":"7","lat":40.33322596714209,"lng":-111.68902624810327,"phone":"(125) 130-4620","sd":"24","ssbd":"12","lsbd":"School Board Timpanogos 5"},{"vid":"6355498","name":"Alphonso Tromp","party":"Dem","address":"88 E 1850 N, Orem, UT 84057","precinct":"25OR04","hd":"58","v_score":"17.48088946","decile":"9","lat":40.33088373926509,"lng":-111.69437324972596,"phone":"(195) 651-1774","sd":"24","ssbd":"12","lsbd":"School Board Timpanogos 5"},{"vid":"6356085","name":"Golda Barton-Kuvalis","party":"","address":"1887 N 270 E, Orem, UT 84057","precinct":"25OR04","hd":"58","v_score":"11.36410258","decile":"9","lat":40.331795097149794,"lng":-111.69105687647716,"phone":"(259) 815-8774","sd":"24","ssbd":"12","lsbd":"School Board Timpanogos 5"},{"vid":"6359020","name":"Masako Hahn","party":"Rep","address":"289 E Heather Rd, Orem, UT 84057","precinct":"25OR04","hd":"58","v_score":"2.315214949","decile":"5","lat":40.33111165973447,"lng":-111.68940530366255,"phone":"(766) 902-8823","sd":"24","ssbd":"12","lsbd":"School Board Timpanogos 5"},{"vid":"6361948","name":"Jacoby Stiedemann","party":"Rep","address":"372 E 2000 N, Orem, UT 84057","precinct":"25OR04","hd":"58","v_score":"16.66896366","decile":"9","lat":40.333619758684065,"lng":-111.68735307681857,"phone":"(675) 966-8710","sd":"24","ssbd":"12","lsbd":"School Board Timpanogos 5"},{"vid":"6364177","name":"Shaquille Conroy II","party":"","address":"355 E 1890 N, Orem, UT 84057","precinct":"25OR04","hd":"58","v_score":"23.95587272","decile":"10","lat":40.332498923924256,"lng":-111.68794643831825,"phone":"(648) 984-2691","sd":"24","ssbd":"12","lsbd":"School Board Timpanogos 5"},{"vid":"6365804","name":"Richmond Bednar","party":"","address":"25 E 1600 N, Orem, UT 84057","precinct":"25OR04","hd":"58","v_score":"4.342318225","decile":"7","lat":40.327253198925085,"lng":-111.69611413279402,"phone":"(144) 697-7543","sd":"24","ssbd":"12","lsbd":"School Board Timpanogos 5"},{"vid":"6372442","name":"Lambert Stehr","party":"Dem","address":"1963 N 190 E, Orem, UT 84057","precinct":"25OR04","hd":"58","v_score":"7.227307695","decile":"8","lat":40.33309546402759,"lng":-111.6920876099061,"phone":"(412) 287-6018","sd":"24","ssbd":"12","lsbd":"School Board Timpanogos 5"},{"vid":"6378834","name":"Rosalee Heller","party":"Dem","address":"16 E 1775 N, Orem, UT 84057","precinct":"25OR04","hd":"58","v_score":"5.40460374","decile":"7","lat":40.32964177403001,"lng":-111.69596835456198,"phone":"(606) 696-8149","sd":"24","ssbd":"12","lsbd":"School Board Timpanogos 5"},{"vid":"6383400","name":"Aleah Jaskolski","party":"","address":"1941 N 400 E, Orem, UT 84097","precinct":"25OR04","hd":"58","v_score":"0","decile":"3","lat":40.33275389648453,"lng":-111.68694959499106,"phone":"(246) 992-0383","sd":"24","ssbd":"12","lsbd":"School Board Timpanogos 5"},{"vid":"6385267","name":"Mrs. Shelley O'Kon DDS","party":"","address":"1927 N 400 E, Orem, UT 84097","precinct":"25OR04","hd":"58","v_score":"29.22457662","decile":"10","lat":40.33252114271038,"lng":-111.6869989996633,"phone":"(748) 751-7632","sd":"24","ssbd":"12","lsbd":"School Board Timpanogos 5"},{"vid":"6387136","name":"Lucian Reichel","party":"","address":"1685 N 250 E, Orem, UT 84057","precinct":"25OR04","hd":"58","v_score":"8.445971984","decile":"8","lat":40.32817625184517,"lng":-111.69039336584986,"phone":"(755) 891-2780","sd":"24","ssbd":"12","lsbd":"School Board Timpanogos 5"},{"vid":"fe9112aa7cff2a1cf13a01d5e64ab99518b5198ed0ba6fa0b7c464c9b5c372ee","name":"Irena Schroeder-Keebler","party":"Dem","address":"244 E 2000 N, Orem, UT 84057","precinct":"25OR04","hd":"58","v_score":"2.315214949","decile":"5","lat":40.33359467455135,"lng":-111.69037882913084,"phone":"(712) 344-6425","sd":"24","ssbd":"12","lsbd":"School Board Timpanogos 5"},{"vid":"6390957","name":"Allie Barton","party":"","address":"1681 N 50 E, Orem, UT 84057","precinct":"25OR04","hd":"58","v_score":"3.781490609","decile":"6","lat":40.32859686004846,"lng":-111.6959011612545,"phone":"(398) 104-6785","sd":"24","ssbd":"12","lsbd":"School Board Timpanogos 5"},{"vid":"6391436","name":"Adlai Runte","party":"Rep","address":"235 E 1660 N, Orem, UT 84057","precinct":"25OR04","hd":"58","v_score":"1.121327652","decile":"3","lat":40.32790219744678,"lng":-111.69035452501943,"phone":"(681) 331-3699","sd":"24","ssbd":"12","lsbd":"School Board Timpanogos 5"},{"vid":"6392212","name":"Ms. Eura Skiles PhD","party":"Rep","address":"1978 N 100 E, Orem, UT 84057","precinct":"25OR04","hd":"58","v_score":"8.347511332","decile":"8","lat":40.333422476505696,"lng":-111.69354692973258,"phone":"(314) 188-3918","sd":"24","ssbd":"12","lsbd":"School Board Timpanogos 5"},{"vid":"6394275","name":"Dr. Lowell Daugherty DVM","party":"Dem","address":"205 E 1600 N, Orem, UT 84057","precinct":"25OR04","hd":"58","v_score":"0","decile":"3","lat":40.32686272562319,"lng":-111.69124790639687,"phone":"(462) 915-7862","sd":"24","ssbd":"12","lsbd":"School Board Timpanogos 5"},{"vid":"6395190","name":"Crissie Walker-Stehr","party":"Rep","address":"1880 N 40 E, Orem, UT 84057","precinct":"25OR04","hd":"58","v_score":"16.2066738","decile":"9","lat":40.3316845014332,"lng":-111.69544179360788,"phone":"(693) 492-2612","sd":"24","ssbd":"12","lsbd":"School Board Timpanogos 5"},{"vid":"6397213","name":"Mr. Hobson Kiehn DVM","party":"","address":"1715 N 210 E, Orem, UT 84057","precinct":"25OR04","hd":"58","v_score":"36.135841","decile":"10","lat":40.32862082554892,"lng":-111.69138086293944,"phone":"(534) 432-5795","sd":"24","ssbd":"12","lsbd":"School Board Timpanogos 5"},{"vid":"b4343786de1e13dfc35d6236ac703db1ab2d16e1f3b0b551469c64927f7c36ce","name":"Dr. Alvaro Ebert DDS","party":"Dem","address":"1910 N 270 E, Orem, UT 84057","precinct":"25OR04","hd":"58","v_score":"2.315214949","decile":"5","lat":40.33214703907245,"lng":-111.69010111526018,"phone":"(754) 102-8574","sd":"24","ssbd":"12","lsbd":"School Board Timpanogos 5"},{"vid":"6409517","name":"Marilyn Grant","party":"Rep","address":"310 E 2000 N, Orem, UT 84057","precinct":"25OR04","hd":"58","v_score":"6.724398202","decile":"8","lat":40.33359167249407,"lng":-111.68895165512741,"phone":"(527) 012-3365","sd":"24","ssbd":"12","lsbd":"School Board Timpanogos 5"},{"vid":"6414147","name":"Tyshawn Thiel-Eichmann","party":"","address":"354 E 1950 N, Orem, UT 84057","precinct":"25OR04","hd":"58","v_score":"8.280646305","decile":"8","lat":40.33288038599084,"lng":-111.68777271843696,"phone":"(960) 114-7383","sd":"24","ssbd":"12","lsbd":"School Board Timpanogos 5"},{"vid":"6420608","name":"Unique Lebsack","party":"Dem","address":"299 E 1960 N, Orem, UT 84057","precinct":"25OR04","hd":"58","v_score":"7.47704845","decile":"8","lat":40.33329117650432,"lng":-111.68924894911498,"phone":"(405) 597-3525","sd":"24","ssbd":"12","lsbd":"School Board Timpanogos 5"},{"vid":"bf87fc376a955b385be0ba7d3f1bb56d655ca43eed79a301c3a28d65426940c6","name":"Lesli Kuhic","party":"Rep","address":"1973 N 270 E, Orem, UT 84057","precinct":"25OR04","hd":"58","v_score":"1.46627566","decile":"4","lat":40.333373499129955,"lng":-111.6901218185828,"phone":"(298) 471-9731","sd":"24","ssbd":"12","lsbd":"School Board Timpanogos 5"},{"vid":"6422512","name":"Blanche Spinka-Purdy","party":"","address":"1964 N 100 E, Orem, UT 84057","precinct":"25OR04","hd":"58","v_score":"8.280646305","decile":"8","lat":40.333111186140485,"lng":-111.6937001453774,"phone":"(925) 296-3018","sd":"24","ssbd":"12","lsbd":"School Board Timpanogos 5"},{"vid":"6429621","name":"Miss Tiney Gorczany","party":"Rep","address":"314 E Heather Cir, Orem, UT 84057","precinct":"25OR04","hd":"58","v_score":"19.19319411","decile":"10","lat":40.33132840384777,"lng":-111.68860717257385,"phone":"(572) 773-8826","sd":"24","ssbd":"12","lsbd":"School Board Timpanogos 5"},{"vid":"6440282","name":"Audriana Gerhold","party":"","address":"1920 N 270 E, Orem, UT 84057","precinct":"25OR04","hd":"58","v_score":"0","decile":"3","lat":40.33233729141386,"lng":-111.68995795057369,"phone":"(178) 403-8460","sd":"24","ssbd":"12","lsbd":"School Board Timpanogos 5"},{"vid":"6440319","name":"Mychal Halvorson","party":"","address":"1887 N 270 E, Orem, UT 84057","precinct":"25OR04","hd":"58","v_score":"5.40460374","decile":"7","lat":40.331795097149794,"lng":-111.69105687647716,"phone":"(731) 814-0442","sd":"24","ssbd":"12","lsbd":"School Board Timpanogos 5"},{"vid":"97d3ae02ddbfc610f6f6981c838d3fe3612fe7aedbdb26f0c7bff625284f0c53","name":"Britt Spencer-Hudson","party":"","address":"1940 N 270 E, Orem, UT 84057","precinct":"25OR04","hd":"58","v_score":"1.121327652","decile":"3","lat":40.3327369070308,"lng":-111.68973990862453,"phone":"(791) 689-7299","sd":"24","ssbd":"12","lsbd":"School Board Timpanogos 5"},{"vid":"6445283","name":"Mrs. Kenyatta Sawayn","party":"Dem","address":"1936 N 230 E, Orem, UT 84057","precinct":"25OR04","hd":"58","v_score":"8.280646305","decile":"8","lat":40.33266636097224,"lng":-111.69067889314563,"phone":"(158) 109-1662","sd":"24","ssbd":"12","lsbd":"School Board Timpanogos 5"},{"vid":"6447077","name":"Clyde Zieme","party":"Rep","address":"1733 N 400 E, Orem, UT 84097","precinct":"25OR04","hd":"58","v_score":"3.781490609","decile":"6","lat":40.32901118289827,"lng":-111.68790480122395,"phone":"(753) 788-1126","sd":"24","ssbd":"12","lsbd":"School Board Timpanogos 5"},{"vid":"6454890","name":"Mr. Mckinley Brekke","party":"","address":"289 E Heather Rd, Orem, UT 84057","precinct":"25OR04","hd":"58","v_score":"1.121327652","decile":"3","lat":40.33111165973447,"lng":-111.68940530366255,"phone":"(495) 447-5971","sd":"24","ssbd":"12","lsbd":"School Board Timpanogos 5"},{"vid":"6456097","name":"Dwan Cremin PhD","party":"Dem","address":"286 E 1660 N, Orem, UT 84057","precinct":"25OR04","hd":"58","v_score":"30.38433973","decile":"10","lat":40.32768228740063,"lng":-111.68929091305648,"phone":"(846) 160-2354","sd":"24","ssbd":"12","lsbd":"School Board Timpanogos 5"},{"vid":"6458711","name":"Werner Glover-Gerhold","party":"","address":"122 E 2000 N, Orem, UT 84057","precinct":"25OR04","hd":"58","v_score":"2.744440783","decile":"6","lat":40.33363842877571,"lng":-111.69346523128377,"phone":"(565) 314-7940","sd":"24","ssbd":"12","lsbd":"School Board Timpanogos 5"},{"vid":"6462753","name":"Braxton Willms PhD","party":"","address":"365 E 1950 N, Orem, UT 84057","precinct":"25OR04","hd":"58","v_score":"5.191257514","decile":"7","lat":40.333243820924885,"lng":-111.68751014895336,"phone":"(200) 702-7360","sd":"24","ssbd":"12","lsbd":"School Board Timpanogos 5"},{"vid":"6464103","name":"Ms. Georgine Hahn MD","party":"Dem","address":"306 E 1960 N, Orem, UT 84057","precinct":"25OR04","hd":"58","v_score":"0","decile":"3","lat":40.33297511922687,"lng":-111.68905450638367,"phone":"(863) 324-1647","sd":"24","ssbd":"12","lsbd":"School Board Timpanogos 5"},{"vid":"6464176","name":"Jade Fay","party":"","address":"226 E Heather Rd, Orem, UT 84057","precinct":"25OR04","hd":"58","v_score":"5.40460374","decile":"7","lat":40.33217238705144,"lng":-111.69152138234513,"phone":"(755) 709-2053","sd":"24","ssbd":"12","lsbd":"School Board Timpanogos 5"},{"vid":"6473268","name":"Pennie Hackett","party":"","address":"1634 N 210 E, Orem, UT 84057","precinct":"25OR04","hd":"58","v_score":"10.04533889","decile":"9","lat":40.32719463251061,"lng":-111.69097707607895,"phone":"(478) 094-2853","sd":"24","ssbd":"12","lsbd":"School Board Timpanogos 5"},{"vid":"6475315","name":"Trudy Dooley","party":"","address":"1651 N 50 E, Orem, UT 84057","precinct":"25OR04","hd":"58","v_score":"39.36155753","decile":"10","lat":40.32789661238317,"lng":-111.69551757579644,"phone":"(184) 623-7195","sd":"24","ssbd":"12","lsbd":"School Board Timpanogos 5"},{"vid":"94b045d1aa5b428a6de74707a8fb2debf0e51b9c9714fa4f2ff5181d5243721a","name":"Durwood Bernier","party":"","address":"1667 N Moor Ln, Orem, UT 84057","precinct":"25OR04","hd":"58","v_score":"45.76919357","decile":"10","lat":40.327762303765,"lng":-111.68769089834228,"phone":"(237) 778-2858","sd":"24","ssbd":"12","lsbd":"School Board Timpanogos 5"},{"vid":"6480638","name":"Bode Kessler IV","party":"","address":"1789 N 80 E, Orem, UT 84057","precinct":"25OR04","hd":"58","v_score":"33.01185542","decile":"10","lat":40.33015051724742,"lng":-111.69451853083149,"phone":"(855) 804-2487","sd":"24","ssbd":"12","lsbd":"School Board Timpanogos 5"},{"vid":"6482220","name":"Brynn Hyatt MD","party":"","address":"88 E 1850 N, Orem, UT 84057","precinct":"25OR04","hd":"58","v_score":"24.37270649","decile":"10","lat":40.33088373926509,"lng":-111.69437324972596,"phone":"(496) 128-4521","sd":"24","ssbd":"12","lsbd":"School Board Timpanogos 5"},{"vid":"6492045","name":"Miss Yamilet Casper DDS","party":"Rep","address":"1610 N 160 E, Orem, UT 84057","precinct":"25OR04","hd":"58","v_score":"0","decile":"3","lat":40.326829628469355,"lng":-111.69180362448519,"phone":"(558) 893-1830","sd":"24","ssbd":"12","lsbd":"School Board Timpanogos 5"},{"vid":"6495649","name":"Dr. Mayo Considine III","party":"","address":"1927 N 400 E, Orem, UT 84097","precinct":"25OR04","hd":"58","v_score":"35.28709767","decile":"10","lat":40.33252114271038,"lng":-111.6869989996633,"phone":"(625) 939-1228","sd":"24","ssbd":"12","lsbd":"School Board Timpanogos 5"},{"vid":"6501295","name":"Kane Bayer","party":"Dem","address":"1730 N 50 E, Orem, UT 84057","precinct":"25OR04","hd":"58","v_score":"1.193887297","decile":"4","lat":40.32934159450997,"lng":-111.69505278877527,"phone":"(112) 616-9808","sd":"24","ssbd":"12","lsbd":"School Board Timpanogos 5"},{"vid":"6503816","name":"Willa Harris-Wilkinson","party":"Dem","address":"348 E 2000 N, Orem, UT 84057","precinct":"25OR04","hd":"58","v_score":"24.72507993","decile":"10","lat":40.33359173138479,"lng":-111.68798940090548,"phone":"(468) 644-2270","sd":"24","ssbd":"12","lsbd":"School Board Timpanogos 5"},{"vid":"b954fe164c3c342bad9d8a8a7b127fc1ba268d1e85b0f92f892a1aee8fab17bc","name":"Star Rath","party":"","address":"310 E 2000 N, Orem, UT 84057","precinct":"25OR04","hd":"58","v_score":"1.46627566","decile":"4","lat":40.33359167249407,"lng":-111.68895165512741,"phone":"(130) 747-8435","sd":"24","ssbd":"12","lsbd":"School Board Timpanogos 5"},{"vid":"d10ab3f11bf54b47549d74c7ec5edf067c9e8f8aeea98a0a82195f8e4bc59eac","name":"Mr. Elias Roob","party":"","address":"1775 N 80 E, Orem, UT 84057","precinct":"25OR04","hd":"58","v_score":"9.811896204","decile":"8","lat":40.32991743539828,"lng":-111.69454882874209,"phone":"(312) 481-8018","sd":"24","ssbd":"12","lsbd":"School Board Timpanogos 5"},{"vid":"6507795","name":"Mrs. Rossie Jacobi DDS","party":"","address":"1685 N 250 E, Orem, UT 84057","precinct":"25OR04","hd":"58","v_score":"35.30276996","decile":"10","lat":40.32817625184517,"lng":-111.69039336584986,"phone":"(962) 612-7199","sd":"24","ssbd":"12","lsbd":"School Board Timpanogos 5"},{"vid":"6511247","name":"Mrs. Stella Purdy","party":"Dem","address":"1612 N Main St, Orem, UT 84057","precinct":"25OR04","hd":"58","v_score":"11.29723756","decile":"9","lat":40.326865916404856,"lng":-111.6966718115637,"phone":"(508) 506-8577","sd":"24","ssbd":"12","lsbd":"School Board Timpanogos 5"},{"vid":"141e8f7d17bb612964b73524a2e17cd788ecca42a357c0b99e660dea3414dba8","name":"Estevan Weimann","party":"","address":"1941 N 400 E, Orem, UT 84097","precinct":"25OR04","hd":"58","v_score":"0","decile":"3","lat":40.33275389648453,"lng":-111.68694959499106,"phone":"(170) 116-0502","sd":"24","ssbd":"12","lsbd":"School Board Timpanogos 5"},{"vid":"fea8982f5e73722ce04e886c100289ed53ba69280e03d89c2804ab91f4f096a2","name":"Weldon Hudson","party":"Rep","address":"1906 N 325 E, Orem, UT 84057","precinct":"25OR04","hd":"58","v_score":"1.46627566","decile":"4","lat":40.33245580304924,"lng":-111.68829686778213,"phone":"(500) 557-3865","sd":"24","ssbd":"12","lsbd":"School Board Timpanogos 5"}]