[{"id":"664","name":"Bettie Krajcik","party":"Rep","address":"1865 S Columbia Ln, Apt 138, Orem, UT 84097","precinct":"25OR44","hd":"61","v_score":"1.121327652","decile":"3","lat":40.262775838653,"lng":-111.680533320047},{"id":"1776","name":"Vena Rempel-Ward","party":"Dem","address":"310 E 1730 S, Orem, UT 84058","precinct":"25OR44","hd":"61","v_score":"8.280646305","decile":"8","lat":40.265481754101,"lng":-111.687506619036},{"id":"1910","name":"Ms. Madlyn Daugherty DDS","party":"Dem","address":"1746 S Village Ln, Orem, UT 84058","precinct":"25OR44","hd":"61","v_score":"0","decile":"1","lat":40.267392397503,"lng":-111.683449361167},{"id":"2635","name":"Linna Raynor","party":"Rep","address":"1732 Village Ln, Orem, UT 84058","precinct":"25OR44","hd":"61","v_score":"0","decile":"1","lat":40.26743314938,"lng":-111.68344966528},{"id":"2851","name":"Israel Kemmer-Cremin","party":"","address":"1807 S 543 E, Orem, UT 84058","precinct":"25OR44","hd":"61","v_score":"3.781490609","decile":"6","lat":40.264055539726,"lng":-111.681942711661},{"id":"2924","name":"Lashanda Oberbrunner","party":"Rep","address":"1859 S Columbia Ln, Apt 325, Orem, UT 84097","precinct":"25OR44","hd":"61","v_score":"1.193887297","decile":"3","lat":40.262973035138,"lng":-111.680526735368},{"id":"3002","name":"Elena West","party":"Dem","address":"1713 S 500 E, Orem, UT 84058","precinct":"25OR44","hd":"61","v_score":"1.193887297","decile":"3","lat":40.265465943521,"lng":-111.68276113416},{"id":"3061","name":"Justyn Bogan","party":"Rep","address":"1865 S Columbia Ln, Apt 134, Orem, UT 84097","precinct":"25OR44","hd":"61","v_score":"2.587603312","decile":"5","lat":40.262775838653,"lng":-111.680533320047},{"id":"4767","name":"Mr. Bird Smith","party":"Dem","address":"1865 S Columbia Ln, Apt 132, Orem, UT 84097","precinct":"25OR44","hd":"61","v_score":"0","decile":"1","lat":40.262775838653,"lng":-111.680533320047},{"id":"5148","name":"Patrica Bahringer","party":"Rep","address":"1668 Village Ln, Orem, UT 84058","precinct":"25OR44","hd":"61","v_score":"1.193887297","decile":"3","lat":40.267619443676,"lng":-111.683451055512},{"id":"5502","name":"Bennie Schuster","party":"Rep","address":"536 E 1864 S, Orem, UT 84058","precinct":"25OR44","hd":"61","v_score":"8.280646305","decile":"8","lat":40.262797073505,"lng":-111.682309990311},{"id":"6870","name":"Henry Pfannerstill","party":"","address":"443 E 1834 S, Orem, UT 84058","precinct":"25OR44","hd":"61","v_score":"27.5620657","decile":"10","lat":40.263620172047,"lng":-111.684646663055},{"id":"6991","name":"Joanna Collier-Cronin","party":"Dem","address":"1947 S Columbia Ln, Apt 3, Orem, UT 84097","precinct":"25OR44","hd":"61","v_score":"1.193887297","decile":"3","lat":40.261381505828,"lng":-111.680572898783},{"id":"7272","name":"Ms. Lidie O'Keefe MD","party":"Rep","address":"522 E 1864 S, Orem, UT 84058","precinct":"25OR44","hd":"61","v_score":"1.193887297","decile":"3","lat":40.262799090546,"lng":-111.682613047251},{"id":"7323","name":"Mr. Adrien Kertzmann","party":"","address":"1851 S Columbia Ln, Apt 217, Orem, UT 84097","precinct":"25OR44","hd":"61","v_score":"1.623113131","decile":"4","lat":40.263137091516,"lng":-111.680521941492},{"id":"7722","name":"Bulah Kuphal","party":"Dem","address":"374 E 1780 S, Orem, UT 84058","precinct":"25OR44","hd":"61","v_score":"7.227307695","decile":"8","lat":40.264865707255,"lng":-111.686467272766},{"id":"8256","name":"Amira Schumm MD","party":"Dem","address":"311 E 1800 S, Orem, UT 84058","precinct":"25OR44","hd":"61","v_score":"5.40460374","decile":"7","lat":40.264301454485,"lng":-111.687618261877},{"id":"8783","name":"Trayvon Schuster","party":"Rep","address":"1634 S 350 E, Orem, UT 84058","precinct":"25OR44","hd":"61","v_score":"10.37384553","decile":"9","lat":40.266734364585,"lng":-111.687578120181},{"id":"9114","name":"Dr. Willard Farrell","party":"Dem","address":"1851 S Columbia Ln, Apt 217, Orem, UT 84097","precinct":"25OR44","hd":"61","v_score":"1.623113131","decile":"4","lat":40.263137091516,"lng":-111.680521941492},{"id":"9233","name":"Miss Lillian Schamberger DDS","party":"","address":"1865 S Columbia Ln, Apt 233, Orem, UT 84097","precinct":"25OR44","hd":"61","v_score":"1.193887297","decile":"3","lat":40.262775838653,"lng":-111.680533320047},{"id":"9965","name":"Oral Lehner","party":"Rep","address":"525 E 1864 S, Orem, UT 84058","precinct":"25OR44","hd":"61","v_score":"0","decile":"1","lat":40.262917863808,"lng":-111.683240714457},{"id":"11465","name":"Miss Luella Metz MD","party":"Dem","address":"433 E 1800 S, Orem, UT 84058","precinct":"25OR44","hd":"61","v_score":"16.31217197","decile":"9","lat":40.264290478633,"lng":-111.684623181191},{"id":"11783","name":"Demetrius Kuhic","party":"Rep","address":"483 E 1834 S, Apt B, Orem, UT 84058","precinct":"25OR44","hd":"61","v_score":"0","decile":"1","lat":40.263611482847,"lng":-111.683990632288},{"id":"12735","name":"Clemmie Farrell PhD","party":"","address":"1815 S 543 E, Orem, UT 84058","precinct":"25OR44","hd":"61","v_score":"10.52632313","decile":"9","lat":40.26391093724,"lng":-111.681941772703},{"id":"14131","name":"Lanita Crona","party":"","address":"516 E 1834 S, Orem, UT 84058","precinct":"25OR44","hd":"61","v_score":"41.90479252","decile":"10","lat":40.263489522939,"lng":-111.683435612305},{"id":"15201","name":"Carina Wilderman","party":"Dem","address":"1845 S 543 E, Orem, UT 84058","precinct":"25OR44","hd":"61","v_score":"2.817000428","decile":"6","lat":40.263271144927,"lng":-111.681935859233},{"id":"15638","name":"Alexandro Abbott-Mann","party":"","address":"1775 S 290 E, Orem, UT 84058","precinct":"25OR44","hd":"61","v_score":"2.315214949","decile":"5","lat":40.264599742415,"lng":-111.688070116097},{"id":"15761","name":"Cordaro Ernser","party":"Rep","address":"301 E 1730 S, Orem, UT 84058","precinct":"25OR44","hd":"61","v_score":"4.465184987","decile":"7","lat":40.265596796787,"lng":-111.687562244994},{"id":"15978","name":"Gael Smitham IV","party":"","address":"306 E 1600 S, Orem, UT 84058","precinct":"25OR44","hd":"61","v_score":"5.530510904","decile":"7","lat":40.267840474138,"lng":-111.68760829954},{"id":"16170","name":"Abril Rosenbaum","party":"Dem","address":"422 E 1834 S, Orem, UT 84058","precinct":"25OR44","hd":"61","v_score":"5.273794831","decile":"7","lat":40.263509942559,"lng":-111.684977284607},{"id":"18269","name":"Monroe Wuckert","party":"Rep","address":"1851 S Columbia Ln, Apt 313, Orem, UT 84097","precinct":"25OR44","hd":"61","v_score":"10.87160818","decile":"9","lat":40.263137091516,"lng":-111.680521941492},{"id":"18516","name":"Mckenna Orn","party":"Dem","address":"523 E 1750 S, Orem, UT 84058","precinct":"25OR44","hd":"61","v_score":"8.347511332","decile":"8","lat":40.265136298113,"lng":-111.68272508128},{"id":"18520","name":"Dr. Ashtyn Schmidt","party":"Dem","address":"1815 S 543 E, Orem, UT 84058","precinct":"25OR44","hd":"61","v_score":"11.99259879","decile":"9","lat":40.26391093724,"lng":-111.681941772703},{"id":"19142","name":"Kitty Ernser","party":"","address":"515 E 1864 S, Orem, UT 84058","precinct":"25OR44","hd":"61","v_score":"6.896907962","decile":"8","lat":40.262918818907,"lng":-111.683384216539},{"id":"19922","name":"Ms. Etna White DDS","party":"Rep","address":"461 E 1910 S, Orem, UT 84058","precinct":"25OR44","hd":"61","v_score":"34.91281376","decile":"10","lat":40.262262298737,"lng":-111.683689364478},{"id":"20040","name":"Vincenzo Labadie","party":"","address":"501 E 2000 S, Orem, UT 84058","precinct":"25OR44","hd":"61","v_score":"6.814370645","decile":"8","lat":40.260670894285,"lng":-111.682976193768},{"id":"20074","name":"Sibbie Brakus","party":"Dem","address":"433 E 1834 S, Orem, UT 84058","precinct":"25OR44","hd":"61","v_score":"10.42565066","decile":"9","lat":40.263622344347,"lng":-111.684810670746},{"id":"20229","name":"Theodocia Hauck","party":"Rep","address":"1711 S Village Ln, Orem, UT 84058","precinct":"25OR44","hd":"61","v_score":"1.193887297","decile":"3","lat":40.267702764261,"lng":-111.683301495635},{"id":"20318","name":"Aggie Will","party":"","address":"1865 S Columbia Ln, Apt 131, Orem, UT 84097","precinct":"25OR44","hd":"61","v_score":"2.315214949","decile":"5","lat":40.262775838653,"lng":-111.680533320047},{"id":"20782","name":"Dr. Sherri Gottlieb DDS","party":"Dem","address":"479 E 1910 S, Orem, UT 84058","precinct":"25OR44","hd":"61","v_score":"22.28503271","decile":"10","lat":40.262262298713,"lng":-111.683373337145},{"id":"21082","name":"Inell Mertz","party":"","address":"513 E 1750 S, Orem, UT 84058","precinct":"25OR44","hd":"61","v_score":"6.724398202","decile":"8","lat":40.265135753307,"lng":-111.682747418378},{"id":"21614","name":"Theodore Rempel","party":"Dem","address":"444 E 1800 S, Orem, UT 84058","precinct":"25OR44","hd":"61","v_score":"8.670935747","decile":"8","lat":40.264173916501,"lng":-111.684353908755},{"id":"21661","name":"Dr. Chet Prosacco Jr.","party":"Dem","address":"1958 S 520 E, Bsmt, Orem, UT 84058","precinct":"25OR44","hd":"61","v_score":"1.46627566","decile":"4","lat":40.261152040343,"lng":-111.682372627459},{"id":"21719","name":"Dr. Kayden Feeney IV","party":"Rep","address":"311 E 1800 S, Orem, UT 84058","precinct":"25OR44","hd":"61","v_score":"5.40460374","decile":"7","lat":40.264301454485,"lng":-111.687618261877},{"id":"21892","name":"Eli Pfannerstill","party":"","address":"1757 Village Ln, Orem, UT 84058","precinct":"25OR44","hd":"61","v_score":"1.46627566","decile":"4","lat":40.267791836221,"lng":-111.683302160339},{"id":"21908","name":"Ivie Zemlak","party":"Dem","address":"474 E 1834 S, Orem, UT 84058","precinct":"25OR44","hd":"61","v_score":"0","decile":"1","lat":40.263498646599,"lng":-111.68412444461},{"id":"21939","name":"Anthoney Morar II","party":"Dem","address":"1851 S Columbia Ln, Apt 313, Orem, UT 84097","precinct":"25OR44","hd":"61","v_score":"9.405332525","decile":"8","lat":40.263137091516,"lng":-111.680521941492},{"id":"21971","name":"Laurance Orn","party":"","address":"232 E 1600 S, Orem, UT 84058","precinct":"25OR44","hd":"61","v_score":"17.73138878","decile":"10","lat":40.267846907893,"lng":-111.689505088345},{"id":"21982","name":"Dr. Tilman Gorczany IV","party":"","address":"1902 Terrace Dr, Orem, UT 84097","precinct":"25OR44","hd":"61","v_score":"1.193887297","decile":"3","lat":40.261923682546,"lng":-111.678560404773},{"id":"22558","name":"Leyla Homenick","party":"","address":"559 E 2000 S, Orem, UT 84058","precinct":"25OR44","hd":"61","v_score":"11.02844566","decile":"9","lat":40.260673698088,"lng":-111.682179852083},{"id":"22583","name":"Kieth Botsford","party":"Rep","address":"1760 Village Ln, Unit 201, Orem, UT 84058","precinct":"25OR44","hd":"61","v_score":"1.121327652","decile":"3","lat":40.267351645626,"lng":-111.683449057054},{"id":"23442","name":"Geo Heathcote-Nikolaus","party":"","address":"339 E 1800 S, Orem, UT 84058","precinct":"25OR44","hd":"61","v_score":"0","decile":"1","lat":40.264296846165,"lng":-111.686989232832},{"id":"24023","name":"Miss Rianna Pacocha DVM","party":"Dem","address":"1806 S 543 E, Orem, UT 84058","precinct":"25OR44","hd":"61","v_score":"5.40460374","decile":"7","lat":40.264054971942,"lng":-111.682092880932},{"id":"24574","name":"Mr. Elliot Satterfield IV","party":"","address":"1756 S 290 E, Orem, UT 84058","precinct":"25OR44","hd":"61","v_score":"2.315214949","decile":"5","lat":40.264819949254,"lng":-111.688221437257},{"id":"25315","name":"Laura Swaniawski DDS","party":"Rep","address":"1795 S 450 E, Orem, UT 84058","precinct":"25OR44","hd":"61","v_score":"18.00198781","decile":"10","lat":40.264314592395,"lng":-111.684109973204},{"id":"25685","name":"Joretta Schuster","party":"Dem","address":"412 E 1600 S, Orem, UT 84058","precinct":"25OR44","hd":"61","v_score":"2.315214949","decile":"5","lat":40.267824256031,"lng":-111.685131286625},{"id":"25975","name":"Mr. Therman Sanford II","party":"Dem","address":"557 E 2000 S, Orem, UT 84058","precinct":"25OR44","hd":"61","v_score":"0","decile":"1","lat":40.260673507216,"lng":-111.682198271328},{"id":"26635","name":"Celina Friesen","party":"","address":"301 E 1730 S, Orem, UT 84058","precinct":"25OR44","hd":"61","v_score":"5.191257514","decile":"7","lat":40.265596796787,"lng":-111.687562244994},{"id":"26844","name":"Kaylah Stoltenberg","party":"","address":"449 E 2000 S, Orem, UT 84058","precinct":"25OR44","hd":"61","v_score":"1.121327652","decile":"3","lat":40.260674577057,"lng":-111.683836105792},{"id":"26966","name":"Rosco Stracke","party":"","address":"1746 S 290 E, Orem, UT 84058","precinct":"25OR44","hd":"61","v_score":"1.121327652","decile":"3","lat":40.264942539388,"lng":-111.688222075731},{"id":"27203","name":"Mariam Lindgren","party":"Rep","address":"1806 S 543 E, Orem, UT 84058","precinct":"25OR44","hd":"61","v_score":"2.315214949","decile":"5","lat":40.264054971942,"lng":-111.682092880932},{"id":"27593","name":"Lilla Wintheiser","party":"Rep","address":"434 E 1600 S, Orem, UT 84058","precinct":"25OR44","hd":"61","v_score":"2.315214949","decile":"5","lat":40.267820792806,"lng":-111.684670682389},{"id":"28026","name":"Mr. Tarik Reichert","party":"","address":"1859 S Columbia Ln, Apt 127, Orem, UT 84097","precinct":"25OR44","hd":"61","v_score":"1.121327652","decile":"3","lat":40.262973035138,"lng":-111.680526735368},{"id":"28058","name":"Dr. Ellery Gaylord","party":"Dem","address":"507 E 1864 S, Orem, UT 84058","precinct":"25OR44","hd":"61","v_score":"9.99652547","decile":"9","lat":40.262919582987,"lng":-111.683499018204},{"id":"28918","name":"Evelyn Erdman-Rohan","party":"","address":"520 E 1910 S, Orem, UT 84058","precinct":"25OR44","hd":"61","v_score":"1.46627566","decile":"4","lat":40.262147707314,"lng":-111.683189253899},{"id":"28919","name":"Britt Dach","party":"Dem","address":"520 E 1910 S, Orem, UT 84058","precinct":"25OR44","hd":"61","v_score":"1.46627566","decile":"4","lat":40.262147707314,"lng":-111.683189253899},{"id":"29316","name":"Dayne O'Hara V","party":"","address":"1746 S 290 E, Orem, UT 84058","precinct":"25OR44","hd":"61","v_score":"7.650280567","decile":"8","lat":40.264942539388,"lng":-111.688222075731},{"id":"29680","name":"Candice White","party":"Dem","address":"409 E 1864 S, Orem, UT 84058","precinct":"25OR44","hd":"61","v_score":"3.781490609","decile":"6","lat":40.262934147342,"lng":-111.685197062274},{"id":"30101","name":"Adelyn Schoen-Ullrich","party":"Rep","address":"516 E 1834 S, Orem, UT 84058","precinct":"25OR44","hd":"61","v_score":"36.63608863","decile":"10","lat":40.263489522939,"lng":-111.683435612305},{"id":"30163","name":"Alanna Brown","party":"Dem","address":"508 E 1834 S, Orem, UT 84058","precinct":"25OR44","hd":"61","v_score":"2.587603312","decile":"5","lat":40.263491260779,"lng":-111.683566818458},{"id":"30164","name":"Bobby Carroll","party":"","address":"508 E 1834 S, Orem, UT 84058","precinct":"25OR44","hd":"61","v_score":"2.587603312","decile":"5","lat":40.263491260779,"lng":-111.683566818458},{"id":"30311","name":"Celestino Runte","party":"","address":"1885 S Columbia Ln, Orem, UT 84097","precinct":"25OR44","hd":"61","v_score":"1.121327652","decile":"3","lat":40.2625349329,"lng":-111.680542241662},{"id":"30628","name":"Viva Nader DDS","party":"Dem","address":"1775 S 290 E, Orem, UT 84058","precinct":"25OR44","hd":"61","v_score":"2.315214949","decile":"5","lat":40.264599742415,"lng":-111.688070116097},{"id":"30794","name":"Dr. Onie Keebler DDS","party":"","address":"1851 S Columbia Ln, Apt 118, Orem, UT 84097","precinct":"25OR44","hd":"61","v_score":"10.69307239","decile":"9","lat":40.263137091516,"lng":-111.680521941492},{"id":"31061","name":"Bronson McKenzie-Dach","party":"","address":"1914 S Columbia Ln, Orem, UT 84097","precinct":"25OR44","hd":"61","v_score":"5.68035067","decile":"7","lat":40.262154432103,"lng":-111.680702529061},{"id":"31146","name":"Mrs. Fairy Haley","party":"","address":"430 E 1864 S, Orem, UT 84058","precinct":"25OR44","hd":"61","v_score":"2.315214949","decile":"5","lat":40.262812345389,"lng":-111.684604564282},{"id":"31324","name":"Norval Wolff","party":"","address":"301 E 1730 S, Orem, UT 84058","precinct":"25OR44","hd":"61","v_score":"8.280646305","decile":"8","lat":40.265596796787,"lng":-111.687562244994},{"id":"31538","name":"Penelope Veum","party":"Dem","address":"1859 S Columbia Ln, Apt 223, Orem, UT 84097","precinct":"25OR44","hd":"61","v_score":"1.193887297","decile":"3","lat":40.262973035138,"lng":-111.680526735368},{"id":"32804","name":"Rico Orn","party":"","address":"1947 S Columbia Ln, Apt 13, Orem, UT 84097","precinct":"25OR44","hd":"61","v_score":"3.781490609","decile":"6","lat":40.261381505828,"lng":-111.680572898783},{"id":"33436","name":"Mr. Efrem Kozey","party":"","address":"475 E 1960 S, Orem, UT 84058","precinct":"25OR44","hd":"61","v_score":"5.83359168","decile":"7","lat":40.261524298812,"lng":-111.683566149384},{"id":"34730","name":"Buel Wilderman","party":"","address":"570 E 1864 S, Orem, UT 84058","precinct":"25OR44","hd":"61","v_score":"7.151376505","decile":"8","lat":40.262786707105,"lng":-111.681406730247},{"id":"35577","name":"Merton Leffler IV","party":"","address":"1865 S Columbia Ln, Apt 132, Orem, UT 84097","precinct":"25OR44","hd":"61","v_score":"1.121327652","decile":"3","lat":40.262775838653,"lng":-111.680533320047},{"id":"35599","name":"Lionel Wuckert","party":"Rep","address":"1760 S Village Ln, Unit 204, Orem, UT 84058","precinct":"25OR44","hd":"61","v_score":"3.781490609","decile":"6","lat":40.267351645626,"lng":-111.683449057054},{"id":"35742","name":"Kason Kiehn","party":"Rep","address":"1620 S 490 E, Orem, UT 84058","precinct":"25OR44","hd":"61","v_score":"1.46627566","decile":"4","lat":40.267759164398,"lng":-111.683452098185},{"id":"35762","name":"Metro Deckow","party":"Dem","address":"1760 S Village Ln, Orem, UT 84058","precinct":"25OR44","hd":"61","v_score":"0","decile":"1","lat":40.267351645626,"lng":-111.683449057054},{"id":"36161","name":"Miss Clarabelle Willms DDS","party":"Dem","address":"505 E 1864 S, Orem, UT 84058","precinct":"25OR44","hd":"61","v_score":"1.623113131","decile":"4","lat":40.262919774007,"lng":-111.683527718621},{"id":"36598","name":"Louise Pacocha","party":"Dem","address":"515 E 1864 S, Orem, UT 84058","precinct":"25OR44","hd":"61","v_score":"3.93832808","decile":"6","lat":40.262918818907,"lng":-111.683384216539},{"id":"37115","name":"Nim Kris","party":"","address":"1764 S 450 E, Orem, UT 84058","precinct":"25OR44","hd":"61","v_score":"5.273794831","decile":"7","lat":40.264533120501,"lng":-111.684252989414},{"id":"37157","name":"Dr. Beatrice Zulauf","party":"Rep","address":"419 E 1800 S, Orem, UT 84058","precinct":"25OR44","hd":"61","v_score":"6.740427232","decile":"8","lat":40.264292783964,"lng":-111.684939008204},{"id":"37610","name":"Bethel Gislason-Anderson","party":"Rep","address":"512 E 1864 S, Orem, UT 84058","precinct":"25OR44","hd":"61","v_score":"2.744440783","decile":"5","lat":40.26280053129,"lng":-111.682829516493},{"id":"39143","name":"Kent Simonis","party":"Dem","address":"422 E 1834 S, Orem, UT 84058","precinct":"25OR44","hd":"61","v_score":"2.315214949","decile":"5","lat":40.263509942559,"lng":-111.684977284607},{"id":"39265","name":"Nicolle Hickle PhD","party":"","address":"1914 S Columbia Ln, Orem, UT 84097","precinct":"25OR44","hd":"61","v_score":"7.316774359","decile":"8","lat":40.262154432103,"lng":-111.680702529061},{"id":"39305","name":"Mrs. Ashly Stiedemann MD","party":"Dem","address":"1795 S 450 E, Orem, UT 84058","precinct":"25OR44","hd":"61","v_score":"19.49509824","decile":"10","lat":40.264314592395,"lng":-111.684109973204},{"id":"39972","name":"Ollie Walker","party":"Dem","address":"216 E 1600 S, Orem, UT 84058","precinct":"25OR44","hd":"61","v_score":"3.93832808","decile":"6","lat":40.267849978688,"lng":-111.689853620548},{"id":"40248","name":"Dr. Arlen Lehner II","party":"Dem","address":"336 E 1730 S, Orem, UT 84058","precinct":"25OR44","hd":"61","v_score":"3.93832808","decile":"6","lat":40.265480564323,"lng":-111.687357898171},{"id":"40608","name":"Sheryll Bayer","party":"","address":"449 E 2000 S, Orem, UT 84058","precinct":"25OR44","hd":"61","v_score":"1.121327652","decile":"3","lat":40.260674577057,"lng":-111.683836105792},{"id":"40999","name":"Hannah Konopelski","party":"","address":"1878 S Columbia Ln, Orem, UT 84097","precinct":"25OR44","hd":"61","v_score":"0","decile":"1","lat":40.262512242745,"lng":-111.680693041612},{"id":"42699","name":"Houston Mohr","party":"","address":"1902 S Columbia Ln, Orem, UT 84097","precinct":"25OR44","hd":"61","v_score":"2.660162957","decile":"5","lat":40.262273702317,"lng":-111.680699366578},{"id":"44124","name":"Ballard Erdman","party":"","address":"1738 S 500 E, Orem, UT 84058","precinct":"25OR44","hd":"61","v_score":"3.93832808","decile":"6","lat":40.265236902417,"lng":-111.682917587391},{"id":"44226","name":"Philo Bruen","party":"","address":"1851 S Columbia Ln, Apt 219, Orem, UT 84097","precinct":"25OR44","hd":"61","v_score":"1.121327652","decile":"3","lat":40.263137091516,"lng":-111.680521941492},{"id":"45166","name":"Minervia Kub","party":"","address":"1795 S 340 E, Orem, UT 84058","precinct":"25OR44","hd":"61","v_score":"22.87503683","decile":"10","lat":40.264422833976,"lng":-111.686839785197},{"id":"46261","name":"Kiyoko Schmidt","party":"","address":"1944 S Columbia Ln, Orem, UT 84097","precinct":"25OR44","hd":"61","v_score":"6.881235673","decile":"8","lat":40.261856256567,"lng":-111.680710435268},{"id":"47187","name":"Beverlee Schuppe","party":"Dem","address":"1857 S 543 E, Orem, UT 84058","precinct":"25OR44","hd":"61","v_score":"0","decile":"1","lat":40.263030967297,"lng":-111.681932656896},{"id":"48462","name":"Ellwood Cassin","party":"Rep","address":"1865 S Columbia Ln, Apt 234, Orem, UT 84097","precinct":"25OR44","hd":"61","v_score":"3.781490609","decile":"6","lat":40.262775838653,"lng":-111.680533320047},{"id":"48503","name":"Lloyd Mann","party":"Rep","address":"1746 S 290 E, Orem, UT 84058","precinct":"25OR44","hd":"61","v_score":"0","decile":"1","lat":40.264942539388,"lng":-111.688222075731},{"id":"48582","name":"Zack Barrows-Kuvalis","party":"","address":"234 E 1600 S, Orem, UT 84058","precinct":"25OR44","hd":"61","v_score":"1.46627566","decile":"4","lat":40.267846524044,"lng":-111.68946152182},{"id":"48799","name":"Piper Terry DDS","party":"Dem","address":"1746 Village Ln, Orem, UT 84058","precinct":"25OR44","hd":"61","v_score":"2.315214949","decile":"5","lat":40.267392397503,"lng":-111.683449361167},{"id":"48826","name":"Drew Oberbrunner","party":"Dem","address":"1845 S 543 E, Orem, UT 84058","precinct":"25OR44","hd":"61","v_score":"3.93832808","decile":"6","lat":40.263271144927,"lng":-111.681935859233},{"id":"48935","name":"Jaylin Spencer-Murphy","party":"","address":"1958 S Columbia Ln, Orem, UT 84097","precinct":"25OR44","hd":"61","v_score":"0","decile":"1","lat":40.261717107984,"lng":-111.680714124832},{"id":"48965","name":"Raul Marquardt-Mayert","party":"Dem","address":"1718 S 500 E, Orem, UT 84058","precinct":"25OR44","hd":"61","v_score":"1.193887297","decile":"3","lat":40.265383222942,"lng":-111.682913596813},{"id":"49109","name":"Mrs. Mindy Champlin","party":"","address":"1947 S Columbia Ln, Apt 9, Orem, UT 84097","precinct":"25OR44","hd":"61","v_score":"8.347511332","decile":"8","lat":40.261381505828,"lng":-111.680572898783},{"id":"50170","name":"Ballard Christiansen","party":"Rep","address":"1684 Village Ln, Orem, UT 84058","precinct":"25OR44","hd":"61","v_score":"1.121327652","decile":"3","lat":40.267572870102,"lng":-111.683450707954},{"id":"50995","name":"Genevra Beatty","party":"Dem","address":"1851 S Columbia Ln, Apt 311, Orem, UT 84097","precinct":"25OR44","hd":"61","v_score":"14.18249052","decile":"9","lat":40.263137091516,"lng":-111.680521941492},{"id":"51550","name":"Michaela Hodkiewicz","party":"Rep","address":"444 E 1960 S, Orem, UT 84058","precinct":"25OR44","hd":"61","v_score":"28.96057337","decile":"10","lat":40.261409707464,"lng":-111.68403951715},{"id":"51769","name":"Denese Krajcik","party":"Rep","address":"505 E 1864 S, Orem, UT 84058","precinct":"25OR44","hd":"61","v_score":"7.493443096","decile":"8","lat":40.262919774007,"lng":-111.683527718621},{"id":"51861","name":"Enid Hills","party":"","address":"1660 S 350 E, Orem, UT 84058","precinct":"25OR44","hd":"61","v_score":"11.04986408","decile":"9","lat":40.266637082847,"lng":-111.687510771308},{"id":"51864","name":"Mrs. Cassie Jaskolski","party":"Rep","address":"1947 S Columbia Ln, Apt 8, Orem, UT 84097","precinct":"25OR44","hd":"61","v_score":"0","decile":"1","lat":40.261381505828,"lng":-111.680572898783},{"id":"51907","name":"Bryant Steuber","party":"Dem","address":"1760 Village Ln, Unit 212, Orem, UT 84058","precinct":"25OR44","hd":"61","v_score":"0","decile":"1","lat":40.267351645626,"lng":-111.683449057054},{"id":"52501","name":"Hamp Pagac","party":"Dem","address":"1796 S 450 E, Orem, UT 84058","precinct":"25OR44","hd":"61","v_score":"13.11728501","decile":"9","lat":40.264303097722,"lng":-111.684260572612},{"id":"52595","name":"Evita Heathcote","party":"Dem","address":"1712 S 500 E, Orem, UT 84058","precinct":"25OR44","hd":"61","v_score":"0","decile":"1","lat":40.265427119099,"lng":-111.682912399639},{"id":"52659","name":"Tania Koss","party":"Rep","address":"475 E 1864 S, Orem, UT 84058","precinct":"25OR44","hd":"61","v_score":"20.80385273","decile":"10","lat":40.262922639306,"lng":-111.683958224867},{"id":"53084","name":"Mr. Eliseo Heaney IV","party":"","address":"1947 S Columbia Ln, Apt 11, Orem, UT 84097","precinct":"25OR44","hd":"61","v_score":"5.40460374","decile":"7","lat":40.261381505828,"lng":-111.680572898783},{"id":"53577","name":"Jordan Bruen DVM","party":"Rep","address":"525 E 1750 S, Orem, UT 84058","precinct":"25OR44","hd":"61","v_score":"2.587603312","decile":"5","lat":40.265136407074,"lng":-111.68272061386},{"id":"54091","name":"Moody Franecki","party":"","address":"475 E 1960 S, Orem, UT 84058","precinct":"25OR44","hd":"61","v_score":"12.05946382","decile":"9","lat":40.261524298812,"lng":-111.683566149384},{"id":"54502","name":"Lamont Gusikowski","party":"Rep","address":"339 E 1800 S, Orem, UT 84058","precinct":"25OR44","hd":"61","v_score":"0","decile":"1","lat":40.264296846165,"lng":-111.686989232832},{"id":"55001","name":"Dr. Shon Legros IV","party":"Rep","address":"414 E 1800 S, Orem, UT 84058","precinct":"25OR44","hd":"61","v_score":"0","decile":"1","lat":40.264178856496,"lng":-111.685030680926},{"id":"55174","name":"Austen Jaskolski","party":"Dem","address":"1949 S 520 E, Orem, UT 84058","precinct":"25OR44","hd":"61","v_score":"3.93832808","decile":"6","lat":40.261128040092,"lng":-111.682212442624},{"id":"55295","name":"Magnolia Heidenreich","party":"Rep","address":"507 E 1834 S, Orem, UT 84058","precinct":"25OR44","hd":"61","v_score":"2.315214949","decile":"5","lat":40.263606269327,"lng":-111.683597013828},{"id":"55901","name":"Kahlil Deckow-Donnelly","party":"","address":"310 E 1730 S, Orem, UT 84058","precinct":"25OR44","hd":"61","v_score":"1.121327652","decile":"3","lat":40.265481754101,"lng":-111.687506619036},{"id":"57096","name":"Philip Davis","party":"Dem","address":"1859 S Columbia Ln, Apt 226, Orem, UT 84097","precinct":"25OR44","hd":"61","v_score":"9.907118004","decile":"8","lat":40.262973035138,"lng":-111.680526735368},{"id":"58296","name":"Scott Becker","party":"","address":"1757 Village Ln, Apt 112, Orem, UT 84058","precinct":"25OR44","hd":"61","v_score":"1.121327652","decile":"3","lat":40.267791836221,"lng":-111.683302160339},{"id":"58352","name":"Sigurd Howell","party":"Rep","address":"1816 S Columbia Ln, Orem, UT 84097","precinct":"25OR44","hd":"61","v_score":"1.121327652","decile":"3","lat":40.263874384209,"lng":-111.680650605572},{"id":"58613","name":"Arch Schamberger","party":"","address":"1932 S Columbia Ln, Orem, UT 84097","precinct":"25OR44","hd":"61","v_score":"0","decile":"1","lat":40.261975526781,"lng":-111.680707272785},{"id":"58614","name":"Ariel Fahey","party":"","address":"240 E 1600 S, Orem, UT 84058","precinct":"25OR44","hd":"61","v_score":"0","decile":"1","lat":40.267845372495,"lng":-111.689330822244},{"id":"59169","name":"Dr. Bertha Dickens","party":"Rep","address":"1806 S 543 E, Orem, UT 84058","precinct":"25OR44","hd":"61","v_score":"3.93832808","decile":"6","lat":40.264054971942,"lng":-111.682092880932},{"id":"60026","name":"Miracle Dach","party":"","address":"1950 S Columbia Ln, Orem, UT 84097","precinct":"25OR44","hd":"61","v_score":"0","decile":"1","lat":40.26179662146,"lng":-111.68071201651},{"id":"60141","name":"Tracey Windler","party":"","address":"1672 Village Ln, Orem, UT 84058","precinct":"25OR44","hd":"61","v_score":"0","decile":"1","lat":40.267607800283,"lng":-111.683450968622},{"id":"60676","name":"Dr. Spenser Streich","party":"Dem","address":"1977 S 520 E, Orem, UT 84058","precinct":"25OR44","hd":"61","v_score":"1.193887297","decile":"3","lat":40.261000086233,"lng":-111.682356692323},{"id":"61448","name":"Debby Auer","party":"Rep","address":"1760 Village Ln, Unit 220, Orem, UT 84058","precinct":"25OR44","hd":"61","v_score":"0","decile":"1","lat":40.267351645626,"lng":-111.683449057054},{"id":"62414","name":"Breanne Blick","party":"","address":"1886 Orlean Dr, Orem, UT 84097","precinct":"25OR44","hd":"61","v_score":"0","decile":"1","lat":40.262496422973,"lng":-111.67958171459},{"id":"62761","name":"Russel Johnson","party":"Rep","address":"474 E 1800 S, Orem, UT 84058","precinct":"25OR44","hd":"61","v_score":"4.905839784","decile":"7","lat":40.264172707117,"lng":-111.683627478167},{"id":"63574","name":"Franc Pfeffer-Krajcik","party":"Dem","address":"1796 S 450 E, Orem, UT 84058","precinct":"25OR44","hd":"61","v_score":"0","decile":"1","lat":40.264303097722,"lng":-111.684260572612},{"id":"63733","name":"Celena Dickinson","party":"","address":"429 E 1910 S, Orem, UT 84058","precinct":"25OR44","hd":"61","v_score":"5.693042993","decile":"7","lat":40.26226229878,"lng":-111.684251190847},{"id":"64825","name":"Ms. Kaya Hartmann","party":"Rep","address":"1757 S Village Ln, Orem, UT 84058","precinct":"25OR44","hd":"61","v_score":"0","decile":"1","lat":40.267791836221,"lng":-111.683302160339},{"id":"65042","name":"Grafton Osinski-Braun","party":"","address":"526 E 1800 S, Orem, UT 84058","precinct":"25OR44","hd":"61","v_score":"1.121327652","decile":"3","lat":40.264170567984,"lng":-111.682664323856},{"id":"65841","name":"Miss Terra Greenholt PhD","party":"","address":"1726 Village Ln, Orem, UT 84058","precinct":"25OR44","hd":"61","v_score":"2.942907593","decile":"6","lat":40.267450614471,"lng":-111.683449795614},{"id":"65956","name":"Lindsay Hand","party":"","address":"1851 S Columbia Ln, Apt 118, Orem, UT 84097","precinct":"25OR44","hd":"61","v_score":"8.134165107","decile":"8","lat":40.263137091516,"lng":-111.680521941492},{"id":"66745","name":"Breann Farrell-Schowalter","party":"","address":"1701 Village Ln, Orem, UT 84058","precinct":"25OR44","hd":"61","v_score":"0","decile":"1","lat":40.267818033856,"lng":-111.68330235584},{"id":"66771","name":"Mrs. Cathey Wolff PhD","party":"","address":"1760 Village Ln, Unit 209, Orem, UT 84058","precinct":"25OR44","hd":"61","v_score":"2.315214949","decile":"5","lat":40.267351645626,"lng":-111.683449057054},{"id":"67091","name":"Cathie Wolff","party":"","address":"1692 S Village Ln, Orem, UT 84058","precinct":"25OR44","hd":"61","v_score":"0","decile":"1","lat":40.267549583315,"lng":-111.683450534175},{"id":"67843","name":"Kenton Schamberger PhD","party":"","address":"1859 S Columbia Ln, Apt 125, Orem, UT 84097","precinct":"25OR44","hd":"61","v_score":"0","decile":"1","lat":40.262973035138,"lng":-111.680526735368},{"id":"67855","name":"Efrem Goldner","party":"Dem","address":"1758 S 400 E, Orem, UT 84058","precinct":"25OR44","hd":"61","v_score":"13.42110699","decile":"9","lat":40.264980217261,"lng":-111.685501547613},{"id":"68475","name":"Alferd Morar","party":"","address":"475 E 1864 S, Orem, UT 84058","precinct":"25OR44","hd":"61","v_score":"9.682978083","decile":"8","lat":40.262922639306,"lng":-111.683958224867},{"id":"69338","name":"Wenzel Rath","party":"","address":"306 E 1600 S, Orem, UT 84058","precinct":"25OR44","hd":"61","v_score":"6.814370645","decile":"8","lat":40.267840474138,"lng":-111.68760829954},{"id":"70152","name":"Cal Braun","party":"","address":"1982 S Columbia Ln, Orem, UT 84097","precinct":"25OR44","hd":"61","v_score":"2.817000428","decile":"6","lat":40.261383934324,"lng":-111.680723029998},{"id":"70217","name":"Ricki Cronin","party":"Dem","address":"1760 S Village Ln, Unit 409, Orem, UT 84058","precinct":"25OR44","hd":"61","v_score":"0","decile":"1","lat":40.267351645626,"lng":-111.683449057054},{"id":"71036","name":"Zander Predovic","party":"Dem","address":"1760 S Village Ln, Orem, UT 84058","precinct":"25OR44","hd":"61","v_score":"0","decile":"1","lat":40.267351645626,"lng":-111.683449057054},{"id":"71191","name":"Brandin Weissnat","party":"","address":"1851 S Columbia Ln, Apt 314, Orem, UT 84097","precinct":"25OR44","hd":"61","v_score":"5.191257514","decile":"7","lat":40.263137091516,"lng":-111.680521941492},{"id":"72211","name":"Dr. Case Kuhn I","party":"","address":"364 E 1600 S, Orem, UT 84058","precinct":"25OR44","hd":"61","v_score":"9.565887806","decile":"8","lat":40.267832098993,"lng":-111.686299698899},{"id":"72728","name":"Aldo McCullough","party":"","address":"471 E 1910 S, Orem, UT 84058","precinct":"25OR44","hd":"61","v_score":"2.744440783","decile":"5","lat":40.262262298723,"lng":-111.683513793737},{"id":"72845","name":"Ethan Russel-Hammes","party":"","address":"1859 S Columbia Ln, # 236, Orem, UT 84097","precinct":"25OR44","hd":"61","v_score":"2.315214949","decile":"5","lat":40.262973035138,"lng":-111.680526735368},{"id":"73535","name":"Berlin Maggio-Kulas","party":"Rep","address":"1851 S Columbia Ln, Apt 311, Orem, UT 84097","precinct":"25OR44","hd":"61","v_score":"1.121327652","decile":"3","lat":40.263137091516,"lng":-111.680521941492},{"id":"73670","name":"Aylin Jerde DVM","party":"Dem","address":"338 E 1600 S, Apt 4, Orem, UT 84058","precinct":"25OR44","hd":"61","v_score":"1.193887297","decile":"3","lat":40.267835853368,"lng":-111.68688631298},{"id":"74077","name":"Raegan Vandervort-Harvey","party":"Rep","address":"429 E 1910 S, Orem, UT 84058","precinct":"25OR44","hd":"61","v_score":"1.121327652","decile":"3","lat":40.26226229878,"lng":-111.684251190847},{"id":"74535","name":"Damaris Wolff","party":"Rep","address":"1851 S Columbia Ln, Apt 318, Orem, UT 84097","precinct":"25OR44","hd":"61","v_score":"1.121327652","decile":"3","lat":40.263137091516,"lng":-111.680521941492},{"id":"75503","name":"Oris Beer","party":"Rep","address":"1745 S Village Ln, Orem, UT 84058","precinct":"25OR44","hd":"61","v_score":"9.207031979","decile":"8","lat":40.267310847636,"lng":-111.683298570935},{"id":"75859","name":"Arnett O'Conner","party":"Dem","address":"507 E 1834 S, Orem, UT 84058","precinct":"25OR44","hd":"61","v_score":"3.93832808","decile":"6","lat":40.263606269327,"lng":-111.683597013828},{"id":"76085","name":"Julianna Kiehn","party":"Rep","address":"1760 Village Ln, Unit 309, Orem, UT 84058","precinct":"25OR44","hd":"61","v_score":"1.193887297","decile":"3","lat":40.267351645626,"lng":-111.683449057054},{"id":"76266","name":"Skyler Hickle","party":"Dem","address":"1977 S 520 E, Orem, UT 84058","precinct":"25OR44","hd":"61","v_score":"2.315214949","decile":"5","lat":40.261000086233,"lng":-111.682356692323},{"id":"76546","name":"Mrs. Osie Roob","party":"Rep","address":"326 E 1600 S, Apt 3, Orem, UT 84058","precinct":"25OR44","hd":"61","v_score":"10.24124245","decile":"9","lat":40.267837586157,"lng":-111.68715705794},{"id":"77122","name":"Pauline Windler","party":"Rep","address":"352 E 1780 S, Orem, UT 84058","precinct":"25OR44","hd":"61","v_score":"2.315214949","decile":"5","lat":40.264865707263,"lng":-111.686578019688},{"id":"79770","name":"Eldon Champlin DDS","party":"","address":"306 E 1600 S, Orem, UT 84058","precinct":"25OR44","hd":"61","v_score":"6.814370645","decile":"8","lat":40.267840474138,"lng":-111.68760829954},{"id":"79984","name":"Gustave Kuvalis","party":"","address":"474 E 1800 S, Orem, UT 84058","precinct":"25OR44","hd":"61","v_score":"3.93832808","decile":"6","lat":40.264172707117,"lng":-111.683627478167},{"id":"80967","name":"Chad Treutel","party":"Dem","address":"522 E 1864 S, Orem, UT 84058","precinct":"25OR44","hd":"61","v_score":"6.528952915","decile":"7","lat":40.262799090546,"lng":-111.682613047251},{"id":"81127","name":"Corwin Morar","party":"Rep","address":"1705 Village Ln, Orem, UT 84058","precinct":"25OR44","hd":"61","v_score":"0","decile":"1","lat":40.267771926018,"lng":-111.683302011758},{"id":"81559","name":"Pepper Steuber","party":"Rep","address":"1672 Village Ln, Orem, UT 84058","precinct":"25OR44","hd":"61","v_score":"0","decile":"1","lat":40.267607800283,"lng":-111.683450968622},{"id":"82070","name":"Chrystal Champlin MD","party":"","address":"1736 S Village Ln, Orem, UT 84058","precinct":"25OR44","hd":"61","v_score":"0","decile":"1","lat":40.267421505987,"lng":-111.68344957839},{"id":"82613","name":"Evertt Hermann","party":"Rep","address":"534 E 1750 S, Orem, UT 84058","precinct":"25OR44","hd":"61","v_score":"1.623113131","decile":"5","lat":40.26502241898,"lng":-111.682693479153},{"id":"83314","name":"Vallie Kerluke","party":"Rep","address":"1851 S Columbia Ln, Apt 216, Orem, UT 84097","precinct":"25OR44","hd":"61","v_score":"0","decile":"1","lat":40.263137091516,"lng":-111.680521941492},{"id":"83461","name":"Dr. Clem Volkman DVM","party":"Rep","address":"1947 S Columbia Ln, Apt 20, Orem, UT 84097","precinct":"25OR44","hd":"61","v_score":"1.623113131","decile":"5","lat":40.261381505828,"lng":-111.680572898783},{"id":"83952","name":"Mr. Zachariah Schimmel","party":"Rep","address":"414 E 1800 S, Orem, UT 84058","precinct":"25OR44","hd":"61","v_score":"0","decile":"1","lat":40.264178856496,"lng":-111.685030680926},{"id":"84162","name":"Miranda Upton","party":"Rep","address":"483 E 1864 S, Orem, UT 84058","precinct":"25OR44","hd":"61","v_score":"2.817000428","decile":"6","lat":40.262921875227,"lng":-111.683843423202},{"id":"84381","name":"Cris Hartmann-Dickinson","party":"Dem","address":"1952 S Columbia Ln, Orem, UT 84097","precinct":"25OR44","hd":"61","v_score":"18.05350632","decile":"10","lat":40.261776743091,"lng":-111.68071254359},{"id":"84660","name":"Clarissa Casper-Connelly","party":"","address":"1760 S Village Ln, Unit 113, Orem, UT 84058","precinct":"25OR44","hd":"61","v_score":"0","decile":"1","lat":40.267351645626,"lng":-111.683449057054},{"id":"84668","name":"Luke Denesik PhD","party":"","address":"1760 Village Ln, Unit 209, Orem, UT 84058","precinct":"25OR44","hd":"61","v_score":"1.193887297","decile":"3","lat":40.267351645626,"lng":-111.683449057054},{"id":"84739","name":"Paris Armstrong","party":"Dem","address":"1771 S 290 E, Orem, UT 84058","precinct":"25OR44","hd":"61","v_score":"4.069929862","decile":"6","lat":40.264648778469,"lng":-111.688070371486},{"id":"84917","name":"Mr. Doss Rath V","party":"","address":"1859 S Columbia Ln, Apt 329, Orem, UT 84097","precinct":"25OR44","hd":"61","v_score":"1.193887297","decile":"3","lat":40.262973035138,"lng":-111.680526735368},{"id":"84930","name":"Sanford Rath-Padberg","party":"Rep","address":"1610 S 490 E, Orem, UT 84058","precinct":"25OR44","hd":"61","v_score":"0","decile":"1","lat":40.267788272882,"lng":-111.683452315409},{"id":"85060","name":"Robin Rau","party":"","address":"1765 S 450 E, Orem, UT 84058","precinct":"25OR44","hd":"61","v_score":"0","decile":"1","lat":40.264530238751,"lng":-111.684102863956},{"id":"85064","name":"Jarrad Quitzon","party":"Dem","address":"1760 Village Ln, Orem, UT 84058","precinct":"25OR44","hd":"61","v_score":"3.711952487","decile":"6","lat":40.267351645626,"lng":-111.683449057054},{"id":"85153","name":"Sloane Davis","party":"","address":"480 E 1864 S, Orem, UT 84058","precinct":"25OR44","hd":"61","v_score":"9.928536428","decile":"9","lat":40.26280514167,"lng":-111.683522218069},{"id":"85156","name":"Hernan Bosco","party":"Dem","address":"480 E 1864 S, Orem, UT 84058","precinct":"25OR44","hd":"61","v_score":"9.928536428","decile":"9","lat":40.26280514167,"lng":-111.683522218069},{"id":"85276","name":"Miss Rhoda Leuschke MD","party":"","address":"1943 S Columbia Ln, Orem, UT 84097","precinct":"25OR44","hd":"61","v_score":"0","decile":"1","lat":40.261530754645,"lng":-111.680568867729},{"id":"85494","name":"Vinie Douglas","party":"","address":"311 E 1800 S, Orem, UT 84058","precinct":"25OR44","hd":"61","v_score":"0","decile":"1","lat":40.264301454485,"lng":-111.687618261877},{"id":"85523","name":"Zoe Boyle","party":"Dem","address":"1662 S Village Ln, Orem, UT 84058","precinct":"25OR44","hd":"61","v_score":"0","decile":"1","lat":40.267636908766,"lng":-111.683451185846},{"id":"86421","name":"Nayely Cormier","party":"Rep","address":"1752 S 500 E, Orem, UT 84058","precinct":"25OR44","hd":"61","v_score":"0","decile":"1","lat":40.26513447805,"lng":-111.682920380796},{"id":"86978","name":"Aliyah Hayes-Funk","party":"Dem","address":"1887 S Columbia Ln, Orem, UT 84097","precinct":"25OR44","hd":"61","v_score":"0","decile":"1","lat":40.262500306064,"lng":-111.680543159802},{"id":"88108","name":"Jeana Pfannerstill","party":"Rep","address":"1759 S 340 E, Orem, UT 84058","precinct":"25OR44","hd":"61","v_score":"0","decile":"1","lat":40.265102382647,"lng":-111.686839784539},{"id":"88292","name":"Le Effertz","party":"","address":"1826 S 543 E, Orem, UT 84058","precinct":"25OR44","hd":"61","v_score":"2.817000428","decile":"6","lat":40.263693465727,"lng":-111.682090533536},{"id":"88639","name":"Homer Kris","party":"Dem","address":"1904 S Columbia Ln, Orem, UT 84097","precinct":"25OR44","hd":"61","v_score":"8.284004873","decile":"8","lat":40.262253823948,"lng":-111.680699893658},{"id":"88720","name":"Freeda Kub","party":"Dem","address":"1947 S Columbia Ln, Apt 17, Orem, UT 84097","precinct":"25OR44","hd":"61","v_score":"0","decile":"1","lat":40.261381505828,"lng":-111.680572898783},{"id":"89113","name":"Mr. Rance Swaniawski","party":"Rep","address":"1705 Village Ln, Orem, UT 84058","precinct":"25OR44","hd":"61","v_score":"0","decile":"1","lat":40.267771926018,"lng":-111.683302011758},{"id":"89578","name":"Brendan Sporer","party":"Dem","address":"1949 S 520 E, Orem, UT 84058","precinct":"25OR44","hd":"61","v_score":"4.069929862","decile":"6","lat":40.261128040092,"lng":-111.682212442624},{"id":"89632","name":"Mr. Colon Prohaska MD","party":"Dem","address":"351 E 1780 S, Orem, UT 84058","precinct":"25OR44","hd":"61","v_score":"0","decile":"1","lat":40.264980298648,"lng":-111.686588087575},{"id":"90922","name":"Dr. Zack Ziemann III","party":"","address":"461 E 2000 S, Orem, UT 84058","precinct":"25OR44","hd":"61","v_score":"0","decile":"1","lat":40.260673727187,"lng":-111.683637664555},{"id":"91169","name":"Curley Bauch-Larson","party":"Rep","address":"1949 S 520 E, Orem, UT 84058","precinct":"25OR44","hd":"61","v_score":"1.193887297","decile":"4","lat":40.261128040092,"lng":-111.682212442624},{"id":"91431","name":"Jensen Schmidt","party":"","address":"1718 S 500 E, Orem, UT 84058","precinct":"25OR44","hd":"61","v_score":"0","decile":"1","lat":40.265383222942,"lng":-111.682913596813},{"id":"91827","name":"Matteo Witting","party":"","address":"1760 Village Ln, Unit 303, Orem, UT 84058","precinct":"25OR44","hd":"61","v_score":"0","decile":"1","lat":40.267351645626,"lng":-111.683449057054},{"id":"91874","name":"River Roberts","party":"Rep","address":"559 E 2000 S, Orem, UT 84058","precinct":"25OR44","hd":"61","v_score":"9.907118004","decile":"8","lat":40.260673698088,"lng":-111.682179852083},{"id":"92545","name":"Jessenia O'Conner","party":"Dem","address":"576 E 1864 S, Orem, UT 84058","precinct":"25OR44","hd":"61","v_score":"0","decile":"1","lat":40.262786707102,"lng":-111.681360171684},{"id":"93459","name":"Laraine Homenick","party":"Dem","address":"338 E 1600 S, Apt 1, Orem, UT 84058","precinct":"25OR44","hd":"61","v_score":"8.085704327","decile":"8","lat":40.267835853368,"lng":-111.68688631298},{"id":"93773","name":"Dr. Jaheim Roob PhD","party":"Rep","address":"1851 S Columbia Ln, Apt 117, Orem, UT 84097","precinct":"25OR44","hd":"61","v_score":"0","decile":"1","lat":40.263137091516,"lng":-111.680521941492},{"id":"93862","name":"Ms. Margarite Pouros DDS","party":"Rep","address":"1757 Village Ln, Apt 111, Orem, UT 84058","precinct":"25OR44","hd":"61","v_score":"1.193887297","decile":"4","lat":40.267791836221,"lng":-111.683302160339},{"id":"94316","name":"Lorena Harvey","party":"","address":"1947 S Columbia Ln, Apt 13, Orem, UT 84097","precinct":"25OR44","hd":"61","v_score":"0","decile":"1","lat":40.261381505828,"lng":-111.680572898783},{"id":"95225","name":"Chastity Lockman-Bergstrom","party":"Dem","address":"351 E 1780 S, Orem, UT 84058","precinct":"25OR44","hd":"61","v_score":"1.193887297","decile":"4","lat":40.264980298648,"lng":-111.686588087575},{"id":"95459","name":"Dayne Hettinger","party":"Dem","address":"483 E 1834 S, Orem, UT 84058","precinct":"25OR44","hd":"61","v_score":"1.623113131","decile":"5","lat":40.263611482847,"lng":-111.683990632288},{"id":"95822","name":"Amir Stroman","party":"Dem","address":"438 E 1910 S, Orem, UT 84058","precinct":"25OR44","hd":"61","v_score":"18.35167816","decile":"10","lat":40.262147707396,"lng":-111.684250836174},{"id":"96194","name":"Dr. Braden Fisher IV","party":"","address":"471 E 1910 S, Orem, UT 84058","precinct":"25OR44","hd":"61","v_score":"0","decile":"1","lat":40.262262298723,"lng":-111.683513793737},{"id":"96334","name":"Jordi Keebler","party":"Dem","address":"349 E 1655 S, Orem, UT 84058","precinct":"25OR44","hd":"61","v_score":"18.35167816","decile":"10","lat":40.266831895261,"lng":-111.686730317922},{"id":"96335","name":"Maximiliano Jacobs II","party":"","address":"349 E 1655 S, Orem, UT 84058","precinct":"25OR44","hd":"61","v_score":"18.35167816","decile":"10","lat":40.266831895261,"lng":-111.686730317922},{"id":"96648","name":"Dann Prohaska-Dietrich","party":"Rep","address":"349 E 1655 S, Orem, UT 84058","precinct":"25OR44","hd":"61","v_score":"18.35167816","decile":"10","lat":40.266831895261,"lng":-111.686730317922},{"id":"97179","name":"Echo Tillman","party":"Dem","address":"1717 S 500 E, Orem, UT 84058","precinct":"25OR44","hd":"61","v_score":"2.817000428","decile":"6","lat":40.265450415629,"lng":-111.68276155765},{"id":"97274","name":"Cilla Goyette-Casper","party":"Rep","address":"1941 S Terrace Dr, Orem, UT 84097","precinct":"25OR44","hd":"61","v_score":"9.907118004","decile":"8","lat":40.261568282096,"lng":-111.678319333135},{"id":"97751","name":"Ricky Donnelly","party":"Rep","address":"356 E 1655 S, Orem, UT 84058","precinct":"25OR44","hd":"61","v_score":"1.623113131","decile":"5","lat":40.266777702308,"lng":-111.686580577001},{"id":"97972","name":"Nevin Lueilwitz","party":"","address":"1760 Village Ln, Unit 211, Orem, UT 84058","precinct":"25OR44","hd":"61","v_score":"1.193887297","decile":"4","lat":40.267351645626,"lng":-111.683449057054},{"id":"98408","name":"Wayman Bins-Cummings","party":"Dem","address":"1760 S Village Ln, Orem, UT 84058","precinct":"25OR44","hd":"61","v_score":"0","decile":"1","lat":40.267351645626,"lng":-111.683449057054},{"id":"98608","name":"Memphis Klocko","party":"Rep","address":"1840 S Columbia Ln, Orem, UT 84097","precinct":"25OR44","hd":"61","v_score":"0","decile":"1","lat":40.263438462975,"lng":-111.680663343585},{"id":"98610","name":"Bart Greenfelder","party":"","address":"523 E 1750 S, Orem, UT 84058","precinct":"25OR44","hd":"61","v_score":"0","decile":"1","lat":40.265136298113,"lng":-111.68272508128},{"id":"98946","name":"Irvine Wiza","party":"Rep","address":"1760 Village Ln, Unit 409, Orem, UT 84058","precinct":"25OR44","hd":"61","v_score":"0","decile":"1","lat":40.267351645626,"lng":-111.683449057054},{"id":"99119","name":"Orion Torphy","party":"","address":"518 E 1750 S, Orem, UT 84058","precinct":"25OR44","hd":"61","v_score":"0","decile":"1","lat":40.265021547291,"lng":-111.682729218509},{"id":"99355","name":"Yoshio Tremblay","party":"Dem","address":"1762 S 500 E, Orem, UT 84058","precinct":"25OR44","hd":"61","v_score":"1.193887297","decile":"4","lat":40.264886658498,"lng":-111.682925997299},{"id":"99665","name":"Dr. Florence Dare PhD","party":"Dem","address":"1957 Terrace Dr, Orem, UT 84097","precinct":"25OR44","hd":"61","v_score":"0","decile":"1","lat":40.261485680967,"lng":-111.678537462355},{"id":"99766","name":"Harding Tremblay","party":"Dem","address":"482 E 1800 S, Orem, UT 84058","precinct":"25OR44","hd":"61","v_score":"1.193887297","decile":"4","lat":40.264172707104,"lng":-111.683465708705},{"id":"100334","name":"Shaniya Purdy-Aufderhar","party":"","address":"1762 S 500 E, Orem, UT 84058","precinct":"25OR44","hd":"61","v_score":"1.193887297","decile":"4","lat":40.264886658498,"lng":-111.682925997299},{"id":"101683","name":"Kaaren Bashirian PhD","party":"","address":"1728 S 290 E, Orem, UT 84058","precinct":"25OR44","hd":"61","v_score":"0","decile":"2","lat":40.265094958496,"lng":-111.688221309244},{"id":"102972","name":"Anderson Trantow","party":"Rep","address":"1818 S 543 E, Orem, UT 84058","precinct":"25OR44","hd":"61","v_score":"0","decile":"2","lat":40.263838068213,"lng":-111.682091472495},{"id":"103383","name":"Hugo Cole","party":"","address":"1937 Terrace Dr, Orem, UT 84097","precinct":"25OR44","hd":"61","v_score":"0","decile":"2","lat":40.261617010859,"lng":-111.678271607486},{"id":"104864","name":"Floy Stehr","party":"Dem","address":"310 E 1730 S, Orem, UT 84058","precinct":"25OR44","hd":"61","v_score":"4.069929862","decile":"7","lat":40.265481754101,"lng":-111.687506619036},{"id":"104984","name":"Whitney O'Conner","party":"","address":"1702 Village Ln, Orem, UT 84058","precinct":"25OR44","hd":"61","v_score":"0","decile":"2","lat":40.267520474832,"lng":-111.683450316951},{"id":"105123","name":"Marybeth Bashirian","party":"Rep","address":"520 E 1750 S, Orem, UT 84058","precinct":"25OR44","hd":"61","v_score":"1.193887297","decile":"4","lat":40.265021656252,"lng":-111.682724751089},{"id":"105248","name":"Hoy Adams II","party":"","address":"1970 S Columbia Ln, Orem, UT 84097","precinct":"25OR44","hd":"61","v_score":"0","decile":"2","lat":40.26159783777,"lng":-111.680717287315},{"id":"105453","name":"Dr. Braydon Ernser I","party":"Dem","address":"478 E 1960 S, Orem, UT 84058","precinct":"25OR44","hd":"61","v_score":"4.905839784","decile":"7","lat":40.261409707423,"lng":-111.683503033699},{"id":"105725","name":"Maida Davis","party":"","address":"1859 S Columbia Ln, Apt 127, Orem, UT 84097","precinct":"25OR44","hd":"61","v_score":"1.193887297","decile":"4","lat":40.262973035138,"lng":-111.680526735368},{"id":"106314","name":"Wilhelmina Willms","party":"Dem","address":"1906 S Columbia Ln, Orem, UT 84097","precinct":"25OR44","hd":"61","v_score":"1.193887297","decile":"4","lat":40.262233945579,"lng":-111.680700420739},{"id":"107053","name":"Lynette Ziemann","party":"Rep","address":"1904 S Columbia Ln, Orem, UT 84097","precinct":"25OR44","hd":"61","v_score":"4.214075011","decile":"7","lat":40.262253823948,"lng":-111.680699893658},{"id":"107233","name":"Dr. Orilla Marvin PhD","party":"Dem","address":"1926 S Columbia Ln, Orem, UT 84097","precinct":"25OR44","hd":"61","v_score":"1.193887297","decile":"4","lat":40.262035161888,"lng":-111.680705691544},{"id":"107699","name":"Mr. Zack DuBuque IV","party":"Dem","address":"356 E 1655 S, Orem, UT 84058","precinct":"25OR44","hd":"61","v_score":"4.214075011","decile":"7","lat":40.266777702308,"lng":-111.686580577001},{"id":"107731","name":"Miss Dagmar Simonis","party":"Dem","address":"338 E 1600 S, Apt 3, Orem, UT 84058","precinct":"25OR44","hd":"61","v_score":"0","decile":"2","lat":40.267835853368,"lng":-111.68688631298},{"id":"108500","name":"Mr. Aaron Jacobi","party":"","address":"520 E 1750 S, Orem, UT 84058","precinct":"25OR44","hd":"61","v_score":"0","decile":"2","lat":40.265021656252,"lng":-111.682724751089},{"id":"109445","name":"Mr. Cornelious Hegmann DVM","party":"","address":"1660 S 350 E, Orem, UT 84058","precinct":"25OR44","hd":"61","v_score":"8.284004873","decile":"8","lat":40.266637082847,"lng":-111.687510771308},{"id":"109464","name":"Jannette Waters PhD","party":"Dem","address":"1760 S 340 E, Orem, UT 84058","precinct":"25OR44","hd":"61","v_score":"8.284004873","decile":"8","lat":40.265070376858,"lng":-111.686989958355},{"id":"110126","name":"Efren Cremin DDS","party":"Dem","address":"1738 S Village Ln, Orem, UT 84058","precinct":"25OR44","hd":"61","v_score":"1.193887297","decile":"4","lat":40.26741568429,"lng":-111.683449534946},{"id":"110798","name":"Nicholas Purdy","party":"Dem","address":"1758 S 400 E, Orem, UT 84058","precinct":"25OR44","hd":"61","v_score":"5.407962308","decile":"7","lat":40.264980217261,"lng":-111.685501547613},{"id":"111150","name":"Carol Flatley","party":"Dem","address":"442 E 1864 S, Orem, UT 84058","precinct":"25OR44","hd":"61","v_score":"1.193887297","decile":"4","lat":40.262810616496,"lng":-111.684344801191},{"id":"111265","name":"Leesa Cummerata","party":"Dem","address":"1851 S Columbia Ln, Apt 215, Orem, UT 84097","precinct":"25OR44","hd":"61","v_score":"0","decile":"2","lat":40.263137091516,"lng":-111.680521941492},{"id":"111569","name":"Ewell Herzog","party":"Dem","address":"511 E 1910 S, Orem, UT 84058","precinct":"25OR44","hd":"61","v_score":"0","decile":"2","lat":40.26226229867,"lng":-111.682811510776},{"id":"111780","name":"Doss Heaney DDS","party":"Dem","address":"447 E 1960 S, Orem, UT 84058","precinct":"25OR44","hd":"61","v_score":"0","decile":"2","lat":40.261524298845,"lng":-111.684007959285},{"id":"112014","name":"Ryne Rau","party":"Rep","address":"476 E 1910 S, Orem, UT 84058","precinct":"25OR44","hd":"61","v_score":"0","decile":"2","lat":40.262147707358,"lng":-111.683758883412},{"id":"112438","name":"Winford Harris","party":"","address":"1926 S Columbia Ln, Orem, UT 84097","precinct":"25OR44","hd":"61","v_score":"1.193887297","decile":"4","lat":40.262035161888,"lng":-111.680705691544},{"id":"112500","name":"Micayla McKenzie-Schmitt","party":"Dem","address":"373 E 1800 S, Orem, UT 84058","precinct":"25OR44","hd":"61","v_score":"7.090117576","decile":"8","lat":40.264300388577,"lng":-111.685966505255},{"id":"112788","name":"Mrs. Latasha Orn MD","party":"Dem","address":"1934 S Columbia Ln, Orem, UT 84097","precinct":"25OR44","hd":"61","v_score":"0","decile":"2","lat":40.261955648412,"lng":-111.680707799866},{"id":"112891","name":"Cleveland Towne","party":"Dem","address":"310 E 1730 S, Orem, UT 84058","precinct":"25OR44","hd":"61","v_score":"4.069929862","decile":"7","lat":40.265481754101,"lng":-111.687506619036},{"id":"114050","name":"Eulalia Schulist MD","party":"Dem","address":"1759 S 340 E, Orem, UT 84058","precinct":"25OR44","hd":"61","v_score":"0","decile":"2","lat":40.265102382647,"lng":-111.686839784539},{"id":"114450","name":"Marion Leannon","party":"","address":"1846 S 543 E, Orem, UT 84058","precinct":"25OR44","hd":"61","v_score":"1.193887297","decile":"4","lat":40.263272333784,"lng":-111.682086052432},{"id":"114527","name":"Ms. Dallas Feil PhD","party":"Rep","address":"1725 Village Ln, Orem, UT 84058","precinct":"25OR44","hd":"61","v_score":"0","decile":"2","lat":40.267541386827,"lng":-111.683300291347},{"id":"114580","name":"Bobbye Armstrong","party":"","address":"483 E 1834 S, Orem, UT 84058","precinct":"25OR44","hd":"61","v_score":"1.193887297","decile":"4","lat":40.263611482847,"lng":-111.683990632288},{"id":"114698","name":"Lamar Stark-Nicolas","party":"","address":"507 E 1834 S, Orem, UT 84058","precinct":"25OR44","hd":"61","v_score":"1.193887297","decile":"4","lat":40.263606269327,"lng":-111.683597013828},{"id":"114726","name":"Mrs. Cappie Ledner PhD","party":"","address":"374 E 1780 S, Orem, UT 84058","precinct":"25OR44","hd":"61","v_score":"8.284004873","decile":"8","lat":40.264865707255,"lng":-111.686467272766},{"id":"114895","name":"Dr. Audra Feil MD","party":"","address":"374 E 1780 S, Orem, UT 84058","precinct":"25OR44","hd":"61","v_score":"8.284004873","decile":"8","lat":40.264865707255,"lng":-111.686467272766},{"id":"116642","name":"Gaynell Ullrich","party":"Rep","address":"1745 Village Ln, Orem, UT 84058","precinct":"25OR44","hd":"61","v_score":"1.193887297","decile":"4","lat":40.267310847636,"lng":-111.683298570935},{"id":"116874","name":"Zadie Gutmann","party":"","address":"1760 S Village Ln, Unit 306, Orem, UT 84058","precinct":"25OR44","hd":"61","v_score":"0","decile":"2","lat":40.267351645626,"lng":-111.683449057054},{"id":"117164","name":"Alston Bernhard","party":"","address":"384 E 1655 S, Orem, UT 84058","precinct":"25OR44","hd":"61","v_score":"1.193887297","decile":"4","lat":40.266810938232,"lng":-111.685879488906},{"id":"117972","name":"Cheryll Dicki","party":"Rep","address":"1859 S Columbia Ln, Apt 221, Orem, UT 84097","precinct":"25OR44","hd":"61","v_score":"1.193887297","decile":"4","lat":40.262973035138,"lng":-111.680526735368},{"id":"118163","name":"Bonnie Kris-Wilkinson","party":"Dem","address":"1865 S Columbia Ln, Apt 337, Orem, UT 84097","precinct":"25OR44","hd":"61","v_score":"1.193887297","decile":"4","lat":40.262775838653,"lng":-111.680533320047},{"id":"118205","name":"Grady Osinski","party":"Dem","address":"1859 S Columbia Ln, Orem, UT 84097","precinct":"25OR44","hd":"61","v_score":"0","decile":"2","lat":40.262973035138,"lng":-111.680526735368},{"id":"118688","name":"Dr. Jabari Fahey I","party":"Rep","address":"240 E 1600 S, Orem, UT 84058","precinct":"25OR44","hd":"61","v_score":"1.193887297","decile":"4","lat":40.267845372495,"lng":-111.689330822244},{"id":"120626","name":"Dr. Davey Muller","party":"","address":"514 E 1750 S, Orem, UT 84058","precinct":"25OR44","hd":"61","v_score":"0","decile":"2","lat":40.265021329369,"lng":-111.682738153348},{"id":"120641","name":"Kali Gutkowski","party":"","address":"365 E 1780 S, Orem, UT 84058","precinct":"25OR44","hd":"61","v_score":"5.407962308","decile":"7","lat":40.264980298643,"lng":-111.686517612261},{"id":"121352","name":"Lisbeth Eichmann","party":"Rep","address":"1760 Village Ln, Unit 104, Orem, UT 84058","precinct":"25OR44","hd":"61","v_score":"1.193887297","decile":"4","lat":40.267351645626,"lng":-111.683449057054},{"id":"121892","name":"Stevie Rohan","party":"Rep","address":"1947 S Columbia Ln, Apt 3, Orem, UT 84097","precinct":"25OR44","hd":"61","v_score":"1.193887297","decile":"4","lat":40.261381505828,"lng":-111.680572898783},{"id":"121919","name":"Elissa Bernier","party":"Rep","address":"1972 S Columbia Ln, Orem, UT 84097","precinct":"25OR44","hd":"61","v_score":"1.193887297","decile":"4","lat":40.261577959401,"lng":-111.680717814395},{"id":"121985","name":"Liberty Tillman DDS","party":"Dem","address":"314 E 1600 S, Orem, UT 84058","precinct":"25OR44","hd":"61","v_score":"1.193887297","decile":"4","lat":40.267839318945,"lng":-111.6874278029},{"id":"122061","name":"Kristian Raynor","party":"Rep","address":"485 E 1960 S, Orem, UT 84058","precinct":"25OR44","hd":"61","v_score":"1.193887297","decile":"4","lat":40.2615242988,"lng":-111.683408360133},{"id":"122584","name":"Dr. Kody Roob V","party":"","address":"1816 S Columbia Ln, Orem, UT 84097","precinct":"25OR44","hd":"61","v_score":"1.193887297","decile":"4","lat":40.263874384209,"lng":-111.680650605572},{"id":"122723","name":"Evonne Bergstrom","party":"Dem","address":"1717 S 500 E, Orem, UT 84058","precinct":"25OR44","hd":"61","v_score":"1.193887297","decile":"4","lat":40.265450415629,"lng":-111.68276155765},{"id":"122794","name":"Shiloh Mueller DDS","party":"Rep","address":"1951 Terrace Dr, Orem, UT 84097","precinct":"25OR44","hd":"61","v_score":"1.193887297","decile":"4","lat":40.26151157571,"lng":-111.678461396533},{"id":"123835","name":"Vicky Williamson","party":"Dem","address":"1885 S Columbia Ln, Orem, UT 84097","precinct":"25OR44","hd":"61","v_score":"1.193887297","decile":"4","lat":40.2625349329,"lng":-111.680542241662},{"id":"124174","name":"Nana Feest","party":"","address":"1820 S Columbia Ln, Orem, UT 84097","precinct":"25OR44","hd":"61","v_score":"1.193887297","decile":"4","lat":40.26380173067,"lng":-111.680652728574},{"id":"125046","name":"Deirdre Larson PhD","party":"","address":"1760 S Village Ln, Unit 209, Orem, UT 84058","precinct":"25OR44","hd":"61","v_score":"0","decile":"2","lat":40.267351645626,"lng":-111.683449057054},{"id":"126254","name":"Dr. Brian Nitzsche","party":"Dem","address":"341 Chapel Cir, Orem, UT 84058","precinct":"25OR44","hd":"61","v_score":"0","decile":"2","lat":40.266404908536,"lng":-111.687324585401},{"id":"126522","name":"Dr. Rollo Feeney","party":"","address":"331 E 1800 S, Orem, UT 84058","precinct":"25OR44","hd":"61","v_score":"0","decile":"2","lat":40.264298162828,"lng":-111.687168955416},{"id":"127773","name":"Dr. Efrain Bruen MD","party":"","address":"1859 S Columbia Ln, Apt 229, Orem, UT 84097","precinct":"25OR44","hd":"61","v_score":"0","decile":"2","lat":40.262973035138,"lng":-111.680526735368},{"id":"128097","name":"Kayleigh Hudson","party":"","address":"518 E 1750 S, Orem, UT 84058","precinct":"25OR44","hd":"61","v_score":"0","decile":"2","lat":40.265021547291,"lng":-111.682729218509},{"id":"128372","name":"Dr. Landon Ortiz","party":"Rep","address":"1978 S Columbia Ln, Orem, UT 84097","precinct":"25OR44","hd":"61","v_score":"0","decile":"2","lat":40.261518324294,"lng":-111.680719395637},{"id":"128942","name":"Fernand Ernser","party":"","address":"1851 S Columbia Ln, Apt 216, Orem, UT 84097","precinct":"25OR44","hd":"61","v_score":"0","decile":"2","lat":40.263137091516,"lng":-111.680521941492},{"id":"129088","name":"Tobias Johnston","party":"","address":"1947 S Columbia Ln, Apt 20, Orem, UT 84097","precinct":"25OR44","hd":"61","v_score":"0","decile":"2","lat":40.261381505828,"lng":-111.680572898783},{"id":"129093","name":"Rob Moore","party":"Rep","address":"1977 S 520 E, Orem, UT 84058","precinct":"25OR44","hd":"61","v_score":"0","decile":"2","lat":40.261000086233,"lng":-111.682356692323},{"id":"129408","name":"Geovanni Veum","party":"","address":"1949 S 520 E, Orem, UT 84058","precinct":"25OR44","hd":"61","v_score":"0","decile":"2","lat":40.261128040092,"lng":-111.682212442624},{"id":"130176","name":"Mr. Gustave Mohr","party":"Dem","address":"1710 Village Ln, Orem, UT 84058","precinct":"25OR44","hd":"61","v_score":"0","decile":"2","lat":40.267497188045,"lng":-111.683450143172},{"id":"130769","name":"Russel Kassulke","party":"","address":"1807 S 543 E, Orem, UT 84058","precinct":"25OR44","hd":"61","v_score":"0","decile":"2","lat":40.264055539726,"lng":-111.681942711661},{"id":"132082","name":"Mona Bradtke","party":"","address":"310 E 1730 S, Orem, UT 84058","precinct":"25OR44","hd":"61","v_score":"0","decile":"2","lat":40.265481754101,"lng":-111.687506619036},{"id":"132312","name":"Epifanio Kris","party":"","address":"1932 S Columbia Ln, Orem, UT 84097","precinct":"25OR44","hd":"61","v_score":"2.876042565","decile":"6","lat":40.261975526781,"lng":-111.680707272785},{"id":"132919","name":"Cris Farrell Sr.","party":"","address":"1760 S Village Ln, Unit 303, Orem, UT 84058","precinct":"25OR44","hd":"61","v_score":"0","decile":"2","lat":40.267351645626,"lng":-111.683449057054},{"id":"136015","name":"Latrice Hayes","party":"","address":"457 E 2000 S, Orem, UT 84058","precinct":"25OR44","hd":"61","v_score":"2.315214949","decile":"5","lat":40.260674010477,"lng":-111.683703811634},{"id":"136329","name":"Kent Bergstrom","party":"","address":"310 E 1730 S, Orem, UT 84058","precinct":"25OR44","hd":"61","v_score":"8.280646305","decile":"8","lat":40.265481754101,"lng":-111.687506619036},{"id":"138341","name":"Trevor Ritchie","party":"Dem","address":"1859 S Columbia Ln, Apt 228, Orem, UT 84097","precinct":"25OR44","hd":"61","v_score":"29.71097489","decile":"10","lat":40.262973035138,"lng":-111.680526735368},{"id":"138395","name":"Jensen Tremblay","party":"Rep","address":"337 E 1730 S, Orem, UT 84058","precinct":"25OR44","hd":"61","v_score":"45.76919357","decile":"10","lat":40.265595149402,"lng":-111.687356323797},{"id":"138396","name":"Miss Sherita Ledner DVM","party":"Dem","address":"337 E 1730 S, Orem, UT 84058","precinct":"25OR44","hd":"61","v_score":"37.84600495","decile":"10","lat":40.265595149402,"lng":-111.687356323797},{"id":"139159","name":"Paula Streich DDS","party":"","address":"1732 S Village Ln, Orem, UT 84058","precinct":"25OR44","hd":"61","v_score":"4.064235245","decile":"6","lat":40.26743314938,"lng":-111.68344966528},{"id":"139203","name":"Emile Turcotte","party":"","address":"1851 S Columbia Ln, Apt 111, Orem, UT 84097","precinct":"25OR44","hd":"61","v_score":"7.209387876","decile":"8","lat":40.263137091516,"lng":-111.680521941492},{"id":"141624","name":"Farah Mills","party":"","address":"248 E 1600 S, Orem, UT 84058","precinct":"25OR44","hd":"61","v_score":"12.07513611","decile":"9","lat":40.267844707113,"lng":-111.689054620653},{"id":"142185","name":"Kenney Veum","party":"Rep","address":"1851 S Columbia Ln, Apt 211, Orem, UT 84097","precinct":"25OR44","hd":"61","v_score":"0","decile":"2","lat":40.263137091516,"lng":-111.680521941492},{"id":"142730","name":"Sarah Hettinger","party":"Dem","address":"1745 S Village Ln, Orem, UT 84058","precinct":"25OR44","hd":"61","v_score":"10.67330764","decile":"9","lat":40.267310847636,"lng":-111.683298570935},{"id":"143144","name":"Vada Brown","party":"","address":"1935 S Columbia Ln, Orem, UT 84097","precinct":"25OR44","hd":"61","v_score":"13.58006971","decile":"9","lat":40.261669261991,"lng":-111.680565195168},{"id":"144307","name":"Darvin Roberts","party":"Dem","address":"1760 Village Ln, Unit 104, Orem, UT 84058","precinct":"25OR44","hd":"61","v_score":"2.315214949","decile":"5","lat":40.267351645626,"lng":-111.683449057054},{"id":"144452","name":"Mrs. Anais Rowe DDS","party":"Rep","address":"493 E 2000 S, Orem, UT 84058","precinct":"25OR44","hd":"61","v_score":"3.781490609","decile":"6","lat":40.260671460865,"lng":-111.683108487925},{"id":"144796","name":"Janelle O'Connell MD","party":"Dem","address":"1633 S 400 E, Orem, UT 84058","precinct":"25OR44","hd":"61","v_score":"1.193887297","decile":"4","lat":40.26753556813,"lng":-111.685377111348},{"id":"146048","name":"Dr. Trina O'Kon DDS","party":"Dem","address":"1926 S 520 E, Orem, UT 84058","precinct":"25OR44","hd":"61","v_score":"22.72136579","decile":"10","lat":40.261275261895,"lng":-111.682308708549},{"id":"147356","name":"Olive Kuvalis","party":"Rep","address":"329 E 1730 S, Orem, UT 84058","precinct":"25OR44","hd":"61","v_score":"1.193887297","decile":"4","lat":40.265595515487,"lng":-111.687402084063},{"id":"148361","name":"Jalynn Grady","party":"Rep","address":"434 E 1600 S, Orem, UT 84058","precinct":"25OR44","hd":"61","v_score":"0","decile":"3","lat":40.267820792806,"lng":-111.684670682389},{"id":"149367","name":"Dr. Amin Hickle","party":"Rep","address":"444 E 1800 S, Orem, UT 84058","precinct":"25OR44","hd":"61","v_score":"8.709634245","decile":"8","lat":40.264173916501,"lng":-111.684353908755},{"id":"149426","name":"Lona Spinka DDS","party":"Rep","address":"475 E 1864 S, Orem, UT 84058","precinct":"25OR44","hd":"61","v_score":"36.61576923","decile":"10","lat":40.262922639306,"lng":-111.683958224867},{"id":"149911","name":"Chauncey Bartell","party":"Dem","address":"365 E 1655 S, Orem, UT 84058","precinct":"25OR44","hd":"61","v_score":"20.24392023","decile":"10","lat":40.266917489551,"lng":-111.686333494555},{"id":"150348","name":"Newman Braun","party":"Rep","address":"444 E 1834 S, Orem, UT 84058","precinct":"25OR44","hd":"61","v_score":"45.76919357","decile":"10","lat":40.263505163499,"lng":-111.684616467685},{"id":"150395","name":"Dr. Cash Stiedemann III","party":"","address":"1660 S 350 E, Orem, UT 84058","precinct":"25OR44","hd":"61","v_score":"31.95337114","decile":"10","lat":40.266637082847,"lng":-111.687510771308},{"id":"150715","name":"Jonnie Prohaska Sr.","party":"","address":"1925 S Terrace Dr, Orem, UT 84097","precinct":"25OR44","hd":"61","v_score":"37.77232129","decile":"10","lat":40.261786815377,"lng":-111.678255417459},{"id":"150991","name":"Brennen Frami DDS","party":"","address":"1826 S 543 E, Orem, UT 84058","precinct":"25OR44","hd":"61","v_score":"9.640097175","decile":"8","lat":40.263693465727,"lng":-111.682090533536},{"id":"151391","name":"Dot Hintz-Nitzsche","party":"","address":"438 E 1910 S, Orem, UT 84058","precinct":"25OR44","hd":"61","v_score":"31.33526927","decile":"10","lat":40.262147707396,"lng":-111.684250836174},{"id":"151751","name":"Mattie Greenholt-Daugherty","party":"","address":"535 E 1910 S, Orem, UT 84058","precinct":"25OR44","hd":"61","v_score":"28.96057337","decile":"10","lat":40.262262298637,"lng":-111.682390140999},{"id":"152124","name":"Dr. Elizabet Beahan DVM","party":"Rep","address":"525 E 1834 S, Orem, UT 84058","precinct":"25OR44","hd":"61","v_score":"39.67753688","decile":"10","lat":40.263602359187,"lng":-111.683301799983},{"id":"152259","name":"Jovani Schamberger","party":"","address":"1700 S Village Ln, Bldg D, Orem, UT 84058","precinct":"25OR44","hd":"61","v_score":"2.315214949","decile":"5","lat":40.267526296528,"lng":-111.683450360396},{"id":"152677","name":"Lemuel Gibson I","party":"Dem","address":"479 E 1910 S, Orem, UT 84058","precinct":"25OR44","hd":"61","v_score":"31.78923004","decile":"10","lat":40.262262298713,"lng":-111.683373337145},{"id":"152764","name":"Taliyah Abshire MD","party":"Dem","address":"1806 S 543 E, Orem, UT 84058","precinct":"25OR44","hd":"61","v_score":"3.93832808","decile":"6","lat":40.264054971942,"lng":-111.682092880932},{"id":"153067","name":"Reatha Jacobson-Ebert","party":"Rep","address":"1862 S 543 E, Orem, UT 84058","precinct":"25OR44","hd":"61","v_score":"22.13946734","decile":"10","lat":40.263008609327,"lng":-111.682082536141},{"id":"153769","name":"Tennessee Parker","party":"Dem","address":"234 E 1600 S, Orem, UT 84058","precinct":"25OR44","hd":"61","v_score":"2.817000428","decile":"6","lat":40.267846524044,"lng":-111.68946152182},{"id":"154566","name":"Hope Stark","party":"Dem","address":"1751 Village Ln, Orem, UT 84058","precinct":"25OR44","hd":"61","v_score":"18.14283101","decile":"10","lat":40.267227372791,"lng":-111.683311483845},{"id":"154567","name":"Dr. Nancie Hammes PhD","party":"","address":"1751 S Village Ln, Orem, UT 84058","precinct":"25OR44","hd":"61","v_score":"8.347511332","decile":"8","lat":40.267227372791,"lng":-111.683311483845},{"id":"154761","name":"Johan Windler","party":"","address":"1632 S 350 E, Orem, UT 84058","precinct":"25OR44","hd":"61","v_score":"0","decile":"3","lat":40.266741847796,"lng":-111.687583300864},{"id":"155687","name":"Aric Robel","party":"Rep","address":"482 E 1834 S, Orem, UT 84058","precinct":"25OR44","hd":"61","v_score":"12.79826788","decile":"9","lat":40.263496908759,"lng":-111.683993238457},{"id":"155711","name":"Odette Bergnaum-Mohr","party":"","address":"434 E 1600 S, Orem, UT 84058","precinct":"25OR44","hd":"61","v_score":"0","decile":"3","lat":40.267820792806,"lng":-111.684670682389},{"id":"156039","name":"Anthony McClure DVM","party":"","address":"537 E 1800 S, Orem, UT 84058","precinct":"25OR44","hd":"61","v_score":"40.28305098","decile":"10","lat":40.264283774823,"lng":-111.682533131506},{"id":"158400","name":"Calla Kihn","party":"Dem","address":"365 E 1780 S, Orem, UT 84058","precinct":"25OR44","hd":"61","v_score":"37.84600495","decile":"10","lat":40.264980298643,"lng":-111.686517612261},{"id":"159327","name":"Brittanie Botsford DVM","party":"","address":"324 E 1655 S, Orem, UT 84058","precinct":"25OR44","hd":"61","v_score":"40.78891255","decile":"10","lat":40.266338400928,"lng":-111.687458164198},{"id":"159640","name":"Nasir Russel V","party":"","address":"1854 S 543 E, Orem, UT 84058","precinct":"25OR44","hd":"61","v_score":"42.75260232","decile":"10","lat":40.263140471555,"lng":-111.682084294287},{"id":"159801","name":"Donnell Cruickshank","party":"Rep","address":"421 E 1834 S, Orem, UT 84058","precinct":"25OR44","hd":"61","v_score":"37.84600495","decile":"10","lat":40.263624951107,"lng":-111.685007479976},{"id":"159943","name":"Adelbert Kautzer","party":"Rep","address":"1760 Village Ln, Unit 118, Orem, UT 84058","precinct":"25OR44","hd":"61","v_score":"1.121327652","decile":"3","lat":40.267351645626,"lng":-111.683449057054},{"id":"161380","name":"Debroah Pfeffer-Predovic","party":"Rep","address":"1760 S 340 E, Orem, UT 84058","precinct":"25OR44","hd":"61","v_score":"20.41790993","decile":"10","lat":40.265070376858,"lng":-111.686989958355},{"id":"162170","name":"Alexandra Kling","party":"Dem","address":"315 E 1730 S, Orem, UT 84058","precinct":"25OR44","hd":"61","v_score":"6.299555799","decile":"7","lat":40.265596156137,"lng":-111.687482164528},{"id":"163825","name":"Erland Heaney","party":"Rep","address":"1826 S 543 E, Orem, UT 84058","precinct":"25OR44","hd":"61","v_score":"26.8582098","decile":"10","lat":40.263693465727,"lng":-111.682090533536},{"id":"163887","name":"Lavon Huel","party":"Dem","address":"1728 S 290 E, Orem, UT 84058","precinct":"25OR44","hd":"61","v_score":"11.99259879","decile":"9","lat":40.265094958496,"lng":-111.688221309244},{"id":"163888","name":"Dr. Octavio Torp IV","party":"","address":"1728 S 290 E, Orem, UT 84058","precinct":"25OR44","hd":"61","v_score":"10.7987115","decile":"9","lat":40.265094958496,"lng":-111.688221309244},{"id":"164250","name":"Lorelei Purdy","party":"","address":"453 E 2000 S, Orem, UT 84058","precinct":"25OR44","hd":"61","v_score":"45.76919357","decile":"10","lat":40.260674293767,"lng":-111.683769958713},{"id":"165315","name":"Rustin West","party":"","address":"1863 S 543 E, Orem, UT 84058","precinct":"25OR44","hd":"61","v_score":"5.40460374","decile":"7","lat":40.262910878482,"lng":-111.681931055727},{"id":"167425","name":"Dr. Math Swaniawski PhD","party":"Rep","address":"1760 S 340 E, Orem, UT 84058","precinct":"25OR44","hd":"61","v_score":"28.22984883","decile":"10","lat":40.265070376858,"lng":-111.686989958355},{"id":"167825","name":"Erie Prosacco","party":"Rep","address":"458 E 1600 S, Orem, UT 84058","precinct":"25OR44","hd":"61","v_score":"0","decile":"3","lat":40.267817706736,"lng":-111.684089327157},{"id":"169030","name":"Alcee Brown","party":"","address":"1737 Village Ln, Orem, UT 84058","precinct":"25OR44","hd":"61","v_score":"0","decile":"3","lat":40.267403063313,"lng":-111.6832992591},{"id":"169888","name":"Littie Lueilwitz-Grant","party":"","address":"1786 S 340 E, Orem, UT 84058","precinct":"25OR44","hd":"61","v_score":"25.9990224","decile":"10","lat":40.264606885232,"lng":-111.686989957846},{"id":"170910","name":"Magen Shields-Bernier","party":"","address":"447 E 1910 S, Orem, UT 84058","precinct":"25OR44","hd":"61","v_score":"0","decile":"3","lat":40.262262298755,"lng":-111.683935163514},{"id":"171273","name":"Tanisha Cremin","party":"Dem","address":"443 E 1864 S, Orem, UT 84058","precinct":"25OR44","hd":"61","v_score":"1.121327652","decile":"3","lat":40.262925695626,"lng":-111.68441743153},{"id":"172372","name":"Roberto Thiel III","party":"Dem","address":"472 E 1864 S, Orem, UT 84058","precinct":"25OR44","hd":"61","v_score":"5.40460374","decile":"7","lat":40.262806294265,"lng":-111.683695393463},{"id":"172804","name":"Ismael Erdman-Purdy","party":"Rep","address":"444 E 1834 S, Orem, UT 84058","precinct":"25OR44","hd":"61","v_score":"0","decile":"3","lat":40.263505163499,"lng":-111.684616467685},{"id":"173236","name":"Kareem Gislason-Hansen","party":"","address":"365 E 1655 S, Orem, UT 84058","precinct":"25OR44","hd":"61","v_score":"3.93832808","decile":"6","lat":40.266917489551,"lng":-111.686333494555},{"id":"173711","name":"Clifford Abbott","party":"","address":"527 E 1750 S, Orem, UT 84058","precinct":"25OR44","hd":"61","v_score":"0","decile":"3","lat":40.265136516035,"lng":-111.682716146441},{"id":"173835","name":"Damarcus Daugherty V","party":"Rep","address":"1698 S State St, Orem, UT 84097","precinct":"25OR44","hd":"61","v_score":"28.28011715","decile":"10","lat":40.266305529103,"lng":-111.681470600176},{"id":"174287","name":"Justen Bode","party":"Rep","address":"495 E 1960 S, Orem, UT 84058","precinct":"25OR44","hd":"61","v_score":"14.95117867","decile":"9","lat":40.261524298787,"lng":-111.683250570883},{"id":"174572","name":"Coletta Strosin","party":"","address":"415 E 1864 S, Orem, UT 84058","precinct":"25OR44","hd":"61","v_score":"14.76227427","decile":"9","lat":40.262931308831,"lng":-111.685008302293},{"id":"174713","name":"Elma Hermiston","party":"Dem","address":"415 E 1864 S, Orem, UT 84058","precinct":"25OR44","hd":"61","v_score":"15.95616156","decile":"9","lat":40.262931308831,"lng":-111.685008302293},{"id":"174932","name":"Dotty Schimmel MD","party":"","address":"333 E 1730 S, Orem, UT 84058","precinct":"25OR44","hd":"61","v_score":"2.587603312","decile":"5","lat":40.265595332444,"lng":-111.68737920393},{"id":"175587","name":"Messiah Bruen","party":"Dem","address":"1904 S Columbia Ln, Orem, UT 84097","precinct":"25OR44","hd":"61","v_score":"37.84600495","decile":"10","lat":40.262253823948,"lng":-111.680699893658},{"id":"176441","name":"Eliezer Hoeger","party":"","address":"1909 S Terrace Dr, Orem, UT 84097","precinct":"25OR44","hd":"61","v_score":"6.954919332","decile":"8","lat":40.261939367316,"lng":-111.678389919056},{"id":"176724","name":"Vance Tremblay","party":"Rep","address":"443 E 2000 S, Orem, UT 84058","precinct":"25OR44","hd":"61","v_score":"1.193887297","decile":"4","lat":40.260675001993,"lng":-111.68393532641},{"id":"176980","name":"Marguerite Trantow","party":"Rep","address":"1957 Terrace Dr, Orem, UT 84097","precinct":"25OR44","hd":"61","v_score":"3.781490609","decile":"6","lat":40.261485680967,"lng":-111.678537462355},{"id":"177197","name":"Dr. Otelia VonRueden DDS","party":"","address":"336 E 1730 S, Orem, UT 84058","precinct":"25OR44","hd":"61","v_score":"4.210716443","decile":"7","lat":40.265480564323,"lng":-111.687357898171},{"id":"177872","name":"Hobson Gleason-Gerlach","party":"","address":"514 E 1750 S, Orem, UT 84058","precinct":"25OR44","hd":"61","v_score":"15.59959602","decile":"9","lat":40.265021329369,"lng":-111.682738153348},{"id":"178150","name":"Millie VonRueden","party":"Dem","address":"515 E 1834 S, Orem, UT 84058","precinct":"25OR44","hd":"61","v_score":"10.20788914","decile":"9","lat":40.263604531487,"lng":-111.683465807675},{"id":"178348","name":"Arsenio Jast IV","party":"Rep","address":"447 E 1910 S, Orem, UT 84058","precinct":"25OR44","hd":"61","v_score":"3.93832808","decile":"6","lat":40.262262298755,"lng":-111.683935163514},{"id":"180076","name":"Sing Reichert","party":"Rep","address":"375 E 1780 S, Orem, UT 84058","precinct":"25OR44","hd":"61","v_score":"0","decile":"3","lat":40.264980298639,"lng":-111.686467272751},{"id":"181299","name":"Pinkey Ferry","party":"","address":"1768 S 400 E, Orem, UT 84058","precinct":"25OR44","hd":"61","v_score":"2.744440783","decile":"6","lat":40.264809154985,"lng":-111.685500258221}]