[{"vid":"24ae90d87b5a566aaa2a5ff7419c9244e1090b49684035f5ca468374011a50f1","name":"Ora Dicki-Keebler","party":"","address":"1024 E 400 N, Orem, UT 84097","precinct":"25OR27","hd":"58","v_score":"16.72520646","decile":"9","lat":40.304273108555776,"lng":-111.67096596919107},{"vid":"1230615","name":"Mattie Jacobi","party":"Rep","address":"330 N 900 E, Orem, UT 84097","precinct":"25OR27","hd":"58","v_score":"14.64610688","decile":"9","lat":40.30311396649068,"lng":-111.67365113418663},{"vid":"1242500","name":"Chace Hoeger-Quigley","party":"Dem","address":"372 N 1100 E, Orem, UT 84097","precinct":"25OR27","hd":"58","v_score":"24.04198082","decile":"10","lat":40.30408292223951,"lng":-111.66899472658326},{"vid":"1254574","name":"Ples Schiller PhD","party":"Rep","address":"349 N Palisades Dr, Orem, UT 84097","precinct":"25OR27","hd":"58","v_score":"5.530510904","decile":"7","lat":40.303646083988454,"lng":-111.6664415474335},{"vid":"1273979","name":"Sedrick Koepp","party":"","address":"1146 E 400 N, Orem, UT 84097","precinct":"25OR27","hd":"58","v_score":"39.82830143","decile":"10","lat":40.304306355861925,"lng":-111.66841441760465},{"vid":"1281631","name":"Delphia Miller DVM","party":"Dem","address":"947 E 80 N, Orem, UT 84097","precinct":"25OR27","hd":"58","v_score":"2.315214949","decile":"5","lat":40.29864326109422,"lng":-111.67289622916475},{"vid":"1289531","name":"Khalilah Tillman","party":"Dem","address":"258 N Palisades Dr, Orem, UT 84097","precinct":"25OR27","hd":"58","v_score":"14.32268247","decile":"9","lat":40.301962233564986,"lng":-111.66650536431592},{"vid":"1294356","name":"Ms. Brandee Murphy DVM","party":"","address":"1155 E 140 N, Orem, UT 84097","precinct":"25OR27","hd":"58","v_score":"10.52632313","decile":"9","lat":40.299701215500825,"lng":-111.66810116768725},{"vid":"1299803","name":"Franco Jenkins-Upton","party":"","address":"172 N 1080 E, Orem, UT 84097","precinct":"25OR27","hd":"58","v_score":"11.02844566","decile":"9","lat":40.300149575275874,"lng":-111.66959329323713},{"vid":"1319302","name":"Shirlene Nienow-Yost","party":"","address":"142 N 1200 E, Orem, UT 84097","precinct":"25OR27","hd":"58","v_score":"2.315214949","decile":"5","lat":40.29993499391436,"lng":-111.66673228743184},{"vid":"6bf76f99dbfc3858690f888632acab1dc48383fdb71b188ead2d1a45e9868866","name":"Fayette Bergnaum","party":"","address":"893 E 40 N, Orem, UT 84097","precinct":"25OR27","hd":"58","v_score":"2.744440783","decile":"5","lat":40.298121822019816,"lng":-111.67437563603345},{"vid":"1326760","name":"Mr. Marion Turner","party":"Dem","address":"1100 E 40 N, Orem, UT 84097","precinct":"25OR27","hd":"58","v_score":"2.315214949","decile":"5","lat":40.29762793617036,"lng":-111.66946517197414},{"vid":"1345047","name":"Merlyn Johnson","party":"","address":"132 N 1200 E, Orem, UT 84097","precinct":"25OR27","hd":"58","v_score":"26.9144526","decile":"10","lat":40.299624168422454,"lng":-111.66670097371599},{"vid":"1346516","name":"Dr. Greg Hamill","party":"Dem","address":"1092 E 200 N, Orem, UT 84097","precinct":"25OR27","hd":"58","v_score":"36.78705203","decile":"10","lat":40.30062450903018,"lng":-111.66964800693954},{"vid":"1374766","name":"Merlin Littel I","party":"Rep","address":"168 N 1200 E, Orem, UT 84097","precinct":"25OR27","hd":"58","v_score":"1.121327652","decile":"3","lat":40.30025026757608,"lng":-111.66696299678415},{"vid":"1377452","name":"Martez Larkin","party":"Dem","address":"160 N 1080 E, Orem, UT 84097","precinct":"25OR27","hd":"58","v_score":"9.757278238","decile":"8","lat":40.299999200978775,"lng":-111.6696494821919},{"vid":"70e16ccb57e36d067113151bee2e51c100c67e6127ccbc4b6debd5995e4df815","name":"Charlene Terry","party":"","address":"1118 E 150 N, Orem, UT 84097","precinct":"25OR27","hd":"58","v_score":"3.781490609","decile":"6","lat":40.29983110418788,"lng":-111.66898938483008},{"vid":"1408648","name":"Dr. Doll Adams MD","party":"Dem","address":"333 N 1000 E, Orem, UT 84097","precinct":"25OR27","hd":"58","v_score":"2.315214949","decile":"5","lat":40.30319873585334,"lng":-111.67226006636905},{"vid":"1414882","name":"Deryl Schroeder","party":"Rep","address":"285 N 1000 E, Orem, UT 84097","precinct":"25OR27","hd":"58","v_score":"1.121327652","decile":"3","lat":40.302244522262754,"lng":-111.67224449464396},{"vid":"11ac59b9e25bf99d671c51f9ffb76c8407ef5f4ae5aeb9876f7282fbe2606c9f","name":"Madelene Cronin","party":"Dem","address":"224 N 850 E, Orem, UT 84097","precinct":"25OR27","hd":"58","v_score":"35.30276996","decile":"10","lat":40.30127908299505,"lng":-111.67522900866378},{"vid":"1465827","name":"Enrique Terry","party":"Dem","address":"281 N 1200 E, Orem, UT 84097","precinct":"25OR27","hd":"58","v_score":"29.09687134","decile":"10","lat":40.30264069334363,"lng":-111.66727113529676},{"vid":"9eda409db65af95c27493bd2245a5411e7a023a17ac501da72609467f4cde156","name":"Christoper Waelchi-Rau","party":"","address":"349 N Palisades Dr, Orem, UT 84097","precinct":"25OR27","hd":"58","v_score":"1.46627566","decile":"4","lat":40.303646083988454,"lng":-111.6664415474335},{"vid":"e377060c40d3948d07604d519764de3774ca3dd2eaa159cb489a2d9526e1d846","name":"Ronin Orn","party":"Rep","address":"1161 E 350 N, Orem, UT 84097","precinct":"25OR27","hd":"58","v_score":"13.62784865","decile":"9","lat":40.30376815111444,"lng":-111.66796548845183},{"vid":"1499164","name":"Elmo Parker","party":"Rep","address":"349 N 900 E, Orem, UT 84097","precinct":"25OR27","hd":"58","v_score":"3.93832808","decile":"6","lat":40.30342720514125,"lng":-111.67434423428482},{"vid":"1567707","name":"Gray Schroeder","party":"","address":"270 N Palisades Dr, Orem, UT 84097","precinct":"25OR27","hd":"58","v_score":"2.315214949","decile":"5","lat":40.302216818382796,"lng":-111.66623311831074},{"vid":"1570837","name":"Elvia Grady","party":"Rep","address":"1147 E 100 N, Orem, UT 84097","precinct":"25OR27","hd":"58","v_score":"2.587603312","decile":"5","lat":40.298876097049025,"lng":-111.6682431582001},{"vid":"1572696","name":"Leslie Considine","party":"Rep","address":"302 N Palisades Dr, Orem, UT 84097","precinct":"25OR27","hd":"58","v_score":"19.31616834","decile":"10","lat":40.30285995367652,"lng":-111.6657665449105},{"vid":"1578703","name":"Neppie Christiansen DDS","party":"","address":"228 N 1000 E, Orem, UT 84097","precinct":"25OR27","hd":"58","v_score":"2.315214949","decile":"5","lat":40.30119481154013,"lng":-111.67119549223248},{"vid":"1599805","name":"Dr. Hugo Pfeffer","party":"","address":"32 N 960 E, Orem, UT 84097","precinct":"25OR27","hd":"58","v_score":"36.41864994","decile":"10","lat":40.297713002153365,"lng":-111.67239134237178},{"vid":"1599825","name":"Hildegarde Vandervort","party":"Rep","address":"32 N 960 E, Orem, UT 84097","precinct":"25OR27","hd":"58","v_score":"26.41733837","decile":"10","lat":40.297713002153365,"lng":-111.67239134237178},{"vid":"1608224","name":"Norman Ratke","party":"","address":"214 N 1000 E, Orem, UT 84097","precinct":"25OR27","hd":"58","v_score":"6.798081861","decile":"8","lat":40.30089394996907,"lng":-111.67157059406723},{"vid":"99efd9781bfe9263fbd163f09e44d554e966173b8507e0463f4df600fb6fb884","name":"Britney Kreiger-Osinski","party":"Dem","address":"160 N 1080 E, Orem, UT 84097","precinct":"25OR27","hd":"58","v_score":"22.84465937","decile":"10","lat":40.299999200978775,"lng":-111.6696494821919},{"vid":"4a28d4a4d1d827411883b533251750496e579b340dab7c9a3ea69d7ee426baf9","name":"Dr. Buster Metz IV","party":"Rep","address":"159 N 1080 E, Orem, UT 84097","precinct":"25OR27","hd":"58","v_score":"19.66811405","decile":"10","lat":40.299964705410815,"lng":-111.66988790895377},{"vid":"8561777b5bbc6cbd126bc1ee7b1958c9773a6cb08ca96c546d119fa4ecf9443c","name":"Lilah Stamm","party":"","address":"169 N 1200 E, Orem, UT 84097","precinct":"25OR27","hd":"58","v_score":"10.88124881","decile":"9","lat":40.300298825725704,"lng":-111.6674759860212},{"vid":"1648570","name":"Vonetta Raynor","party":"","address":"237 N 850 E, Orem, UT 84097","precinct":"25OR27","hd":"58","v_score":"5.40460374","decile":"7","lat":40.30154189966096,"lng":-111.67576887345211},{"vid":"1652541","name":"Sheryl Paucek","party":"Dem","address":"349 N Palisades Dr, Orem, UT 84097","precinct":"25OR27","hd":"58","v_score":"7.159318653","decile":"8","lat":40.303646083988454,"lng":-111.6664415474335},{"vid":"1663418","name":"Dr. Nicolas Hauck III","party":"Rep","address":"995 E 200 N, Orem, UT 84097","precinct":"25OR27","hd":"58","v_score":"1.193887297","decile":"3","lat":40.30089383222845,"lng":-111.67196986503188},{"vid":"1677979","name":"Augustina Bartoletti","party":"Dem","address":"1161 E 350 N, Orem, UT 84097","precinct":"25OR27","hd":"58","v_score":"3.781490609","decile":"6","lat":40.30376815111444,"lng":-111.66796548845183},{"vid":"1686808","name":"Diamond Cummings","party":"Dem","address":"1187 E 180 N, Orem, UT 84097","precinct":"25OR27","hd":"58","v_score":"2.817000428","decile":"6","lat":40.30059704541347,"lng":-111.66723113910028},{"vid":"d8719530019437908ae4c46fe126f8108d7d33e36cdf90d7df0c2419cc776e15","name":"Dr. Cristin Schmeler","party":"Dem","address":"127 N 1080 E, Orem, UT 84097","precinct":"25OR27","hd":"58","v_score":"9.55742766","decile":"8","lat":40.299431129826125,"lng":-111.6700364603953},{"vid":"1707594","name":"Jeramy Weber PhD","party":"","address":"315 N 1160 E, Orem, UT 84097","precinct":"25OR27","hd":"58","v_score":"11.29723756","decile":"9","lat":40.3029839402687,"lng":-111.66814947299757},{"vid":"1715474","name":"Mrs. Deneen Borer","party":"Rep","address":"258 N 800 E, Orem, UT 84097","precinct":"25OR27","hd":"58","v_score":"0","decile":"1","lat":40.30189323778938,"lng":-111.6762947359805},{"vid":"1717556","name":"Dr. Ethan Effertz","party":"Rep","address":"315 N 1160 E, Orem, UT 84097","precinct":"25OR27","hd":"58","v_score":"22.89645525","decile":"10","lat":40.3029839402687,"lng":-111.66814947299757},{"vid":"1722596","name":"Mr. Butch Bernier","party":"Rep","address":"61 N 1200 E, Orem, UT 84097","precinct":"25OR27","hd":"58","v_score":"5.40460374","decile":"7","lat":40.298235979375995,"lng":-111.66765097723382},{"vid":"bb01052370421455da3e79ecdc58295fc111dbdbfb656129fd33c441d3b56b6a","name":"Dr. Giselle Barton DDS","party":"","address":"169 N 1000 E, Orem, UT 84097","precinct":"25OR27","hd":"58","v_score":"8.280646305","decile":"8","lat":40.300080915613144,"lng":-111.67216621647675},{"vid":"6caac14598432753388fe794eef75d008d9d32990bfe2a2f802d84982d0ea3e3","name":"Ambrose Koch","party":"Dem","address":"1012 E 200 N, Orem, UT 84097","precinct":"25OR27","hd":"58","v_score":"43.21491934","decile":"10","lat":40.30055396481308,"lng":-111.6716246106634},{"vid":"1733998","name":"Miss Leanna Hermann","party":"Dem","address":"1095 E 275 N, Orem, UT 84097","precinct":"25OR27","hd":"58","v_score":"14.3387115","decile":"9","lat":40.30238686106832,"lng":-111.66965553215717},{"vid":"3d96b9a5417203ca98bd95f4e7a08ba98f9e8b26c706ba035e6cb05949583634","name":"Savanna Bruen-O'Keefe","party":"","address":"1012 E 200 N, Orem, UT 84097","precinct":"25OR27","hd":"58","v_score":"40.4977902","decile":"10","lat":40.30055396481308,"lng":-111.6716246106634},{"vid":"1761552","name":"Ean Williamson-Botsford","party":"","address":"347 N 875 E, Orem, UT 84097","precinct":"25OR27","hd":"58","v_score":"8.284004873","decile":"8","lat":40.30329444406768,"lng":-111.6750651972916},{"vid":"1764873","name":"Theadore Nienow PhD","party":"Dem","address":"990 E 200 N, Orem, UT 84097","precinct":"25OR27","hd":"58","v_score":"3.781490609","decile":"6","lat":40.30050247933887,"lng":-111.67203138995274},{"vid":"1769505","name":"Maeve Ledner","party":"","address":"839 E 300 N, Orem, UT 84097","precinct":"25OR27","hd":"58","v_score":"14.74039814","decile":"9","lat":40.302962028913576,"lng":-111.67583110514174},{"vid":"1794999","name":"Charla Pfannerstill","party":"Rep","address":"1153 E 250 N, Orem, UT 84097","precinct":"25OR27","hd":"58","v_score":"13.33063124","decile":"9","lat":40.30183361423771,"lng":-111.66782147065682},{"vid":"1795525","name":"Press Kuhlman","party":"Rep","address":"298 N 1000 E, Orem, UT 84097","precinct":"25OR27","hd":"58","v_score":"13.6254517","decile":"9","lat":40.302913415769005,"lng":-111.67114623202308},{"vid":"0e66159cd023589647b15fcd82aa091b1a48af5c7dfd4454d11f206d88a5653c","name":"Dimitrios Dickens","party":"","address":"316 N 1100 E, Orem, UT 84097","precinct":"25OR27","hd":"58","v_score":"2.315214949","decile":"5","lat":40.30298914616974,"lng":-111.6691414196591},{"vid":"1815369","name":"Landen Macejkovic II","party":"Dem","address":"870 E 375 N, Orem, UT 84097","precinct":"25OR27","hd":"58","v_score":"9.682978083","decile":"8","lat":40.30369677189896,"lng":-111.67503959462722},{"vid":"e2fd9c8e21d305656af636d6b42bdd19571e79b95dc7d7070bbd0c67d2390655","name":"Hadley Senger III","party":"","address":"159 N 1080 E, Orem, UT 84097","precinct":"25OR27","hd":"58","v_score":"19.66811405","decile":"10","lat":40.299964705410815,"lng":-111.66988790895377},{"vid":"1848189","name":"Peyton Mitchell MD","party":"Rep","address":"1125 E 300 N, Orem, UT 84097","precinct":"25OR27","hd":"58","v_score":"3.93832808","decile":"6","lat":40.303129643556204,"lng":-111.6688350498038},{"vid":"1862958","name":"Eugene Rohan III","party":"Dem","address":"178 N 1200 E, Orem, UT 84097","precinct":"25OR27","hd":"58","v_score":"2.744440783","decile":"5","lat":40.300478897616514,"lng":-111.66707602641529},{"vid":"52c561cb162d33cca7578b633a3f2f61df7444d88a1be5fddf750968b88f4b28","name":"Consuelo Lesch","party":"","address":"169 N 1000 E, Orem, UT 84097","precinct":"25OR27","hd":"58","v_score":"8.280646305","decile":"8","lat":40.300080915613144,"lng":-111.67216621647675},{"vid":"1864404","name":"Howard Waters","party":"Dem","address":"1024 E 120 N, Orem, UT 84097","precinct":"25OR27","hd":"58","v_score":"2.315214949","decile":"5","lat":40.29899553428882,"lng":-111.67111388649694},{"vid":"1878273","name":"Brandy Jakubowski","party":"","address":"1064 E 120 N, Orem, UT 84097","precinct":"25OR27","hd":"58","v_score":"2.315214949","decile":"5","lat":40.29903091653998,"lng":-111.66994276038443},{"vid":"1887359","name":"Toshio Brakus","party":"Dem","address":"319 N 1000 E, Orem, UT 84097","precinct":"25OR27","hd":"58","v_score":"35.30276996","decile":"10","lat":40.30282519627838,"lng":-111.67232796544248},{"vid":"1888370","name":"Hansel Beer-Kuhn","party":"Rep","address":"268 N 1120 E, Orem, UT 84097","precinct":"25OR27","hd":"58","v_score":"0","decile":"1","lat":40.30227997184779,"lng":-111.6686459530819},{"vid":"1894336","name":"Marcell Mohr","party":"Dem","address":"1010 E 275 N, Orem, UT 84097","precinct":"25OR27","hd":"58","v_score":"15.43762891","decile":"9","lat":40.301890559667406,"lng":-111.67152697711721},{"vid":"1894933","name":"Arlyn Kihn","party":"Rep","address":"375 N 1000 E, Orem, UT 84097","precinct":"25OR27","hd":"58","v_score":"1.46627566","decile":"4","lat":40.303888382110635,"lng":-111.67222621190031},{"vid":"1902280","name":"Claire Baumbach","party":"Rep","address":"354 N 800 E, Orem, UT 84097","precinct":"25OR27","hd":"58","v_score":"3.781490609","decile":"6","lat":40.303679302396,"lng":-111.67616903248701},{"vid":"1919522","name":"Vikki Mante-D'Amore","party":"Dem","address":"1172 E 300 N, Orem, UT 84097","precinct":"25OR27","hd":"58","v_score":"1.121327652","decile":"3","lat":40.30257717166232,"lng":-111.66766520541006},{"vid":"1924986","name":"Almeta Hahn","party":"Rep","address":"224 N 850 E, Orem, UT 84097","precinct":"25OR27","hd":"58","v_score":"35.30276996","decile":"10","lat":40.30127908299505,"lng":-111.67522900866378},{"vid":"1969656","name":"Cassidy O'Kon","party":"","address":"1112 E 40 N, Orem, UT 84097","precinct":"25OR27","hd":"58","v_score":"20.70633281","decile":"10","lat":40.297479214425586,"lng":-111.66914006829435},{"vid":"1969668","name":"Mr. Lawson Schulist","party":"Rep","address":"168 N 1200 E, Orem, UT 84097","precinct":"25OR27","hd":"58","v_score":"1.46627566","decile":"4","lat":40.30025026757608,"lng":-111.66696299678415},{"vid":"1972573","name":"Encarnacion Lueilwitz Sr.","party":"Dem","address":"315 N 1160 E, Orem, UT 84097","precinct":"25OR27","hd":"58","v_score":"5.40460374","decile":"7","lat":40.3029839402687,"lng":-111.66814947299757},{"vid":"1992747","name":"Lute Becker","party":"","address":"1036 E 275 N, Orem, UT 84097","precinct":"25OR27","hd":"58","v_score":"2.315214949","decile":"5","lat":40.30171771652326,"lng":-111.67107201733836},{"vid":"1994741","name":"Dr. Mathew Stehr II","party":"","address":"268 N 1120 E, Orem, UT 84097","precinct":"25OR27","hd":"58","v_score":"1.121327652","decile":"3","lat":40.30227997184779,"lng":-111.6686459530819},{"vid":"2004528","name":"Missouri Runolfsson","party":"","address":"25 N 1000 E, Orem, UT 84097","precinct":"25OR27","hd":"58","v_score":"5.258122542","decile":"7","lat":40.2976350223338,"lng":-111.67195761329472},{"vid":"2006545","name":"Dr. Tamara Harvey","party":"Rep","address":"375 N 1000 E, Orem, UT 84097","precinct":"25OR27","hd":"58","v_score":"5.40460374","decile":"7","lat":40.303888382110635,"lng":-111.67222621190031},{"vid":"4e9aad4fee2f1210e178d37b947f6ddd1edac1f5da55fc82840ef7a62b7c429b","name":"Dakotah Toy","party":"","address":"195 N 1040 E, Orem, UT 84097","precinct":"25OR27","hd":"58","v_score":"25.43711054","decile":"10","lat":40.30056305930073,"lng":-111.67094242437966},{"vid":"e3642759e402e39e27ce98940a8fe54d567f9fbecffb314f18a2110530cf6e6b","name":"Orin Kozey","party":"","address":"896 E 375 N, Orem, UT 84097","precinct":"25OR27","hd":"58","v_score":"3.711952487","decile":"6","lat":40.30368547754927,"lng":-111.67425910689451},{"vid":"2019896","name":"Merton Lowe Sr.","party":"Rep","address":"258 N 800 E, Orem, UT 84097","precinct":"25OR27","hd":"58","v_score":"9.119914795","decile":"8","lat":40.30189323778938,"lng":-111.6762947359805},{"vid":"a61def23446cd41c1c56d891c9c5814dfd58ff5a01818b01aed338dd1ac05870","name":"Alanzo Heidenreich","party":"","address":"174 N 1000 E, Orem, UT 84097","precinct":"25OR27","hd":"58","v_score":"19.17086762","decile":"10","lat":40.30015428558313,"lng":-111.67143653760901},{"vid":"2055962","name":"Marcelino Schulist","party":"Rep","address":"1079 E 275 N, Orem, UT 84097","precinct":"25OR27","hd":"58","v_score":"8.434505549","decile":"8","lat":40.30237397667115,"lng":-111.67001449193785},{"vid":"2059728","name":"Waino Prohaska PhD","party":"","address":"1106 E 200 N, Orem, UT 84097","precinct":"25OR27","hd":"58","v_score":"3.711952487","decile":"6","lat":40.30057743529354,"lng":-111.66918719171085},{"vid":"2070349","name":"Dr. Jalisa Stoltenberg DDS","party":"Rep","address":"138 N 1080 E, Orem, UT 84097","precinct":"25OR27","hd":"58","v_score":"0","decile":"1","lat":40.299585961570024,"lng":-111.66956306070469},{"vid":"6341096de23cb691c940f8039e1d25e841bf1ac6448d01c6011d12dbe4d54564","name":"Ardelia Johnson","party":"","address":"319 N 1000 E, Orem, UT 84097","precinct":"25OR27","hd":"58","v_score":"26.7250905","decile":"10","lat":40.30282519627838,"lng":-111.67232796544248},{"vid":"269ff38a2629c6606ec3c8732654acfb18d0eea200dd0a17d76bb76009558cfa","name":"Mrs. Sheri Murazik","party":"Dem","address":"1144 E 100 N, Orem, UT 84097","precinct":"25OR27","hd":"58","v_score":"6.657533174","decile":"7","lat":40.29858732868562,"lng":-111.66830311691028},{"vid":"2088627","name":"Grisel Abbott-Stark","party":"Dem","address":"379 N 900 E, Orem, UT 84097","precinct":"25OR27","hd":"58","v_score":"3.93832808","decile":"6","lat":40.303993739383245,"lng":-111.67440736308113},{"vid":"2106707","name":"Leslie Yost","party":"Rep","address":"388 N 1200 E, Orem, UT 84097","precinct":"25OR27","hd":"58","v_score":"1.193887297","decile":"3","lat":40.30408540604812,"lng":-111.66685596293726},{"vid":"cf143d5e89ef11be6e9e43382a13fa816daec3d52b2633012a25da7e6449cb1a","name":"Dr. Jarvis Borer V","party":"Rep","address":"33 N 960 E, Orem, UT 84097","precinct":"25OR27","hd":"58","v_score":"0","decile":"1","lat":40.297788388741736,"lng":-111.67283286132755},{"vid":"2123223","name":"Terence Hand","party":"Dem","address":"1187 E 300 N, Orem, UT 84097","precinct":"25OR27","hd":"58","v_score":"3.781490609","decile":"6","lat":40.303004634076686,"lng":-111.66727098665069},{"vid":"4a3c279a33d49ae51aa77ff1c9d35abcc8dcddc6d1a6768a6f06d5b29dae7fbf","name":"Griffin Brown","party":"Rep","address":"1060 E 275 N, Orem, UT 84097","precinct":"25OR27","hd":"58","v_score":"26.00199348","decile":"10","lat":40.301912814095125,"lng":-111.67049051297981},{"vid":"2138035","name":"Destiney Kub-Kuhn","party":"Rep","address":"1160 E 140 N, Orem, UT 84097","precinct":"25OR27","hd":"58","v_score":"15.24264201","decile":"9","lat":40.299353870856024,"lng":-111.66802901483746},{"vid":"2145393","name":"Julius Bechtelar","party":"","address":"1187 E 300 N, Orem, UT 84097","precinct":"25OR27","hd":"58","v_score":"8.601979876","decile":"8","lat":40.303004634076686,"lng":-111.66727098665069},{"vid":"2153024","name":"Brigitte Streich","party":"Dem","address":"245 N 1000 E, Orem, UT 84097","precinct":"25OR27","hd":"58","v_score":"1.46627566","decile":"4","lat":40.30146311944214,"lng":-111.67208802370082},{"vid":"2169214","name":"Jaylen Klein","party":"","address":"195 N 1040 E, Orem, UT 84097","precinct":"25OR27","hd":"58","v_score":"26.9033862","decile":"10","lat":40.30056305930073,"lng":-111.67094242437966},{"vid":"2172387","name":"Dr. Heber Pollich DVM","party":"Dem","address":"1010 E 275 N, Orem, UT 84097","precinct":"25OR27","hd":"58","v_score":"5.687348376","decile":"7","lat":40.301890559667406,"lng":-111.67152697711721},{"vid":"2175392","name":"Dr. Fronia Rodriguez DVM","party":"","address":"1040 E 400 N, Orem, UT 84097","precinct":"25OR27","hd":"58","v_score":"19.97817658","decile":"10","lat":40.30427437674059,"lng":-111.67068726103514},{"vid":"2188941","name":"Mr. Ferman Grady","party":"","address":"836 E 400 N, Orem, UT 84097","precinct":"25OR27","hd":"58","v_score":"1.121327652","decile":"3","lat":40.30434669388446,"lng":-111.67609077641833},{"vid":"4f3febe8869ded2a407587171f10fe3882e8b57b2fb70fadd59e7e617df35157","name":"Jamey Robel","party":"Dem","address":"178 N 1200 E, Orem, UT 84097","precinct":"25OR27","hd":"58","v_score":"3.93832808","decile":"6","lat":40.300478897616514,"lng":-111.66707602641529},{"vid":"2194948","name":"Gladis Ledner","party":"","address":"1084 E 275 N, Orem, UT 84097","precinct":"25OR27","hd":"58","v_score":"5.335402662","decile":"7","lat":40.30192937577028,"lng":-111.66991170831999},{"vid":"d04354d6126f8d0225d736e0f0c1ced8171ffab9b26450f2180ee7ce4567cf18","name":"Ms. Kalene Zboncak","party":"Rep","address":"910 E 40 N, Orem, UT 84097","precinct":"25OR27","hd":"58","v_score":"0","decile":"1","lat":40.29777047752092,"lng":-111.67374542979765},{"vid":"2208187","name":"Graydon Satterfield","party":"","address":"1106 E 200 N, Orem, UT 84097","precinct":"25OR27","hd":"58","v_score":"2.315214949","decile":"5","lat":40.30057743529354,"lng":-111.66918719171085},{"vid":"423df3b41368fa653f0149e2ee98d6b8f9f1fe39006c71f3323ef320470f3fa3","name":"Rollie Muller","party":"","address":"1096 E 275 N, Orem, UT 84097","precinct":"25OR27","hd":"58","v_score":"11.04986408","decile":"9","lat":40.30193842823107,"lng":-111.66960665051064},{"vid":"2217169","name":"Guy O'Keefe","party":"Dem","address":"1125 E 300 N, Orem, UT 84097","precinct":"25OR27","hd":"58","v_score":"1.121327652","decile":"3","lat":40.303129643556204,"lng":-111.6688350498038},{"vid":"2218747","name":"Kendal Stehr","party":"Dem","address":"324 N 1000 E, Orem, UT 84097","precinct":"25OR27","hd":"58","v_score":"0","decile":"1","lat":40.30305305002282,"lng":-111.67153811378843},{"vid":"2221248","name":"Patrica Mann","party":"Dem","address":"1106 E 200 N, Orem, UT 84097","precinct":"25OR27","hd":"58","v_score":"0","decile":"1","lat":40.30057743529354,"lng":-111.66918719171085},{"vid":"6079dc58c6677dbbda6f98eaf0176e2b340109073f6cb051d11874fa386e9580","name":"Laney Gulgowski MD","party":"","address":"859 E 200 N, Orem, UT 84097","precinct":"25OR27","hd":"58","v_score":"1.121327652","decile":"3","lat":40.300973448379324,"lng":-111.67526936758026},{"vid":"162ef264ce042c92de26e94b96423e6a20c21e5d204cc08ee9b249e0774a13b5","name":"Cortney Nolan","party":"","address":"1161 E 350 N, Orem, UT 84097","precinct":"25OR27","hd":"58","v_score":"8.401841561","decile":"8","lat":40.30376815111444,"lng":-111.66796548845183},{"vid":"bbf88d35a9c4c89d0c3b1b465b79c1cd80b3d079f624172548cc6a706b8fba7d","name":"Suzan Kessler-Krajcik","party":"Rep","address":"336 N 1200 E, Orem, UT 84097","precinct":"25OR27","hd":"58","v_score":"0","decile":"1","lat":40.30333759945718,"lng":-111.66683273477972},{"vid":"a257948409f1d4c5d44f11025e241f7475901d43562341af1a54e7ae6ffcf8e3","name":"Kailyn Walter","party":"Dem","address":"1072 E 275 N, Orem, UT 84097","precinct":"25OR27","hd":"58","v_score":"9.772950527","decile":"8","lat":40.301868343871874,"lng":-111.6701414350266},{"vid":"bd9767a1e1b3188ba916e65e7183108a2a2546a11075f6f2b37f0ded3f17fa15","name":"Math Daugherty-Rutherford","party":"","address":"365 N 1000 E, Orem, UT 84097","precinct":"25OR27","hd":"58","v_score":"25.44817694","decile":"10","lat":40.30369817673925,"lng":-111.67209052353257},{"vid":"8024affe94ffa1dd2b00eaacc431de70edfb680c723dd0403ac7b55d63c32735","name":"Demetri Lesch Jr.","party":"Dem","address":"1155 E 100 N, Orem, UT 84097","precinct":"25OR27","hd":"58","v_score":"2.315214949","decile":"5","lat":40.29888574939212,"lng":-111.66797398906158},{"vid":"f6a7dfac106b7b5be9318b8fe7c9d1c64b8371e33ac80e32e81e4115e6cf54f8","name":"Bill Connelly-Beahan","party":"Rep","address":"224 N 800 E, Orem, UT 84097","precinct":"25OR27","hd":"58","v_score":"0","decile":"1","lat":40.30130260004143,"lng":-111.67623875684475},{"vid":"2277171","name":"Miss Wendi Farrell DVM","party":"","address":"95 N 1000 E, Orem, UT 84097","precinct":"25OR27","hd":"58","v_score":"2.315214949","decile":"5","lat":40.29880469013268,"lng":-111.67214564379911},{"vid":"15c1f07d3eee330ecd32cad518823e3b2388efcd12e6273e271f932e205691c1","name":"Arletta McClure MD","party":"Rep","address":"1172 E 40 N, Orem, UT 84097","precinct":"25OR27","hd":"58","v_score":"1.121327652","decile":"3","lat":40.29755889894531,"lng":-111.66769070253231},{"vid":"2295726","name":"Yolanda Heaney","party":"Dem","address":"269 N 890 E, Orem, UT 84097","precinct":"25OR27","hd":"58","v_score":"2.315214949","decile":"5","lat":40.30188267355329,"lng":-111.67478688464283},{"vid":"95fb684145cd89a93c45acea6e0e9ac701683b0f4c96fa3ca0ddc280f946da47","name":"Omari Prosacco","party":"Dem","address":"896 E 375 N, Orem, UT 84097","precinct":"25OR27","hd":"58","v_score":"0","decile":"1","lat":40.30368547754927,"lng":-111.67425910689451},{"vid":"f906c99da65e9586866ffe2ba56d646557ed15b8ca0e61f3eb64c8501aa7557f","name":"Dr. Crockett Rolfson","party":"","address":"364 N 800 E, Orem, UT 84097","precinct":"25OR27","hd":"58","v_score":"5.40460374","decile":"7","lat":40.30389268562834,"lng":-111.6762466602226},{"vid":"2315720","name":"Harrold Rosenbaum","party":"","address":"319 N 1000 E, Orem, UT 84097","precinct":"25OR27","hd":"58","v_score":"18.35167816","decile":"10","lat":40.30282519627838,"lng":-111.67232796544248},{"vid":"2318906","name":"Tameka Keebler","party":"","address":"285 N 1000 E, Orem, UT 84097","precinct":"25OR27","hd":"58","v_score":"1.121327652","decile":"3","lat":40.302244522262754,"lng":-111.67224449464396},{"vid":"2324679","name":"Phyliss Prosacco","party":"Dem","address":"1024 E 120 N, Orem, UT 84097","precinct":"25OR27","hd":"58","v_score":"2.315214949","decile":"5","lat":40.29899553428882,"lng":-111.67111388649694},{"vid":"2331813","name":"Dr. Kalene Hamill DDS","party":"Dem","address":"1010 E 275 N, Orem, UT 84097","precinct":"25OR27","hd":"58","v_score":"1.193887297","decile":"3","lat":40.301890559667406,"lng":-111.67152697711721},{"vid":"2355726","name":"Arthur Littel","party":"Rep","address":"1144 E 100 N, Orem, UT 84097","precinct":"25OR27","hd":"58","v_score":"7.875041196","decile":"8","lat":40.29858732868562,"lng":-111.66830311691028},{"vid":"2357218","name":"Tabetha Ledner","party":"Dem","address":"315 N 1160 E, Orem, UT 84097","precinct":"25OR27","hd":"58","v_score":"1.193887297","decile":"3","lat":40.3029839402687,"lng":-111.66814947299757},{"vid":"2367807","name":"Reinhold Torphy","party":"Rep","address":"1088 E 120 N, Orem, UT 84097","precinct":"25OR27","hd":"58","v_score":"6.814370645","decile":"8","lat":40.299041815444944,"lng":-111.669581032288},{"vid":"2368506","name":"Chantelle Pagac DDS","party":"","address":"1010 E 275 N, Orem, UT 84097","precinct":"25OR27","hd":"58","v_score":"3.93832808","decile":"6","lat":40.301890559667406,"lng":-111.67152697711721},{"vid":"2369800","name":"Christen Kuphal DDS","party":"","address":"181 N 1080 E, Orem, UT 84097","precinct":"25OR27","hd":"58","v_score":"1.121327652","decile":"3","lat":40.300234437916245,"lng":-111.66997428172633},{"vid":"2388869","name":"Ms. Kasey O'Kon MD","party":"Dem","address":"1172 E 300 N, Orem, UT 84097","precinct":"25OR27","hd":"58","v_score":"6.550708384","decile":"7","lat":40.30257717166232,"lng":-111.66766520541006},{"vid":"2389563","name":"Shenna Osinski-Cassin","party":"Rep","address":"128 N 1000 E, Orem, UT 84097","precinct":"25OR27","hd":"58","v_score":"3.93832808","decile":"6","lat":40.2993230679207,"lng":-111.67153487564418},{"vid":"2393020","name":"Harlen Ziemann-Denesik","party":"Dem","address":"56 N 1000 E, Orem, UT 84097","precinct":"25OR27","hd":"58","v_score":"1.121327652","decile":"3","lat":40.29809726033575,"lng":-111.67145714927352},{"vid":"2393026","name":"Naomi White","party":"Dem","address":"56 N 1000 E, Orem, UT 84097","precinct":"25OR27","hd":"58","v_score":"2.744440783","decile":"5","lat":40.29809726033575,"lng":-111.67145714927352},{"vid":"2393296","name":"Mr. Lionel Ryan","party":"","address":"1125 E 300 N, Orem, UT 84097","precinct":"25OR27","hd":"58","v_score":"3.93832808","decile":"6","lat":40.303129643556204,"lng":-111.6688350498038},{"vid":"2396844","name":"Kristoffer Kohler","party":"","address":"1096 E 275 N, Orem, UT 84097","precinct":"25OR27","hd":"58","v_score":"8.173821515","decile":"8","lat":40.30193842823107,"lng":-111.66960665051064},{"vid":"2412369","name":"Dwaine Ruecker","party":"Rep","address":"1147 E 100 N, Orem, UT 84097","precinct":"25OR27","hd":"58","v_score":"1.121327652","decile":"3","lat":40.298876097049025,"lng":-111.6682431582001},{"vid":"2413733","name":"Simone Parker-Runolfsdottir","party":"Rep","address":"138 N 1080 E, Orem, UT 84097","precinct":"25OR27","hd":"58","v_score":"7.252084687","decile":"8","lat":40.299585961570024,"lng":-111.66956306070469},{"vid":"2414027","name":"Wash Schulist IV","party":"Dem","address":"213 N 850 E, Orem, UT 84097","precinct":"25OR27","hd":"58","v_score":"6.814370645","decile":"8","lat":40.30097392172189,"lng":-111.67558333404114},{"vid":"2415732","name":"Kacy Swift","party":"Rep","address":"1141 E 200 N, Orem, UT 84097","precinct":"25OR27","hd":"58","v_score":"5.926494964","decile":"7","lat":40.30104553847722,"lng":-111.6683605497693},{"vid":"2417783","name":"Vannie Kihn","party":"Rep","address":"871 E 375 N, Orem, UT 84097","precinct":"25OR27","hd":"58","v_score":"8.173821515","decile":"8","lat":40.30401218704313,"lng":-111.67510802396949},{"vid":"2418073","name":"Dr. Alisa Barrows","party":"Rep","address":"132 N 1200 E, Orem, UT 84097","precinct":"25OR27","hd":"58","v_score":"12.94371585","decile":"9","lat":40.299624168422454,"lng":-111.66670097371599},{"vid":"2428508","name":"Hill Wiegand","party":"","address":"1088 E 120 N, Orem, UT 84097","precinct":"25OR27","hd":"58","v_score":"6.814370645","decile":"8","lat":40.299041815444944,"lng":-111.669581032288},{"vid":"2440394","name":"Viola Watsica","party":"Dem","address":"263 N Palisades Dr, Orem, UT 84097","precinct":"25OR27","hd":"58","v_score":"13.64048892","decile":"9","lat":40.30195000998024,"lng":-111.66717676471333},{"vid":"2440730","name":"Colette Corkery PhD","party":"","address":"34 N 920 E, Orem, UT 84097","precinct":"25OR27","hd":"58","v_score":"10.52632313","decile":"9","lat":40.297759152104184,"lng":-111.6733799584186},{"vid":"2443506","name":"Adelia Von-Ryan","party":"Rep","address":"947 E 80 N, Orem, UT 84097","precinct":"25OR27","hd":"58","v_score":"2.315214949","decile":"5","lat":40.29864326109422,"lng":-111.67289622916475},{"vid":"2446075","name":"Jobe Beatty","party":"Rep","address":"228 N 1000 E, Orem, UT 84097","precinct":"25OR27","hd":"58","v_score":"2.315214949","decile":"5","lat":40.30119481154013,"lng":-111.67119549223248},{"vid":"2447465","name":"Mr. Kolton Kutch MD","party":"Rep","address":"20 N 960 E, Orem, UT 84097","precinct":"25OR27","hd":"58","v_score":"2.315214949","decile":"5","lat":40.297437047652984,"lng":-111.67239625130549},{"vid":"2454361","name":"Harley Lowe","party":"Rep","address":"250 N 1000 E, Orem, UT 84097","precinct":"25OR27","hd":"58","v_score":"19.47300581","decile":"10","lat":40.301618211508895,"lng":-111.67143411539168},{"vid":"2458341","name":"Alanna Schuppe-Lang","party":"Rep","address":"269 N 890 E, Orem, UT 84097","precinct":"25OR27","hd":"58","v_score":"3.93832808","decile":"6","lat":40.30188267355329,"lng":-111.67478688464283},{"vid":"2460220","name":"Dr. Desmond Carter DVM","party":"Dem","address":"225 N 1000 E, Orem, UT 84097","precinct":"25OR27","hd":"58","v_score":"1.193887297","decile":"3","lat":40.30113360222097,"lng":-111.67211160699232},{"vid":"2480534","name":"Peter Auer II","party":"Rep","address":"1187 E 180 N, Orem, UT 84097","precinct":"25OR27","hd":"58","v_score":"2.817000428","decile":"6","lat":40.30059704541347,"lng":-111.66723113910028},{"vid":"2488749","name":"Charlene Abernathy","party":"","address":"316 N 1100 E, Orem, UT 84097","precinct":"25OR27","hd":"58","v_score":"1.193887297","decile":"3","lat":40.30298914616974,"lng":-111.6691414196591},{"vid":"2497872","name":"Dr. Darrion Padberg DDS","party":"","address":"336 N 1000 E, Orem, UT 84097","precinct":"25OR27","hd":"58","v_score":"0","decile":"1","lat":40.30329306700717,"lng":-111.67148666297305},{"vid":"2525758","name":"Tyler Kessler-Corwin","party":"","address":"142 N 1080 E, Orem, UT 84097","precinct":"25OR27","hd":"58","v_score":"1.623113131","decile":"5","lat":40.29967163604502,"lng":-111.66953965577372},{"vid":"2527292","name":"Alyce Carter","party":"Rep","address":"1112 E 40 N, Orem, UT 84097","precinct":"25OR27","hd":"58","v_score":"5.693042993","decile":"7","lat":40.297479214425586,"lng":-111.66914006829435},{"vid":"2531572","name":"Mrs. Nayeli Christiansen","party":"Dem","address":"138 N 1080 E, Orem, UT 84097","precinct":"25OR27","hd":"58","v_score":"0","decile":"1","lat":40.299585961570024,"lng":-111.66956306070469},{"vid":"2557390","name":"Hermon O'Conner","party":"Dem","address":"347 N 875 E, Orem, UT 84097","precinct":"25OR27","hd":"58","v_score":"0","decile":"1","lat":40.30329444406768,"lng":-111.6750651972916},{"vid":"2557627","name":"Danyell Gaylord","party":"","address":"976 E 400 N, Orem, UT 84097","precinct":"25OR27","hd":"58","v_score":"1.623113131","decile":"5","lat":40.304359925941775,"lng":-111.6724021050872},{"vid":"2560029","name":"Akeem Satterfield IV","party":"","address":"319 N 1000 E, Orem, UT 84097","precinct":"25OR27","hd":"58","v_score":"8.284004873","decile":"8","lat":40.30282519627838,"lng":-111.67232796544248},{"vid":"2592164","name":"Ms. Sherrie Greenfelder MD","party":"Dem","address":"1119 E 350 N, Orem, UT 84097","precinct":"25OR27","hd":"58","v_score":"0","decile":"1","lat":40.30374628960601,"lng":-111.66914547161208},{"vid":"2604565","name":"Tatum Hane","party":"Rep","address":"331 N 1100 E, Orem, UT 84097","precinct":"25OR27","hd":"58","v_score":"7.031075439","decile":"8","lat":40.30319085676065,"lng":-111.66957798850385},{"vid":"2604569","name":"Danica Lindgren","party":"Rep","address":"331 N 1100 E, Orem, UT 84097","precinct":"25OR27","hd":"58","v_score":"7.031075439","decile":"8","lat":40.30319085676065,"lng":-111.66957798850385},{"vid":"2606999","name":"Roxie Herman","party":"Rep","address":"250 N 1000 E, Orem, UT 84097","precinct":"25OR27","hd":"58","v_score":"4.069929862","decile":"6","lat":40.301618211508895,"lng":-111.67143411539168},{"vid":"2609581","name":"Dr. Jude Schmeler V","party":"Dem","address":"1184 E 40 N, Orem, UT 84097","precinct":"25OR27","hd":"58","v_score":"14.13760315","decile":"9","lat":40.29767821115422,"lng":-111.66737548536258},{"vid":"2612858","name":"Lesly Harvey","party":"","address":"161 N 1040 E, Orem, UT 84097","precinct":"25OR27","hd":"58","v_score":"5.407962308","decile":"7","lat":40.299962626015336,"lng":-111.67078637262827},{"vid":"2636130","name":"Jeremey Wolf","party":"Rep","address":"38 N 960 E, Orem, UT 84097","precinct":"25OR27","hd":"58","v_score":"5.693042993","decile":"7","lat":40.29794535067967,"lng":-111.6724502579415},{"vid":"2638932","name":"Hazen Bogisich","party":"","address":"263 N Palisades Dr, Orem, UT 84097","precinct":"25OR27","hd":"58","v_score":"4.069929862","decile":"6","lat":40.30195000998024,"lng":-111.66717676471333},{"vid":"2640372","name":"Jordyn Leannon MD","party":"","address":"808 E 400 N, Orem, UT 84097","precinct":"25OR27","hd":"58","v_score":"1.623113131","decile":"5","lat":40.30434126931678,"lng":-111.6763625232511},{"vid":"2640759","name":"Danielle Abshire-Fadel","party":"Rep","address":"330 N 900 E, Orem, UT 84097","precinct":"25OR27","hd":"58","v_score":"0","decile":"1","lat":40.30311396649068,"lng":-111.67365113418663},{"vid":"2644691","name":"Dorris Connelly","party":"Dem","address":"193 N 1080 E, Orem, UT 84097","precinct":"25OR27","hd":"58","v_score":"5.40460374","decile":"7","lat":40.30060340516577,"lng":-111.66997601354396},{"vid":"2646736","name":"Jill Nienow","party":"Dem","address":"1040 E 400 N, Orem, UT 84097","precinct":"25OR27","hd":"58","v_score":"4.069929862","decile":"6","lat":40.30427437674059,"lng":-111.67068726103514},{"vid":"2667869","name":"Rashawn Mann","party":"","address":"336 N 1000 E, Orem, UT 84097","precinct":"25OR27","hd":"58","v_score":"0","decile":"1","lat":40.30329306700717,"lng":-111.67148666297305},{"vid":"2677384","name":"Dr. Jahir Veum","party":"","address":"22 N 920 E, Orem, UT 84097","precinct":"25OR27","hd":"58","v_score":"7.090117576","decile":"8","lat":40.297463418419376,"lng":-111.67336583200647},{"vid":"2700012","name":"Trula Franecki","party":"Dem","address":"1130 E 400 N, Orem, UT 84097","precinct":"25OR27","hd":"58","v_score":"0","decile":"2","lat":40.304352880496964,"lng":-111.66868780824316},{"vid":"2706129","name":"Dr. Armando Hoppe PhD","party":"Dem","address":"1119 E 350 N, Orem, UT 84097","precinct":"25OR27","hd":"58","v_score":"2.876042565","decile":"6","lat":40.30374628960601,"lng":-111.66914547161208},{"vid":"2711797","name":"Walter Lowe","party":"","address":"274 N 890 E, Orem, UT 84097","precinct":"25OR27","hd":"58","v_score":"7.090117576","decile":"8","lat":40.301975935888684,"lng":-111.67446538698182},{"vid":"2714231","name":"Miss Vela Sipes PhD","party":"Rep","address":"1051 E 120 N, Orem, UT 84097","precinct":"25OR27","hd":"58","v_score":"0","decile":"2","lat":40.299382925197314,"lng":-111.67035932231951},{"vid":"2727286","name":"Coty Brown","party":"","address":"195 N 1040 E, Orem, UT 84097","precinct":"25OR27","hd":"58","v_score":"2.876042565","decile":"6","lat":40.30056305930073,"lng":-111.67094242437966},{"vid":"2732478","name":"Corrie Pouros","party":"Rep","address":"931 E 260 N, Orem, UT 84097","precinct":"25OR27","hd":"58","v_score":"3.711952487","decile":"6","lat":40.30211461470616,"lng":-111.6735657177281},{"vid":"2743167","name":"Isis Dare","party":"","address":"171 N 1040 E, Orem, UT 84097","precinct":"25OR27","hd":"58","v_score":"0","decile":"2","lat":40.29998488226368,"lng":-111.67096228538735},{"vid":"2757661","name":"Lurena Spencer","party":"Dem","address":"947 E 80 N, Orem, UT 84097","precinct":"25OR27","hd":"58","v_score":"1.193887297","decile":"4","lat":40.29864326109422,"lng":-111.67289622916475},{"vid":"2760131","name":"Iva Beatty","party":"Rep","address":"319 N 1000 E, Orem, UT 84097","precinct":"25OR27","hd":"58","v_score":"0","decile":"2","lat":40.30282519627838,"lng":-111.67232796544248},{"vid":"2771618","name":"Bryn McGlynn","party":"Rep","address":"872 E 400 N, Orem, UT 84097","precinct":"25OR27","hd":"58","v_score":"0","decile":"2","lat":40.304382307273016,"lng":-111.67493993148979},{"vid":"2776550","name":"Angel Marquardt","party":"Dem","address":"1120 E 350 N, Orem, UT 84097","precinct":"25OR27","hd":"58","v_score":"1.193887297","decile":"4","lat":40.3032059743763,"lng":-111.66907070447301},{"vid":"2787032","name":"Kylee Kirlin","party":"","address":"1012 E 200 N, Orem, UT 84097","precinct":"25OR27","hd":"58","v_score":"0","decile":"2","lat":40.30055396481308,"lng":-111.6716246106634},{"vid":"2789910","name":"Emmie Emard","party":"Dem","address":"1120 E 350 N, Orem, UT 84097","precinct":"25OR27","hd":"58","v_score":"0","decile":"2","lat":40.3032059743763,"lng":-111.66907070447301},{"vid":"2790671","name":"Tania Kertzmann DVM","party":"","address":"352 N 1200 E, Orem, UT 84097","precinct":"25OR27","hd":"58","v_score":"0","decile":"2","lat":40.30358601058391,"lng":-111.66682362975546},{"vid":"2790686","name":"Hetty Bartoletti","party":"","address":"66 N Palisade Dr, Orem, UT 84097","precinct":"25OR27","hd":"58","v_score":"0","decile":"2","lat":40.298131692171445,"lng":-111.66889905811382},{"vid":"2791823","name":"Cherish Harris-Mann","party":"","address":"133 N 1200 E, Orem, UT 84097","precinct":"25OR27","hd":"58","v_score":"1.193887297","decile":"4","lat":40.299520468684044,"lng":-111.66713046712454},{"vid":"2793058","name":"Annamarie Little","party":"Rep","address":"1084 E 275 N, Orem, UT 84097","precinct":"25OR27","hd":"58","v_score":"0","decile":"2","lat":40.30192937577028,"lng":-111.66991170831999},{"vid":"2794577","name":"Migdalia Nikolaus","party":"","address":"279 N 1120 E, Orem, UT 84097","precinct":"25OR27","hd":"58","v_score":"0","decile":"2","lat":40.30226277377445,"lng":-111.66915486235708},{"vid":"2800521","name":"Dr. Reyes Prosacco DDS","party":"Rep","address":"862 E 300 N, Orem, UT 84097","precinct":"25OR27","hd":"58","v_score":"1.193887297","decile":"4","lat":40.30253348178391,"lng":-111.67524298153882},{"vid":"2806179","name":"Miss Elvina Cummerata MD","party":"Rep","address":"161 N 1040 E, Orem, UT 84097","precinct":"25OR27","hd":"58","v_score":"0","decile":"2","lat":40.299962626015336,"lng":-111.67078637262827},{"vid":"2810131","name":"Willaim Ankunding","party":"Dem","address":"95 N 1000 E, Orem, UT 84097","precinct":"25OR27","hd":"58","v_score":"1.193887297","decile":"4","lat":40.29880469013268,"lng":-111.67214564379911},{"vid":"2810213","name":"Shari Schumm PhD","party":"Dem","address":"1152 E 350 N, Orem, UT 84097","precinct":"25OR27","hd":"58","v_score":"0","decile":"2","lat":40.30344203200934,"lng":-111.66817787558932},{"vid":"2810375","name":"Mr. Alva Ondricka","party":"Dem","address":"258 N 800 E, Orem, UT 84097","precinct":"25OR27","hd":"58","v_score":"1.193887297","decile":"4","lat":40.30189323778938,"lng":-111.6762947359805},{"vid":"2810998","name":"Ms. Taraji Bins","party":"","address":"859 E 200 N, Orem, UT 84097","precinct":"25OR27","hd":"58","v_score":"0","decile":"2","lat":40.300973448379324,"lng":-111.67526936758026},{"vid":"2812062","name":"Katlynn Monahan-Howe","party":"Dem","address":"317 N 900 E, Orem, UT 84097","precinct":"25OR27","hd":"58","v_score":"1.193887297","decile":"4","lat":40.30284239866017,"lng":-111.6741960455821},{"vid":"2815499","name":"Wilfred Hoeger-Conn","party":"","address":"1010 E 275 N, Orem, UT 84097","precinct":"25OR27","hd":"58","v_score":"4.069929862","decile":"7","lat":40.301890559667406,"lng":-111.67152697711721},{"vid":"2829027","name":"Littie Trantow-Tromp","party":"","address":"85 N 1200 E, Orem, UT 84097","precinct":"25OR27","hd":"58","v_score":"0","decile":"2","lat":40.29874571998022,"lng":-111.66737729575075},{"vid":"2837099","name":"Guadalupe Strosin PhD","party":"","address":"811 E 40 N, Orem, UT 84097","precinct":"25OR27","hd":"58","v_score":"4.069929862","decile":"7","lat":40.29801814126015,"lng":-111.67631635870012},{"vid":"2840234","name":"Mr. August Larson II","party":"Rep","address":"859 E 200 N, Orem, UT 84097","precinct":"25OR27","hd":"58","v_score":"0","decile":"2","lat":40.300973448379324,"lng":-111.67526936758026},{"vid":"2841633","name":"Salvatore Hane","party":"","address":"948 E 300 N, Orem, UT 84097","precinct":"25OR27","hd":"58","v_score":"0","decile":"2","lat":40.302660057891615,"lng":-111.67283254448037},{"vid":"2844308","name":"Alvy Hodkiewicz Sr.","party":"Rep","address":"274 N 890 E, Orem, UT 84097","precinct":"25OR27","hd":"58","v_score":"8.284004873","decile":"8","lat":40.301975935888684,"lng":-111.67446538698182},{"vid":"2844319","name":"Dr. Farrell Metz III","party":"","address":"1112 E 40 N, Orem, UT 84097","precinct":"25OR27","hd":"58","v_score":"8.284004873","decile":"8","lat":40.297479214425586,"lng":-111.66914006829435},{"vid":"2855108","name":"Jeraldine Connelly","party":"Dem","address":"1095 E 120 N, Orem, UT 84097","precinct":"25OR27","hd":"58","v_score":"0","decile":"2","lat":40.2993710934668,"lng":-111.66949369908666},{"vid":"2862943","name":"Miss Irma Kshlerin","party":"","address":"1172 E 40 N, Orem, UT 84097","precinct":"25OR27","hd":"58","v_score":"0","decile":"2","lat":40.29755889894531,"lng":-111.66769070253231},{"vid":"2884007","name":"Kailee Watsica","party":"","address":"34 N 920 E, Orem, UT 84097","precinct":"25OR27","hd":"58","v_score":"4.069929862","decile":"7","lat":40.297759152104184,"lng":-111.6733799584186},{"vid":"2891400","name":"Deyanira Baumbach","party":"","address":"1125 E 300 N, Orem, UT 84097","precinct":"25OR27","hd":"58","v_score":"0","decile":"2","lat":40.303129643556204,"lng":-111.6688350498038},{"vid":"2901764","name":"Dr. Hosie Kuhn","party":"Dem","address":"947 E 80 N, Orem, UT 84097","precinct":"25OR27","hd":"58","v_score":"2.876042565","decile":"6","lat":40.29864326109422,"lng":-111.67289622916475},{"vid":"2908884","name":"Dr. Brody Hartmann","party":"Dem","address":"315 N 875 E, Orem, UT 84097","precinct":"25OR27","hd":"58","v_score":"0","decile":"2","lat":40.30286806087625,"lng":-111.67513905432007},{"vid":"2912128","name":"Tomika Littel-Runolfsson","party":"Dem","address":"1072 E 275 N, Orem, UT 84097","precinct":"25OR27","hd":"58","v_score":"0","decile":"2","lat":40.301868343871874,"lng":-111.6701414350266},{"vid":"2913437","name":"Viva Franecki","party":"","address":"133 N 1200 E, Orem, UT 84097","precinct":"25OR27","hd":"58","v_score":"0","decile":"2","lat":40.299520468684044,"lng":-111.66713046712454},{"vid":"2923082","name":"Abdul Von","party":"Dem","address":"1119 E 350 N, Orem, UT 84097","precinct":"25OR27","hd":"58","v_score":"0","decile":"2","lat":40.30374628960601,"lng":-111.66914547161208},{"vid":"2923101","name":"Brianda Jones","party":"","address":"315 N 1160 E, Orem, UT 84097","precinct":"25OR27","hd":"58","v_score":"0","decile":"2","lat":40.3029839402687,"lng":-111.66814947299757},{"vid":"2926875","name":"Woodroe Reynolds MD","party":"Rep","address":"331 N 1100 E, Orem, UT 84097","precinct":"25OR27","hd":"58","v_score":"0","decile":"2","lat":40.30319085676065,"lng":-111.66957798850385},{"vid":"2942643","name":"Gayla Kessler","party":"","address":"172 N 1080 E, Orem, UT 84097","precinct":"25OR27","hd":"58","v_score":"0","decile":"2","lat":40.300149575275874,"lng":-111.66959329323713},{"vid":"2943279","name":"Dr. Lilyan Maggio PhD","party":"Dem","address":"164 N 1000 E, Orem, UT 84097","precinct":"25OR27","hd":"58","v_score":"0","decile":"2","lat":40.29992177645439,"lng":-111.67148603549981},{"vid":"2951509","name":"Dr. Myles Raynor","party":"Rep","address":"855 E 280 N, Orem, UT 84097","precinct":"25OR27","hd":"58","v_score":"0","decile":"2","lat":40.30215951235349,"lng":-111.67549557017159},{"vid":"2953046","name":"Mr. Torey Hirthe Jr.","party":"Rep","address":"859 E 200 N, Orem, UT 84097","precinct":"25OR27","hd":"58","v_score":"0","decile":"2","lat":40.300973448379324,"lng":-111.67526936758026},{"vid":"2963961","name":"Ms. Marry Langworth","party":"","address":"15 N 920 E, Orem, UT 84097","precinct":"25OR27","hd":"58","v_score":"2.876042565","decile":"6","lat":40.29724502969779,"lng":-111.67373112866463},{"vid":"2977659","name":"Jailene Ferry","party":"Rep","address":"55 N 1000 E, Orem, UT 84097","precinct":"25OR27","hd":"58","v_score":"0","decile":"2","lat":40.29814815757902,"lng":-111.67210268043333},{"vid":"2980765","name":"Cecil Marks","party":"Rep","address":"1187 E 180 N, Orem, UT 84097","precinct":"25OR27","hd":"58","v_score":"0","decile":"2","lat":40.30059704541347,"lng":-111.66723113910028},{"vid":"30766c2f2601294990ac116cc53448d09075be2ea887b764b1996ebd02663da3","name":"Lovett Medhurst Sr.","party":"","address":"839 E 300 N, Orem, UT 84097","precinct":"25OR27","hd":"58","v_score":"14.74039814","decile":"9","lat":40.302962028913576,"lng":-111.67583110514174},{"vid":"3065009","name":"Willow Graham","party":"","address":"350 N Palisades Dr, Orem, UT 84097","precinct":"25OR27","hd":"58","v_score":"2.315214949","decile":"5","lat":40.303678388413076,"lng":-111.66582525423088},{"vid":"3095274","name":"Erna Nolan-Abshire","party":"Rep","address":"213 N 850 E, Orem, UT 84097","precinct":"25OR27","hd":"58","v_score":"6.814370645","decile":"8","lat":40.30097392172189,"lng":-111.67558333404114},{"vid":"3122958","name":"Merilyn Koch-Wuckert","party":"Rep","address":"1153 E 250 N, Orem, UT 84097","precinct":"25OR27","hd":"58","v_score":"16.72520646","decile":"9","lat":40.30183361423771,"lng":-111.66782147065682},{"vid":"3230869","name":"Mr. Adalberto Champlin","party":"Dem","address":"352 N 1200 E, Orem, UT 84097","precinct":"25OR27","hd":"58","v_score":"1.193887297","decile":"4","lat":40.30358601058391,"lng":-111.66682362975546},{"vid":"10349a8c19b5b07aa1a0a42fed6112944c8e7630514d638c875f6e1fd2d37957","name":"Edie Skiles-Watsica","party":"Dem","address":"133 N 1200 E, Orem, UT 84097","precinct":"25OR27","hd":"58","v_score":"14.13332036","decile":"9","lat":40.299520468684044,"lng":-111.66713046712454},{"vid":"3280576","name":"Mrs. Kenisha Miller DDS","party":"Dem","address":"181 N 1080 E, Orem, UT 84097","precinct":"25OR27","hd":"58","v_score":"11.57658879","decile":"9","lat":40.300234437916245,"lng":-111.66997428172633},{"vid":"3421962","name":"Pranav Carroll III","party":"","address":"38 N 960 E, Orem, UT 84097","precinct":"25OR27","hd":"58","v_score":"13.15380266","decile":"9","lat":40.29794535067967,"lng":-111.6724502579415},{"vid":"3524633","name":"Ola Will","party":"Rep","address":"260 N 1120 E, Orem, UT 84097","precinct":"25OR27","hd":"58","v_score":"7.650280567","decile":"8","lat":40.30199130892643,"lng":-111.6686447977458},{"vid":"6032072","name":"Mora Harber","party":"Rep","address":"1008 E 120 N, Orem, UT 84097","precinct":"25OR27","hd":"58","v_score":"1.121327652","decile":"3","lat":40.29898463092306,"lng":-111.6714756141442},{"vid":"6072595","name":"Mrs. Priscila Feeney","party":"Dem","address":"161 N 1040 E, Orem, UT 84097","precinct":"25OR27","hd":"58","v_score":"42.70905777","decile":"10","lat":40.299962626015336,"lng":-111.67078637262827},{"vid":"6072675","name":"Hurbert Gottlieb","party":"Rep","address":"250 N 890 E, Orem, UT 84097","precinct":"25OR27","hd":"58","v_score":"0","decile":"3","lat":40.301469205269484,"lng":-111.67440273272584},{"vid":"6103531","name":"Merlene VonRueden","party":"Dem","address":"376 N 800 E, Orem, UT 84097","precinct":"25OR27","hd":"58","v_score":"3.93832808","decile":"6","lat":40.30403566518682,"lng":-111.67613386559958},{"vid":"6103881","name":"Mr. Murry Langworth I","party":"Rep","address":"365 N 1000 E, Orem, UT 84097","precinct":"25OR27","hd":"58","v_score":"40.28305098","decile":"10","lat":40.30369817673925,"lng":-111.67209052353257},{"vid":"6171153","name":"Miss Pearlene Hammes","party":"","address":"142 N 1200 E, Orem, UT 84097","precinct":"25OR27","hd":"58","v_score":"2.315214949","decile":"5","lat":40.29993499391436,"lng":-111.66673228743184},{"vid":"6180559","name":"Elana Beatty","party":"","address":"258 N Palisades Dr, Orem, UT 84097","precinct":"25OR27","hd":"58","v_score":"14.32268247","decile":"9","lat":40.301962233564986,"lng":-111.66650536431592},{"vid":"6187088","name":"Karson Reynolds MD","party":"Dem","address":"95 N 1000 E, Orem, UT 84097","precinct":"25OR27","hd":"58","v_score":"0","decile":"3","lat":40.29880469013268,"lng":-111.67214564379911},{"vid":"6202567","name":"Enrique Morar-Harvey","party":"Dem","address":"887 E 300 N, Orem, UT 84097","precinct":"25OR27","hd":"58","v_score":"45.09250101","decile":"10","lat":40.30287520133001,"lng":-111.67471124649427},{"vid":"6205064","name":"Zilpah Walker","party":"Dem","address":"315 N 1100 E, Orem, UT 84097","precinct":"25OR27","hd":"58","v_score":"35.36963499","decile":"10","lat":40.302998268046494,"lng":-111.6695371514364},{"vid":"6213742","name":"Bernardo Cassin","party":"Dem","address":"298 N 1000 E, Orem, UT 84097","precinct":"25OR27","hd":"58","v_score":"26.35608728","decile":"10","lat":40.302913415769005,"lng":-111.67114623202308},{"vid":"6214072","name":"Percival Turcotte","party":"Dem","address":"105 N 1200 E, Orem, UT 84097","precinct":"25OR27","hd":"58","v_score":"28.19136616","decile":"10","lat":40.2991069072797,"lng":-111.66735532508491},{"vid":"6218062","name":"Davina Runolfsson-Hilpert","party":"","address":"73 N 1200 E, Orem, UT 84097","precinct":"25OR27","hd":"58","v_score":"42.8597977","decile":"10","lat":40.29847136955951,"lng":-111.66748058727175},{"vid":"6218194","name":"Wynona Abbott","party":"","address":"315 N 1100 E, Orem, UT 84097","precinct":"25OR27","hd":"58","v_score":"35.36963499","decile":"10","lat":40.302998268046494,"lng":-111.6695371514364},{"vid":"6219652","name":"Rebecca Rath DVM","party":"Dem","address":"934 E 260 N, Orem, UT 84097","precinct":"25OR27","hd":"58","v_score":"2.315214949","decile":"5","lat":40.30171349490053,"lng":-111.67338420745426},{"vid":"6223935","name":"Vicy Jacobson","party":"","address":"212 N Palisades Dr, Orem, UT 84097","precinct":"25OR27","hd":"58","v_score":"15.1758219","decile":"9","lat":40.30099411818702,"lng":-111.66733656917184},{"vid":"6223978","name":"Isis Murray","party":"","address":"379 N 900 E, Orem, UT 84097","precinct":"25OR27","hd":"58","v_score":"5.40460374","decile":"7","lat":40.303993739383245,"lng":-111.67440736308113},{"vid":"6225526","name":"Audley Goldner","party":"","address":"386 N 950 E, Orem, UT 84097","precinct":"25OR27","hd":"58","v_score":"5.40460374","decile":"7","lat":40.30429934668144,"lng":-111.67285666054993},{"vid":"6229180","name":"Ms. Helen Macejkovic DVM","party":"Dem","address":"212 N Palisades Dr, Orem, UT 84097","precinct":"25OR27","hd":"58","v_score":"12.49472132","decile":"9","lat":40.30099411818702,"lng":-111.66733656917184},{"vid":"6231013","name":"Rayfield Stamm","party":"","address":"1072 E 275 N, Orem, UT 84097","precinct":"25OR27","hd":"58","v_score":"11.32212024","decile":"9","lat":40.301868343871874,"lng":-111.6701414350266},{"vid":"6233002","name":"Mrs. Leisha Kuhn","party":"Rep","address":"318 N Palisades Dr, Orem, UT 84097","precinct":"25OR27","hd":"58","v_score":"13.28858692","decile":"9","lat":40.30312492421942,"lng":-111.66571084576961},{"vid":"6237048","name":"Amma Pacocha MD","party":"Rep","address":"269 N 890 E, Orem, UT 84097","precinct":"25OR27","hd":"58","v_score":"15.55761368","decile":"9","lat":40.30188267355329,"lng":-111.67478688464283},{"vid":"6241184","name":"Jessika Welch","party":"","address":"33 N 960 E, Orem, UT 84097","precinct":"25OR27","hd":"58","v_score":"3.781490609","decile":"6","lat":40.297788388741736,"lng":-111.67283286132755},{"vid":"6241331","name":"Adella Lindgren","party":"","address":"245 N 1120 E, Orem, UT 84097","precinct":"25OR27","hd":"58","v_score":"16.2066738","decile":"9","lat":40.30171353724364,"lng":-111.66927824135479},{"vid":"6242652","name":"Tempie Kemmer","party":"Dem","address":"1175 E 140 N, Orem, UT 84097","precinct":"25OR27","hd":"58","v_score":"40.90633163","decile":"10","lat":40.299540782968116,"lng":-111.66765463529445},{"vid":"6242749","name":"Ham Schoen","party":"Dem","address":"1130 E 400 N, Orem, UT 84097","precinct":"25OR27","hd":"58","v_score":"0","decile":"3","lat":40.304352880496964,"lng":-111.66868780824316},{"vid":"6243906","name":"Elliot Deckow","party":"Rep","address":"38 N 960 E, Orem, UT 84097","precinct":"25OR27","hd":"58","v_score":"27.10552197","decile":"10","lat":40.29794535067967,"lng":-111.6724502579415},{"vid":"6245227","name":"Darby Schiller","party":"","address":"1010 E 275 N, Orem, UT 84097","precinct":"25OR27","hd":"58","v_score":"12.49472132","decile":"9","lat":40.301890559667406,"lng":-111.67152697711721},{"vid":"6246331","name":"Damon Bosco III","party":"","address":"319 N 1000 E, Orem, UT 84097","precinct":"25OR27","hd":"58","v_score":"38.24567755","decile":"10","lat":40.30282519627838,"lng":-111.67232796544248},{"vid":"6246844","name":"Mr. Conway Bartell MD","party":"","address":"336 N 1000 E, Orem, UT 84097","precinct":"25OR27","hd":"58","v_score":"11.23922619","decile":"9","lat":40.30329306700717,"lng":-111.67148666297305},{"vid":"6268819","name":"Arnett Brakus-Spinka","party":"Rep","address":"64 N 1000 E, Orem, UT 84097","precinct":"25OR27","hd":"58","v_score":"43.22595857","decile":"10","lat":40.29831507864503,"lng":-111.67148620941366},{"vid":"6268822","name":"Madonna Mante","party":"Rep","address":"922 E 260 N, Orem, UT 84097","precinct":"25OR27","hd":"58","v_score":"19.81795382","decile":"10","lat":40.301549490704254,"lng":-111.67368887576183},{"vid":"6268830","name":"Lorinda Wyman DDS","party":"","address":"64 N 1000 E, Orem, UT 84097","precinct":"25OR27","hd":"58","v_score":"43.22595857","decile":"10","lat":40.29831507864503,"lng":-111.67148620941366},{"vid":"6269517","name":"Junious Goodwin","party":"Rep","address":"348 N 1160 E, Orem, UT 84097","precinct":"25OR27","hd":"58","v_score":"36.36686118","decile":"10","lat":40.303612881182566,"lng":-111.66776476465984},{"vid":"6272975","name":"Buffy Kutch DDS","party":"","address":"1096 E 275 N, Orem, UT 84097","precinct":"25OR27","hd":"58","v_score":"2.958579882","decile":"6","lat":40.30193842823107,"lng":-111.66960665051064},{"vid":"6276128","name":"Delos Labadie-Cummerata","party":"Dem","address":"1024 E 200 N, Orem, UT 84097","precinct":"25OR27","hd":"58","v_score":"2.315214949","decile":"5","lat":40.300454679110665,"lng":-111.6712829219225},{"vid":"6283160","name":"Hurbert Dickinson","party":"Dem","address":"350 N 900 E, Orem, UT 84097","precinct":"25OR27","hd":"58","v_score":"12.57725863","decile":"9","lat":40.30348867195959,"lng":-111.67378348636109},{"vid":"6286054","name":"Tilda Leannon","party":"Rep","address":"34 N 920 E, Orem, UT 84097","precinct":"25OR27","hd":"58","v_score":"15.2589308","decile":"9","lat":40.297759152104184,"lng":-111.6733799584186},{"vid":"6301430","name":"Ari Jerde","party":"Rep","address":"96 N 1000 E, Orem, UT 84097","precinct":"25OR27","hd":"58","v_score":"0","decile":"3","lat":40.29875634893889,"lng":-111.67149412213399},{"vid":"6301531","name":"Danyelle Medhurst","party":"","address":"1010 E 275 N, Orem, UT 84097","precinct":"25OR27","hd":"58","v_score":"20.70633281","decile":"10","lat":40.301890559667406,"lng":-111.67152697711721},{"vid":"6302557","name":"Louvenia Greenfelder","party":"Rep","address":"855 E 280 N, Orem, UT 84097","precinct":"25OR27","hd":"58","v_score":"13.84916389","decile":"9","lat":40.30215951235349,"lng":-111.67549557017159},{"vid":"6303527","name":"Norah Cronin-Beier","party":"Dem","address":"1096 E 275 N, Orem, UT 84097","precinct":"25OR27","hd":"58","v_score":"14.00844396","decile":"9","lat":40.30193842823107,"lng":-111.66960665051064},{"vid":"6306316","name":"Mr. Len Deckow I","party":"Rep","address":"1040 E 400 N, Orem, UT 84097","precinct":"25OR27","hd":"58","v_score":"29.25432414","decile":"10","lat":40.30427437674059,"lng":-111.67068726103514},{"vid":"6312131","name":"Tatiana Gislason","party":"","address":"70 N 1160 E, Orem, UT 84097","precinct":"25OR27","hd":"58","v_score":"15.53273099","decile":"9","lat":40.29811905575327,"lng":-111.66801366412771},{"vid":"7e24cf3deea4a8537c4b9e78b2a790a649d3b3ddb80ed96f8cad2d39e264625c","name":"Merna Bayer","party":"Dem","address":"855 E 280 N, Orem, UT 84097","precinct":"25OR27","hd":"58","v_score":"3.93832808","decile":"6","lat":40.30215951235349,"lng":-111.67549557017159},{"vid":"6320908","name":"Taylor Balistreri","party":"Dem","address":"248 N 1120 E, Orem, UT 84097","precinct":"25OR27","hd":"58","v_score":"39.36155753","decile":"10","lat":40.301779455953145,"lng":-111.6687177831677},{"vid":"6325831","name":"Ms. Marie Willms","party":"Rep","address":"132 N 1200 E, Orem, UT 84097","precinct":"25OR27","hd":"58","v_score":"26.93587103","decile":"10","lat":40.299624168422454,"lng":-111.66670097371599},{"vid":"0f7e29bc26b6d1f71bdb38b45fa48504e964d08ba915f04b6f33c0f740790ad2","name":"Gilbert Berge-Heidenreich","party":"Dem","address":"947 E 80 N, Orem, UT 84097","precinct":"25OR27","hd":"58","v_score":"3.93832808","decile":"6","lat":40.29864326109422,"lng":-111.67289622916475},{"vid":"6334994","name":"Mr. Darl Satterfield IV","party":"","address":"77 N 920 E, Orem, UT 84097","precinct":"25OR27","hd":"58","v_score":"13.93704549","decile":"9","lat":40.298758602040415,"lng":-111.67381693812675},{"vid":"2a3575f5ca1b224720ab8a52e9cee9cb3a3e7db8a382567c3c1aca44711d83e3","name":"Baldwin Stiedemann","party":"Dem","address":"1031 E 275 N, Orem, UT 84097","precinct":"25OR27","hd":"58","v_score":"17.35851679","decile":"9","lat":40.30232985491573,"lng":-111.67120125482238},{"vid":"6347581","name":"Tracee Casper-Walter","party":"","address":"1108 E 275 N, Orem, UT 84097","precinct":"25OR27","hd":"58","v_score":"20.62749047","decile":"10","lat":40.30191360264203,"lng":-111.66920548518296},{"vid":"6348440","name":"Winnie Rodriguez","party":"Rep","address":"255 N 1000 E, Orem, UT 84097","precinct":"25OR27","hd":"58","v_score":"2.315214949","decile":"5","lat":40.30176032985784,"lng":-111.67226138386962},{"vid":"6355061","name":"Benton DuBuque","party":"","address":"1158 E 300 N, Orem, UT 84097","precinct":"25OR27","hd":"58","v_score":"37.84600495","decile":"10","lat":40.3025769020107,"lng":-111.6680057240356},{"vid":"6357067","name":"Luverne Kunze","party":"Rep","address":"365 N 1000 E, Orem, UT 84097","precinct":"25OR27","hd":"58","v_score":"35.30276996","decile":"10","lat":40.30369817673925,"lng":-111.67209052353257},{"vid":"6362383","name":"Mikalah Kertzmann","party":"Rep","address":"1187 E 300 N, Orem, UT 84097","precinct":"25OR27","hd":"58","v_score":"30.57016229","decile":"10","lat":40.303004634076686,"lng":-111.66727098665069},{"vid":"6365429","name":"Hilton Rath IV","party":"","address":"46 N 920 E, Orem, UT 84097","precinct":"25OR27","hd":"58","v_score":"35.30276996","decile":"10","lat":40.2980799307764,"lng":-111.6734093478287},{"vid":"cec14d96acde8589bd8a07a0e11b126994f11f4e99bad6de3a3a28caff8c8517","name":"Alger Bergstrom","party":"Dem","address":"1184 E 40 N, Orem, UT 84097","precinct":"25OR27","hd":"58","v_score":"20.87803038","decile":"10","lat":40.29767821115422,"lng":-111.66737548536258},{"vid":"6373939","name":"Gottlieb Conn","party":"","address":"248 N 1120 E, Orem, UT 84097","precinct":"25OR27","hd":"58","v_score":"31.08869495","decile":"10","lat":40.301779455953145,"lng":-111.6687177831677},{"vid":"6381461","name":"German Adams","party":"","address":"1096 E 275 N, Orem, UT 84097","precinct":"25OR27","hd":"58","v_score":"11.04986408","decile":"9","lat":40.30193842823107,"lng":-111.66960665051064},{"vid":"6390387","name":"Dr. Donta Beahan","party":"","address":"1158 E 250 N, Orem, UT 84097","precinct":"25OR27","hd":"58","v_score":"19.19078023","decile":"10","lat":40.301291920354565,"lng":-111.66771727835095},{"vid":"6409109","name":"Jerrell Davis-Hegmann","party":"","address":"69 N 1160 E, Orem, UT 84097","precinct":"25OR27","hd":"58","v_score":"6.481563075","decile":"7","lat":40.2980910038389,"lng":-111.66831593915536},{"vid":"6409366","name":"Jaelyn Langosh DDS","party":"","address":"1171 E 300 N, Orem, UT 84097","precinct":"25OR27","hd":"58","v_score":"5.191257514","decile":"7","lat":40.30298436111944,"lng":-111.66777039994861},{"vid":"6409940","name":"Mr. Marvin Huel DVM","party":"","address":"948 E 300 N, Orem, UT 84097","precinct":"25OR27","hd":"58","v_score":"14.18213378","decile":"9","lat":40.302660057891615,"lng":-111.67283254448037},{"vid":"90a0b55020ae48b653ce220c952f237625054892d926f817171a6968ccfba4cc","name":"Del Pouros","party":"Rep","address":"46 N 920 E, Orem, UT 84097","precinct":"25OR27","hd":"58","v_score":"20.18266914","decile":"10","lat":40.2980799307764,"lng":-111.6734093478287},{"vid":"6413569","name":"Phylis Schaefer","party":"Rep","address":"1187 E 180 N, Orem, UT 84097","precinct":"25OR27","hd":"58","v_score":"11.26156058","decile":"9","lat":40.30059704541347,"lng":-111.66723113910028},{"vid":"6414704","name":"Mrs. Olar Langosh PhD","party":"","address":"381 N 1000 E, Orem, UT 84097","precinct":"25OR27","hd":"58","v_score":"2.744440783","decile":"6","lat":40.304122087064584,"lng":-111.67226336762782},{"vid":"6416326","name":"Dr. Vilma Beatty MD","party":"Rep","address":"85 N 1200 E, Orem, UT 84097","precinct":"25OR27","hd":"58","v_score":"8.280646305","decile":"8","lat":40.29874571998022,"lng":-111.66737729575075},{"vid":"6433051","name":"Bernhard Harris","party":"Dem","address":"211 N Palisades Dr, Orem, UT 84097","precinct":"25OR27","hd":"58","v_score":"16.80774378","decile":"9","lat":40.300992335343125,"lng":-111.66797277961548},{"vid":"3760bc32c09e6dcc0cc0d34885a69471d10a3015e70207b6cfbfef1dc1c2c368","name":"Manie Windler","party":"Dem","address":"811 E 40 N, Orem, UT 84097","precinct":"25OR27","hd":"58","v_score":"15.39205011","decile":"9","lat":40.29801814126015,"lng":-111.67631635870012},{"vid":"3a9acd0c8c617e3ccc12c3047a54923b6ceb9d6581bfbb88ef9bbbbbcc35c34e","name":"Brody Barton","party":"Dem","address":"376 N 800 E, Orem, UT 84097","precinct":"25OR27","hd":"58","v_score":"3.93832808","decile":"6","lat":40.30403566518682,"lng":-111.67613386559958},{"vid":"6450097","name":"Aubrie Schimmel DVM","party":"Rep","address":"236 N 850 E, Orem, UT 84097","precinct":"25OR27","hd":"58","v_score":"18.46989245","decile":"10","lat":40.30154642776722,"lng":-111.67521045138643},{"vid":"6452869","name":"Flavia Quigley-Mosciski","party":"Dem","address":"350 N Palisades Dr, Orem, UT 84097","precinct":"25OR27","hd":"58","v_score":"10.703532300000001","decile":"9","lat":40.303678388413076,"lng":-111.66582525423088},{"vid":"6460435","name":"Elden Berge-Towne","party":"Rep","address":"1108 E 275 N, Orem, UT 84097","precinct":"25OR27","hd":"58","v_score":"1.193887297","decile":"4","lat":40.30191360264203,"lng":-111.66920548518296},{"vid":"deb42bc18f78721340b74fea931e2ae564e83d28229c928a8d18dc4d29b895d3","name":"Arvin Hettinger","party":"Dem","address":"373 N 1100 E, Orem, UT 84097","precinct":"25OR27","hd":"58","v_score":"2.315214949","decile":"5","lat":40.304081705545926,"lng":-111.6695867892987},{"vid":"6462629","name":"Melanie Schaefer","party":"Rep","address":"182 N 1040 E, Orem, UT 84097","precinct":"25OR27","hd":"58","v_score":"25.09210539","decile":"10","lat":40.300254653895934,"lng":-111.67056163549299},{"vid":"f1f52fd9197dbb8b43a1136ba5e6c23ad56058f1c4cfa6f4a2c7534bb78698ec","name":"Deante Halvorson IV","party":"","address":"1031 E 120 N, Orem, UT 84097","precinct":"25OR27","hd":"58","v_score":"15.51131257","decile":"9","lat":40.299340882790304,"lng":-111.67103509649853},{"vid":"6465769","name":"Rollin Blick PhD","party":"","address":"390 N 1000 E, Orem, UT 84097","precinct":"25OR27","hd":"58","v_score":"25.78606525","decile":"10","lat":40.30431549048698,"lng":-111.67154423045999},{"vid":"7caeb554175c3b56df38bc9a56e753284a4f50f9672d20edafdeacd56da53574","name":"Alexys Bayer","party":"Dem","address":"935 E 200 N, Orem, UT 84097","precinct":"25OR27","hd":"58","v_score":"31.06727652","decile":"10","lat":40.30094187946522,"lng":-111.67336983095542},{"vid":"6469433","name":"Makhi Volkman","party":"","address":"935 E 200 N, Orem, UT 84097","precinct":"25OR27","hd":"58","v_score":"35.30276996","decile":"10","lat":40.30094187946522,"lng":-111.67336983095542},{"vid":"6472020","name":"Sister Nikolaus-Swift","party":"Rep","address":"1172 E 300 N, Orem, UT 84097","precinct":"25OR27","hd":"58","v_score":"11.19041277","decile":"9","lat":40.30257717166232,"lng":-111.66766520541006},{"vid":"6472022","name":"Moises Miller","party":"","address":"1172 E 300 N, Orem, UT 84097","precinct":"25OR27","hd":"58","v_score":"12.65668843","decile":"9","lat":40.30257717166232,"lng":-111.66766520541006},{"vid":"6475053","name":"Rahsaan Sanford","party":"","address":"12 N 800 E, Orem, UT 84097","precinct":"25OR27","hd":"58","v_score":"16.4208129","decile":"9","lat":40.29716292976166,"lng":-111.67621881352677},{"vid":"6475542","name":"Buren Torp","party":"Dem","address":"32 N 800 E, Orem, UT 84097","precinct":"25OR27","hd":"58","v_score":"31.06727652","decile":"10","lat":40.29747038999227,"lng":-111.67528968092086},{"vid":"6476584","name":"Shari Rodriguez","party":"Dem","address":"1064 E 120 N, Orem, UT 84097","precinct":"25OR27","hd":"58","v_score":"2.315214949","decile":"5","lat":40.29903091653998,"lng":-111.66994276038443},{"vid":"6486982","name":"Dr. Christoper Reichel DDS","party":"Dem","address":"336 N 1200 E, Orem, UT 84097","precinct":"25OR27","hd":"58","v_score":"0","decile":"3","lat":40.30333759945718,"lng":-111.66683273477972},{"vid":"6487382","name":"Mr. Josue Cartwright","party":"Dem","address":"350 N 900 E, Orem, UT 84097","precinct":"25OR27","hd":"58","v_score":"12.57725863","decile":"9","lat":40.30348867195959,"lng":-111.67378348636109},{"vid":"6489673","name":"Dr. Sheryll Hodkiewicz MD","party":"Dem","address":"225 N 850 E, Orem, UT 84097","precinct":"25OR27","hd":"58","v_score":"13.33063124","decile":"9","lat":40.3012386501069,"lng":-111.67575067592006},{"vid":"6491046","name":"Melony Rippin","party":"","address":"96 N 1000 E, Orem, UT 84097","precinct":"25OR27","hd":"58","v_score":"0","decile":"3","lat":40.29875634893889,"lng":-111.67149412213399},{"vid":"6506963","name":"Kaye Eichmann","party":"Dem","address":"262 N 890 E, Orem, UT 84097","precinct":"25OR27","hd":"58","v_score":"43.22595857","decile":"10","lat":40.30170335831236,"lng":-111.67438090141864},{"vid":"faa29a6248377dfc2a7697bcdd1faa5a94d7a961db916427541a94dfff9f2d28","name":"Virge Gleason","party":"Rep","address":"1112 E 40 N, Orem, UT 84097","precinct":"25OR27","hd":"58","v_score":"36.34496628","decile":"10","lat":40.297479214425586,"lng":-111.66914006829435},{"vid":"6514566","name":"Lawson Smitham","party":"","address":"1175 E 140 N, Orem, UT 84097","precinct":"25OR27","hd":"58","v_score":"43.7823742","decile":"10","lat":40.299540782968116,"lng":-111.66765463529445},{"vid":"6516555","name":"Austen Torphy-Hirthe","party":"Dem","address":"46 N 920 E, Orem, UT 84097","precinct":"25OR27","hd":"58","v_score":"13.26938015","decile":"9","lat":40.2980799307764,"lng":-111.6734093478287},{"vid":"6516597","name":"Estie Zboncak","party":"Dem","address":"1155 E 100 N, Orem, UT 84097","precinct":"25OR27","hd":"58","v_score":"23.95587272","decile":"10","lat":40.29888574939212,"lng":-111.66797398906158},{"vid":"6517212","name":"Dejon Lebsack","party":"Rep","address":"12 N 800 E, Orem, UT 84097","precinct":"25OR27","hd":"58","v_score":"21.15342057","decile":"10","lat":40.29716292976166,"lng":-111.67621881352677},{"vid":"f0627159911e81a3c3d3e0620c155a85127b0773e98d887ed5fe14800d451723","name":"Ally Blanda","party":"Dem","address":"1046 E 400 N, Orem, UT 84097","precinct":"25OR27","hd":"58","v_score":"39.30030644","decile":"10","lat":40.30399874716707,"lng":-111.67042579832427},{"vid":"6526864","name":"Tobi Hegmann","party":"Rep","address":"279 N 1120 E, Orem, UT 84097","precinct":"25OR27","hd":"58","v_score":"30.61533869","decile":"10","lat":40.30226277377445,"lng":-111.66915486235708},{"vid":"6526948","name":"Kaye White-Nitzsche","party":"Dem","address":"182 N 1040 E, Orem, UT 84097","precinct":"25OR27","hd":"58","v_score":"4.283276088","decile":"7","lat":40.300254653895934,"lng":-111.67056163549299},{"vid":"6529317","name":"Guido Pfeffer","party":"","address":"1187 E 300 N, Orem, UT 84097","precinct":"25OR27","hd":"58","v_score":"0","decile":"3","lat":40.303004634076686,"lng":-111.66727098665069},{"vid":"6530637","name":"Dr. Hoyt Ullrich III","party":"Rep","address":"320 N 800 E, Orem, UT 84097","precinct":"25OR27","hd":"58","v_score":"2.744440783","decile":"6","lat":40.30289417420522,"lng":-111.67625587352383},{"vid":"aae41934ef7091f6b0464d49fbb8df695c5bfb48a9b3c94bcdde34a7fed82c42","name":"Monna Jerde MD","party":"Rep","address":"1031 E 120 N, Orem, UT 84097","precinct":"25OR27","hd":"58","v_score":"15.51131257","decile":"9","lat":40.299340882790304,"lng":-111.67103509649853}]