[{"vid":"1247687","name":"Leonel Franecki","party":"","address":"1196 N 1475 E, Payson, UT 84651","precinct":"25PA01","hd":"65","v_score":"0","decile":"1","lat":40.06021342478629,"lng":-111.70465720987085},{"vid":"1254715","name":"Francesco Ziemann","party":"","address":"1363 E 100 S, Apt 125, Payson, UT 84651","precinct":"25PA01","hd":"65","v_score":"18.70909056","decile":"10","lat":40.043391202141045,"lng":-111.70761180803176},{"vid":"68e6c5274c28b5b781555e5fe2d85de7d3319785e7427a9a5a395815ea85ffc5","name":"Link Leuschke","party":"Dem","address":"1363 E 100 S, Apt 198, Payson, UT 84651","precinct":"25PA01","hd":"65","v_score":"7.947838735","decile":"8","lat":40.043391202141045,"lng":-111.70761180803176},{"vid":"53af6ed3d22a71993269a3e598ae0367cc26c04a75afd5a6e069e046cb0272ba","name":"Spurgeon Hodkiewicz","party":"","address":"1347 E 50 S, Apt A404, Payson, UT 84651","precinct":"25PA01","hd":"65","v_score":"19.76809223","decile":"10","lat":40.04517667838413,"lng":-111.70746915748177},{"vid":"1290585","name":"Stefan Roob","party":"Dem","address":"1728 N 1230 E, Payson, UT 84651","precinct":"25PA01","hd":"65","v_score":"1.193887297","decile":"3","lat":40.069373315462286,"lng":-111.7113378812852},{"vid":"5017a3b9f91ce3f53554f0ce5598635b6b8cf998e37e027918776311cbe70623","name":"Floy Friesen","party":"","address":"1472 N Arrow Park Dr, Payson, UT 84651","precinct":"25PA01","hd":"65","v_score":"3.781490609","decile":"6","lat":40.06471496496031,"lng":-111.7085144005294},{"vid":"1301915","name":"Dakota Donnelly","party":"","address":"252 N 900 E, Apt 102, Payson, UT 84651","precinct":"25PA01","hd":"65","v_score":"1.121327652","decile":"3","lat":40.04641287922476,"lng":-111.7166496296654},{"vid":"1319685","name":"Mrs. Aracely Hauck","party":"","address":"1355 E 1360 N, Payson, UT 84651","precinct":"25PA01","hd":"65","v_score":"2.315214949","decile":"5","lat":40.06284622376358,"lng":-111.70761720724106},{"vid":"5093e440de6b08255a87adbc5b361efd7df51b894aee26f4e9098e53117b2801","name":"Amalie Mueller-Corkery","party":"Dem","address":"1465 N 1190 E, Payson, UT 84651","precinct":"25PA01","hd":"65","v_score":"3.781490609","decile":"6","lat":40.06447964058791,"lng":-111.71289029460263},{"vid":"1325704","name":"Clem DuBuque","party":"","address":"1268 E 1680 N, Payson, UT 84651","precinct":"25PA01","hd":"65","v_score":"1.121327652","decile":"3","lat":40.06872308628467,"lng":-111.7102276512097},{"vid":"1327075","name":"Mr. Dorman Lockman","party":"Rep","address":"1543 N 1350 E, Payson, UT 84651","precinct":"25PA01","hd":"65","v_score":"3.61989409","decile":"6","lat":40.06588527286703,"lng":-111.709133148419},{"vid":"1349149","name":"Mrs. Iridian Dare","party":"Dem","address":"1732 N 1280 E, Payson, UT 84651","precinct":"25PA01","hd":"65","v_score":"0","decile":"1","lat":40.06944678205827,"lng":-111.71014136218761},{"vid":"1355726","name":"Dr. Tyrel Ankunding","party":"","address":"1363 E 100 S, Apt 146, Payson, UT 84651","precinct":"25PA01","hd":"65","v_score":"5.40460374","decile":"7","lat":40.043391202141045,"lng":-111.70761180803176},{"vid":"1369111","name":"Roel Ryan III","party":"","address":"1304 N 1400 E, Payson, UT 84651","precinct":"25PA01","hd":"65","v_score":"1.121327652","decile":"3","lat":40.061807313824694,"lng":-111.70648681633554},{"vid":"1373492","name":"Miss Margeret Nitzsche","party":"Rep","address":"915 E 300 N, Trlr 41, Payson, UT 84651","precinct":"25PA01","hd":"65","v_score":"15.73840005","decile":"9","lat":40.04782053121912,"lng":-111.71686364754844},{"vid":"1382657","name":"Kristen Sporer","party":"","address":"1457 N 1190 E, Payson, UT 84651","precinct":"25PA01","hd":"65","v_score":"1.121327652","decile":"3","lat":40.06434163736452,"lng":-111.7129273589116},{"vid":"1391175","name":"Keion Corwin Jr.","party":"Rep","address":"1574 N Arrow Park Dr, Payson, UT 84651","precinct":"25PA01","hd":"65","v_score":"1.193887297","decile":"3","lat":40.06611693465748,"lng":-111.70999349393462},{"vid":"1392710","name":"Kalene Kunze","party":"Dem","address":"21 S 900 E, Payson, UT 84651","precinct":"25PA01","hd":"65","v_score":"11.43500933","decile":"9","lat":40.04350952382892,"lng":-111.71709484689323},{"vid":"1397347","name":"Mrs. Tamika Walsh DDS","party":"Rep","address":"915 E 300 N, Trlr 44, Payson, UT 84651","precinct":"25PA01","hd":"65","v_score":"2.587603312","decile":"5","lat":40.04782053121912,"lng":-111.71686364754844},{"vid":"1408955","name":"Dr. Chalmer Zulauf PhD","party":"","address":"1472 N Arrow Park Dr, Payson, UT 84651","precinct":"25PA01","hd":"65","v_score":"3.781490609","decile":"6","lat":40.06471496496031,"lng":-111.7085144005294},{"vid":"1423753","name":"Mrs. Judi Rodriguez PhD","party":"","address":"385 N 1140 E, Payson, UT 84651","precinct":"25PA01","hd":"65","v_score":"30.99711601","decile":"10","lat":40.04819042623053,"lng":-111.71375602466071},{"vid":"1423754","name":"Mrs. Stacia Bauch","party":"Dem","address":"385 N 1140 E, Payson, UT 84651","precinct":"25PA01","hd":"65","v_score":"30.99711601","decile":"10","lat":40.04819042623053,"lng":-111.71375602466071},{"vid":"0a8dbf7b4fb80d7e7cff4a058557372b6ca9e11aeb6f781da0f297623ebeebdc","name":"Mrs. Carrie Wolff MD","party":"","address":"1447 N 1130 E, Payson, UT 84651","precinct":"25PA01","hd":"65","v_score":"19.746806","decile":"10","lat":40.064180028752816,"lng":-111.71388628640257},{"vid":"1429656","name":"Freida Hand","party":"Dem","address":"961 E 100 S, Payson, UT 84651","precinct":"25PA01","hd":"65","v_score":"8.761771632","decile":"8","lat":40.042978455591374,"lng":-111.71674468650001},{"vid":"1432553","name":"Loney Hermann DDS","party":"Rep","address":"1640 N 1300 E, Payson, UT 84651","precinct":"25PA01","hd":"65","v_score":"0","decile":"1","lat":40.067293046351146,"lng":-111.7107915510822},{"vid":"de869bb936be1d67a122d68244ae31222fe60ee0e648355510896dbbf2d57257","name":"Cohen Lesch DDS","party":"","address":"45 S 900 E, Payson, UT 84651","precinct":"25PA01","hd":"65","v_score":"3.93832808","decile":"6","lat":40.043295864144476,"lng":-111.71709417225844},{"vid":"1443589","name":"Rashida Yost PhD","party":"Dem","address":"252 N 900 E, Apt 205, Payson, UT 84651","precinct":"25PA01","hd":"65","v_score":"2.315214949","decile":"5","lat":40.04641287922476,"lng":-111.7166496296654},{"vid":"1445657","name":"Omar Senger","party":"","address":"1645 N 1350 E, Payson, UT 84651","precinct":"25PA01","hd":"65","v_score":"6.657533174","decile":"7","lat":40.067426510422465,"lng":-111.70995962381286},{"vid":"ee17e10271897522b0b3502c21781ea34d551d140e893dd2828929c993f3b86d","name":"Mae Mayer","party":"","address":"1788 N 1300 E, Payson, UT 84651","precinct":"25PA01","hd":"65","v_score":"4.833280139","decile":"7","lat":40.07051903246005,"lng":-111.7095229364296},{"vid":"708dc9c01c492b7f37f95f6f64e0a3c1db8f72d3ad5182f5809391964ccb5e88","name":"Melissia Brekke","party":"","address":"1266 E 1470 N, Payson, UT 84651","precinct":"25PA01","hd":"65","v_score":"2.587603312","decile":"5","lat":40.06377901954668,"lng":-111.70992332400041},{"vid":"1dd1a305c2d58af42178ba8c8e80c216176c3a5a7cdc48e5d2bd1a3d10f8bc7e","name":"Katlynn Grimes","party":"","address":"1339 E 1590 N, Payson, UT 84651","precinct":"25PA01","hd":"65","v_score":"2.587603312","decile":"5","lat":40.06668120533479,"lng":-111.70999514679247},{"vid":"1473411","name":"Makai Hills","party":"Dem","address":"1461 E 100 S, Unit G103, Payson, UT 84651","precinct":"25PA01","hd":"65","v_score":"2.660162957","decile":"5","lat":40.04368908324543,"lng":-111.70568704663707},{"vid":"1473597","name":"Olympia Stoltenberg","party":"","address":"1719 N 1260 E, Payson, UT 84651","precinct":"25PA01","hd":"65","v_score":"3.93832808","decile":"6","lat":40.069185291751836,"lng":-111.71032214110173},{"vid":"1476666","name":"Della Klein","party":"","address":"1515 N 1190 E, Payson, UT 84651","precinct":"25PA01","hd":"65","v_score":"5.659072284","decile":"7","lat":40.065410492706256,"lng":-111.71264684379446},{"vid":"3049e1aa8b97568a5ce7a05fcf37a56c61bde521c1a9214045a8d7894b8f6e5f","name":"Abram Ankunding","party":"Rep","address":"1733 N 1310 E, Payson, UT 84651","precinct":"25PA01","hd":"65","v_score":"7.650280567","decile":"8","lat":40.06954236150706,"lng":-111.70909805118094},{"vid":"1484658","name":"Nonie Thompson-Tremblay","party":"","address":"1461 E 100 S, Payson, UT 84651","precinct":"25PA01","hd":"65","v_score":"4.13679489","decile":"7","lat":40.04368908324543,"lng":-111.70568704663707},{"vid":"1498024","name":"Dr. Jessika Volkman DVM","party":"","address":"252 N 900 E, Apt 106, Payson, UT 84651","precinct":"25PA01","hd":"65","v_score":"1.121327652","decile":"3","lat":40.04641287922476,"lng":-111.7166496296654},{"vid":"b73e44d775a2a6cd8cc50b6c7ae45fff398eed437d9891aceb6b9617eebc5b4c","name":"Dr. Tre Mosciski","party":"Dem","address":"957 E 100 S, Payson, UT 84651","precinct":"25PA01","hd":"65","v_score":"2.315214949","decile":"5","lat":40.04299774659839,"lng":-111.71680991362194},{"vid":"1513489","name":"Maybelle Ernser","party":"Rep","address":"1461 E 100 S, Unit G103, Payson, UT 84651","precinct":"25PA01","hd":"65","v_score":"1.193887297","decile":"3","lat":40.04368908324543,"lng":-111.70568704663707},{"vid":"1518123","name":"Osborne Turcotte","party":"Rep","address":"1486 N 1130 E, Payson, UT 84651","precinct":"25PA01","hd":"65","v_score":"0","decile":"1","lat":40.064819265477766,"lng":-111.71311496753717},{"vid":"1519054","name":"Mrs. Ronna Corwin","party":"Rep","address":"18 S 1000 E, Payson, UT 84651","precinct":"25PA01","hd":"65","v_score":"0","decile":"1","lat":40.04355860542146,"lng":-111.71648090764539},{"vid":"1521467","name":"Dr. Maya Gottlieb DDS","party":"","address":"1787 N 1280 E, Payson, UT 84651","precinct":"25PA01","hd":"65","v_score":"5.258122542","decile":"7","lat":40.07046105576173,"lng":-111.70975860187285},{"vid":"1526331","name":"Charls Grant","party":"","address":"1347 E 50 S, Apt A205, Payson, UT 84651","precinct":"25PA01","hd":"65","v_score":"20.1197381","decile":"10","lat":40.04517667838413,"lng":-111.70746915748177},{"vid":"7db696a27eef2264c054700707adc7900cee3e7c7b6b603f0caffa2dc9afc32c","name":"Chadwick Gottlieb","party":"Rep","address":"1363 E 100 S, Apt 119, Payson, UT 84651","precinct":"25PA01","hd":"65","v_score":"1.193887297","decile":"3","lat":40.043391202141045,"lng":-111.70761180803176},{"vid":"18f60de8ac933240600f4ff3d329638fc2372fd3ad5b2daf6c54f22b31c2fa12","name":"Rondal Schumm-McLaughlin","party":"Dem","address":"1461 E 100 S, Payson, UT 84651","precinct":"25PA01","hd":"65","v_score":"2.660162957","decile":"5","lat":40.04368908324543,"lng":-111.70568704663707},{"vid":"1548576","name":"Janiya Wunsch","party":"Dem","address":"1232 E 1475 N, Payson, UT 84651","precinct":"25PA01","hd":"65","v_score":"1.193887297","decile":"3","lat":40.06426447168462,"lng":-111.71116388048927},{"vid":"1548615","name":"Mr. Octavius Deckow PhD","party":"","address":"1232 E 1475 N, Payson, UT 84651","precinct":"25PA01","hd":"65","v_score":"1.193887297","decile":"3","lat":40.06426447168462,"lng":-111.71116388048927},{"vid":"1553265","name":"Marcelo Cormier","party":"","address":"1535 N 1130 E, Payson, UT 84651","precinct":"25PA01","hd":"65","v_score":"2.817000428","decile":"6","lat":40.06580782191061,"lng":-111.71335369661793},{"vid":"1587241","name":"Theodosia Lemke DVM","party":"Rep","address":"919 E 100 S, Payson, UT 84651","precinct":"25PA01","hd":"65","v_score":"11.47802244","decile":"9","lat":40.04298617751948,"lng":-111.71710687731115},{"vid":"1594948","name":"Dina Gorczany","party":"","address":"252 N 900 E, Apt 601, Payson, UT 84651","precinct":"25PA01","hd":"65","v_score":"4.732607667","decile":"7","lat":40.04641287922476,"lng":-111.7166496296654},{"vid":"6dc494d74e34359fcf2c6895f932b640c41dba084413f9bf606ec88a0da8d6cd","name":"Dr. Wm Morar","party":"Dem","address":"1309 E 1775 N, Payson, UT 84651","precinct":"25PA01","hd":"65","v_score":"8.618008907","decile":"8","lat":40.07016367753072,"lng":-111.70917307757517},{"vid":"1609138","name":"Irma Wolff","party":"Rep","address":"1479 N 1210 E, Payson, UT 84651","precinct":"25PA01","hd":"65","v_score":"3.781490609","decile":"6","lat":40.06477266883364,"lng":-111.71194938354337},{"vid":"1cebb349bac914922af15c578ee17e55bb06632d2e30fa4a4bc732a06f4639d7","name":"Sarina Gutmann","party":"Dem","address":"957 E 100 S, Payson, UT 84651","precinct":"25PA01","hd":"65","v_score":"2.315214949","decile":"5","lat":40.04299774659839,"lng":-111.71680991362194},{"vid":"1626490","name":"Gage Mayert-Bins","party":"Dem","address":"1302 E 1700 N, Payson, UT 84651","precinct":"25PA01","hd":"65","v_score":"5.40460374","decile":"7","lat":40.06869065543213,"lng":-111.70939514620385},{"vid":"1628028","name":"Miss Maryann Kunde DDS","party":"","address":"1235 E 1750 N, Payson, UT 84651","precinct":"25PA01","hd":"65","v_score":"1.193887297","decile":"3","lat":40.06975928487476,"lng":-111.71106221885428},{"vid":"1629656","name":"Claribel Barrows","party":"","address":"915 E 300 N, Trlr 4, Payson, UT 84651","precinct":"25PA01","hd":"65","v_score":"1.193887297","decile":"3","lat":40.04782053121912,"lng":-111.71686364754844},{"vid":"1631958","name":"Clemence Hackett","party":"Rep","address":"1489 N Arrow Park Dr, Payson, UT 84651","precinct":"25PA01","hd":"65","v_score":"6.027167436","decile":"7","lat":40.064787692894036,"lng":-111.70947255130702},{"vid":"351f071c732d518192e35df74fa9a360bf4af745883b74f56dcf2317a9232505","name":"Miss Margaretha Hamill DVM","party":"","address":"1636 N 1330 E, Payson, UT 84651","precinct":"25PA01","hd":"65","v_score":"5.762862305","decile":"7","lat":40.06718103430765,"lng":-111.7102197047726},{"vid":"dfc5d3608cb5e58546c49a46d32741eed707d00f6c113e722b2f011ea283e26a","name":"Avon Quigley","party":"Dem","address":"911 E 100 S, Payson, UT 84651","precinct":"25PA01","hd":"65","v_score":"9.175598364","decile":"8","lat":40.0429969375006,"lng":-111.71724376277382},{"vid":"f1058a83189602e6225959f474e2c7b5cab4613a23720c8a191d4b372866908c","name":"Zelpha Kuphal","party":"Rep","address":"1445 N 1210 E, Payson, UT 84651","precinct":"25PA01","hd":"65","v_score":"6.724398202","decile":"8","lat":40.06413206865159,"lng":-111.7121214312821},{"vid":"1656467","name":"Julien Pfannerstill-Daugherty","party":"","address":"14 S 1000 E, Payson, UT 84651","precinct":"25PA01","hd":"65","v_score":"3.781490609","decile":"6","lat":40.04361555888615,"lng":-111.71648108700903},{"vid":"1664206","name":"Mrs. Lorrie Ebert MD","party":"Rep","address":"1474 N 1190 E, Payson, UT 84651","precinct":"25PA01","hd":"65","v_score":"13.55472233","decile":"9","lat":40.06458932915907,"lng":-111.71227213729546},{"vid":"1678159","name":"Tyshawn Hauck","party":"Dem","address":"1610 N 1280 E, Payson, UT 84651","precinct":"25PA01","hd":"65","v_score":"9.922841811","decile":"9","lat":40.06646410650417,"lng":-111.7114292636651},{"vid":"1679038","name":"Miss Danyell Zboncak","party":"Rep","address":"1785 N 1220 E, Payson, UT 84651","precinct":"25PA01","hd":"65","v_score":"5.273794831","decile":"7","lat":40.070458898775115,"lng":-111.71126967174368},{"vid":"1680692","name":"Mechelle Bogisich","party":"","address":"977 E 100 S, Payson, UT 84651","precinct":"25PA01","hd":"65","v_score":"0","decile":"1","lat":40.04299301988094,"lng":-111.71651289848921},{"vid":"1694857","name":"Robin Lemke","party":"Rep","address":"1620 N 1280 E, Payson, UT 84651","precinct":"25PA01","hd":"65","v_score":"20.6943555","decile":"10","lat":40.066753333316136,"lng":-111.71155394767058},{"vid":"1702710","name":"Dr. Chyna Conroy","party":"Rep","address":"1732 N 1260 E, Payson, UT 84651","precinct":"25PA01","hd":"65","v_score":"9.897826925","decile":"8","lat":40.06939224464151,"lng":-111.71074307023403},{"vid":"1704643","name":"Theda Pouros","party":"","address":"1515 N 1190 E, Payson, UT 84651","precinct":"25PA01","hd":"65","v_score":"11.49626043","decile":"9","lat":40.065410492706256,"lng":-111.71264684379446},{"vid":"1707773","name":"Esker Feest","party":"Rep","address":"1739 N 1260 E, Payson, UT 84651","precinct":"25PA01","hd":"65","v_score":"1.46627566","decile":"4","lat":40.069509965322105,"lng":-111.71036347064748},{"vid":"1715599","name":"Alba Parisian","party":"","address":"1443 N 1190 E, Payson, UT 84651","precinct":"25PA01","hd":"65","v_score":"11.57658879","decile":"9","lat":40.06405753552876,"lng":-111.71296940153414},{"vid":"1715849","name":"Lanny Towne","party":"","address":"1794 N 1280 E, Payson, UT 84651","precinct":"25PA01","hd":"65","v_score":"1.193887297","decile":"3","lat":40.07057177338736,"lng":-111.71006727977306},{"vid":"1716827","name":"Mr. Franklin Lesch","party":"Rep","address":"1636 N 1330 E, Payson, UT 84651","precinct":"25PA01","hd":"65","v_score":"9.129866784","decile":"8","lat":40.06718103430765,"lng":-111.7102197047726},{"vid":"1719996","name":"Mrs. Izetta Stehr PhD","party":"Dem","address":"1441 N 1130 E, Payson, UT 84651","precinct":"25PA01","hd":"65","v_score":"0","decile":"1","lat":40.064055642167176,"lng":-111.7139196985209},{"vid":"1720045","name":"Gertrude Kiehn-Rowe","party":"Rep","address":"1612 N 1300 E, Payson, UT 84651","precinct":"25PA01","hd":"65","v_score":"0","decile":"1","lat":40.0665992103217,"lng":-111.71063154424178},{"vid":"1728958","name":"Dr. Nery Spencer","party":"","address":"252 N 900 E, Apt 102, Payson, UT 84651","precinct":"25PA01","hd":"65","v_score":"2.315214949","decile":"5","lat":40.04641287922476,"lng":-111.7166496296654},{"vid":"1738787","name":"Lorine Champlin","party":"","address":"1485 N 1130 E, Payson, UT 84651","precinct":"25PA01","hd":"65","v_score":"12.05946382","decile":"9","lat":40.064818073176795,"lng":-111.7137149088669},{"vid":"1740565","name":"Demetri Cremin","party":"Dem","address":"1235 E 1750 N, Payson, UT 84651","precinct":"25PA01","hd":"65","v_score":"8.363183621","decile":"8","lat":40.06975928487476,"lng":-111.71106221885428},{"vid":"74a2f6d75aa0057b73ca6394753ec690b6f603841154421eb6f296a22fabd202","name":"Rico Marks","party":"","address":"1508 N 1350 E, Payson, UT 84651","precinct":"25PA01","hd":"65","v_score":"34.09981536","decile":"10","lat":40.06535933933157,"lng":-111.70816052227273},{"vid":"1747367","name":"Dr. Dell Nicolas","party":"Dem","address":"1791 N 1280 E, Payson, UT 84651","precinct":"25PA01","hd":"65","v_score":"22.86804183","decile":"10","lat":40.07051862019352,"lng":-111.70980569233002},{"vid":"1750971","name":"Ms. Lora Welch","party":"","address":"952 E 100 N, Unit 2, Payson, UT 84651","precinct":"25PA01","hd":"65","v_score":"1.121327652","decile":"3","lat":40.04410879357614,"lng":-111.71652856816206},{"vid":"1756109","name":"Almon Padberg","party":"","address":"1363 E 100 S, Apt 169, Payson, UT 84651","precinct":"25PA01","hd":"65","v_score":"15.47563559","decile":"9","lat":40.043391202141045,"lng":-111.70761180803176},{"vid":"fa8d193c85d32ad9e1be672e175dfe0a398c6e84bfb7d990ccbeb299818d7ab4","name":"Jermaine Corwin","party":"","address":"1461 E 100 S, Unit A304, Payson, UT 84651","precinct":"25PA01","hd":"65","v_score":"1.46627566","decile":"4","lat":40.04368908324543,"lng":-111.70568704663707},{"vid":"1758691","name":"Ms. Sharde Corkery DDS","party":"Rep","address":"1363 E 100 S, Apt 154, Payson, UT 84651","precinct":"25PA01","hd":"65","v_score":"0","decile":"1","lat":40.043391202141045,"lng":-111.70761180803176},{"vid":"1762548","name":"Landan Schuppe","party":"Dem","address":"1508 N 1350 E, Payson, UT 84651","precinct":"25PA01","hd":"65","v_score":"25.72841211","decile":"10","lat":40.06535933933157,"lng":-111.70816052227273},{"vid":"1762965","name":"Jaquan Goldner","party":"","address":"1467 N 1210 E, Payson, UT 84651","precinct":"25PA01","hd":"65","v_score":"3.781490609","decile":"6","lat":40.06451464242216,"lng":-111.71201867015208},{"vid":"1764496","name":"Colter Huels Sr.","party":"Dem","address":"252 N 900 E, Apt 404, Payson, UT 84651","precinct":"25PA01","hd":"65","v_score":"5.40460374","decile":"7","lat":40.04641287922476,"lng":-111.7166496296654},{"vid":"1765866","name":"Ottis Yost-Crooks","party":"Rep","address":"1694 N 1330 E, Unit 205, Payson, UT 84651","precinct":"25PA01","hd":"65","v_score":"2.587603312","decile":"5","lat":40.069035136981455,"lng":-111.70834259685849},{"vid":"b5e284d30514e47d642884b14f63324d65f76f0778cfb6d332eae15efc6dbcf0","name":"Brant Denesik-Olson","party":"","address":"1183 N 1475 E, Payson, UT 84651","precinct":"25PA01","hd":"65","v_score":"5.273794831","decile":"7","lat":40.05993516391772,"lng":-111.70522091385074},{"vid":"1778098","name":"Pinkey Doyle","party":"","address":"1461 E 100 S, Unit H308, Payson, UT 84651","precinct":"25PA01","hd":"65","v_score":"1.46627566","decile":"4","lat":40.04368908324543,"lng":-111.70568704663707},{"vid":"1778259","name":"Miss Hailie Predovic","party":"","address":"1461 E 100 S, Unit A304, Payson, UT 84651","precinct":"25PA01","hd":"65","v_score":"1.46627566","decile":"4","lat":40.04368908324543,"lng":-111.70568704663707},{"vid":"1783696","name":"Clyde Purdy","party":"","address":"1633 N 1300 E, Payson, UT 84651","precinct":"25PA01","hd":"65","v_score":"2.315214949","decile":"5","lat":40.06709407263047,"lng":-111.71132911247037},{"vid":"1798357","name":"Nelle Feest","party":"","address":"1694 N 1330 E, Unit 101, Payson, UT 84651","precinct":"25PA01","hd":"65","v_score":"26.47016297","decile":"10","lat":40.069035136981455,"lng":-111.70834259685849},{"vid":"1799037","name":"Allyssa Champlin","party":"Dem","address":"1472 N 1130 E, Payson, UT 84651","precinct":"25PA01","hd":"65","v_score":"0","decile":"1","lat":40.064528503474016,"lng":-111.71322664827919},{"vid":"1799250","name":"Mr. Erling Swaniawski III","party":"Rep","address":"1474 N 1190 E, Payson, UT 84651","precinct":"25PA01","hd":"65","v_score":"19.56945563","decile":"10","lat":40.06458932915907,"lng":-111.71227213729546},{"vid":"1799433","name":"Miss Alethea Herman","party":"Dem","address":"1485 N 1130 E, Payson, UT 84651","precinct":"25PA01","hd":"65","v_score":"1.193887297","decile":"3","lat":40.064818073176795,"lng":-111.7137149088669},{"vid":"1799456","name":"Signe Sawayn-Rutherford","party":"Dem","address":"1548 N 1350 E, Payson, UT 84651","precinct":"25PA01","hd":"65","v_score":"2.315214949","decile":"5","lat":40.0660221350406,"lng":-111.70849110775308},{"vid":"4b2a68dd8aa18bf3c50464ce4a39721e3b930f4b5e53bb96246acc86f56b8935","name":"Deanne Conroy","party":"Rep","address":"1631 N 1320 E, Payson, UT 84651","precinct":"25PA01","hd":"65","v_score":"19.59045283","decile":"10","lat":40.06701983845352,"lng":-111.71053005599458},{"vid":"1802184","name":"Benjamen Shields","party":"","address":"1229 E 1420 N, Payson, UT 84651","precinct":"25PA01","hd":"65","v_score":"12.16725927","decile":"9","lat":40.06404344651948,"lng":-111.71123138783484},{"vid":"1804537","name":"Hattie Ruecker","party":"","address":"1785 N 1220 E, Payson, UT 84651","precinct":"25PA01","hd":"65","v_score":"5.273794831","decile":"7","lat":40.070458898775115,"lng":-111.71126967174368},{"vid":"1814305","name":"Math Bauch","party":"","address":"1796 N 1260 E, Payson, UT 84651","precinct":"25PA01","hd":"65","v_score":"8.347511332","decile":"8","lat":40.0705710278612,"lng":-111.71057096949468},{"vid":"1817238","name":"Brigitte Gerlach","party":"","address":"1694 N 1330 E, Unit 203, Payson, UT 84651","precinct":"25PA01","hd":"65","v_score":"15.4533012","decile":"9","lat":40.069035136981455,"lng":-111.70834259685849},{"vid":"1824208","name":"Darwyn Kozey II","party":"Rep","address":"1303 E 1775 N, Payson, UT 84651","precinct":"25PA01","hd":"65","v_score":"2.315214949","decile":"5","lat":40.07015569711655,"lng":-111.70931594893177},{"vid":"1834258","name":"Carson Stoltenberg","party":"Rep","address":"1366 N 1400 E, Payson, UT 84651","precinct":"25PA01","hd":"65","v_score":"12.51600754","decile":"9","lat":40.062713101902396,"lng":-111.70650958341776},{"vid":"1836150","name":"Dr. Carma Jones MD","party":"Dem","address":"214 N 1140 E, Payson, UT 84651","precinct":"25PA01","hd":"65","v_score":"3.93832808","decile":"6","lat":40.04574945761985,"lng":-111.71298502266798},{"vid":"1836540","name":"Trumaine Renner","party":"","address":"1244 N 1475 E, Payson, UT 84651","precinct":"25PA01","hd":"65","v_score":"0","decile":"1","lat":40.06096336607596,"lng":-111.70479482931736},{"vid":"1842145","name":"Janae Schoen","party":"Dem","address":"1363 E 100 S, Apt 153, Payson, UT 84651","precinct":"25PA01","hd":"65","v_score":"2.660162957","decile":"5","lat":40.043391202141045,"lng":-111.70761180803176},{"vid":"1847322","name":"Mrs. Ashlyn Skiles PhD","party":"","address":"1751 N 1280 E, Payson, UT 84651","precinct":"25PA01","hd":"65","v_score":"1.193887297","decile":"3","lat":40.06976378595799,"lng":-111.70975945257742},{"vid":"1850362","name":"Mr. Tavon Cartwright","party":"","address":"1712 N 1310 E, Payson, UT 84651","precinct":"25PA01","hd":"65","v_score":"2.315214949","decile":"5","lat":40.0690216870836,"lng":-111.70945310326019},{"vid":"1854607","name":"Cristopher Kulas-Kohler","party":"Dem","address":"1607 N 1300 E, Payson, UT 84651","precinct":"25PA01","hd":"65","v_score":"5.331806201","decile":"7","lat":40.06643043802971,"lng":-111.71110884304744},{"vid":"1858671","name":"Jillian Eichmann","party":"Dem","address":"1354 N 1400 E, Payson, UT 84651","precinct":"25PA01","hd":"65","v_score":"16.93850135","decile":"9","lat":40.06249571170592,"lng":-111.70650412130152},{"vid":"48c730fd31109d6eac252c34c3d625e114c29d3926bec98b960549caed76be24","name":"Gaylene Dickinson","party":"Dem","address":"915 E 100 S, Payson, UT 84651","precinct":"25PA01","hd":"65","v_score":"3.781490609","decile":"6","lat":40.04297764660798,"lng":-111.71717853430438},{"vid":"1860570","name":"Felipe Wehner","party":"","address":"1364 N 1440 E, Payson, UT 84651","precinct":"25PA01","hd":"65","v_score":"7.650280567","decile":"8","lat":40.06258096829496,"lng":-111.70563865363441},{"vid":"1868201","name":"Besse Wehner","party":"Dem","address":"1358 N 1400 E, Payson, UT 84651","precinct":"25PA01","hd":"65","v_score":"1.193887297","decile":"3","lat":40.062627016469655,"lng":-111.7065374737717},{"vid":"1872315","name":"Ellamae Hills","party":"Dem","address":"1608 N 1280 E, Payson, UT 84651","precinct":"25PA01","hd":"65","v_score":"6.364334873","decile":"7","lat":40.06641312413172,"lng":-111.71139327949044},{"vid":"1872852","name":"Miss Dorotha Jaskolski MD","party":"Rep","address":"1347 E 50 S, Apt B203, Payson, UT 84651","precinct":"25PA01","hd":"65","v_score":"4.192796624","decile":"7","lat":40.04517667838413,"lng":-111.70746915748177},{"vid":"1873096","name":"Edie Mills","party":"","address":"1363 E 100 S, Apt 169, Payson, UT 84651","precinct":"25PA01","hd":"65","v_score":"16.20717711","decile":"9","lat":40.043391202141045,"lng":-111.70761180803176},{"vid":"e304e7d0270a9dac01364fbf05c66f665b82bc6458aebcff5d64991d3c3b1fb2","name":"Mr. Darius Rempel","party":"Dem","address":"1640 N 1300 E, Payson, UT 84651","precinct":"25PA01","hd":"65","v_score":"5.40460374","decile":"7","lat":40.067293046351146,"lng":-111.7107915510822},{"vid":"1873691","name":"Demetrios Quigley","party":"","address":"1706 N 1230 E, Payson, UT 84651","precinct":"25PA01","hd":"65","v_score":"2.315214949","decile":"5","lat":40.06891795861485,"lng":-111.71101337782453},{"vid":"1873879","name":"Ms. Anita Kemmer MD","party":"","address":"1254 E 1530 N, Payson, UT 84651","precinct":"25PA01","hd":"65","v_score":"3.781490609","decile":"6","lat":40.065013331228464,"lng":-111.71077435579537},{"vid":"1877392","name":"Dana Nicolas-Mertz","party":"Rep","address":"1461 E 100 S, Unit E201, Payson, UT 84651","precinct":"25PA01","hd":"65","v_score":"5.530510904","decile":"7","lat":40.04368908324543,"lng":-111.70568704663707},{"vid":"1882055","name":"Ms. Lisa Gislason","party":"Dem","address":"1788 N 1260 E, Payson, UT 84651","precinct":"25PA01","hd":"65","v_score":"8.761771632","decile":"8","lat":40.07045986678719,"lng":-111.71057716177445},{"vid":"3a61222465564cc7c75423b815a662b45a65f75a19541750030b168cf13e500b","name":"Orpha Christiansen","party":"Rep","address":"1509 N 1190 E, Payson, UT 84651","precinct":"25PA01","hd":"65","v_score":"3.781490609","decile":"6","lat":40.06528149323975,"lng":-111.71268148624542},{"vid":"1902931","name":"Jaylen Mertz","party":"Rep","address":"1468 N 1190 E, Payson, UT 84651","precinct":"25PA01","hd":"65","v_score":"2.660162957","decile":"5","lat":40.064463891813425,"lng":-111.71230584942114},{"vid":"1903448","name":"Kyler McLaughlin","party":"Rep","address":"1736 N 1260 E, Payson, UT 84651","precinct":"25PA01","hd":"65","v_score":"10.87160818","decile":"9","lat":40.069517254298574,"lng":-111.71071555974946},{"vid":"1913476","name":"Ivey Schneider II","party":"Rep","address":"1481 N 1190 E, Payson, UT 84651","precinct":"25PA01","hd":"65","v_score":"16.11238254","decile":"9","lat":40.06476442291188,"lng":-111.7128138161716},{"vid":"1917171","name":"Dayna Rowe-Schiller","party":"","address":"1343 E 1590 N, Payson, UT 84651","precinct":"25PA01","hd":"65","v_score":"2.315214949","decile":"5","lat":40.066717276553526,"lng":-111.70995005567713},{"vid":"1920102","name":"Mr. Derik Bosco","party":"","address":"1504 N 1130 E, Payson, UT 84651","precinct":"25PA01","hd":"65","v_score":"5.331806201","decile":"7","lat":40.06521422261695,"lng":-111.71304683125113},{"vid":"1922184","name":"Payten Lakin DDS","party":"Dem","address":"1492 N 1130 E, Payson, UT 84651","precinct":"25PA01","hd":"65","v_score":"3.93832808","decile":"6","lat":40.064947252544385,"lng":-111.71311853801105},{"vid":"1925987","name":"Kaliyah Crooks","party":"Dem","address":"294 N 1140 E, Payson, UT 84651","precinct":"25PA01","hd":"65","v_score":"15.0180437","decile":"9","lat":40.046751005610936,"lng":-111.71280694747327},{"vid":"b48e18a0af58254f40b0b71aaf1ad1b63769adf650cc45bfd2d229a5b857cccd","name":"Mariel Dicki-Becker","party":"","address":"1363 E 100 S, Apt 198, Payson, UT 84651","precinct":"25PA01","hd":"65","v_score":"21.00794067","decile":"10","lat":40.043391202141045,"lng":-111.70761180803176},{"vid":"1927414","name":"Alma Satterfield","party":"Dem","address":"1461 E 100 S, Unit H308, Payson, UT 84651","precinct":"25PA01","hd":"65","v_score":"1.46627566","decile":"4","lat":40.04368908324543,"lng":-111.70568704663707},{"vid":"1937578","name":"Fremont Dietrich","party":"Dem","address":"1733 N 1310 E, Payson, UT 84651","precinct":"25PA01","hd":"65","v_score":"7.650280567","decile":"8","lat":40.06954236150706,"lng":-111.70909805118094},{"vid":"28b46d33c948b39764ecb612aca062a51e4c4a12eb32d18a1719813e23fec992","name":"Mr. Duard O'Hara V","party":"","address":"1265 E 1750 N, Payson, UT 84651","precinct":"25PA01","hd":"65","v_score":"3.781490609","decile":"6","lat":40.06981396591135,"lng":-111.71029242016091},{"vid":"1945007","name":"Charley Cartwright","party":"","address":"1694 N 1330 E, Unit 203, Payson, UT 84651","precinct":"25PA01","hd":"65","v_score":"7.995565619","decile":"8","lat":40.069035136981455,"lng":-111.70834259685849},{"vid":"1945954","name":"Ignatius Bernier","party":"","address":"1623 N 1320 E, Payson, UT 84651","precinct":"25PA01","hd":"65","v_score":"5.463645877","decile":"7","lat":40.066863833342715,"lng":-111.71050321020165},{"vid":"1947126","name":"Miss Carla Lebsack MD","party":"Dem","address":"1366 N 1400 E, Payson, UT 84651","precinct":"25PA01","hd":"65","v_score":"7.934314529","decile":"8","lat":40.062713101902396,"lng":-111.70650958341776},{"vid":"1949059","name":"Ilah Ondricka","party":"Rep","address":"1338 N 1400 E, Payson, UT 84651","precinct":"25PA01","hd":"65","v_score":"6.528952915","decile":"7","lat":40.06224274308738,"lng":-111.70652781418747},{"vid":"1951071","name":"Dr. Abdiel Pacocha","party":"Dem","address":"1438 N 1190 E, Payson, UT 84651","precinct":"25PA01","hd":"65","v_score":"5.40460374","decile":"7","lat":40.06387612285089,"lng":-111.71256462511342},{"vid":"1df371a028fb18a5f1d0e3828e68ea297edd600259cfca2709b6964e24030710","name":"Lovina Johns","party":"Rep","address":"1312 N 1390 E, Payson, UT 84651","precinct":"25PA01","hd":"65","v_score":"5.40460374","decile":"7","lat":40.061927717145785,"lng":-111.70702808560986},{"vid":"1955493","name":"Dayse Kuphal","party":"","address":"1271 E 1750 N, Payson, UT 84651","precinct":"25PA01","hd":"65","v_score":"2.587603312","decile":"5","lat":40.069770834392216,"lng":-111.71008119397698},{"vid":"1955727","name":"Madonna Gottlieb DVM","party":"Dem","address":"1785 N 1300 E, Payson, UT 84651","precinct":"25PA01","hd":"65","v_score":"2.315214949","decile":"5","lat":40.070461770010624,"lng":-111.7092548765822},{"vid":"1956665","name":"Kimberly Boyer","party":"Dem","address":"1538 N 1130 E, Payson, UT 84651","precinct":"25PA01","hd":"65","v_score":"5.40460374","decile":"7","lat":40.065829358309124,"lng":-111.7128944854019},{"vid":"fe96a9899536cd73e29554c6d7348572539dac53c63cb78d24343598deea7d08","name":"Lovell Collins","party":"Rep","address":"1504 N 1130 E, Payson, UT 84651","precinct":"25PA01","hd":"65","v_score":"13.57681029","decile":"9","lat":40.06521422261695,"lng":-111.71304683125113},{"vid":"1969737","name":"Marlee Connelly","party":"Dem","address":"1608 N 1280 E, Payson, UT 84651","precinct":"25PA01","hd":"65","v_score":"6.364334873","decile":"7","lat":40.06641312413172,"lng":-111.71139327949044},{"vid":"1970159","name":"Dr. Mohammed Reynolds","party":"Dem","address":"1488 N 1190 E, Payson, UT 84651","precinct":"25PA01","hd":"65","v_score":"3.781490609","decile":"6","lat":40.0648384113149,"lng":-111.7122052674543},{"vid":"3fa8bd494b06ee29fd35a82d9f936567c1801995402cc3a2acd2bde38e0496b3","name":"Virge Kulas","party":"","address":"1495 N 1190 E, Payson, UT 84651","precinct":"25PA01","hd":"65","v_score":"18.07583379","decile":"10","lat":40.06502346634923,"lng":-111.71275080564261},{"vid":"1970866","name":"Ica Legros","party":"","address":"1536 N 1350 E, Payson, UT 84651","precinct":"25PA01","hd":"65","v_score":"2.660162957","decile":"5","lat":40.065819862764116,"lng":-111.70846435376795},{"vid":"1974072","name":"Kris Hagenes","party":"Dem","address":"1742 N 1310 E, Payson, UT 84651","precinct":"25PA01","hd":"65","v_score":"2.315214949","decile":"5","lat":40.06961761529139,"lng":-111.70955069174109},{"vid":"1986745","name":"Mr. Corry Berge DVM","party":"Rep","address":"1461 E 100 S, Unit F304, Payson, UT 84651","precinct":"25PA01","hd":"65","v_score":"0","decile":"1","lat":40.04368908324543,"lng":-111.70568704663707},{"vid":"1988640","name":"Arther Swaniawski-Toy","party":"Rep","address":"1286 E 1700 N, Payson, UT 84651","precinct":"25PA01","hd":"65","v_score":"0","decile":"1","lat":40.068690094879976,"lng":-111.70975236361218},{"vid":"1989243","name":"Mose Emard","party":"","address":"1744 N 1310 E, Payson, UT 84651","precinct":"25PA01","hd":"65","v_score":"1.121327652","decile":"3","lat":40.06966603910912,"lng":-111.70955396864554},{"vid":"1993285","name":"Orin Kerluke","party":"Rep","address":"1363 E 100 S, Apt 125, Payson, UT 84651","precinct":"25PA01","hd":"65","v_score":"14.2999073","decile":"9","lat":40.043391202141045,"lng":-111.70761180803176},{"vid":"1994361","name":"Maddux Mayer III","party":"","address":"1488 N 1190 E, Payson, UT 84651","precinct":"25PA01","hd":"65","v_score":"3.781490609","decile":"6","lat":40.0648384113149,"lng":-111.7122052674543},{"vid":"1995338","name":"Mallie Kling DVM","party":"Rep","address":"1441 N 1130 E, Payson, UT 84651","precinct":"25PA01","hd":"65","v_score":"2.315214949","decile":"5","lat":40.064055642167176,"lng":-111.7139196985209},{"vid":"2002009","name":"Amon Gottlieb","party":"","address":"915 E 300 N, Trlr 36, Payson, UT 84651","precinct":"25PA01","hd":"65","v_score":"7.169296324","decile":"8","lat":40.04782053121912,"lng":-111.71686364754844},{"vid":"2010961","name":"Brendan Bogisich","party":"Dem","address":"1640 N 1330 E, Payson, UT 84651","precinct":"25PA01","hd":"65","v_score":"9.55742766","decile":"8","lat":40.06734393553156,"lng":-111.71022016524901},{"vid":"2011705","name":"Keenan Gorczany-Kassulke","party":"","address":"1284 N 1440 E, Payson, UT 84651","precinct":"25PA01","hd":"65","v_score":"1.193887297","decile":"3","lat":40.06143312862155,"lng":-111.70560981717479},{"vid":"2022735","name":"Infant Marvin","party":"","address":"1461 E 100 S, Unit C203, Payson, UT 84651","precinct":"25PA01","hd":"65","v_score":"36.95225887","decile":"10","lat":40.04368908324543,"lng":-111.70568704663707},{"vid":"2026748","name":"Mossie Schumm","party":"","address":"1642 N 1330 E, Payson, UT 84651","precinct":"25PA01","hd":"65","v_score":"2.315214949","decile":"5","lat":40.067388642945694,"lng":-111.71022026675864},{"vid":"2027772","name":"Autumn Quigley","party":"","address":"1732 N 1260 E, Payson, UT 84651","precinct":"25PA01","hd":"65","v_score":"8.347511332","decile":"8","lat":40.06939224464151,"lng":-111.71074307023403},{"vid":"2034968","name":"Cooper Deckow","party":"Dem","address":"1222 E 1420 N, Payson, UT 84651","precinct":"25PA01","hd":"65","v_score":"0","decile":"1","lat":40.06359917354741,"lng":-111.71138311397502},{"vid":"e0f623ec5dc8d95a213b1dd3d44ce3b900fa7f90e9dee52be4061e5b4f7e544c","name":"Treasure Shields","party":"Rep","address":"1728 N 1310 E, Payson, UT 84651","precinct":"25PA01","hd":"65","v_score":"3.781490609","decile":"6","lat":40.069342421599465,"lng":-111.70950096974059},{"vid":"cd6f4e0d14362551c7fff2b268dee5891cb429aa2dc76008d820d7ba293fa1d6","name":"Dr. Tobin Schmidt DVM","party":"","address":"1728 N 1310 E, Payson, UT 84651","precinct":"25PA01","hd":"65","v_score":"7.153624035","decile":"8","lat":40.069342421599465,"lng":-111.70950096974059},{"vid":"2065607","name":"Tilla Abshire","party":"","address":"1787 N 1240 E, Payson, UT 84651","precinct":"25PA01","hd":"65","v_score":"2.817000428","decile":"6","lat":40.0704595923027,"lng":-111.71076598200061},{"vid":"2069555","name":"Effie Lang-Oberbrunner","party":"","address":"9 S 900 E, Payson, UT 84651","precinct":"25PA01","hd":"65","v_score":"5.40460374","decile":"7","lat":40.043655817284034,"lng":-111.71707718802094},{"vid":"f11896baf7a1561bbccc3d0796fe8f958bb5f2d1916bd9837d4af3c660b752e3","name":"Lute Zemlak","party":"","address":"1642 N 1300 E, Payson, UT 84651","precinct":"25PA01","hd":"65","v_score":"0","decile":"1","lat":40.067343067119126,"lng":-111.71079170235849},{"vid":"a6414efed26bac1b42511599a681b5c2163b05398f9d213e61f0e62cbbb8e125","name":"Mrs. Sherron Runolfsdottir","party":"","address":"1332 N 1525 E, Payson, UT 84651","precinct":"25PA01","hd":"65","v_score":"15.09248494","decile":"9","lat":40.062208623024716,"lng":-111.70378531691385},{"vid":"6270b902e52e0afe27d914b4f8947e8e6a0cb857133c78165ee189497f954bb6","name":"Ms. Jocelynn Bednar","party":"Rep","address":"923 E 100 S, Payson, UT 84651","precinct":"25PA01","hd":"65","v_score":"2.942907593","decile":"6","lat":40.04298629910766,"lng":-111.71704171136449},{"vid":"8d490b4e83eebab55463b5342ef2f48b500cad79d3f2cc81c3b4a1efb34c4c91","name":"Burnice Cremin","party":"Rep","address":"1363 E 100 S, # A-103, Payson, UT 84651","precinct":"25PA01","hd":"65","v_score":"0","decile":"1","lat":40.043391202141045,"lng":-111.70761180803176},{"vid":"2099380","name":"Mrs. Olivine Walsh DVM","party":"Rep","address":"949 E 100 S, Payson, UT 84651","precinct":"25PA01","hd":"65","v_score":"0","decile":"1","lat":40.04299221195224,"lng":-111.7169467470422},{"vid":"2114115","name":"Mr. Connor Larson","party":"Dem","address":"252 N 900 E, Apt 405, Payson, UT 84651","precinct":"25PA01","hd":"65","v_score":"1.46627566","decile":"4","lat":40.04641287922476,"lng":-111.7166496296654},{"vid":"2115632","name":"Lennie Tremblay","party":"Rep","address":"1715 N 1310 E, Payson, UT 84651","precinct":"25PA01","hd":"65","v_score":"2.587603312","decile":"5","lat":40.06911761996,"lng":-111.70901924913765},{"vid":"5dfa222bf7777688bf7dc4825c142cf8341cc43fbdbf2ef6dfcce5b596ac34a5","name":"Glennie Kertzmann","party":"","address":"915 E 300 N, Trlr 13, Payson, UT 84651","precinct":"25PA01","hd":"65","v_score":"6.74007049","decile":"8","lat":40.04782053121912,"lng":-111.71686364754844},{"vid":"a2fd02b945b73ddba8c328b13c896f80ac9d59f5e0c1e2eecbecb3754e7c3746","name":"Alaya Upton PhD","party":"Dem","address":"252 N 900 E, Apt 401, Payson, UT 84651","precinct":"25PA01","hd":"65","v_score":"2.587603312","decile":"5","lat":40.04641287922476,"lng":-111.7166496296654},{"vid":"978216a622f8b6ba8bd6df46a26ec97d555932d1f1fa09c525efd36bc7993642","name":"Ms. Lulah Streich DDS","party":"Dem","address":"1363 E 100 S, Apt 150, Payson, UT 84651","precinct":"25PA01","hd":"65","v_score":"2.587603312","decile":"5","lat":40.043391202141045,"lng":-111.70761180803176},{"vid":"2151314","name":"Yadiel Hagenes","party":"Dem","address":"1338 E 1590 N, Payson, UT 84651","precinct":"25PA01","hd":"65","v_score":"1.121327652","decile":"3","lat":40.066297498892176,"lng":-111.70970283640636},{"vid":"ec4ff2f632d23b31e7fb63144a600f8f68688c52130b04921e8011eb09a79389","name":"Janyce Feeney","party":"","address":"1363 E 100 S, Apt 119, Payson, UT 84651","precinct":"25PA01","hd":"65","v_score":"0","decile":"1","lat":40.043391202141045,"lng":-111.70761180803176},{"vid":"2156715","name":"Myra Schuppe-Runolfsdottir","party":"","address":"1235 E 1420 N, Payson, UT 84651","precinct":"25PA01","hd":"65","v_score":"15.51131257","decile":"9","lat":40.06404555990542,"lng":-111.71105994017071},{"vid":"b6c67d66cb7a7b7bff1101509f276ddc6973c32eecd4087c66559412881f85b8","name":"Rayshawn O'Kon","party":"Rep","address":"915 E 300 N, Trlr 25, Payson, UT 84651","precinct":"25PA01","hd":"65","v_score":"1.46627566","decile":"4","lat":40.04782053121912,"lng":-111.71686364754844},{"vid":"2166428","name":"Tory Gorczany","party":"Rep","address":"1640 N 1300 E, Payson, UT 84651","precinct":"25PA01","hd":"65","v_score":"5.40460374","decile":"7","lat":40.067293046351146,"lng":-111.7107915510822},{"vid":"2169530","name":"Ferman Bode DDS","party":"","address":"1639 N 1300 E, Payson, UT 84651","precinct":"25PA01","hd":"65","v_score":"2.660162957","decile":"5","lat":40.06725963003834,"lng":-111.71132958821815},{"vid":"e3f45009a588360711c4044e1a3759a15766f90a3d842fe1817f915e1b8bca02","name":"Anibal Koepp","party":"Dem","address":"1461 N 1130 E, Payson, UT 84651","precinct":"25PA01","hd":"65","v_score":"1.121327652","decile":"3","lat":40.06443640045136,"lng":-111.71381741652229},{"vid":"2173622","name":"Terrance Smitham","party":"","address":"1438 N 1190 E, Payson, UT 84651","precinct":"25PA01","hd":"65","v_score":"6.881235673","decile":"8","lat":40.06387612285089,"lng":-111.71256462511342},{"vid":"4c353f9cde05ad961fbb238ab23c634a938ff37ad6311b352138879aa773d209","name":"Jayden Donnelly","party":"","address":"1222 E 1420 N, Payson, UT 84651","precinct":"25PA01","hd":"65","v_score":"1.193887297","decile":"3","lat":40.06359917354741,"lng":-111.71138311397502},{"vid":"2176854","name":"Dr. Pairlee Osinski","party":"Dem","address":"1311 N 1390 E, Payson, UT 84651","precinct":"25PA01","hd":"65","v_score":"3.93832808","decile":"6","lat":40.06190984534555,"lng":-111.70723201198285},{"vid":"2178759","name":"Diandra McDermott-Bauch","party":"Rep","address":"252 N 900 E, Apt 106, Payson, UT 84651","precinct":"25PA01","hd":"65","v_score":"1.121327652","decile":"3","lat":40.04641287922476,"lng":-111.7166496296654},{"vid":"2178828","name":"Monty Satterfield-Ankunding","party":"Rep","address":"1538 N 1130 E, Payson, UT 84651","precinct":"25PA01","hd":"65","v_score":"2.817000428","decile":"6","lat":40.065829358309124,"lng":-111.7128944854019},{"vid":"7c26d5e06ed6272dc787fb64b26be966800091ad986cc2bb8d899189795e598e","name":"Mercedes McKenzie","party":"","address":"1620 N 1280 E, Payson, UT 84651","precinct":"25PA01","hd":"65","v_score":"9.527862242","decile":"8","lat":40.066753333316136,"lng":-111.71155394767058},{"vid":"2193639","name":"Dayna Jones","party":"","address":"1501 N 1130 E, Payson, UT 84651","precinct":"25PA01","hd":"65","v_score":"4.858449944","decile":"7","lat":40.06519974623897,"lng":-111.71361240175051},{"vid":"65361c0aa87e8c26259c17ea5061ff921ce18f135650b23a20f21108a504fc7a","name":"Eliot Jones Jr.","party":"","address":"1221 N 1525 E, Payson, UT 84651","precinct":"25PA01","hd":"65","v_score":"2.315214949","decile":"5","lat":40.06043830297494,"lng":-111.704305508298},{"vid":"adc970535e3e7589d8260cc9c819a62859148e7f0348faa958bb3a26c9764742","name":"Katelynn Gutkowski","party":"","address":"1246 E 1530 N, Payson, UT 84651","precinct":"25PA01","hd":"65","v_score":"3.93832808","decile":"6","lat":40.0651866351612,"lng":-111.71084142489212},{"vid":"b378602856dc1ea5d2b37591db0f805d45fccaad7f08bc866ebc10d85f05cded","name":"Ardis VonRueden","party":"Rep","address":"252 N 900 E, Apt 304, Payson, UT 84651","precinct":"25PA01","hd":"65","v_score":"2.315214949","decile":"5","lat":40.04641287922476,"lng":-111.7166496296654},{"vid":"2e90e53346041a04c859ef404eb5489a80595011fb5fb2e607ec969bb3d55ffe","name":"Mr. Lula Moore II","party":"","address":"1461 E 100 S, Unit C101, Payson, UT 84651","precinct":"25PA01","hd":"65","v_score":"4.741221742","decile":"7","lat":40.04368908324543,"lng":-111.70568704663707},{"vid":"3ffaa64c6ea57a040c85193c06cd76c6c0273688cc4e450fab927aa2b2d51db1","name":"Golden Treutel-Muller","party":"","address":"1461 E 100 S, Unit C101, Payson, UT 84651","precinct":"25PA01","hd":"65","v_score":"4.741221742","decile":"7","lat":40.04368908324543,"lng":-111.70568704663707},{"vid":"2229310","name":"Dr. Gearld Kub","party":"","address":"1234 N 1525 E, Payson, UT 84651","precinct":"25PA01","hd":"65","v_score":"3.93832808","decile":"6","lat":40.06066625000202,"lng":-111.70374661156255},{"vid":"45ddd41bba55b1d0a11e6c34d8b8df36c443c05590c46355d4babd2bffd08367","name":"Margene Stehr","party":"Dem","address":"1574 N Arrow Park Dr, Payson, UT 84651","precinct":"25PA01","hd":"65","v_score":"2.315214949","decile":"5","lat":40.06611693465748,"lng":-111.70999349393462},{"vid":"2256059","name":"Adron Breitenberg DDS","party":"","address":"22 S 1000 E, Payson, UT 84651","precinct":"25PA01","hd":"65","v_score":"17.83952671","decile":"10","lat":40.04351873487318,"lng":-111.71648078228051},{"vid":"0f7bb992b757041f89529a8336352b3e062e60e3793ca71b4f86c4ddf95aa12e","name":"Elsie Lindgren","party":"Dem","address":"1243 E 1420 N, Payson, UT 84651","precinct":"25PA01","hd":"65","v_score":"1.121327652","decile":"3","lat":40.064047678103826,"lng":-111.71088530932639},{"vid":"59d29273ff5bc1bb89759af343d1058f45be264117fb79ae47dbd8abf91bc307","name":"Hosteen Deckow","party":"","address":"1243 E 1420 N, Payson, UT 84651","precinct":"25PA01","hd":"65","v_score":"1.121327652","decile":"3","lat":40.064047678103826,"lng":-111.71088530932639},{"vid":"54f5c1b7d774c8f608b58dce4193428052aeddab4cb74ed41bb79df22ae98930","name":"Destini Goyette","party":"Rep","address":"252 N 900 E, Apt 401, Payson, UT 84651","precinct":"25PA01","hd":"65","v_score":"0","decile":"1","lat":40.04641287922476,"lng":-111.7166496296654},{"vid":"2283297","name":"Agusta Bogisich","party":"Dem","address":"1442 N 1130 E, Payson, UT 84651","precinct":"25PA01","hd":"65","v_score":"4.064235245","decile":"6","lat":40.06412598294633,"lng":-111.7133347330352},{"vid":"034e38d7c069ead55fe9cd6e7386856f089261e7054c54931a2458224aee6394","name":"Dr. Bryce Schaden I","party":"Rep","address":"915 E 300 N, Trlr 22, Payson, UT 84651","precinct":"25PA01","hd":"65","v_score":"1.121327652","decile":"3","lat":40.04782053121912,"lng":-111.71686364754844},{"vid":"2284792","name":"Keandre Maggio","party":"Rep","address":"50 S 1000 E, Payson, UT 84651","precinct":"25PA01","hd":"65","v_score":"0","decile":"1","lat":40.04325095983945,"lng":-111.71647993926153},{"vid":"2287768","name":"Dr. Benjamen Hermiston IV","party":"Rep","address":"1621 N 1300 E, Payson, UT 84651","precinct":"25PA01","hd":"65","v_score":"1.193887297","decile":"3","lat":40.066763965685126,"lng":-111.71129086579883},{"vid":"2445f0effc0f8a17f74409179967955d0399fb4f5d323b599995b4fc67437516","name":"Jamir Little","party":"Rep","address":"49 S 900 E, Payson, UT 84651","precinct":"25PA01","hd":"65","v_score":"5.258122542","decile":"7","lat":40.043244768157194,"lng":-111.71709401074136},{"vid":"2301879","name":"Dr. Docia Price DDS","party":"Dem","address":"1509 N 1190 E, Payson, UT 84651","precinct":"25PA01","hd":"65","v_score":"2.315214949","decile":"5","lat":40.06528149323975,"lng":-111.71268148624542},{"vid":"2302128","name":"Lavar Weber","party":"Dem","address":"1786 N 1300 E, Payson, UT 84651","precinct":"25PA01","hd":"65","v_score":"9.405332525","decile":"8","lat":40.070461328282086,"lng":-111.70956978254502},{"vid":"fbe937a3a1e0b613546e1f64492c689fe50f3fbfc75a05013a14d1a44f2c833d","name":"Declan Mante","party":"","address":"1347 E 50 S, Apt A310, Payson, UT 84651","precinct":"25PA01","hd":"65","v_score":"10.66687182","decile":"9","lat":40.04517667838413,"lng":-111.70746915748177},{"vid":"c485a2dc9b737eb5ea43344912c22399460ffb4b837e8ea8e2d0e5b3e35a6beb","name":"Yamilex Schumm","party":"Rep","address":"1607 N 1300 E, Payson, UT 84651","precinct":"25PA01","hd":"65","v_score":"5.331806201","decile":"7","lat":40.06643043802971,"lng":-111.71110884304744},{"vid":"073c7be727ab43a0a057e54e716e40f06ccc346bb9c8479b5a711d1c63ff038f","name":"Londyn Johnson DVM","party":"","address":"1461 E 100 S, Unit E107, Payson, UT 84651","precinct":"25PA01","hd":"65","v_score":"1.121327652","decile":"3","lat":40.04368908324543,"lng":-111.70568704663707},{"vid":"2313976","name":"Darrell Wunsch","party":"Rep","address":"1642 N 1300 E, Payson, UT 84651","precinct":"25PA01","hd":"65","v_score":"0","decile":"1","lat":40.067343067119126,"lng":-111.71079170235849},{"vid":"2315070","name":"Beecher Reilly","party":"","address":"915 E 100 S, Payson, UT 84651","precinct":"25PA01","hd":"65","v_score":"1.193887297","decile":"3","lat":40.04297764660798,"lng":-111.71717853430438},{"vid":"2319184","name":"Marissa Beer","party":"Rep","address":"1694 N 1330 E, Unit 304, Payson, UT 84651","precinct":"25PA01","hd":"65","v_score":"2.315214949","decile":"5","lat":40.069035136981455,"lng":-111.70834259685849},{"vid":"2320601","name":"French Fay","party":"","address":"1722 N 1280 E, Payson, UT 84651","precinct":"25PA01","hd":"65","v_score":"2.315214949","decile":"5","lat":40.069228288747425,"lng":-111.71011325929227},{"vid":"2323749","name":"Madison Ortiz","party":"Rep","address":"1461 E 100 S, Unit E103, Payson, UT 84651","precinct":"25PA01","hd":"65","v_score":"2.315214949","decile":"5","lat":40.04368908324543,"lng":-111.70568704663707},{"vid":"2325647","name":"Archie Vandervort","party":"","address":"1222 E 1420 N, Payson, UT 84651","precinct":"25PA01","hd":"65","v_score":"14.82009658","decile":"9","lat":40.06359917354741,"lng":-111.71138311397502},{"vid":"2327332","name":"Michel Mills","party":"","address":"1451 N 1210 E, Payson, UT 84651","precinct":"25PA01","hd":"65","v_score":"1.193887297","decile":"3","lat":40.064257478306025,"lng":-111.71208775478955},{"vid":"2332928","name":"Dusty Grant-Roberts","party":"","address":"1755 N 1310 E, Payson, UT 84651","precinct":"25PA01","hd":"65","v_score":"0","decile":"1","lat":40.06981467251348,"lng":-111.7091426400582},{"vid":"2338751","name":"Valencia Ortiz","party":"","address":"1491 N 1260 E, Payson, UT 84651","precinct":"25PA01","hd":"65","v_score":"1.193887297","decile":"3","lat":40.064870828620954,"lng":-111.71072005607712},{"vid":"2341212","name":"Lillis Armstrong","party":"Rep","address":"1461 E 100 S, Unit H103, Payson, UT 84651","precinct":"25PA01","hd":"65","v_score":"0","decile":"1","lat":40.04368908324543,"lng":-111.70568704663707},{"vid":"2344514","name":"Jerrad Shields","party":"","address":"1272 E 1470 N, Payson, UT 84651","precinct":"25PA01","hd":"65","v_score":"7.650280567","decile":"8","lat":40.063672099283906,"lng":-111.70966463273636},{"vid":"2346442","name":"Gurney Rempel","party":"Dem","address":"1722 N 1280 E, Payson, UT 84651","precinct":"25PA01","hd":"65","v_score":"1.121327652","decile":"3","lat":40.069228288747425,"lng":-111.71011325929227},{"vid":"2347487","name":"Antonette Prosacco","party":"Rep","address":"1363 E 100 S, Apt 144, Payson, UT 84651","precinct":"25PA01","hd":"65","v_score":"1.121327652","decile":"3","lat":40.043391202141045,"lng":-111.70761180803176},{"vid":"2348360","name":"Dr. Jeffery Cruickshank","party":"","address":"1618 N 1280 E, Payson, UT 84651","precinct":"25PA01","hd":"65","v_score":"3.93832808","decile":"6","lat":40.06670165103383,"lng":-111.71154061343782},{"vid":"2363027","name":"Mrs. Shameka Rodriguez","party":"Rep","address":"1502 N Arrow Park Dr, Payson, UT 84651","precinct":"25PA01","hd":"65","v_score":"2.315214949","decile":"5","lat":40.06514766659831,"lng":-111.70914989585113},{"vid":"2366223","name":"Mallorie Kohler","party":"","address":"1354 N 1400 E, Payson, UT 84651","precinct":"25PA01","hd":"65","v_score":"2.315214949","decile":"5","lat":40.06249571170592,"lng":-111.70650412130152},{"vid":"2373101","name":"Kendall Powlowski DDS","party":"","address":"1291 E 1470 N, Payson, UT 84651","precinct":"25PA01","hd":"65","v_score":"1.121327652","decile":"3","lat":40.064440850957,"lng":-111.70946022345686},{"vid":"2379528","name":"Xiomara Feeney","party":"","address":"1363 E 100 S, Apt 171, Payson, UT 84651","precinct":"25PA01","hd":"65","v_score":"1.121327652","decile":"3","lat":40.043391202141045,"lng":-111.70761180803176},{"vid":"2384915","name":"Caitlin Turner","party":"","address":"915 E 300 N, Trlr 38, Payson, UT 84651","precinct":"25PA01","hd":"65","v_score":"0","decile":"1","lat":40.04782053121912,"lng":-111.71686364754844},{"vid":"2385015","name":"Lissie Ebert","party":"","address":"49 S 900 E, Payson, UT 84651","precinct":"25PA01","hd":"65","v_score":"1.121327652","decile":"3","lat":40.043244768157194,"lng":-111.71709401074136},{"vid":"2392308","name":"Alize Dooley","party":"Dem","address":"1562 N 1350 E, Payson, UT 84651","precinct":"25PA01","hd":"65","v_score":"2.315214949","decile":"5","lat":40.066284073994446,"lng":-111.70872542955192},{"vid":"2394979","name":"Miss Vena Bode","party":"Dem","address":"1461 E 100 S, Unit E309, Payson, UT 84651","precinct":"25PA01","hd":"65","v_score":"0","decile":"1","lat":40.04368908324543,"lng":-111.70568704663707},{"vid":"2412269","name":"Lynwood King","party":"Dem","address":"1501 N 1130 E, Payson, UT 84651","precinct":"25PA01","hd":"65","v_score":"2.315214949","decile":"5","lat":40.06519974623897,"lng":-111.71361240175051},{"vid":"2416817","name":"Beaulah O'Hara-Mohr","party":"Rep","address":"1492 N 1130 E, Payson, UT 84651","precinct":"25PA01","hd":"65","v_score":"2.315214949","decile":"5","lat":40.064947252544385,"lng":-111.71311853801105},{"vid":"2417547","name":"Armand Hansen","party":"Dem","address":"1737 N 1230 E, Payson, UT 84651","precinct":"25PA01","hd":"65","v_score":"2.315214949","decile":"5","lat":40.06956143893982,"lng":-111.71099709293507},{"vid":"2429436","name":"Katia Hirthe","party":"Dem","address":"303 N 1140 E, Payson, UT 84651","precinct":"25PA01","hd":"65","v_score":"17.75698939","decile":"10","lat":40.04679111783842,"lng":-111.7136442156416},{"vid":"2430272","name":"Vita Gaylord","party":"","address":"915 E 300 N, Trlr 22, Payson, UT 84651","precinct":"25PA01","hd":"65","v_score":"0","decile":"1","lat":40.04782053121912,"lng":-111.71686364754844},{"vid":"2436508","name":"Dr. Ewald Jenkins","party":"Dem","address":"1316 E 1700 N, Payson, UT 84651","precinct":"25PA01","hd":"65","v_score":"3.93832808","decile":"6","lat":40.06869124286386,"lng":-111.70903792852602},{"vid":"2440152","name":"Dr. Evalena Kuphal","party":"Rep","address":"1461 E 100 S, Unit C203, Payson, UT 84651","precinct":"25PA01","hd":"65","v_score":"0","decile":"1","lat":40.04368908324543,"lng":-111.70568704663707},{"vid":"2442165","name":"Hayden Dare III","party":"Dem","address":"1461 E 100 S, Payson, UT 84651","precinct":"25PA01","hd":"65","v_score":"2.315214949","decile":"5","lat":40.04368908324543,"lng":-111.70568704663707},{"vid":"2442277","name":"Darius Bednar","party":"","address":"1635 N 1320 E, Payson, UT 84651","precinct":"25PA01","hd":"65","v_score":"1.121327652","decile":"3","lat":40.06711456660367,"lng":-111.71053030860085},{"vid":"2446465","name":"Vincent Muller","party":"Dem","address":"1363 E 100 S, # C117, Payson, UT 84651","precinct":"25PA01","hd":"65","v_score":"2.315214949","decile":"5","lat":40.043391202141045,"lng":-111.70761180803176},{"vid":"2453033","name":"Shanice Becker DVM","party":"Dem","address":"1312 N 1390 E, Payson, UT 84651","precinct":"25PA01","hd":"65","v_score":"3.93832808","decile":"6","lat":40.061927717145785,"lng":-111.70702808560986},{"vid":"2465623","name":"Helen Turcotte","party":"Dem","address":"1366 N 1475 E, Payson, UT 84651","precinct":"25PA01","hd":"65","v_score":"0","decile":"1","lat":40.062588920131496,"lng":-111.70469303237873},{"vid":"2467899","name":"Rayshawn Ankunding","party":"Rep","address":"1363 E 100 S, Apt 194, Payson, UT 84651","precinct":"25PA01","hd":"65","v_score":"4.639704383","decile":"7","lat":40.043391202141045,"lng":-111.70761180803176},{"vid":"2467940","name":"Ruthann Davis-Cremin","party":"","address":"1363 E 100 S, Apt 194, Payson, UT 84651","precinct":"25PA01","hd":"65","v_score":"4.639704383","decile":"7","lat":40.043391202141045,"lng":-111.70761180803176},{"vid":"2472923","name":"Isabella Glover-Huel","party":"","address":"915 E 300 N, Trlr 42, Payson, UT 84651","precinct":"25PA01","hd":"65","v_score":"17.6018287","decile":"9","lat":40.04782053121912,"lng":-111.71686364754844},{"vid":"2477640","name":"Miss Santos Runte DVM","party":"Dem","address":"1347 E 50 S, Apt B308, Payson, UT 84651","precinct":"25PA01","hd":"65","v_score":"2.817000428","decile":"6","lat":40.04517667838413,"lng":-111.70746915748177},{"vid":"2479560","name":"Darline Little","party":"Dem","address":"1461 E 100 S, Unit I202, Payson, UT 84651","precinct":"25PA01","hd":"65","v_score":"0","decile":"1","lat":40.04368908324543,"lng":-111.70568704663707},{"vid":"2488162","name":"Dink Abshire","party":"","address":"1461 E 100 S, Unit B307, Payson, UT 84651","precinct":"25PA01","hd":"65","v_score":"1.193887297","decile":"3","lat":40.04368908324543,"lng":-111.70568704663707},{"vid":"2491498","name":"Callum Cruickshank","party":"Dem","address":"1714 N 1310 E, Payson, UT 84651","precinct":"25PA01","hd":"65","v_score":"0","decile":"1","lat":40.069070110767385,"lng":-111.70945637996502},{"vid":"2496648","name":"Montie Schamberger PhD","party":"","address":"1284 N 1440 E, Payson, UT 84651","precinct":"25PA01","hd":"65","v_score":"1.623113131","decile":"5","lat":40.06143312862155,"lng":-111.70560981717479},{"vid":"2499076","name":"Miller Kunze","party":"Dem","address":"1793 N 1280 E, Payson, UT 84651","precinct":"25PA01","hd":"65","v_score":"6.724398202","decile":"8","lat":40.070572192266056,"lng":-111.70976895869948},{"vid":"2504891","name":"Miss Scarlet O'Kon","party":"Rep","address":"1226 E 1530 N, Payson, UT 84651","precinct":"25PA01","hd":"65","v_score":"0","decile":"1","lat":40.065439027112454,"lng":-111.71121274409307},{"vid":"2507813","name":"Elle Bayer","party":"","address":"1461 E 100 S, Unit B101, Payson, UT 84651","precinct":"25PA01","hd":"65","v_score":"3.711952487","decile":"6","lat":40.04368908324543,"lng":-111.70568704663707},{"vid":"2509727","name":"Polly Hirthe","party":"Rep","address":"252 N 900 E, Apt 9, Payson, UT 84651","precinct":"25PA01","hd":"65","v_score":"0","decile":"1","lat":40.04641287922476,"lng":-111.7166496296654},{"vid":"2509992","name":"Brad Gerlach","party":"Rep","address":"961 E 100 S, Payson, UT 84651","precinct":"25PA01","hd":"65","v_score":"1.193887297","decile":"4","lat":40.042978455591374,"lng":-111.71674468650001},{"vid":"2510253","name":"Mohamed Bogan","party":"Rep","address":"1363 E 100 S, Apt 114, Payson, UT 84651","precinct":"25PA01","hd":"65","v_score":"0","decile":"1","lat":40.043391202141045,"lng":-111.70761180803176},{"vid":"2512238","name":"Margrett Brekke","party":"Rep","address":"915 E 300 N, Trlr 34, Payson, UT 84651","precinct":"25PA01","hd":"65","v_score":"0","decile":"1","lat":40.04782053121912,"lng":-111.71686364754844},{"vid":"2513050","name":"Daryle Batz","party":"Rep","address":"1436 N 1130 E, Payson, UT 84651","precinct":"25PA01","hd":"65","v_score":"0","decile":"1","lat":40.06383339419244,"lng":-111.71348434517711},{"vid":"2514576","name":"Mr. Hale Kub","party":"","address":"915 E 300 N, Trlr 12, Payson, UT 84651","precinct":"25PA01","hd":"65","v_score":"1.623113131","decile":"5","lat":40.04782053121912,"lng":-111.71686364754844},{"vid":"2524686","name":"Aleena Hegmann","party":"Rep","address":"252 N 900 E, Apt 105, Payson, UT 84651","precinct":"25PA01","hd":"65","v_score":"6.528952915","decile":"7","lat":40.04641287922476,"lng":-111.7166496296654},{"vid":"2534245","name":"Eva Roberts PhD","party":"Rep","address":"1461 E 100 S, Unit H210, Payson, UT 84651","precinct":"25PA01","hd":"65","v_score":"0","decile":"1","lat":40.04368908324543,"lng":-111.70568704663707},{"vid":"2535866","name":"Dr. Esteban Hills","party":"","address":"1363 E 100 S, Apt 141, Payson, UT 84651","precinct":"25PA01","hd":"65","v_score":"0","decile":"1","lat":40.043391202141045,"lng":-111.70761180803176},{"vid":"2542255","name":"Ernestina Bartoletti","party":"","address":"1332 N 1525 E, Payson, UT 84651","precinct":"25PA01","hd":"65","v_score":"1.193887297","decile":"4","lat":40.062208623024716,"lng":-111.70378531691385},{"vid":"2542366","name":"Stevie Cremin","party":"","address":"1517 N Arrow Park Dr, Payson, UT 84651","precinct":"25PA01","hd":"65","v_score":"9.907118004","decile":"8","lat":40.06529106257068,"lng":-111.70975707888186},{"vid":"2545647","name":"Antione Fadel","party":"Rep","address":"1512 N 1190 E, Payson, UT 84651","precinct":"25PA01","hd":"65","v_score":"0","decile":"1","lat":40.06526321233945,"lng":-111.71219519804866},{"vid":"2551233","name":"Colter Orn","party":"Dem","address":"1347 E 50 S, Apt B403, Payson, UT 84651","precinct":"25PA01","hd":"65","v_score":"1.193887297","decile":"4","lat":40.04517667838413,"lng":-111.70746915748177},{"vid":"2556820","name":"Randall Harris","party":"","address":"1347 E 50 S, Apt A112, Payson, UT 84651","precinct":"25PA01","hd":"65","v_score":"1.193887297","decile":"4","lat":40.04517667838413,"lng":-111.70746915748177},{"vid":"2559088","name":"Calhoun Crist","party":"Dem","address":"22 S 1000 E, Payson, UT 84651","precinct":"25PA01","hd":"65","v_score":"10.74302793","decile":"9","lat":40.04351873487318,"lng":-111.71648078228051},{"vid":"2562036","name":"Mr. Gaston Kuphal DVM","party":"","address":"1733 N 1260 E, Payson, UT 84651","precinct":"25PA01","hd":"65","v_score":"1.623113131","decile":"5","lat":40.06940378485689,"lng":-111.71035024489541},{"vid":"2563532","name":"Devan Jakubowski-Legros","party":"Rep","address":"1436 N 1130 E, Payson, UT 84651","precinct":"25PA01","hd":"65","v_score":"0","decile":"1","lat":40.06383339419244,"lng":-111.71348434517711},{"vid":"2571251","name":"Azaria Kris","party":"","address":"1733 N 1260 E, Payson, UT 84651","precinct":"25PA01","hd":"65","v_score":"0","decile":"1","lat":40.06940378485689,"lng":-111.71035024489541},{"vid":"2573440","name":"Layla Kovacek","party":"Rep","address":"1461 E 100 S, Unit H101, Payson, UT 84651","precinct":"25PA01","hd":"65","v_score":"0","decile":"1","lat":40.04368908324543,"lng":-111.70568704663707},{"vid":"2575953","name":"Mr. Guy Hudson","party":"Dem","address":"1543 N 1350 E, Payson, UT 84651","precinct":"25PA01","hd":"65","v_score":"1.623113131","decile":"5","lat":40.06588527286703,"lng":-111.709133148419},{"vid":"2588803","name":"Mr. Durrell Cruickshank II","party":"Dem","address":"1363 E 100 S, Apt D126, Payson, UT 84651","precinct":"25PA01","hd":"65","v_score":"1.193887297","decile":"4","lat":40.043391202141045,"lng":-111.70761180803176},{"vid":"2590639","name":"Marisol Ferry-Bednar","party":"Rep","address":"1433 N 1130 E, Payson, UT 84651","precinct":"25PA01","hd":"65","v_score":"2.817000428","decile":"6","lat":40.06383321031377,"lng":-111.71383884058827},{"vid":"2590643","name":"Mckayla Goodwin","party":"Dem","address":"1620 N 1300 E, Payson, UT 84651","precinct":"25PA01","hd":"65","v_score":"0","decile":"1","lat":40.066803010467595,"lng":-111.71075950009119},{"vid":"2603710","name":"Posey Homenick","party":"","address":"1262 E 1680 N, Payson, UT 84651","precinct":"25PA01","hd":"65","v_score":"8.284004873","decile":"8","lat":40.06871000554736,"lng":-111.71038336164767},{"vid":"2605285","name":"Brandon Waelchi","party":"","address":"1473 N Arrow Park Dr, Payson, UT 84651","precinct":"25PA01","hd":"65","v_score":"1.193887297","decile":"4","lat":40.06450377311958,"lng":-111.70899290360192},{"vid":"2609392","name":"Gee Hoeger-Sawayn","party":"Rep","address":"1635 N 1300 E, Payson, UT 84651","precinct":"25PA01","hd":"65","v_score":"1.623113131","decile":"5","lat":40.06714674993743,"lng":-111.71132927650275},{"vid":"2610254","name":"Miss Sharla Lockman","party":"Rep","address":"1635 N 1300 E, Payson, UT 84651","precinct":"25PA01","hd":"65","v_score":"0","decile":"1","lat":40.06714674993743,"lng":-111.71132927650275},{"vid":"2612958","name":"Dr. Gavin Reynolds","party":"Dem","address":"1737 N 1230 E, Payson, UT 84651","precinct":"25PA01","hd":"65","v_score":"0","decile":"1","lat":40.06956143893982,"lng":-111.71099709293507},{"vid":"2616730","name":"Henri Batz-Volkman","party":"Dem","address":"1247 E 1750 N, Payson, UT 84651","precinct":"25PA01","hd":"65","v_score":"0","decile":"1","lat":40.06981335545986,"lng":-111.7107211247809},{"vid":"2620984","name":"Shamika Bernhard","party":"Dem","address":"1461 E 100 S, Unit A202, Payson, UT 84651","precinct":"25PA01","hd":"65","v_score":"2.817000428","decile":"6","lat":40.04368908324543,"lng":-111.70568704663707},{"vid":"2626521","name":"Steward Fisher","party":"Dem","address":"915 E 300 N, Trlr 25, Payson, UT 84651","precinct":"25PA01","hd":"65","v_score":"0","decile":"1","lat":40.04782053121912,"lng":-111.71686364754844},{"vid":"2638448","name":"Latricia Bauch-Adams","party":"","address":"1347 E 50 S, Apt A310, Payson, UT 84651","precinct":"25PA01","hd":"65","v_score":"6.528952915","decile":"7","lat":40.04517667838413,"lng":-111.70746915748177},{"vid":"2651886","name":"Brad Zemlak-Romaguera","party":"","address":"1338 E 1590 N, Payson, UT 84651","precinct":"25PA01","hd":"65","v_score":"4.905839784","decile":"7","lat":40.066297498892176,"lng":-111.70970283640636},{"vid":"2658337","name":"Jefferson Smith","party":"Dem","address":"1253 E 1775 N, Payson, UT 84651","precinct":"25PA01","hd":"65","v_score":"3.711952487","decile":"6","lat":40.07018502500157,"lng":-111.71055817224486},{"vid":"2661883","name":"Rico Sawayn","party":"","address":"1721 N 1280 E, Payson, UT 84651","precinct":"25PA01","hd":"65","v_score":"1.193887297","decile":"4","lat":40.069213539020986,"lng":-111.70967948077792},{"vid":"2661921","name":"Arden Weber","party":"Rep","address":"915 E 300 N, Trlr 33, Payson, UT 84651","precinct":"25PA01","hd":"65","v_score":"0","decile":"1","lat":40.04782053121912,"lng":-111.71686364754844},{"vid":"2662268","name":"Mr. Scotty Hudson II","party":"","address":"1543 N 1350 E, Payson, UT 84651","precinct":"25PA01","hd":"65","v_score":"0","decile":"1","lat":40.06588527286703,"lng":-111.709133148419},{"vid":"2663488","name":"Miss Erlene Batz DDS","party":"","address":"1481 N Arrow Park Dr, Payson, UT 84651","precinct":"25PA01","hd":"65","v_score":"1.193887297","decile":"4","lat":40.06465301150206,"lng":-111.70931650244373},{"vid":"2668306","name":"Osborne Mante","party":"","address":"1569 N Arrow Park Dr, Payson, UT 84651","precinct":"25PA01","hd":"65","v_score":"1.193887297","decile":"4","lat":40.06569136749656,"lng":-111.71017118984832},{"vid":"2668644","name":"Gracia Bartell-Reinger","party":"","address":"1461 E 100 S, Unit B103, Payson, UT 84651","precinct":"25PA01","hd":"65","v_score":"0","decile":"1","lat":40.04368908324543,"lng":-111.70568704663707},{"vid":"2669250","name":"Dr. Pandora Yost","party":"Rep","address":"1461 E 100 S, Unit H210, Payson, UT 84651","precinct":"25PA01","hd":"65","v_score":"1.193887297","decile":"4","lat":40.04368908324543,"lng":-111.70568704663707},{"vid":"2672068","name":"Cordie Okuneva-Emmerich","party":"","address":"1363 E 100 S, Apt 136, Elk Ridge, UT 84651","precinct":"25PA01","hd":"65","v_score":"0","decile":"2","lat":40.043391202141045,"lng":-111.70761180803176},{"vid":"2674596","name":"Mrs. Santos Jast","party":"","address":"1363 E 100 S, Apt 166, Payson, UT 84651","precinct":"25PA01","hd":"65","v_score":"1.193887297","decile":"4","lat":40.043391202141045,"lng":-111.70761180803176},{"vid":"2674704","name":"Dr. Violeta Pollich","party":"","address":"1363 E 100 S, Apt 148, Payson, UT 84651","precinct":"25PA01","hd":"65","v_score":"1.193887297","decile":"4","lat":40.043391202141045,"lng":-111.70761180803176},{"vid":"2677169","name":"Mr. Marquez Gibson","party":"Dem","address":"1753 N 1310 E, Payson, UT 84651","precinct":"25PA01","hd":"65","v_score":"0","decile":"2","lat":40.069767571790884,"lng":-111.70912567982572},{"vid":"2677387","name":"Claudio White","party":"Rep","address":"1461 E 100 S, Unit H109, Payson, UT 84651","precinct":"25PA01","hd":"65","v_score":"0","decile":"2","lat":40.04368908324543,"lng":-111.70568704663707},{"vid":"2681848","name":"Williams Macejkovic","party":"Rep","address":"1538 N Arrow Park Dr, Payson, UT 84651","precinct":"25PA01","hd":"65","v_score":"0","decile":"2","lat":40.065589903563314,"lng":-111.70943670020837},{"vid":"2687731","name":"Letta Mitchell","party":"Rep","address":"1461 E 100 S, Unit B103, Payson, UT 84651","precinct":"25PA01","hd":"65","v_score":"0","decile":"2","lat":40.04368908324543,"lng":-111.70568704663707},{"vid":"2689529","name":"Lucius Cummerata","party":"Rep","address":"1287 E 1775 N, Payson, UT 84651","precinct":"25PA01","hd":"65","v_score":"1.193887297","decile":"4","lat":40.07019115192267,"lng":-111.70974939016294},{"vid":"2697344","name":"Kacie Daniel","party":"","address":"1234 E 1530 N, Payson, UT 84651","precinct":"25PA01","hd":"65","v_score":"4.214075011","decile":"7","lat":40.06535620555791,"lng":-111.71101715696052},{"vid":"2697380","name":"Darla Abbott","party":"","address":"1234 E 1530 N, Payson, UT 84651","precinct":"25PA01","hd":"65","v_score":"5.407962308","decile":"7","lat":40.06535620555791,"lng":-111.71101715696052},{"vid":"2699137","name":"Roseann Heidenreich-Olson","party":"","address":"1461 E 100 S, Unit H109, Payson, UT 84651","precinct":"25PA01","hd":"65","v_score":"0","decile":"2","lat":40.04368908324543,"lng":-111.70568704663707},{"vid":"2705920","name":"Elisha Russel","party":"Rep","address":"1363 E 100 S, Apt 164, Payson, UT 84651","precinct":"25PA01","hd":"65","v_score":"0","decile":"2","lat":40.043391202141045,"lng":-111.70761180803176},{"vid":"2712096","name":"Ms. Jaunita Fay","party":"Dem","address":"1363 E 100 S, Apt 155, Payson, UT 84651","precinct":"25PA01","hd":"65","v_score":"1.193887297","decile":"4","lat":40.043391202141045,"lng":-111.70761180803176},{"vid":"2713544","name":"Dr. Emmer Connelly","party":"","address":"1694 N 1330 E, Unit 305, Payson, UT 84651","precinct":"25PA01","hd":"65","v_score":"0","decile":"2","lat":40.069035136981455,"lng":-111.70834259685849},{"vid":"2715747","name":"Ford Jacobson","party":"Rep","address":"252 N 900 E, Apt 101, Payson, UT 84651","precinct":"25PA01","hd":"65","v_score":"0","decile":"2","lat":40.04641287922476,"lng":-111.7166496296654},{"vid":"2723856","name":"Mrs. Jaden Buckridge","party":"","address":"915 E 300 N, Trlr 43, Payson, UT 84651","precinct":"25PA01","hd":"65","v_score":"0","decile":"2","lat":40.04782053121912,"lng":-111.71686364754844},{"vid":"2725768","name":"Miss Kimberlie Frami DDS","party":"","address":"1363 E 100 S, Apt A101, Payson, UT 84651","precinct":"25PA01","hd":"65","v_score":"1.193887297","decile":"4","lat":40.043391202141045,"lng":-111.70761180803176},{"vid":"2726850","name":"Patrick Wehner","party":"Rep","address":"1627 N 1350 E, Payson, UT 84651","precinct":"25PA01","hd":"65","v_score":"1.193887297","decile":"4","lat":40.06699368241787,"lng":-111.70995509756148},{"vid":"2729608","name":"Dr. Dario Zulauf","party":"Dem","address":"1641 N 1350 E, Payson, UT 84651","precinct":"25PA01","hd":"65","v_score":"0","decile":"2","lat":40.06734214013422,"lng":-111.70995939582046},{"vid":"2735065","name":"Waylon Wolf","party":"Dem","address":"1461 E 100 S, Unit A308, Payson, UT 84651","precinct":"25PA01","hd":"65","v_score":"0","decile":"2","lat":40.04368908324543,"lng":-111.70568704663707},{"vid":"2735405","name":"Dr. Presley Homenick Sr.","party":"Dem","address":"1363 E 100 S, Apt 125, Payson, UT 84651","precinct":"25PA01","hd":"65","v_score":"0","decile":"2","lat":40.043391202141045,"lng":-111.70761180803176},{"vid":"2735557","name":"Pearle Haley","party":"Dem","address":"1461 E 100 S, Payson, UT 84651","precinct":"25PA01","hd":"65","v_score":"0","decile":"2","lat":40.04368908324543,"lng":-111.70568704663707},{"vid":"2736037","name":"Marci Rolfson","party":"Rep","address":"1473 N 1190 E, Payson, UT 84651","precinct":"25PA01","hd":"65","v_score":"0","decile":"2","lat":40.06462652627753,"lng":-111.71285083969705},{"vid":"2736569","name":"Alberta Schaden","party":"Dem","address":"1716 N 1230 E, Payson, UT 84651","precinct":"25PA01","hd":"65","v_score":"1.193887297","decile":"4","lat":40.06911830035451,"lng":-111.71123350740973},{"vid":"2744495","name":"Harrold Jones","party":"","address":"923 E 100 S, Payson, UT 84651","precinct":"25PA01","hd":"65","v_score":"0","decile":"2","lat":40.04298629910766,"lng":-111.71704171136449},{"vid":"2744905","name":"Mr. Raleigh Rau MD","party":"Rep","address":"1347 E 50 S, Apt B106, Payson, UT 84651","precinct":"25PA01","hd":"65","v_score":"1.193887297","decile":"4","lat":40.04517667838413,"lng":-111.70746915748177},{"vid":"2746076","name":"Ms. Juanita Zemlak","party":"Rep","address":"1463 E 1400 N, Payson, UT 84651","precinct":"25PA01","hd":"65","v_score":"0","decile":"2","lat":40.06329054553183,"lng":-111.70532044305197},{"vid":"2748228","name":"Marlen Boehm","party":"Dem","address":"1347 E 50 S, Apt A303, Payson, UT 84651","precinct":"25PA01","hd":"65","v_score":"0","decile":"2","lat":40.04517667838413,"lng":-111.70746915748177},{"vid":"2750891","name":"Rylan Olson","party":"","address":"1363 E 100 S, Apt 111, Payson, UT 84651","precinct":"25PA01","hd":"65","v_score":"0","decile":"2","lat":40.043391202141045,"lng":-111.70761180803176},{"vid":"2761648","name":"Kaelyn Bailey","party":"","address":"1461 E 100 S, Unit I107, Payson, UT 84651","precinct":"25PA01","hd":"65","v_score":"1.193887297","decile":"4","lat":40.04368908324543,"lng":-111.70568704663707},{"vid":"2762050","name":"Euphemia Johnston","party":"Dem","address":"1787 N 1280 E, Payson, UT 84651","precinct":"25PA01","hd":"65","v_score":"0","decile":"2","lat":40.07046105576173,"lng":-111.70975860187285},{"vid":"2762400","name":"Ernestine Smitham","party":"Dem","address":"1495 N 1190 E, Payson, UT 84651","precinct":"25PA01","hd":"65","v_score":"1.193887297","decile":"4","lat":40.06502346634923,"lng":-111.71275080564261},{"vid":"2766908","name":"Traci Kertzmann","party":"Rep","address":"1363 E 100 S, Apt 163, Payson, UT 84651","precinct":"25PA01","hd":"65","v_score":"0","decile":"2","lat":40.043391202141045,"lng":-111.70761180803176},{"vid":"2769889","name":"Della Stracke","party":"Rep","address":"1492 N 1130 E, Payson, UT 84651","precinct":"25PA01","hd":"65","v_score":"1.193887297","decile":"4","lat":40.064947252544385,"lng":-111.71311853801105},{"vid":"2770519","name":"Maximillian Glover","party":"Dem","address":"1436 N 1130 E, Payson, UT 84651","precinct":"25PA01","hd":"65","v_score":"1.193887297","decile":"4","lat":40.06383339419244,"lng":-111.71348434517711},{"vid":"2783521","name":"Delcie Mosciski-Wuckert","party":"","address":"1363 E 100 S, Apt E130, Payson, UT 84651","precinct":"25PA01","hd":"65","v_score":"1.193887297","decile":"4","lat":40.043391202141045,"lng":-111.70761180803176},{"vid":"2783851","name":"Miss Sheron Lueilwitz","party":"Rep","address":"1461 E 100 S, Unit D103, Payson, UT 84651","precinct":"25PA01","hd":"65","v_score":"1.193887297","decile":"4","lat":40.04368908324543,"lng":-111.70568704663707},{"vid":"2786009","name":"Camron Spencer","party":"Dem","address":"915 E 300 N, Trlr 43, Payson, UT 84651","precinct":"25PA01","hd":"65","v_score":"0","decile":"2","lat":40.04782053121912,"lng":-111.71686364754844},{"vid":"2789555","name":"Larkin Maggio","party":"Dem","address":"1363 E 100 S, Unit F138, Payson, UT 84651","precinct":"25PA01","hd":"65","v_score":"1.193887297","decile":"4","lat":40.043391202141045,"lng":-111.70761180803176},{"vid":"2791187","name":"Markel Bartell","party":"Dem","address":"1502 N 1350 E, Payson, UT 84651","precinct":"25PA01","hd":"65","v_score":"1.193887297","decile":"4","lat":40.06522294661179,"lng":-111.70780413335662},{"vid":"2791908","name":"Mrs. Sigrid Bergnaum","party":"Dem","address":"1347 E 50 S, Apt A314, Payson, UT 84651","precinct":"25PA01","hd":"65","v_score":"8.284004873","decile":"8","lat":40.04517667838413,"lng":-111.70746915748177},{"vid":"2792773","name":"Tori Friesen-Weber","party":"","address":"1225 E 1475 N, Payson, UT 84651","precinct":"25PA01","hd":"65","v_score":"0","decile":"2","lat":40.06470942992336,"lng":-111.7112076789289},{"vid":"2793241","name":"Derwin Schulist","party":"Rep","address":"1363 E 100 S, Apt F-138, Payson, UT 84651","precinct":"25PA01","hd":"65","v_score":"1.193887297","decile":"4","lat":40.043391202141045,"lng":-111.70761180803176},{"vid":"2793888","name":"Mr. Oneal Reinger V","party":"","address":"1347 E 50 S, B308, Payson, UT 84651","precinct":"25PA01","hd":"65","v_score":"1.193887297","decile":"4","lat":40.04517667838413,"lng":-111.70746915748177},{"vid":"2795178","name":"Dr. Devin Fadel","party":"Rep","address":"1363 E 100 S, Apt 114, Payson, UT 84651","precinct":"25PA01","hd":"65","v_score":"0","decile":"2","lat":40.043391202141045,"lng":-111.70761180803176},{"vid":"2795998","name":"Mr. Denis Wunsch IV","party":"","address":"1461 E 100 S, Unit B107, Payson, UT 84651","precinct":"25PA01","hd":"65","v_score":"0","decile":"2","lat":40.04368908324543,"lng":-111.70568704663707},{"vid":"2796250","name":"Oral Dach","party":"Rep","address":"1461 E 100 S, Unit B107, Payson, UT 84651","precinct":"25PA01","hd":"65","v_score":"0","decile":"2","lat":40.04368908324543,"lng":-111.70568704663707},{"vid":"2798079","name":"Ladonna Reynolds","party":"Dem","address":"1461 E 100 S, Unit E302, Payson, UT 84651","precinct":"25PA01","hd":"65","v_score":"1.193887297","decile":"4","lat":40.04368908324543,"lng":-111.70568704663707},{"vid":"2798687","name":"Jeromy Denesik","party":"Dem","address":"1473 N Arrow Park Dr, Payson, UT 84651","precinct":"25PA01","hd":"65","v_score":"1.193887297","decile":"4","lat":40.06450377311958,"lng":-111.70899290360192},{"vid":"2801038","name":"Karen O'Kon","party":"Rep","address":"1461 E 100 S, Payson, UT 84651","precinct":"25PA01","hd":"65","v_score":"0","decile":"2","lat":40.04368908324543,"lng":-111.70568704663707},{"vid":"2802896","name":"Mr. Acie VonRueden","party":"Rep","address":"1537 N 1190 E, Payson, UT 84651","precinct":"25PA01","hd":"65","v_score":"0","decile":"2","lat":40.06586238081125,"lng":-111.71248911828721},{"vid":"2805011","name":"Marianita Veum","party":"","address":"1347 E 50 S, Apt B304, Payson, UT 84651","precinct":"25PA01","hd":"65","v_score":"1.193887297","decile":"4","lat":40.04517667838413,"lng":-111.70746915748177},{"vid":"2812360","name":"Rashida Barton","party":"Rep","address":"1347 E 50 S, Apt A204, Payson, UT 84651","precinct":"25PA01","hd":"65","v_score":"1.193887297","decile":"4","lat":40.04517667838413,"lng":-111.70746915748177},{"vid":"2816274","name":"Dr. Jedidiah Olson","party":"Rep","address":"1347 E 50 S, Apt B114, Payson, UT 84651","precinct":"25PA01","hd":"65","v_score":"0","decile":"2","lat":40.04517667838413,"lng":-111.70746915748177},{"vid":"2823367","name":"Ms. Tanika Altenwerth DVM","party":"","address":"1461 E 100 S, Unit D205, Payson, UT 84651","precinct":"25PA01","hd":"65","v_score":"0","decile":"2","lat":40.04368908324543,"lng":-111.70568704663707},{"vid":"2828480","name":"Sherron McLaughlin","party":"Rep","address":"1233 N 1525 E, Payson, UT 84651","precinct":"25PA01","hd":"65","v_score":"1.193887297","decile":"4","lat":40.06065788926867,"lng":-111.70431101640801},{"vid":"2836291","name":"Arla Hammes","party":"Dem","address":"1461 E 100 S, Unit C301, Payson, UT 84651","precinct":"25PA01","hd":"65","v_score":"1.193887297","decile":"4","lat":40.04368908324543,"lng":-111.70568704663707},{"vid":"2840072","name":"Vinie Willms","party":"Dem","address":"1363 E 100 S, Apt 115, Payson, UT 84651","precinct":"25PA01","hd":"65","v_score":"0","decile":"2","lat":40.043391202141045,"lng":-111.70761180803176},{"vid":"2841495","name":"Chelsea Huel","party":"Dem","address":"1493 N 1130 E, Payson, UT 84651","precinct":"25PA01","hd":"65","v_score":"1.193887297","decile":"4","lat":40.0650728965771,"lng":-111.71364646371015},{"vid":"2847057","name":"Commodore Mante","party":"Rep","address":"1653 N 1300 E, Payson, UT 84651","precinct":"25PA01","hd":"65","v_score":"1.193887297","decile":"4","lat":40.06777644851372,"lng":-111.71133100504102},{"vid":"2847384","name":"Hernan Wuckert","party":"Dem","address":"1244 E 1475 N, Payson, UT 84651","precinct":"25PA01","hd":"65","v_score":"1.193887297","decile":"4","lat":40.06426689822057,"lng":-111.71080505488693},{"vid":"2849600","name":"Marcia Muller-Conn","party":"Rep","address":"1461 E 100 S, Unit H302, Payson, UT 84651","precinct":"25PA01","hd":"65","v_score":"0","decile":"2","lat":40.04368908324543,"lng":-111.70568704663707},{"vid":"2856779","name":"Dr. Lenord Lind I","party":"Dem","address":"1347 E 50 S, Apt B412, Payson, UT 84651","precinct":"25PA01","hd":"65","v_score":"1.193887297","decile":"4","lat":40.04517667838413,"lng":-111.70746915748177},{"vid":"2859426","name":"Anson Crooks","party":"Dem","address":"1781 N 1240 E, Payson, UT 84651","precinct":"25PA01","hd":"65","v_score":"1.193887297","decile":"4","lat":40.07040738678739,"lng":-111.71080633962752},{"vid":"2862559","name":"Diallo Stoltenberg II","party":"Rep","address":"1256 E 1420 N, Payson, UT 84651","precinct":"25PA01","hd":"65","v_score":"1.193887297","decile":"4","lat":40.063664621610954,"lng":-111.7105311329502},{"vid":"2867133","name":"Khloe Senger","party":"","address":"1491 N 1260 E, Apt 84, Payson, UT 84651","precinct":"25PA01","hd":"65","v_score":"1.193887297","decile":"4","lat":40.064870828620954,"lng":-111.71072005607712},{"vid":"2878573","name":"Jameel Harris","party":"","address":"1796 N 1260 E, Payson, UT 84651","precinct":"25PA01","hd":"65","v_score":"1.193887297","decile":"4","lat":40.0705710278612,"lng":-111.71057096949468},{"vid":"2881194","name":"Dr. Luverne Gutmann","party":"","address":"1616 N 1300 E, Payson, UT 84651","precinct":"25PA01","hd":"65","v_score":"1.193887297","decile":"4","lat":40.066686661014195,"lng":-111.71070164696992},{"vid":"2882392","name":"Ammie Zulauf","party":"","address":"1461 E 100 S, I-101, Payson, UT 84651","precinct":"25PA01","hd":"65","v_score":"1.193887297","decile":"4","lat":40.04368908324543,"lng":-111.70568704663707},{"vid":"2882848","name":"Piper Schneider DVM","party":"","address":"1363 E 100 S, A102, Payson, UT 84651","precinct":"25PA01","hd":"65","v_score":"1.193887297","decile":"4","lat":40.043391202141045,"lng":-111.70761180803176},{"vid":"2883274","name":"Young Mueller","party":"Dem","address":"915 E 300 N, Trlr 24, Payson, UT 84651","precinct":"25PA01","hd":"65","v_score":"1.193887297","decile":"4","lat":40.04782053121912,"lng":-111.71686364754844},{"vid":"2887200","name":"Lilliana Marvin","party":"Dem","address":"1731 N 1230 E, Payson, UT 84651","precinct":"25PA01","hd":"65","v_score":"1.193887297","decile":"4","lat":40.06942190269999,"lng":-111.71096916062025},{"vid":"2887539","name":"Stevan Glover-Abshire","party":"Dem","address":"915 E 300 N, Trlr 13, Payson, UT 84651","precinct":"25PA01","hd":"65","v_score":"1.193887297","decile":"4","lat":40.04782053121912,"lng":-111.71686364754844},{"vid":"2887545","name":"Pablo Eichmann","party":"","address":"1363 E 100 S, Apt 168, Payson, UT 84651","precinct":"25PA01","hd":"65","v_score":"1.193887297","decile":"4","lat":40.043391202141045,"lng":-111.70761180803176},{"vid":"2887971","name":"Kami Bode-Wolff","party":"","address":"252 N 900 E, Apt 102, Payson, UT 84651","precinct":"25PA01","hd":"65","v_score":"1.193887297","decile":"4","lat":40.04641287922476,"lng":-111.7166496296654},{"vid":"2888097","name":"Dr. Gilford Macejkovic","party":"Dem","address":"1461 E 100 S, Unit E109, Payson, UT 84651","precinct":"25PA01","hd":"65","v_score":"1.193887297","decile":"4","lat":40.04368908324543,"lng":-111.70568704663707},{"vid":"2888231","name":"Meaghan Wiza","party":"","address":"1461 E 100 S, Unit G310, Payson, UT 84651","precinct":"25PA01","hd":"65","v_score":"1.193887297","decile":"4","lat":40.04368908324543,"lng":-111.70568704663707},{"vid":"2888276","name":"Dori Ruecker MD","party":"Rep","address":"1461 E 100 S, Unit G310, Payson, UT 84651","precinct":"25PA01","hd":"65","v_score":"1.193887297","decile":"4","lat":40.04368908324543,"lng":-111.70568704663707},{"vid":"2889594","name":"Mr. Grover Oberbrunner","party":"","address":"1363 E 100 S, Apt 155, Payson, UT 84651","precinct":"25PA01","hd":"65","v_score":"1.193887297","decile":"4","lat":40.043391202141045,"lng":-111.70761180803176},{"vid":"2889727","name":"Jonnie Walter","party":"","address":"1461 E 100 S, Unit I107, Payson, UT 84651","precinct":"25PA01","hd":"65","v_score":"1.193887297","decile":"4","lat":40.04368908324543,"lng":-111.70568704663707},{"vid":"2889791","name":"Julious Lynch","party":"","address":"1731 N 1230 E, Payson, UT 84651","precinct":"25PA01","hd":"65","v_score":"1.193887297","decile":"4","lat":40.06942190269999,"lng":-111.71096916062025},{"vid":"2893246","name":"Sherron Leuschke MD","party":"","address":"1363 E 100 S, Apt 197, Payson, UT 84651","precinct":"25PA01","hd":"65","v_score":"0","decile":"2","lat":40.043391202141045,"lng":-111.70761180803176},{"vid":"2894699","name":"Osborne Ruecker","party":"","address":"1217 E 1475 N, Payson, UT 84651","precinct":"25PA01","hd":"65","v_score":"0","decile":"2","lat":40.06462663906247,"lng":-111.71150100896638},{"vid":"2898650","name":"Friend Larkin","party":"","address":"1226 E 1530 N, Payson, UT 84651","precinct":"25PA01","hd":"65","v_score":"0","decile":"2","lat":40.065439027112454,"lng":-111.71121274409307},{"vid":"2898696","name":"Montana Konopelski","party":"","address":"1461 E 100 S, Unit G209, Payson, UT 84651","precinct":"25PA01","hd":"65","v_score":"0","decile":"2","lat":40.04368908324543,"lng":-111.70568704663707},{"vid":"2905879","name":"Horace Okuneva","party":"","address":"1633 N 1320 E, Payson, UT 84651","precinct":"25PA01","hd":"65","v_score":"0","decile":"2","lat":40.06706985928462,"lng":-111.71053017205692},{"vid":"2917782","name":"Patrick Ernser","party":"","address":"1461 E 100 S, Unit G101, Payson, UT 84651","precinct":"25PA01","hd":"65","v_score":"0","decile":"2","lat":40.04368908324543,"lng":-111.70568704663707},{"vid":"2925009","name":"Yasmin O'Hara","party":"","address":"1461 E 100 S, Unit B303, Payson, UT 84651","precinct":"25PA01","hd":"65","v_score":"0","decile":"2","lat":40.04368908324543,"lng":-111.70568704663707},{"vid":"2926125","name":"Ms. Niki Boyle","party":"","address":"1461 E 100 S, Unit E103, Payson, UT 84651","precinct":"25PA01","hd":"65","v_score":"0","decile":"2","lat":40.04368908324543,"lng":-111.70568704663707},{"vid":"2926932","name":"Corrie Schinner","party":"Rep","address":"1239 E 1775 N, Payson, UT 84651","precinct":"25PA01","hd":"65","v_score":"0","decile":"2","lat":40.0701533614836,"lng":-111.71094403951136},{"vid":"2931367","name":"Dr. Odette Stracke","party":"Dem","address":"1694 N 1330 E, Unit 103, Payson, UT 84651","precinct":"25PA01","hd":"65","v_score":"0","decile":"2","lat":40.069035136981455,"lng":-111.70834259685849},{"vid":"2934044","name":"Luberta Keebler","party":"","address":"1473 N 1190 E, Payson, UT 84651","precinct":"25PA01","hd":"65","v_score":"4.905839784","decile":"7","lat":40.06462652627753,"lng":-111.71285083969705},{"vid":"2943265","name":"Samantha Barrows-Beier","party":"Rep","address":"1639 N 1300 E, Payson, UT 84651","precinct":"25PA01","hd":"65","v_score":"0","decile":"2","lat":40.06725963003834,"lng":-111.71132958821815},{"vid":"2944431","name":"Hoyt Vandervort","party":"Dem","address":"1495 N 1350 E, Payson, UT 84651","precinct":"25PA01","hd":"65","v_score":"0","decile":"2","lat":40.064915413018866,"lng":-111.70826631639062},{"vid":"2945686","name":"Dr. Ignatz Beer","party":"","address":"1214 E 1475 N, Payson, UT 84651","precinct":"25PA01","hd":"65","v_score":"0","decile":"2","lat":40.06432553560269,"lng":-111.71155264686526},{"vid":"2947734","name":"Savanna Gaylord","party":"","address":"1363 E 100 S, Apt 136, Payson, UT 84651","precinct":"25PA01","hd":"65","v_score":"2.876042565","decile":"6","lat":40.043391202141045,"lng":-111.70761180803176},{"vid":"2950901","name":"Brandee Padberg","party":"Dem","address":"1347 E 50 S, Apt A212, Payson, UT 84651","precinct":"25PA01","hd":"65","v_score":"2.876042565","decile":"6","lat":40.04517667838413,"lng":-111.70746915748177},{"vid":"2951495","name":"Waneta Wyman","party":"Rep","address":"1328 N 1525 E, Payson, UT 84651","precinct":"25PA01","hd":"65","v_score":"0","decile":"2","lat":40.06198816348517,"lng":-111.7037797832917},{"vid":"2962361","name":"Karter Upton","party":"Dem","address":"1461 E 100 S, Unit C203, Payson, UT 84651","precinct":"25PA01","hd":"65","v_score":"0","decile":"2","lat":40.04368908324543,"lng":-111.70568704663707},{"vid":"2964687","name":"Moshe Runolfsson","party":"Dem","address":"1347 E 50 S, Apt B407, Payson, UT 84651","precinct":"25PA01","hd":"65","v_score":"0","decile":"2","lat":40.04517667838413,"lng":-111.70746915748177},{"vid":"2965510","name":"Isabell Rowe","party":"Dem","address":"1293 N 1525 E, Payson, UT 84651","precinct":"25PA01","hd":"65","v_score":"0","decile":"2","lat":40.061538246295314,"lng":-111.70436885285056},{"vid":"2974358","name":"Dr. Lala Mann","party":"Dem","address":"1631 N 1300 E, Payson, UT 84651","precinct":"25PA01","hd":"65","v_score":"0","decile":"2","lat":40.06704936502301,"lng":-111.71132901060143},{"vid":"2975927","name":"Isabelle Ziemann","party":"Rep","address":"1347 E 50 S, Apt A301, Payson, UT 84651","precinct":"25PA01","hd":"65","v_score":"0","decile":"2","lat":40.04517667838413,"lng":-111.70746915748177},{"vid":"2976786","name":"Mrs. Nola Lubowitz","party":"Dem","address":"1536 N 1190 E, Payson, UT 84651","precinct":"25PA01","hd":"65","v_score":"0","decile":"2","lat":40.06573375460578,"lng":-111.71206713716208},{"vid":"2978350","name":"Elna Friesen","party":"Dem","address":"1468 N 1190 E, Payson, UT 84651","precinct":"25PA01","hd":"65","v_score":"0","decile":"2","lat":40.064463891813425,"lng":-111.71230584942114},{"vid":"2979253","name":"Anahi Gorczany","party":"Rep","address":"1329 N 1390 E, Payson, UT 84651","precinct":"25PA01","hd":"65","v_score":"0","decile":"2","lat":40.06212119710983,"lng":-111.70723732875172},{"vid":"2979775","name":"Sharyl Boyer","party":"Dem","address":"1347 E 50 S, Apt A401, Payson, UT 84651","precinct":"25PA01","hd":"65","v_score":"0","decile":"2","lat":40.04517667838413,"lng":-111.70746915748177},{"vid":"a605c87aa05d792db6de1403c525d99884b0e0ba926668dfdc778c521978d4ec","name":"Arlyn Ullrich","party":"Rep","address":"997 E 100 S, Payson, UT 84651","precinct":"25PA01","hd":"65","v_score":"17.95209764","decile":"10","lat":40.042987890344996,"lng":-111.71618704845395},{"vid":"3007822","name":"Marla Funk","party":"Rep","address":"252 N 900 E, Apt 102, Payson, UT 84651","precinct":"25PA01","hd":"65","v_score":"11.38334565","decile":"9","lat":40.04641287922476,"lng":-111.7166496296654},{"vid":"3050377","name":"Simmie Beahan","party":"","address":"1543 N 1350 E, Payson, UT 84651","precinct":"25PA01","hd":"65","v_score":"2.744440783","decile":"5","lat":40.06588527286703,"lng":-111.709133148419},{"vid":"bd627944e20e504db4ba5d523cf774df149bc10a5b25fbd0e42cd47801f1c23b","name":"Ms. Deana Mraz DVM","party":"Rep","address":"1347 E 50 S, Apt B402, Payson, UT 84651","precinct":"25PA01","hd":"65","v_score":"8.347511332","decile":"8","lat":40.04517667838413,"lng":-111.70746915748177},{"vid":"3098422","name":"Ever Turcotte DDS","party":"Dem","address":"324 N 1140 E, Payson, UT 84651","precinct":"25PA01","hd":"65","v_score":"4.283276088","decile":"7","lat":40.04718637195418,"lng":-111.71311121099225},{"vid":"3185504","name":"Sharman Terry","party":"Dem","address":"1647 N 1300 E, Payson, UT 84651","precinct":"25PA01","hd":"65","v_score":"2.315214949","decile":"5","lat":40.067446699196786,"lng":-111.71133009738324},{"vid":"3237141","name":"Dot Willms","party":"Dem","address":"252 N 900 E, Apt 505, Payson, UT 84651","precinct":"25PA01","hd":"65","v_score":"1.121327652","decile":"3","lat":40.04641287922476,"lng":-111.7166496296654},{"vid":"3e09f16d76e739d87e7ffb45344231502bd36682de7c2fb9e0470a63fc97e7e4","name":"Delphine Becker","party":"Rep","address":"1347 E 50 S, Apt A112, Payson, UT 84651","precinct":"25PA01","hd":"65","v_score":"18.54032826","decile":"10","lat":40.04517667838413,"lng":-111.70746915748177},{"vid":"3345649","name":"Mrs. Shaniya Gerlach DVM","party":"","address":"977 E 100 S, Payson, UT 84651","precinct":"25PA01","hd":"65","v_score":"3.781490609","decile":"6","lat":40.04299301988094,"lng":-111.71651289848921},{"vid":"3381948","name":"Dimple Denesik","party":"","address":"1495 N 1350 E, Payson, UT 84651","precinct":"25PA01","hd":"65","v_score":"8.507303088","decile":"8","lat":40.064915413018866,"lng":-111.70826631639062},{"vid":"3428535","name":"Ms. Ethelene Klocko","party":"","address":"1647 N 1300 E, Payson, UT 84651","precinct":"25PA01","hd":"65","v_score":"18.03820573","decile":"10","lat":40.067446699196786,"lng":-111.71133009738324},{"vid":"3438367","name":"Merlyn Kling","party":"Dem","address":"252 N 900 E, Apt 303, Payson, UT 84651","precinct":"25PA01","hd":"65","v_score":"2.315214949","decile":"5","lat":40.04641287922476,"lng":-111.7166496296654},{"vid":"3459016","name":"Kimberly Stroman","party":"Dem","address":"1347 E 50 S, Apt A106, Payson, UT 84651","precinct":"25PA01","hd":"65","v_score":"6.364334873","decile":"7","lat":40.04517667838413,"lng":-111.70746915748177},{"vid":"3486364","name":"Dagmar Thompson","party":"","address":"1363 E 100 S, Apt 119, Payson, UT 84651","precinct":"25PA01","hd":"65","v_score":"2.587603312","decile":"5","lat":40.043391202141045,"lng":-111.70761180803176},{"vid":"3520052","name":"Macy Rogahn-Schroeder","party":"Rep","address":"1246 E 1530 N, Payson, UT 84651","precinct":"25PA01","hd":"65","v_score":"9.116556227","decile":"8","lat":40.0651866351612,"lng":-111.71084142489212},{"vid":"3563399","name":"Chaney Howell","party":"Rep","address":"1347 E 50 S, Apt B110, Payson, UT 84651","precinct":"25PA01","hd":"65","v_score":"33.94646833","decile":"10","lat":40.04517667838413,"lng":-111.70746915748177},{"vid":"3572324","name":"Dr. Esequiel Lehner DDS","party":"Dem","address":"352 N 1140 E, Payson, UT 84651","precinct":"25PA01","hd":"65","v_score":"9.116556227","decile":"8","lat":40.0477106775183,"lng":-111.7131083470284},{"vid":"4437175","name":"Mr. Cade Wisozk","party":"","address":"1197 N 1475 E, Payson, UT 84651","precinct":"25PA01","hd":"65","v_score":"0","decile":"2","lat":40.06016573367839,"lng":-111.70522748933895},{"vid":"4504760","name":"Mr. Mansfield Conroy","party":"Dem","address":"1363 E 100 S, Apt 175, Payson, UT 84651","precinct":"25PA01","hd":"65","v_score":"0","decile":"2","lat":40.043391202141045,"lng":-111.70761180803176},{"vid":"4505210","name":"Bama Paucek","party":"","address":"1461 E 100 S, Unit A204, Elk Ridge, UT 84651","precinct":"25PA01","hd":"65","v_score":"2.744440783","decile":"6","lat":40.04368908324543,"lng":-111.70568704663707},{"vid":"5523421","name":"Luke Abernathy","party":"Dem","address":"1635 N 1300 E, Payson, UT 84651","precinct":"25PA01","hd":"65","v_score":"1.623113131","decile":"5","lat":40.06714674993743,"lng":-111.71132927650275},{"vid":"5547963","name":"Braedon Feeney","party":"Dem","address":"1347 E 1590 N, Payson, UT 84651","precinct":"25PA01","hd":"65","v_score":"21.78232985","decile":"10","lat":40.06675528162376,"lng":-111.70990257019221},{"vid":"5553374","name":"Winifred Rowe PhD","party":"","address":"1347 E 1590 N, Payson, UT 84651","precinct":"25PA01","hd":"65","v_score":"19.23909485","decile":"10","lat":40.06675528162376,"lng":-111.70990257019221},{"vid":"5800740","name":"Izayah Zulauf-Reichel","party":"Dem","address":"1348 N 1440 E, Payson, UT 84651","precinct":"25PA01","hd":"65","v_score":"34.1913943","decile":"10","lat":40.06229402614,"lng":-111.70563144609154},{"vid":"59ad0c9b4ff716534cb30c429a2dc094657dccb785f1d665382daa55d65cce1a","name":"Denny Treutel","party":"","address":"1363 N 1440 E, Payson, UT 84651","precinct":"25PA01","hd":"65","v_score":"3.93832808","decile":"6","lat":40.062562128777536,"lng":-111.70620281827037},{"vid":"6141669","name":"Dr. Jovanny Mante","party":"Rep","address":"1347 E 50 S, Apt B302, Payson, UT 84651","precinct":"25PA01","hd":"65","v_score":"0","decile":"3","lat":40.04517667838413,"lng":-111.70746915748177},{"vid":"6147429","name":"Williams Keebler","party":"Rep","address":"1736 N 1260 E, Payson, UT 84651","precinct":"25PA01","hd":"65","v_score":"22.9847386","decile":"10","lat":40.069517254298574,"lng":-111.71071555974946},{"vid":"6164604","name":"Mariann Blanda","party":"","address":"1623 N 1320 E, Payson, UT 84651","precinct":"25PA01","hd":"65","v_score":"3.781490609","decile":"6","lat":40.066863833342715,"lng":-111.71050321020165},{"vid":"b8c05fe2af577ae496b2365cd0eecc74af387ef349d8f7473bf8afbae12eae3a","name":"Izola Bechtelar","party":"","address":"1347 E 50 S, Apt A308, Payson, UT 84651","precinct":"25PA01","hd":"65","v_score":"15.43926076","decile":"9","lat":40.04517667838413,"lng":-111.70746915748177},{"vid":"6173800","name":"Mr. Chace Schowalter","party":"Rep","address":"915 E 300 N, Trlr 36, Payson, UT 84651","precinct":"25PA01","hd":"65","v_score":"22.71275439","decile":"10","lat":40.04782053121912,"lng":-111.71686364754844},{"vid":"e6c60e4d9dd3746bf9e59aa1fbea86441c6528debfe1a04c2f95fc19555eeecf","name":"Arch Kerluke","party":"","address":"1241 E 1750 N, Payson, UT 84651","precinct":"25PA01","hd":"65","v_score":"6.74007049","decile":"8","lat":40.06981315156361,"lng":-111.71086401386428},{"vid":"6191743","name":"Tinnie Windler","party":"Dem","address":"965 E 100 S, Payson, UT 84651","precinct":"25PA01","hd":"65","v_score":"1.121327652","decile":"3","lat":40.04298698627352,"lng":-111.7166730291175},{"vid":"6202565","name":"Katia O'Keefe PhD","party":"Rep","address":"223 N 1140 E, Payson, UT 84651","precinct":"25PA01","hd":"65","v_score":"24.53416807","decile":"10","lat":40.0459408019874,"lng":-111.7137444213295},{"vid":"6205931","name":"Siobhan Walter","party":"Dem","address":"1630 N 1330 E, Payson, UT 84651","precinct":"25PA01","hd":"65","v_score":"21.59126048","decile":"10","lat":40.06701604167456,"lng":-111.7102192407029},{"vid":"6210326","name":"Miranda Murphy-Lockman","party":"Rep","address":"207 N 1140 E, Payson, UT 84651","precinct":"25PA01","hd":"65","v_score":"4.210716443","decile":"7","lat":40.04563293429423,"lng":-111.71354669803384},{"vid":"6224686","name":"Dulcie Fahey-Gerlach","party":"Dem","address":"915 E 300 N, Trlr 11, Payson, UT 84651","precinct":"25PA01","hd":"65","v_score":"9.682978083","decile":"8","lat":40.04782053121912,"lng":-111.71686364754844},{"vid":"8c65b2f93610145413b397513008fd225af7d25959da182051e8dcdd95d30166","name":"Rosalie Grady","party":"","address":"1347 E 50 S, Apt A313, Payson, UT 84651","precinct":"25PA01","hd":"65","v_score":"4.210716443","decile":"7","lat":40.04517667838413,"lng":-111.70746915748177},