[{"id":"1522","name":"Francesco Ziemann","party":"","address":"1363 E 100 S, Apt 125, Payson, UT 84651","precinct":"25PA01","hd":"65","v_score":"18.70909056","decile":"10","lat":40.022926246521,"lng":-111.730386016737},{"id":"1583","name":"Link Leuschke","party":"Dem","address":"1363 E 100 S, Apt 198, Payson, UT 84651","precinct":"25PA01","hd":"65","v_score":"7.947838735","decile":"8","lat":40.022926246521,"lng":-111.730386016737},{"id":"3098","name":"Dakota Donnelly","party":"","address":"252 N 900 E, Apt 102, Payson, UT 84651","precinct":"25PA01","hd":"65","v_score":"1.121327652","decile":"3","lat":40.046342053854,"lng":-111.717446674687},{"id":"5297","name":"Dr. Tyrel Ankunding","party":"","address":"1363 E 100 S, Apt 146, Payson, UT 84651","precinct":"25PA01","hd":"65","v_score":"5.40460374","decile":"7","lat":40.022926246521,"lng":-111.730386016737},{"id":"5826","name":"Miss Margeret Nitzsche","party":"Rep","address":"915 E 300 N, Trlr 41, Payson, UT 84651","precinct":"25PA01","hd":"65","v_score":"15.73840005","decile":"9","lat":40.046973325899,"lng":-111.716929146605},{"id":"6865","name":"Kalene Kunze","party":"Dem","address":"21 S 900 E, Payson, UT 84651","precinct":"25PA01","hd":"65","v_score":"11.43500933","decile":"9","lat":40.043339339345,"lng":-111.717498906014},{"id":"7383","name":"Mrs. Tamika Walsh DDS","party":"Rep","address":"915 E 300 N, Trlr 44, Payson, UT 84651","precinct":"25PA01","hd":"65","v_score":"2.587603312","decile":"5","lat":40.046973325899,"lng":-111.716929146605},{"id":"8463","name":"Mrs. Judi Rodriguez PhD","party":"","address":"385 N 1140 E, Payson, UT 84651","precinct":"25PA01","hd":"65","v_score":"30.99711601","decile":"10","lat":40.047987438148,"lng":-111.713550821186},{"id":"8464","name":"Mrs. Stacia Bauch","party":"Dem","address":"385 N 1140 E, Payson, UT 84651","precinct":"25PA01","hd":"65","v_score":"30.99711601","decile":"10","lat":40.047987438148,"lng":-111.713550821186},{"id":"8806","name":"Freida Hand","party":"Dem","address":"961 E 100 S, Payson, UT 84651","precinct":"25PA01","hd":"65","v_score":"8.761771632","decile":"8","lat":40.042836983386,"lng":-111.71658989213},{"id":"9107","name":"Cohen Lesch DDS","party":"","address":"45 S 900 E, Payson, UT 84651","precinct":"25PA01","hd":"65","v_score":"3.93832808","decile":"6","lat":40.043114037106,"lng":-111.717507477323},{"id":"9270","name":"Rashida Yost PhD","party":"Dem","address":"252 N 900 E, Apt 205, Payson, UT 84651","precinct":"25PA01","hd":"65","v_score":"2.315214949","decile":"5","lat":40.046342053854,"lng":-111.717446674687},{"id":"10596","name":"Makai Hills","party":"Dem","address":"1461 E 100 S, Unit G103, Payson, UT 84651","precinct":"25PA01","hd":"65","v_score":"2.660162957","decile":"5","lat":40.021514302856,"lng":-111.73140878899},{"id":"11091","name":"Nonie Thompson-Tremblay","party":"","address":"1461 E 100 S, Payson, UT 84651","precinct":"25PA01","hd":"65","v_score":"4.13679489","decile":"7","lat":40.021514302856,"lng":-111.73140878899},{"id":"11811","name":"Dr. Jessika Volkman DVM","party":"","address":"252 N 900 E, Apt 106, Payson, UT 84651","precinct":"25PA01","hd":"65","v_score":"1.121327652","decile":"3","lat":40.046342053854,"lng":-111.717446674687},{"id":"11891","name":"Dr. Tre Mosciski","party":"Dem","address":"957 E 100 S, Payson, UT 84651","precinct":"25PA01","hd":"65","v_score":"2.315214949","decile":"5","lat":40.042835645338,"lng":-111.716652111577},{"id":"12548","name":"Maybelle Ernser","party":"Rep","address":"1461 E 100 S, Unit G103, Payson, UT 84651","precinct":"25PA01","hd":"65","v_score":"1.193887297","decile":"3","lat":40.021514302856,"lng":-111.73140878899},{"id":"12820","name":"Mrs. Ronna Corwin","party":"Rep","address":"18 S 1000 E, Payson, UT 84651","precinct":"25PA01","hd":"65","v_score":"0","decile":"1","lat":40.043415833406,"lng":-111.715996735318},{"id":"13453","name":"Chadwick Gottlieb","party":"Rep","address":"1363 E 100 S, Apt 119, Payson, UT 84651","precinct":"25PA01","hd":"65","v_score":"1.193887297","decile":"3","lat":40.022926246521,"lng":-111.730386016737},{"id":"13894","name":"Rondal Schumm-McLaughlin","party":"Dem","address":"1461 E 100 S, Payson, UT 84651","precinct":"25PA01","hd":"65","v_score":"2.660162957","decile":"5","lat":40.021514302856,"lng":-111.73140878899},{"id":"16314","name":"Theodosia Lemke DVM","party":"Rep","address":"919 E 100 S, Payson, UT 84651","precinct":"25PA01","hd":"65","v_score":"11.47802244","decile":"9","lat":40.042822933882,"lng":-111.717243196322},{"id":"16765","name":"Dina Gorczany","party":"","address":"252 N 900 E, Apt 601, Payson, UT 84651","precinct":"25PA01","hd":"65","v_score":"4.732607667","decile":"7","lat":40.046342053854,"lng":-111.717446674687},{"id":"17832","name":"Sarina Gutmann","party":"Dem","address":"957 E 100 S, Payson, UT 84651","precinct":"25PA01","hd":"65","v_score":"2.315214949","decile":"5","lat":40.042835645338,"lng":-111.716652111577},{"id":"18382","name":"Claribel Barrows","party":"","address":"915 E 300 N, Trlr 4, Payson, UT 84651","precinct":"25PA01","hd":"65","v_score":"1.193887297","decile":"3","lat":40.046973325899,"lng":-111.716929146605},{"id":"18996","name":"Avon Quigley","party":"Dem","address":"911 E 100 S, Payson, UT 84651","precinct":"25PA01","hd":"65","v_score":"9.175598364","decile":"8","lat":40.042820257786,"lng":-111.717367635215},{"id":"20144","name":"Julien Pfannerstill-Daugherty","party":"","address":"14 S 1000 E, Payson, UT 84651","precinct":"25PA01","hd":"65","v_score":"3.781490609","decile":"6","lat":40.043444058761,"lng":-111.715996735315},{"id":"21356","name":"Mechelle Bogisich","party":"","address":"977 E 100 S, Payson, UT 84651","precinct":"25PA01","hd":"65","v_score":"0","decile":"1","lat":40.042842335578,"lng":-111.716341014342},{"id":"23861","name":"Dr. Nery Spencer","party":"","address":"252 N 900 E, Apt 102, Payson, UT 84651","precinct":"25PA01","hd":"65","v_score":"2.315214949","decile":"5","lat":40.046342053854,"lng":-111.717446674687},{"id":"24902","name":"Ms. Lora Welch","party":"","address":"952 E 100 N, Unit 2, Payson, UT 84651","precinct":"25PA01","hd":"65","v_score":"1.121327652","decile":"3","lat":40.044457724154,"lng":-111.716685370979},{"id":"25112","name":"Almon Padberg","party":"","address":"1363 E 100 S, Apt 169, Payson, UT 84651","precinct":"25PA01","hd":"65","v_score":"15.47563559","decile":"9","lat":40.022926246521,"lng":-111.730386016737},{"id":"25168","name":"Jermaine Corwin","party":"","address":"1461 E 100 S, Unit A304, Payson, UT 84651","precinct":"25PA01","hd":"65","v_score":"1.46627566","decile":"4","lat":40.021514302856,"lng":-111.73140878899},{"id":"25297","name":"Ms. Sharde Corkery DDS","party":"Rep","address":"1363 E 100 S, Apt 154, Payson, UT 84651","precinct":"25PA01","hd":"65","v_score":"0","decile":"1","lat":40.022926246521,"lng":-111.730386016737},{"id":"25687","name":"Colter Huels Sr.","party":"Dem","address":"252 N 900 E, Apt 404, Payson, UT 84651","precinct":"25PA01","hd":"65","v_score":"5.40460374","decile":"7","lat":40.046342053854,"lng":-111.717446674687},{"id":"26516","name":"Pinkey Doyle","party":"","address":"1461 E 100 S, Unit H308, Payson, UT 84651","precinct":"25PA01","hd":"65","v_score":"1.46627566","decile":"4","lat":40.021514302856,"lng":-111.73140878899},{"id":"26531","name":"Miss Hailie Predovic","party":"","address":"1461 E 100 S, Unit A304, Payson, UT 84651","precinct":"25PA01","hd":"65","v_score":"1.46627566","decile":"4","lat":40.021514302856,"lng":-111.73140878899},{"id":"26865","name":"Mrs. Marcia Carroll DVM","party":"","address":"2192 W State Rd, Payson, UT 84651","precinct":"25PA01","hd":"65","v_score":"2.587603312","decile":"5","lat":40.04623029922,"lng":-111.706188590223},{"id":"29903","name":"Dr. Carma Jones MD","party":"Dem","address":"214 N 1140 E, Payson, UT 84651","precinct":"25PA01","hd":"65","v_score":"3.93832808","decile":"6","lat":40.046087696301,"lng":-111.713246146721},{"id":"30428","name":"Janae Schoen","party":"Dem","address":"1363 E 100 S, Apt 153, Payson, UT 84651","precinct":"25PA01","hd":"65","v_score":"2.660162957","decile":"5","lat":40.022926246521,"lng":-111.730386016737},{"id":"31590","name":"Gaylene Dickinson","party":"Dem","address":"915 E 100 S, Payson, UT 84651","precinct":"25PA01","hd":"65","v_score":"3.781490609","decile":"6","lat":40.042821595834,"lng":-111.717305415769},{"id":"32335","name":"Edie Mills","party":"","address":"1363 E 100 S, Apt 169, Payson, UT 84651","precinct":"25PA01","hd":"65","v_score":"16.20717711","decile":"9","lat":40.022926246521,"lng":-111.730386016737},{"id":"32895","name":"Dana Nicolas-Mertz","party":"Rep","address":"1461 E 100 S, Unit E201, Payson, UT 84651","precinct":"25PA01","hd":"65","v_score":"5.530510904","decile":"7","lat":40.021514302856,"lng":-111.73140878899},{"id":"36481","name":"Kaliyah Crooks","party":"Dem","address":"294 N 1140 E, Payson, UT 84651","precinct":"25PA01","hd":"65","v_score":"15.0180437","decile":"9","lat":40.046836091364,"lng":-111.713302532549},{"id":"36522","name":"Mariel Dicki-Becker","party":"","address":"1363 E 100 S, Apt 198, Payson, UT 84651","precinct":"25PA01","hd":"65","v_score":"21.00794067","decile":"10","lat":40.022926246521,"lng":-111.730386016737},{"id":"36559","name":"Alma Satterfield","party":"Dem","address":"1461 E 100 S, Unit H308, Payson, UT 84651","precinct":"25PA01","hd":"65","v_score":"1.46627566","decile":"4","lat":40.021514302856,"lng":-111.73140878899},{"id":"40542","name":"Mr. Corry Berge DVM","party":"Rep","address":"1461 E 100 S, Unit F304, Payson, UT 84651","precinct":"25PA01","hd":"65","v_score":"0","decile":"1","lat":40.021514302856,"lng":-111.73140878899},{"id":"41289","name":"Orin Kerluke","party":"Rep","address":"1363 E 100 S, Apt 125, Payson, UT 84651","precinct":"25PA01","hd":"65","v_score":"14.2999073","decile":"9","lat":40.022926246521,"lng":-111.730386016737},{"id":"41934","name":"Amon Gottlieb","party":"","address":"915 E 300 N, Trlr 36, Payson, UT 84651","precinct":"25PA01","hd":"65","v_score":"7.169296324","decile":"8","lat":40.046973325899,"lng":-111.716929146605},{"id":"43444","name":"Infant Marvin","party":"","address":"1461 E 100 S, Unit C203, Payson, UT 84651","precinct":"25PA01","hd":"65","v_score":"36.95225887","decile":"10","lat":40.021514302856,"lng":-111.73140878899},{"id":"46755","name":"Effie Lang-Oberbrunner","party":"","address":"9 S 900 E, Payson, UT 84651","precinct":"25PA01","hd":"65","v_score":"5.40460374","decile":"7","lat":40.043451990464,"lng":-111.71749462036},{"id":"47588","name":"Ms. Jocelynn Bednar","party":"Rep","address":"923 E 100 S, Payson, UT 84651","precinct":"25PA01","hd":"65","v_score":"2.942907593","decile":"6","lat":40.04282427193,"lng":-111.717180976875},{"id":"47616","name":"Burnice Cremin","party":"Rep","address":"1363 E 100 S, # A-103, Payson, UT 84651","precinct":"25PA01","hd":"65","v_score":"0","decile":"1","lat":40.022926246521,"lng":-111.730386016737},{"id":"47813","name":"Devin Lockman","party":"Dem","address":"1461 E 50 S, Apt A302, Payson, UT 84651","precinct":"25PA01","hd":"65","v_score":"0","decile":"1","lat":40.02090394766,"lng":-111.733253113497},{"id":"48380","name":"Butler Hessel","party":"Dem","address":"2192 W State Rd, Payson, UT 84651","precinct":"25PA01","hd":"65","v_score":"10.66687182","decile":"9","lat":40.04623029922,"lng":-111.706188590223},{"id":"49158","name":"Mrs. Olivine Walsh DVM","party":"Rep","address":"949 E 100 S, Payson, UT 84651","precinct":"25PA01","hd":"65","v_score":"0","decile":"1","lat":40.042832969242,"lng":-111.71677655047},{"id":"50100","name":"Mr. Connor Larson","party":"Dem","address":"252 N 900 E, Apt 405, Payson, UT 84651","precinct":"25PA01","hd":"65","v_score":"1.46627566","decile":"4","lat":40.046342053854,"lng":-111.717446674687},{"id":"50583","name":"Glennie Kertzmann","party":"","address":"915 E 300 N, Trlr 13, Payson, UT 84651","precinct":"25PA01","hd":"65","v_score":"6.74007049","decile":"8","lat":40.046973325899,"lng":-111.716929146605},{"id":"51768","name":"Alaya Upton PhD","party":"Dem","address":"252 N 900 E, Apt 401, Payson, UT 84651","precinct":"25PA01","hd":"65","v_score":"2.587603312","decile":"5","lat":40.046342053854,"lng":-111.717446674687},{"id":"52730","name":"Ms. Lulah Streich DDS","party":"Dem","address":"1363 E 100 S, Apt 150, Payson, UT 84651","precinct":"25PA01","hd":"65","v_score":"2.587603312","decile":"5","lat":40.022926246521,"lng":-111.730386016737},{"id":"53233","name":"Janyce Feeney","party":"","address":"1363 E 100 S, Apt 119, Payson, UT 84651","precinct":"25PA01","hd":"65","v_score":"0","decile":"1","lat":40.022926246521,"lng":-111.730386016737},{"id":"53681","name":"Rayshawn O'Kon","party":"Rep","address":"915 E 300 N, Trlr 25, Payson, UT 84651","precinct":"25PA01","hd":"65","v_score":"1.46627566","decile":"4","lat":40.046973325899,"lng":-111.716929146605},{"id":"55219","name":"Diandra McDermott-Bauch","party":"Rep","address":"252 N 900 E, Apt 106, Payson, UT 84651","precinct":"25PA01","hd":"65","v_score":"1.121327652","decile":"3","lat":40.046342053854,"lng":-111.717446674687},{"id":"57699","name":"Ardis VonRueden","party":"Rep","address":"252 N 900 E, Apt 304, Payson, UT 84651","precinct":"25PA01","hd":"65","v_score":"2.315214949","decile":"5","lat":40.046342053854,"lng":-111.717446674687},{"id":"58792","name":"Mr. Lula Moore II","party":"","address":"1461 E 100 S, Unit C101, Payson, UT 84651","precinct":"25PA01","hd":"65","v_score":"4.741221742","decile":"7","lat":40.021514302856,"lng":-111.73140878899},{"id":"58837","name":"Golden Treutel-Muller","party":"","address":"1461 E 100 S, Unit C101, Payson, UT 84651","precinct":"25PA01","hd":"65","v_score":"4.741221742","decile":"7","lat":40.021514302856,"lng":-111.73140878899},{"id":"62117","name":"Adron Breitenberg DDS","party":"","address":"22 S 1000 E, Payson, UT 84651","precinct":"25PA01","hd":"65","v_score":"17.83952671","decile":"10","lat":40.043387608051,"lng":-111.715996735322},{"id":"63391","name":"Destini Goyette","party":"Rep","address":"252 N 900 E, Apt 401, Payson, UT 84651","precinct":"25PA01","hd":"65","v_score":"0","decile":"1","lat":40.046342053854,"lng":-111.717446674687},{"id":"64649","name":"Dr. Bryce Schaden I","party":"Rep","address":"915 E 300 N, Trlr 22, Payson, UT 84651","precinct":"25PA01","hd":"65","v_score":"1.121327652","decile":"3","lat":40.046973325899,"lng":-111.716929146605},{"id":"64737","name":"Keandre Maggio","party":"Rep","address":"50 S 1000 E, Payson, UT 84651","precinct":"25PA01","hd":"65","v_score":"0","decile":"1","lat":40.043190030564,"lng":-111.715996735347},{"id":"66128","name":"Jamir Little","party":"Rep","address":"49 S 900 E, Payson, UT 84651","precinct":"25PA01","hd":"65","v_score":"5.258122542","decile":"7","lat":40.043076486733,"lng":-111.717508905875},{"id":"66839","name":"Londyn Johnson DVM","party":"","address":"1461 E 100 S, Unit E107, Payson, UT 84651","precinct":"25PA01","hd":"65","v_score":"1.121327652","decile":"3","lat":40.021514302856,"lng":-111.73140878899},{"id":"67473","name":"Beecher Reilly","party":"","address":"915 E 100 S, Payson, UT 84651","precinct":"25PA01","hd":"65","v_score":"1.193887297","decile":"3","lat":40.042821595834,"lng":-111.717305415769},{"id":"68221","name":"Madison Ortiz","party":"Rep","address":"1461 E 100 S, Unit E103, Payson, UT 84651","precinct":"25PA01","hd":"65","v_score":"2.315214949","decile":"5","lat":40.021514302856,"lng":-111.73140878899},{"id":"69778","name":"Lillis Armstrong","party":"Rep","address":"1461 E 100 S, Unit H103, Payson, UT 84651","precinct":"25PA01","hd":"65","v_score":"0","decile":"1","lat":40.021514302856,"lng":-111.73140878899},{"id":"70348","name":"Antonette Prosacco","party":"Rep","address":"1363 E 100 S, Apt 144, Payson, UT 84651","precinct":"25PA01","hd":"65","v_score":"1.121327652","decile":"3","lat":40.022926246521,"lng":-111.730386016737},{"id":"72975","name":"Xiomara Feeney","party":"","address":"1363 E 100 S, Apt 171, Payson, UT 84651","precinct":"25PA01","hd":"65","v_score":"1.121327652","decile":"3","lat":40.022926246521,"lng":-111.730386016737},{"id":"73280","name":"Caitlin Turner","party":"","address":"915 E 300 N, Trlr 38, Payson, UT 84651","precinct":"25PA01","hd":"65","v_score":"0","decile":"1","lat":40.046973325899,"lng":-111.716929146605},{"id":"73290","name":"Lissie Ebert","party":"","address":"49 S 900 E, Payson, UT 84651","precinct":"25PA01","hd":"65","v_score":"1.121327652","decile":"3","lat":40.043076486733,"lng":-111.717508905875},{"id":"74303","name":"Miss Vena Bode","party":"Dem","address":"1461 E 100 S, Unit E309, Payson, UT 84651","precinct":"25PA01","hd":"65","v_score":"0","decile":"1","lat":40.021514302856,"lng":-111.73140878899},{"id":"77352","name":"Katia Hirthe","party":"Dem","address":"303 N 1140 E, Payson, UT 84651","precinct":"25PA01","hd":"65","v_score":"17.75698939","decile":"10","lat":40.046904332589,"lng":-111.713457612151},{"id":"77433","name":"Vita Gaylord","party":"","address":"915 E 300 N, Trlr 22, Payson, UT 84651","precinct":"25PA01","hd":"65","v_score":"0","decile":"1","lat":40.046973325899,"lng":-111.716929146605},{"id":"78398","name":"Dr. Evalena Kuphal","party":"Rep","address":"1461 E 100 S, Unit C203, Payson, UT 84651","precinct":"25PA01","hd":"65","v_score":"0","decile":"1","lat":40.021514302856,"lng":-111.73140878899},{"id":"78760","name":"Hayden Dare III","party":"Dem","address":"1461 E 100 S, Payson, UT 84651","precinct":"25PA01","hd":"65","v_score":"2.315214949","decile":"5","lat":40.021514302856,"lng":-111.73140878899},{"id":"79392","name":"Vincent Muller","party":"Dem","address":"1363 E 100 S, # C117, Payson, UT 84651","precinct":"25PA01","hd":"65","v_score":"2.315214949","decile":"5","lat":40.022926246521,"lng":-111.730386016737},{"id":"81787","name":"Rayshawn Ankunding","party":"Rep","address":"1363 E 100 S, Apt 194, Payson, UT 84651","precinct":"25PA01","hd":"65","v_score":"4.639704383","decile":"7","lat":40.022926246521,"lng":-111.730386016737},{"id":"81799","name":"Ruthann Davis-Cremin","party":"","address":"1363 E 100 S, Apt 194, Payson, UT 84651","precinct":"25PA01","hd":"65","v_score":"4.639704383","decile":"7","lat":40.022926246521,"lng":-111.730386016737},{"id":"82281","name":"Isabella Glover-Huel","party":"","address":"915 E 300 N, Trlr 42, Payson, UT 84651","precinct":"25PA01","hd":"65","v_score":"17.6018287","decile":"9","lat":40.046973325899,"lng":-111.716929146605},{"id":"82949","name":"Darline Little","party":"Dem","address":"1461 E 100 S, Unit I202, Payson, UT 84651","precinct":"25PA01","hd":"65","v_score":"0","decile":"1","lat":40.021514302856,"lng":-111.73140878899},{"id":"83824","name":"Dink Abshire","party":"","address":"1461 E 100 S, Unit B307, Payson, UT 84651","precinct":"25PA01","hd":"65","v_score":"1.193887297","decile":"3","lat":40.021514302856,"lng":-111.73140878899},{"id":"84047","name":"Kaci Wiza-Stiedemann","party":"Dem","address":"2204 W Highway 198, Payson, UT 84651","precinct":"25PA01","hd":"65","v_score":"2.817000428","decile":"6","lat":40.046165645001,"lng":-111.706582135961},{"id":"85867","name":"Elle Bayer","party":"","address":"1461 E 100 S, Unit B101, Payson, UT 84651","precinct":"25PA01","hd":"65","v_score":"3.711952487","decile":"6","lat":40.021514302856,"lng":-111.73140878899},{"id":"86117","name":"Polly Hirthe","party":"Rep","address":"252 N 900 E, Apt 9, Payson, UT 84651","precinct":"25PA01","hd":"65","v_score":"0","decile":"1","lat":40.046342053854,"lng":-111.717446674687},{"id":"86132","name":"Brad Gerlach","party":"Rep","address":"961 E 100 S, Payson, UT 84651","precinct":"25PA01","hd":"65","v_score":"1.193887297","decile":"4","lat":40.042836983386,"lng":-111.71658989213},{"id":"86186","name":"Mohamed Bogan","party":"Rep","address":"1363 E 100 S, Apt 114, Payson, UT 84651","precinct":"25PA01","hd":"65","v_score":"0","decile":"1","lat":40.022926246521,"lng":-111.730386016737},{"id":"86407","name":"Margrett Brekke","party":"Rep","address":"915 E 300 N, Trlr 34, Payson, UT 84651","precinct":"25PA01","hd":"65","v_score":"0","decile":"1","lat":40.046973325899,"lng":-111.716929146605},{"id":"86616","name":"Mr. Hale Kub","party":"","address":"915 E 300 N, Trlr 12, Payson, UT 84651","precinct":"25PA01","hd":"65","v_score":"1.623113131","decile":"5","lat":40.046973325899,"lng":-111.716929146605},{"id":"87579","name":"Aleena Hegmann","party":"Rep","address":"252 N 900 E, Apt 105, Payson, UT 84651","precinct":"25PA01","hd":"65","v_score":"6.528952915","decile":"7","lat":40.046342053854,"lng":-111.717446674687},{"id":"88625","name":"Eva Roberts PhD","party":"Rep","address":"1461 E 100 S, Unit H210, Payson, UT 84651","precinct":"25PA01","hd":"65","v_score":"0","decile":"1","lat":40.021514302856,"lng":-111.73140878899},{"id":"88810","name":"Dr. Esteban Hills","party":"","address":"1363 E 100 S, Apt 141, Payson, UT 84651","precinct":"25PA01","hd":"65","v_score":"0","decile":"1","lat":40.022926246521,"lng":-111.730386016737},{"id":"91171","name":"Calhoun Crist","party":"Dem","address":"22 S 1000 E, Payson, UT 84651","precinct":"25PA01","hd":"65","v_score":"10.74302793","decile":"9","lat":40.043387608051,"lng":-111.715996735322},{"id":"92149","name":"Layla Kovacek","party":"Rep","address":"1461 E 100 S, Unit H101, Payson, UT 84651","precinct":"25PA01","hd":"65","v_score":"0","decile":"1","lat":40.021514302856,"lng":-111.73140878899},{"id":"93008","name":"Mr. Durrell Cruickshank II","party":"Dem","address":"1363 E 100 S, Apt D126, Payson, UT 84651","precinct":"25PA01","hd":"65","v_score":"1.193887297","decile":"4","lat":40.022926246521,"lng":-111.730386016737},{"id":"95700","name":"Shamika Bernhard","party":"Dem","address":"1461 E 100 S, Unit A202, Payson, UT 84651","precinct":"25PA01","hd":"65","v_score":"2.817000428","decile":"6","lat":40.021514302856,"lng":-111.73140878899},{"id":"96162","name":"Steward Fisher","party":"Dem","address":"915 E 300 N, Trlr 25, Payson, UT 84651","precinct":"25PA01","hd":"65","v_score":"0","decile":"1","lat":40.046973325899,"lng":-111.716929146605},{"id":"99963","name":"Arden Weber","party":"Rep","address":"915 E 300 N, Trlr 33, Payson, UT 84651","precinct":"25PA01","hd":"65","v_score":"0","decile":"1","lat":40.046973325899,"lng":-111.716929146605},{"id":"100702","name":"Gracia Bartell-Reinger","party":"","address":"1461 E 100 S, Unit B103, Payson, UT 84651","precinct":"25PA01","hd":"65","v_score":"0","decile":"1","lat":40.021514302856,"lng":-111.73140878899},{"id":"100777","name":"Dr. Pandora Yost","party":"Rep","address":"1461 E 100 S, Unit H210, Payson, UT 84651","precinct":"25PA01","hd":"65","v_score":"1.193887297","decile":"4","lat":40.021514302856,"lng":-111.73140878899},{"id":"101093","name":"Cordie Okuneva-Emmerich","party":"","address":"1363 E 100 S, Apt 136, Elk Ridge, UT 84651","precinct":"25PA01","hd":"65","v_score":"0","decile":"2","lat":40.022926246521,"lng":-111.730386016737},{"id":"101304","name":"Mrs. Santos Jast","party":"","address":"1363 E 100 S, Apt 166, Payson, UT 84651","precinct":"25PA01","hd":"65","v_score":"1.193887297","decile":"4","lat":40.022926246521,"lng":-111.730386016737},{"id":"101316","name":"Dr. Violeta Pollich","party":"","address":"1363 E 100 S, Apt 148, Payson, UT 84651","precinct":"25PA01","hd":"65","v_score":"1.193887297","decile":"4","lat":40.022926246521,"lng":-111.730386016737},{"id":"101557","name":"Royal Auer","party":"","address":"1461 E 100 N, Payson, UT 84651","precinct":"25PA01","hd":"65","v_score":"0","decile":"2","lat":40.021514302856,"lng":-111.73140878899},{"id":"101661","name":"Claudio White","party":"Rep","address":"1461 E 100 S, Unit H109, Payson, UT 84651","precinct":"25PA01","hd":"65","v_score":"0","decile":"2","lat":40.021514302856,"lng":-111.73140878899},{"id":"103610","name":"Dr. Lawyer Pagac III","party":"","address":"2192 W State Rd, Payson, UT 84651","precinct":"25PA01","hd":"65","v_score":"0","decile":"2","lat":40.04623029922,"lng":-111.706188590223},{"id":"104212","name":"Roseann Heidenreich-Olson","party":"","address":"1461 E 100 S, Unit H109, Payson, UT 84651","precinct":"25PA01","hd":"65","v_score":"0","decile":"2","lat":40.021514302856,"lng":-111.73140878899},{"id":"105083","name":"Elisha Russel","party":"Rep","address":"1363 E 100 S, Apt 164, Payson, UT 84651","precinct":"25PA01","hd":"65","v_score":"0","decile":"2","lat":40.022926246521,"lng":-111.730386016737},{"id":"105852","name":"Ms. Jaunita Fay","party":"Dem","address":"1363 E 100 S, Apt 155, Payson, UT 84651","precinct":"25PA01","hd":"65","v_score":"1.193887297","decile":"4","lat":40.022926246521,"lng":-111.730386016737},{"id":"106373","name":"Ford Jacobson","party":"Rep","address":"252 N 900 E, Apt 101, Payson, UT 84651","precinct":"25PA01","hd":"65","v_score":"0","decile":"2","lat":40.046342053854,"lng":-111.717446674687},{"id":"106784","name":"Mrs. Jaden Buckridge","party":"","address":"915 E 300 N, Trlr 43, Payson, UT 84651","precinct":"25PA01","hd":"65","v_score":"0","decile":"2","lat":40.046973325899,"lng":-111.716929146605},{"id":"107035","name":"Miss Kimberlie Frami DDS","party":"","address":"1363 E 100 S, Apt A101, Payson, UT 84651","precinct":"25PA01","hd":"65","v_score":"1.193887297","decile":"4","lat":40.022926246521,"lng":-111.730386016737},{"id":"107885","name":"Waylon Wolf","party":"Dem","address":"1461 E 100 S, Unit A308, Payson, UT 84651","precinct":"25PA01","hd":"65","v_score":"0","decile":"2","lat":40.021514302856,"lng":-111.73140878899},{"id":"107971","name":"Dr. Presley Homenick Sr.","party":"Dem","address":"1363 E 100 S, Apt 125, Payson, UT 84651","precinct":"25PA01","hd":"65","v_score":"0","decile":"2","lat":40.022926246521,"lng":-111.730386016737},{"id":"107993","name":"Pearle Haley","party":"Dem","address":"1461 E 100 S, Payson, UT 84651","precinct":"25PA01","hd":"65","v_score":"0","decile":"2","lat":40.021514302856,"lng":-111.73140878899},{"id":"109071","name":"Harrold Jones","party":"","address":"923 E 100 S, Payson, UT 84651","precinct":"25PA01","hd":"65","v_score":"0","decile":"2","lat":40.04282427193,"lng":-111.717180976875},{"id":"109744","name":"Rylan Olson","party":"","address":"1363 E 100 S, Apt 111, Payson, UT 84651","precinct":"25PA01","hd":"65","v_score":"0","decile":"2","lat":40.022926246521,"lng":-111.730386016737},{"id":"110920","name":"Kaelyn Bailey","party":"","address":"1461 E 100 S, Unit I107, Payson, UT 84651","precinct":"25PA01","hd":"65","v_score":"1.193887297","decile":"4","lat":40.021514302856,"lng":-111.73140878899},{"id":"111338","name":"Traci Kertzmann","party":"Rep","address":"1363 E 100 S, Apt 163, Payson, UT 84651","precinct":"25PA01","hd":"65","v_score":"0","decile":"2","lat":40.022926246521,"lng":-111.730386016737},{"id":"112929","name":"Delcie Mosciski-Wuckert","party":"","address":"1363 E 100 S, Apt E130, Payson, UT 84651","precinct":"25PA01","hd":"65","v_score":"1.193887297","decile":"4","lat":40.022926246521,"lng":-111.730386016737},{"id":"112993","name":"Miss Sheron Lueilwitz","party":"Rep","address":"1461 E 100 S, Unit D103, Payson, UT 84651","precinct":"25PA01","hd":"65","v_score":"1.193887297","decile":"4","lat":40.021514302856,"lng":-111.73140878899},{"id":"113199","name":"Camron Spencer","party":"Dem","address":"915 E 300 N, Trlr 43, Payson, UT 84651","precinct":"25PA01","hd":"65","v_score":"0","decile":"2","lat":40.046973325899,"lng":-111.716929146605},{"id":"113456","name":"Larkin Maggio","party":"Dem","address":"1363 E 100 S, Unit F138, Payson, UT 84651","precinct":"25PA01","hd":"65","v_score":"1.193887297","decile":"4","lat":40.022926246521,"lng":-111.730386016737},{"id":"114075","name":"Derwin Schulist","party":"Rep","address":"1363 E 100 S, Apt F-138, Payson, UT 84651","precinct":"25PA01","hd":"65","v_score":"1.193887297","decile":"4","lat":40.022926246521,"lng":-111.730386016737},{"id":"114476","name":"Dr. Devin Fadel","party":"Rep","address":"1363 E 100 S, Apt 114, Payson, UT 84651","precinct":"25PA01","hd":"65","v_score":"0","decile":"2","lat":40.022926246521,"lng":-111.730386016737},{"id":"114575","name":"Mr. Denis Wunsch IV","party":"","address":"1461 E 100 S, Unit B107, Payson, UT 84651","precinct":"25PA01","hd":"65","v_score":"0","decile":"2","lat":40.021514302856,"lng":-111.73140878899},{"id":"114597","name":"Oral Dach","party":"Rep","address":"1461 E 100 S, Unit B107, Payson, UT 84651","precinct":"25PA01","hd":"65","v_score":"0","decile":"2","lat":40.021514302856,"lng":-111.73140878899},{"id":"114836","name":"Ladonna Reynolds","party":"Dem","address":"1461 E 100 S, Unit E302, Payson, UT 84651","precinct":"25PA01","hd":"65","v_score":"1.193887297","decile":"4","lat":40.021514302856,"lng":-111.73140878899},{"id":"115197","name":"Karen O'Kon","party":"Rep","address":"1461 E 100 S, Payson, UT 84651","precinct":"25PA01","hd":"65","v_score":"0","decile":"2","lat":40.021514302856,"lng":-111.73140878899},{"id":"117451","name":"Ms. Tanika Altenwerth DVM","party":"","address":"1461 E 100 S, Unit D205, Payson, UT 84651","precinct":"25PA01","hd":"65","v_score":"0","decile":"2","lat":40.021514302856,"lng":-111.73140878899},{"id":"117475","name":"Leticia Shields DVM","party":"Rep","address":"1461 E 50 S, # C202, Payson, UT 84651","precinct":"25PA01","hd":"65","v_score":"0","decile":"2","lat":40.02090394766,"lng":-111.733253113497},{"id":"118711","name":"Arla Hammes","party":"Dem","address":"1461 E 100 S, Unit C301, Payson, UT 84651","precinct":"25PA01","hd":"65","v_score":"1.193887297","decile":"4","lat":40.021514302856,"lng":-111.73140878899},{"id":"119105","name":"Vinie Willms","party":"Dem","address":"1363 E 100 S, Apt 115, Payson, UT 84651","precinct":"25PA01","hd":"65","v_score":"0","decile":"2","lat":40.022926246521,"lng":-111.730386016737},{"id":"119907","name":"Marcia Muller-Conn","party":"Rep","address":"1461 E 100 S, Unit H302, Payson, UT 84651","precinct":"25PA01","hd":"65","v_score":"0","decile":"2","lat":40.021514302856,"lng":-111.73140878899},{"id":"122633","name":"Ammie Zulauf","party":"","address":"1461 E 100 S, I-101, Payson, UT 84651","precinct":"25PA01","hd":"65","v_score":"1.193887297","decile":"4","lat":40.021514302856,"lng":-111.73140878899},{"id":"122659","name":"Piper Schneider DVM","party":"","address":"1363 E 100 S, A102, Payson, UT 84651","precinct":"25PA01","hd":"65","v_score":"1.193887297","decile":"4","lat":40.022926246521,"lng":-111.730386016737},{"id":"122699","name":"Young Mueller","party":"Dem","address":"915 E 300 N, Trlr 24, Payson, UT 84651","precinct":"25PA01","hd":"65","v_score":"1.193887297","decile":"4","lat":40.046973325899,"lng":-111.716929146605},{"id":"123492","name":"Stevan Glover-Abshire","party":"Dem","address":"915 E 300 N, Trlr 13, Payson, UT 84651","precinct":"25PA01","hd":"65","v_score":"1.193887297","decile":"4","lat":40.046973325899,"lng":-111.716929146605},{"id":"123496","name":"Pablo Eichmann","party":"","address":"1363 E 100 S, Apt 168, Payson, UT 84651","precinct":"25PA01","hd":"65","v_score":"1.193887297","decile":"4","lat":40.022926246521,"lng":-111.730386016737},{"id":"123629","name":"Kami Bode-Wolff","party":"","address":"252 N 900 E, Apt 102, Payson, UT 84651","precinct":"25PA01","hd":"65","v_score":"1.193887297","decile":"4","lat":40.046342053854,"lng":-111.717446674687},{"id":"123665","name":"Dr. Gilford Macejkovic","party":"Dem","address":"1461 E 100 S, Unit E109, Payson, UT 84651","precinct":"25PA01","hd":"65","v_score":"1.193887297","decile":"4","lat":40.021514302856,"lng":-111.73140878899},{"id":"123690","name":"Meaghan Wiza","party":"","address":"1461 E 100 S, Unit G310, Payson, UT 84651","precinct":"25PA01","hd":"65","v_score":"1.193887297","decile":"4","lat":40.021514302856,"lng":-111.73140878899},{"id":"123700","name":"Dori Ruecker MD","party":"Rep","address":"1461 E 100 S, Unit G310, Payson, UT 84651","precinct":"25PA01","hd":"65","v_score":"1.193887297","decile":"4","lat":40.021514302856,"lng":-111.73140878899},{"id":"124269","name":"Mr. Grover Oberbrunner","party":"","address":"1363 E 100 S, Apt 155, Payson, UT 84651","precinct":"25PA01","hd":"65","v_score":"1.193887297","decile":"4","lat":40.022926246521,"lng":-111.730386016737},{"id":"124342","name":"Jonnie Walter","party":"","address":"1461 E 100 S, Unit I107, Payson, UT 84651","precinct":"25PA01","hd":"65","v_score":"1.193887297","decile":"4","lat":40.021514302856,"lng":-111.73140878899},{"id":"124671","name":"Sherron Leuschke MD","party":"","address":"1363 E 100 S, Apt 197, Payson, UT 84651","precinct":"25PA01","hd":"65","v_score":"0","decile":"2","lat":40.022926246521,"lng":-111.730386016737},{"id":"125274","name":"Montana Konopelski","party":"","address":"1461 E 100 S, Unit G209, Payson, UT 84651","precinct":"25PA01","hd":"65","v_score":"0","decile":"2","lat":40.021514302856,"lng":-111.73140878899},{"id":"127294","name":"Patrick Ernser","party":"","address":"1461 E 100 S, Unit G101, Payson, UT 84651","precinct":"25PA01","hd":"65","v_score":"0","decile":"2","lat":40.021514302856,"lng":-111.73140878899},{"id":"128024","name":"Yasmin O'Hara","party":"","address":"1461 E 100 S, Unit B303, Payson, UT 84651","precinct":"25PA01","hd":"65","v_score":"0","decile":"2","lat":40.021514302856,"lng":-111.73140878899},{"id":"128143","name":"Ms. Niki Boyle","party":"","address":"1461 E 100 S, Unit E103, Payson, UT 84651","precinct":"25PA01","hd":"65","v_score":"0","decile":"2","lat":40.021514302856,"lng":-111.73140878899},{"id":"130456","name":"Savanna Gaylord","party":"","address":"1363 E 100 S, Apt 136, Payson, UT 84651","precinct":"25PA01","hd":"65","v_score":"2.876042565","decile":"6","lat":40.022926246521,"lng":-111.730386016737},{"id":"131287","name":"Hana Boyer","party":"Dem","address":"2192 W State Rd, Payson, UT 84651","precinct":"25PA01","hd":"65","v_score":"0","decile":"2","lat":40.04623029922,"lng":-111.706188590223},{"id":"132008","name":"Karter Upton","party":"Dem","address":"1461 E 100 S, Unit C203, Payson, UT 84651","precinct":"25PA01","hd":"65","v_score":"0","decile":"2","lat":40.021514302856,"lng":-111.73140878899},{"id":"134635","name":"Arlyn Ullrich","party":"Rep","address":"997 E 100 S, Payson, UT 84651","precinct":"25PA01","hd":"65","v_score":"17.95209764","decile":"10","lat":40.042849025818,"lng":-111.716029917108},{"id":"134639","name":"Marla Funk","party":"Rep","address":"252 N 900 E, Apt 102, Payson, UT 84651","precinct":"25PA01","hd":"65","v_score":"11.38334565","decile":"9","lat":40.046342053854,"lng":-111.717446674687},{"id":"134943","name":"Adonis Jerde","party":"","address":"2218 W Highway 198, Payson, UT 84651","precinct":"25PA01","hd":"65","v_score":"4.210716443","decile":"7","lat":40.046093031712,"lng":-111.7070359692},{"id":"135196","name":"Jamie Rau","party":"Dem","address":"1465 E 100 S, Apt D203, Payson, UT 84651","precinct":"25PA01","hd":"65","v_score":"6.462591196","decile":"7","lat":40.021490324235,"lng":-111.731418155641},{"id":"135704","name":"Ever Turcotte DDS","party":"Dem","address":"324 N 1140 E, Payson, UT 84651","precinct":"25PA01","hd":"65","v_score":"4.283276088","decile":"7","lat":40.047116739513,"lng":-111.713323677235},{"id":"137292","name":"Dot Willms","party":"Dem","address":"252 N 900 E, Apt 505, Payson, UT 84651","precinct":"25PA01","hd":"65","v_score":"1.121327652","decile":"3","lat":40.046342053854,"lng":-111.717446674687},{"id":"138501","name":"Mrs. Shaniya Gerlach DVM","party":"","address":"977 E 100 S, Payson, UT 84651","precinct":"25PA01","hd":"65","v_score":"3.781490609","decile":"6","lat":40.042842335578,"lng":-111.716341014342},{"id":"139546","name":"Merlyn Kling","party":"Dem","address":"252 N 900 E, Apt 303, Payson, UT 84651","precinct":"25PA01","hd":"65","v_score":"2.315214949","decile":"5","lat":40.046342053854,"lng":-111.717446674687},{"id":"140037","name":"Dagmar Thompson","party":"","address":"1363 E 100 S, Apt 119, Payson, UT 84651","precinct":"25PA01","hd":"65","v_score":"2.587603312","decile":"5","lat":40.022926246521,"lng":-111.730386016737},{"id":"141052","name":"Dr. Esequiel Lehner DDS","party":"Dem","address":"352 N 1140 E, Payson, UT 84651","precinct":"25PA01","hd":"65","v_score":"9.116556227","decile":"8","lat":40.047519321687,"lng":-111.713357149917},{"id":"142073","name":"Mr. Mansfield Conroy","party":"Dem","address":"1363 E 100 S, Apt 175, Payson, UT 84651","precinct":"25PA01","hd":"65","v_score":"0","decile":"2","lat":40.022926246521,"lng":-111.730386016737},{"id":"142091","name":"Bama Paucek","party":"","address":"1461 E 100 S, Unit A204, Elk Ridge, UT 84651","precinct":"25PA01","hd":"65","v_score":"2.744440783","decile":"6","lat":40.021514302856,"lng":-111.73140878899},{"id":"146624","name":"Mr. Chace Schowalter","party":"Rep","address":"915 E 300 N, Trlr 36, Payson, UT 84651","precinct":"25PA01","hd":"65","v_score":"22.71275439","decile":"10","lat":40.046973325899,"lng":-111.716929146605},{"id":"147217","name":"Tinnie Windler","party":"Dem","address":"965 E 100 S, Payson, UT 84651","precinct":"25PA01","hd":"65","v_score":"1.121327652","decile":"3","lat":40.042838321434,"lng":-111.716527672683},{"id":"147520","name":"Katia O'Keefe PhD","party":"Rep","address":"223 N 1140 E, Payson, UT 84651","precinct":"25PA01","hd":"65","v_score":"24.53416807","decile":"10","lat":40.046155937525,"lng":-111.713401226322},{"id":"148397","name":"Miranda Murphy-Lockman","party":"Rep","address":"207 N 1140 E, Payson, UT 84651","precinct":"25PA01","hd":"65","v_score":"4.210716443","decile":"7","lat":40.046004592057,"lng":-111.713389186162},{"id":"149764","name":"Dulcie Fahey-Gerlach","party":"Dem","address":"915 E 300 N, Trlr 11, Payson, UT 84651","precinct":"25PA01","hd":"65","v_score":"9.682978083","decile":"8","lat":40.046973325899,"lng":-111.716929146605},{"id":"151859","name":"Giada Pfannerstill-Raynor","party":"","address":"915 E 300 N, Trlr 2, Payson, UT 84651","precinct":"25PA01","hd":"65","v_score":"2.315214949","decile":"5","lat":40.046973325899,"lng":-111.716929146605},{"id":"152513","name":"Nakisha Stehr-Conn","party":"Dem","address":"252 N 900 E, Apt 605, Payson, UT 84651","precinct":"25PA01","hd":"65","v_score":"0","decile":"3","lat":40.046342053854,"lng":-111.717446674687},{"id":"153678","name":"Pleas Bergnaum-Gutkowski","party":"Rep","address":"2024 W 10300 S, Payson, UT 84651","precinct":"25PA01","hd":"65","v_score":"9.207031979","decile":"8","lat":40.042758932699,"lng":-111.702382348169},{"id":"154476","name":"Raleigh Wiegand","party":"Dem","address":"255 N 1140 E, Payson, UT 84651","precinct":"25PA01","hd":"65","v_score":"25.58879696","decile":"10","lat":40.046455295551,"lng":-111.713423780654},{"id":"154620","name":"Latoyia Renner","party":"","address":"219 N 1140 E, Payson, UT 84651","precinct":"25PA01","hd":"65","v_score":"10.11220392","decile":"9","lat":40.046118517772,"lng":-111.713398407031},{"id":"157300","name":"Reece Purdy","party":"","address":"2214 W SR 198, Payson, UT 84651","precinct":"25PA01","hd":"65","v_score":"2.744440783","decile":"6","lat":40.046113778366,"lng":-111.70690630256},{"id":"158661","name":"Ezzard Feeney","party":"Dem","address":"285 N 1140 E, Payson, UT 84651","precinct":"25PA01","hd":"65","v_score":"12.80170646","decile":"9","lat":40.0467359437,"lng":-111.713444925339},{"id":"158667","name":"Rosemarie Roberts","party":"","address":"915 E 300 N, Trlr 41, Payson, UT 84651","precinct":"25PA01","hd":"65","v_score":"26.85996438","decile":"10","lat":40.046973325899,"lng":-111.716929146605},{"id":"160735","name":"Rock Turcotte","party":"Dem","address":"252 N 900 E, Apt 704, Payson, UT 84651","precinct":"25PA01","hd":"65","v_score":"0","decile":"3","lat":40.046342053854,"lng":-111.717446674687},{"id":"161226","name":"Ellar Lindgren","party":"Rep","address":"1461 E 100 S, Unit H109, Payson, UT 84651","precinct":"25PA01","hd":"65","v_score":"9.116556227","decile":"8","lat":40.021514302856,"lng":-111.73140878899},{"id":"161470","name":"Austin Bergstrom III","party":"Rep","address":"915 E 300 N, Trlr 41, Payson, UT 84651","precinct":"25PA01","hd":"65","v_score":"24.53416807","decile":"10","lat":40.046973325899,"lng":-111.716929146605},{"id":"162588","name":"Baby Harris-Cruickshank","party":"Dem","address":"252 N 900 E, Apt 201, Payson, UT 84651","precinct":"25PA01","hd":"65","v_score":"17.16640494","decile":"9","lat":40.046342053854,"lng":-111.717446674687},{"id":"162743","name":"Kiersten Heller","party":"","address":"1461 E 100 S, Payson, UT 84651","precinct":"25PA01","hd":"65","v_score":"0","decile":"3","lat":40.021514302856,"lng":-111.73140878899},{"id":"162942","name":"Buna Gislason","party":"Rep","address":"228 N 1140 E, Payson, UT 84651","precinct":"25PA01","hd":"65","v_score":"2.315214949","decile":"5","lat":40.046218665437,"lng":-111.713256014241},{"id":"162994","name":"Columbus Medhurst","party":"Dem","address":"34 S 1000 E, Payson, UT 84651","precinct":"25PA01","hd":"65","v_score":"24.53416807","decile":"10","lat":40.043302931985,"lng":-111.715996735333},{"id":"165666","name":"Jasmyne Rau","party":"","address":"1461 E 100 S, Unit F202, Payson, UT 84651","precinct":"25PA01","hd":"65","v_score":"1.121327652","decile":"3","lat":40.021514302856,"lng":-111.73140878899},{"id":"166385","name":"Orla Gerhold","party":"Dem","address":"1363 E 100 S, Apt 188, Payson, UT 84651","precinct":"25PA01","hd":"65","v_score":"1.193887297","decile":"4","lat":40.022926246521,"lng":-111.730386016737},{"id":"166772","name":"Alton Pfeffer","party":"Dem","address":"915 E 300 N, Payson, UT 84651","precinct":"25PA01","hd":"65","v_score":"1.193887297","decile":"4","lat":40.046973325899,"lng":-111.716929146605},{"id":"166834","name":"Odalis Kuhn MD","party":"Rep","address":"915 E 300 N, Trlr 47, Payson, UT 84651","precinct":"25PA01","hd":"65","v_score":"1.121327652","decile":"3","lat":40.046973325899,"lng":-111.716929146605},{"id":"169338","name":"Hale Kiehn-Aufderhar","party":"","address":"961 E 100 S, Payson, UT 84651","precinct":"25PA01","hd":"65","v_score":"3.781490609","decile":"6","lat":40.042836983386,"lng":-111.71658989213},{"id":"169704","name":"Duff Thompson-Wehner","party":"","address":"915 E 300 N, Trlr 48, Payson, UT 84651","precinct":"25PA01","hd":"65","v_score":"2.315214949","decile":"5","lat":40.046973325899,"lng":-111.716929146605},{"id":"170106","name":"Barbara Witting","party":"Dem","address":"252 N 900 E, Apt 601, Payson, UT 84651","precinct":"25PA01","hd":"65","v_score":"0","decile":"3","lat":40.046342053854,"lng":-111.717446674687},{"id":"170700","name":"Dr. Jiles Murphy MD","party":"","address":"1461 E 100 S, Unit I303, Payson, UT 84651","precinct":"25PA01","hd":"65","v_score":"2.744440783","decile":"6","lat":40.021514302856,"lng":-111.73140878899},{"id":"170849","name":"Harrie Hahn","party":"Rep","address":"915 E 300 N, Trlr 37, Payson, UT 84651","precinct":"25PA01","hd":"65","v_score":"0","decile":"3","lat":40.046973325899,"lng":-111.716929146605},{"id":"170892","name":"Mr. Tristan Bernhard Sr.","party":"","address":"1055 E 100 N, Apt B, Payson, UT 84651","precinct":"25PA01","hd":"65","v_score":"0","decile":"3","lat":40.042851326224,"lng":-111.714967894444},{"id":"171671","name":"Mr. Perley Altenwerth DVM","party":"","address":"1363 E 100 S, Apt 103, Payson, UT 84651","precinct":"25PA01","hd":"65","v_score":"2.315214949","decile":"5","lat":40.022926246521,"lng":-111.730386016737},{"id":"171906","name":"Dr. Ethel Konopelski","party":"Rep","address":"915 E 300 N, Trlr 25, Payson, UT 84651","precinct":"25PA01","hd":"65","v_score":"1.46627566","decile":"4","lat":40.046973325899,"lng":-111.716929146605},{"id":"172010","name":"Jaleel Hermann Jr.","party":"","address":"1363 E 100 S, Apt 120, Payson, UT 84651","precinct":"25PA01","hd":"65","v_score":"13.70892099","decile":"9","lat":40.022926246521,"lng":-111.730386016737},{"id":"172987","name":"Mr. Doctor Weissnat Jr.","party":"Rep","address":"915 E 300 N, Trlr 32, Payson, UT 84651","precinct":"25PA01","hd":"65","v_score":"5.40460374","decile":"7","lat":40.046973325899,"lng":-111.716929146605},{"id":"173491","name":"Dr. Kenneth Rutherford I","party":"Rep","address":"1363 E 100 S, Apt 175, Payson, UT 84651","precinct":"25PA01","hd":"65","v_score":"0","decile":"3","lat":40.022926246521,"lng":-111.730386016737},{"id":"174965","name":"Trevon Beier","party":"","address":"252 N 900 E, Apt 108, Payson, UT 84651","precinct":"25PA01","hd":"65","v_score":"0","decile":"3","lat":40.046342053854,"lng":-111.717446674687},{"id":"175450","name":"Talmadge Bauch","party":"Rep","address":"2024 W 10300 S, Payson, UT 84651","precinct":"25PA01","hd":"65","v_score":"9.207031979","decile":"8","lat":40.042758932699,"lng":-111.702382348169},{"id":"175460","name":"Gannon Satterfield-Howe","party":"Rep","address":"303 N 1140 E, Payson, UT 84651","precinct":"25PA01","hd":"65","v_score":"20.35405005","decile":"10","lat":40.046904332589,"lng":-111.713457612151},{"id":"177048","name":"Mr. Webb Vandervort MD","party":"Dem","address":"1363 E 100 S, Apt 171, Payson, UT 84651","precinct":"25PA01","hd":"65","v_score":"5.83359168","decile":"7","lat":40.022926246521,"lng":-111.730386016737},{"id":"177341","name":"Symone Wintheiser","party":"Rep","address":"1363 E 100 S, Apt 201, Payson, UT 84651","precinct":"25PA01","hd":"65","v_score":"0","decile":"3","lat":40.022926246521,"lng":-111.730386016737},{"id":"177466","name":"Ishmael Bogan","party":"Dem","address":"1461 E 100 S, Unit H107, Payson, UT 84651","precinct":"25PA01","hd":"65","v_score":"2.315214949","decile":"5","lat":40.021514302856,"lng":-111.73140878899},{"id":"178828","name":"Mrs. Glynda Ryan PhD","party":"","address":"1461 E 100 S, Unit E201, Payson, UT 84651","precinct":"25PA01","hd":"65","v_score":"5.258122542","decile":"7","lat":40.021514302856,"lng":-111.73140878899},{"id":"179727","name":"Lee Pacocha","party":"Rep","address":"1363 E 100 S, Apt 145, Payson, UT 84651","precinct":"25PA01","hd":"65","v_score":"2.587603312","decile":"5","lat":40.022926246521,"lng":-111.730386016737},{"id":"180211","name":"Edrie Ritchie","party":"Dem","address":"1461 E 100 S, Unit H105, Payson, UT 84651","precinct":"25PA01","hd":"65","v_score":"0","decile":"3","lat":40.021514302856,"lng":-111.73140878899},{"id":"180234","name":"Devin Crooks","party":"","address":"915 E 300 N, Trlr 33, Payson, UT 84651","precinct":"25PA01","hd":"65","v_score":"0","decile":"3","lat":40.046973325899,"lng":-111.716929146605},{"id":"180558","name":"Ole Wunsch","party":"Rep","address":"17 S 900 E, Payson, UT 84651","precinct":"25PA01","hd":"65","v_score":"2.315214949","decile":"5","lat":40.043376889718,"lng":-111.717497477463},{"id":"181217","name":"Miss Graciela Reynolds PhD","party":"Dem","address":"352 N 1140 E, Payson, UT 84651","precinct":"25PA01","hd":"65","v_score":"3.93832808","decile":"6","lat":40.047519321687,"lng":-111.713357149917}]