[{"vid":"786332","name":"Joanie Rempel","party":"","address":"526 W 100 N, Payson, UT 84651","precinct":"25PA03","hd":"65","v_score":"6.657533174","decile":"7","lat":40.04484832719703,"lng":-111.74026767936887,"phone":"(223) 995-5580","sd":"25","ssbd":"13","lsbd":"School Board Nebo 7"},{"vid":"807282","name":"Shanita Beatty-Conn","party":"","address":"330 S 400 W, Payson, UT 84651","precinct":"25PA03","hd":"65","v_score":"3.781490609","decile":"6","lat":40.03923305259507,"lng":-111.73805301875849,"phone":"(204) 755-0182","sd":"25","ssbd":"13","lsbd":"School Board Nebo 7"},{"vid":"20d989cf72be4dfa8add3f825adbf871f2aab8ee57c9b312fc688f58ee8d1b1b","name":"Audra Feil","party":"","address":"777 W 300 S, Payson, UT 84651","precinct":"25PA03","hd":"65","v_score":"0","decile":"1","lat":40.03944646875501,"lng":-111.74502028454879,"phone":"(113) 576-0819","sd":"25","ssbd":"13","lsbd":"School Board Nebo 7"},{"vid":"1252850","name":"Dr. Santana Gislason II","party":"Dem","address":"294 S 100 W, Payson, UT 84651","precinct":"25PA03","hd":"65","v_score":"4.210716443","decile":"7","lat":40.03989196425839,"lng":-111.7340753165893,"phone":"(731) 432-2115","sd":"25","ssbd":"13","lsbd":"School Board Nebo 7"},{"vid":"1256023","name":"Katherine Christiansen","party":"","address":"333 S 500 W, Payson, UT 84651","precinct":"25PA03","hd":"65","v_score":"0","decile":"1","lat":40.03924162654706,"lng":-111.73926710372272,"phone":"(597) 759-3042","sd":"25","ssbd":"13","lsbd":"School Board Nebo 7"},{"vid":"af6243e9a46e1128d0921d625fc64e6afa117b7226f7dcee0314cad4c515ff31","name":"Nedra Schroeder-Bergnaum","party":"Dem","address":"712 W 200 S, Payson, UT 84651","precinct":"25PA03","hd":"65","v_score":"2.315214949","decile":"5","lat":40.041755871336285,"lng":-111.74409017070025,"phone":"(964) 774-5121","sd":"25","ssbd":"13","lsbd":"School Board Nebo 7"},{"vid":"1275044","name":"Shirley Stanton","party":"","address":"352 W 300 S, Payson, UT 84651","precinct":"25PA03","hd":"65","v_score":"2.660162957","decile":"5","lat":40.03997445082363,"lng":-111.73689600160827,"phone":"(173) 575-8664","sd":"25","ssbd":"13","lsbd":"School Board Nebo 7"},{"vid":"1279873","name":"Arbie O'Conner","party":"","address":"303 S 800 W, Payson, UT 84651","precinct":"25PA03","hd":"65","v_score":"4.741221742","decile":"7","lat":40.03950076659473,"lng":-111.74530113455788,"phone":"(422) 944-0121","sd":"25","ssbd":"13","lsbd":"School Board Nebo 7"},{"vid":"1290952","name":"Velia Eichmann","party":"Dem","address":"365 S 100 W, Payson, UT 84651","precinct":"25PA03","hd":"65","v_score":"4.741221742","decile":"7","lat":40.03883924248566,"lng":-111.73340691935294,"phone":"(506) 379-3717","sd":"25","ssbd":"13","lsbd":"School Board Nebo 7"},{"vid":"1295692","name":"Thora Fay","party":"","address":"349 N 230 W, Payson, UT 84651","precinct":"25PA03","hd":"65","v_score":"3.93832808","decile":"6","lat":40.04762462900061,"lng":-111.73664505691514,"phone":"(126) 158-7858","sd":"25","ssbd":"13","lsbd":"School Board Nebo 7"},{"vid":"1316831","name":"Torry Hackett","party":"Rep","address":"785 W 100 S, Payson, UT 84651","precinct":"25PA03","hd":"65","v_score":"5.40460374","decile":"7","lat":40.04231764984582,"lng":-111.74519613122433,"phone":"(667) 813-1339","sd":"25","ssbd":"13","lsbd":"School Board Nebo 7"},{"vid":"ee84070d7bdd3e306cbeeb32c14f9a25790e45d55da66e01cc7e5479db5f2823","name":"Marlin Veum","party":"Dem","address":"327 N 100 W, Payson, UT 84651","precinct":"25PA03","hd":"65","v_score":"7.047822616","decile":"8","lat":40.047286236399344,"lng":-111.73398002330396,"phone":"(185) 516-6036","sd":"25","ssbd":"13","lsbd":"School Board Nebo 7"},{"vid":"1332135","name":"Alferd Gibson","party":"","address":"775 W 100 S, Payson, UT 84651","precinct":"25PA03","hd":"65","v_score":"0","decile":"1","lat":40.042326342436496,"lng":-111.74483185752808,"phone":"(927) 983-9391","sd":"25","ssbd":"13","lsbd":"School Board Nebo 7"},{"vid":"1344219","name":"Kenyon McLaughlin","party":"Dem","address":"320 S 400 W, Payson, UT 84651","precinct":"25PA03","hd":"65","v_score":"0","decile":"1","lat":40.03938125569235,"lng":-111.73805353205586,"phone":"(827) 334-5415","sd":"25","ssbd":"13","lsbd":"School Board Nebo 7"},{"vid":"840313629515d593f54c54cc32ba8e23de4a66d816ef85a69973fadd23e6db5b","name":"Ms. Coleen Weissnat","party":"","address":"373 S 400 W, Payson, UT 84651","precinct":"25PA03","hd":"65","v_score":"2.744440783","decile":"5","lat":40.03888274781304,"lng":-111.73727123144438,"phone":"(348) 735-7470","sd":"25","ssbd":"13","lsbd":"School Board Nebo 7"},{"vid":"8efcb233f278074efc36d780b7e3fe48e5d82e07d37eb1760c8bdfe1c93aa7e6","name":"Burl Fay","party":"Dem","address":"210 N 400 W, Payson, UT 84651","precinct":"25PA03","hd":"65","v_score":"2.817000428","decile":"6","lat":40.045939804207606,"lng":-111.73785443951739,"phone":"(505) 129-6778","sd":"25","ssbd":"13","lsbd":"School Board Nebo 7"},{"vid":"1381378","name":"Oakley Gerlach DDS","party":"Dem","address":"170 W 300 S, Payson, UT 84651","precinct":"25PA03","hd":"65","v_score":"2.660162957","decile":"5","lat":40.03990745425004,"lng":-111.73438066024258,"phone":"(709) 656-2713","sd":"25","ssbd":"13","lsbd":"School Board Nebo 7"},{"vid":"1381888","name":"Elberta Rau-Tillman","party":"Rep","address":"455 W 200 N, Payson, UT 84651","precinct":"25PA03","hd":"65","v_score":"0","decile":"1","lat":40.045488625120285,"lng":-111.73904974268532,"phone":"(951) 829-3555","sd":"25","ssbd":"13","lsbd":"School Board Nebo 7"},{"vid":"1386210","name":"Mazie Feest","party":"","address":"356 W Utah Ave, Payson, UT 84651","precinct":"25PA03","hd":"65","v_score":"2.315214949","decile":"5","lat":40.04387271267141,"lng":-111.73692749977606,"phone":"(934) 546-5622","sd":"25","ssbd":"13","lsbd":"School Board Nebo 7"},{"vid":"a073d6fc123e79f7b7b9f890e4505af671e8bd0129bed864f4ccb98c15eda546","name":"Tawana Abbott","party":"Dem","address":"208 S 700 W, Payson, UT 84651","precinct":"25PA03","hd":"65","v_score":"10.60921719","decile":"9","lat":40.04128493336002,"lng":-111.74395102651366,"phone":"(251) 818-6660","sd":"25","ssbd":"13","lsbd":"School Board Nebo 7"},{"vid":"fbe3348469d5be4379961db8dec933ff0aa629e910a1843d18f29c462e3ca402","name":"Fredericka Ebert DVM","party":"","address":"314 S 600 W, Payson, UT 84651","precinct":"25PA03","hd":"65","v_score":"2.942907593","decile":"6","lat":40.0395149902505,"lng":-111.74193860839709,"phone":"(848) 848-3784","sd":"25","ssbd":"13","lsbd":"School Board Nebo 7"},{"vid":"1397455","name":"Malissa Grimes MD","party":"Dem","address":"219 S 400 W, Payson, UT 84651","precinct":"25PA03","hd":"65","v_score":"5.40460374","decile":"7","lat":40.04089003444669,"lng":-111.73721229716219,"phone":"(107) 606-2421","sd":"25","ssbd":"13","lsbd":"School Board Nebo 7"},{"vid":"1397492","name":"Fronia Kshlerin","party":"Rep","address":"70 W 400 S, Payson, UT 84651","precinct":"25PA03","hd":"65","v_score":"1.46627566","decile":"4","lat":40.03848171571831,"lng":-111.7332278876321,"phone":"(396) 598-0219","sd":"25","ssbd":"13","lsbd":"School Board Nebo 7"},{"vid":"1408425","name":"Miss Gia Wolff","party":"Rep","address":"226 S 800 W, Apt 4, Payson, UT 84651","precinct":"25PA03","hd":"65","v_score":"1.121327652","decile":"3","lat":40.040794819645264,"lng":-111.74594286925762,"phone":"(317) 816-7885","sd":"25","ssbd":"13","lsbd":"School Board Nebo 7"},{"vid":"1411623","name":"Latanya Bogisich","party":"Dem","address":"644 W 300 S, Payson, UT 84651","precinct":"25PA03","hd":"65","v_score":"2.315214949","decile":"5","lat":40.04012353138502,"lng":-111.74254559230906,"phone":"(822) 087-7919","sd":"25","ssbd":"13","lsbd":"School Board Nebo 7"},{"vid":"1411916","name":"Latanya Trantow","party":"","address":"243 S 200 W, Payson, UT 84651","precinct":"25PA03","hd":"65","v_score":"1.121327652","decile":"3","lat":40.04067453359046,"lng":-111.73475840774844,"phone":"(409) 515-7135","sd":"25","ssbd":"13","lsbd":"School Board Nebo 7"},{"vid":"1411956","name":"Alexa Mosciski","party":"","address":"46 S 200 W, Payson, UT 84651","precinct":"25PA03","hd":"65","v_score":"13.83018807","decile":"9","lat":40.04317244294944,"lng":-111.73531024210881,"phone":"(544) 588-7639","sd":"25","ssbd":"13","lsbd":"School Board Nebo 7"},{"vid":"1415013","name":"Rush Langworth-Douglas","party":"Rep","address":"196 W Utah Ave, Payson, UT 84651","precinct":"25PA03","hd":"65","v_score":"0","decile":"1","lat":40.04383643349994,"lng":-111.73481980741845,"phone":"(844) 088-2708","sd":"25","ssbd":"13","lsbd":"School Board Nebo 7"},{"vid":"1415942","name":"Manilla Rath","party":"Rep","address":"356 W Utah Ave, Payson, UT 84651","precinct":"25PA03","hd":"65","v_score":"2.315214949","decile":"5","lat":40.04387271267141,"lng":-111.73692749977606,"phone":"(762) 157-8146","sd":"25","ssbd":"13","lsbd":"School Board Nebo 7"},{"vid":"1427247","name":"Hilbert Gerlach","party":"","address":"345 S 700 W, Payson, UT 84651","precinct":"25PA03","hd":"65","v_score":"1.193887297","decile":"3","lat":40.039107133271486,"lng":-111.74330619424313,"phone":"(236) 781-2855","sd":"25","ssbd":"13","lsbd":"School Board Nebo 7"},{"vid":"1428656","name":"Ms. Emogene Sauer","party":"","address":"287 S 300 W, Payson, UT 84651","precinct":"25PA03","hd":"65","v_score":"2.660162957","decile":"5","lat":40.04015034765374,"lng":-111.73567012625591,"phone":"(150) 802-1003","sd":"25","ssbd":"13","lsbd":"School Board Nebo 7"},{"vid":"1436210","name":"Saul Sporer PhD","party":"Rep","address":"946 W 450 S, Payson, UT 84651","precinct":"25PA03","hd":"65","v_score":"9.207031979","decile":"8","lat":40.03773730038579,"lng":-111.74901049647697,"phone":"(703) 243-2807","sd":"25","ssbd":"13","lsbd":"School Board Nebo 7"},{"vid":"1449182","name":"Dr. Luciano Lehner","party":"","address":"46 S 200 W, Payson, UT 84651","precinct":"25PA03","hd":"65","v_score":"13.83018807","decile":"9","lat":40.04317244294944,"lng":-111.73531024210881,"phone":"(767) 250-9115","sd":"25","ssbd":"13","lsbd":"School Board Nebo 7"},{"vid":"1449651","name":"Eric Will-Thompson","party":"Dem","address":"644 W 300 S, Payson, UT 84651","precinct":"25PA03","hd":"65","v_score":"2.315214949","decile":"5","lat":40.04012353138502,"lng":-111.74254559230906,"phone":"(702) 228-4119","sd":"25","ssbd":"13","lsbd":"School Board Nebo 7"},{"vid":"1460444","name":"Leisa Graham-Kreiger","party":"Dem","address":"527 W 100 S, Payson, UT 84651","precinct":"25PA03","hd":"65","v_score":"0","decile":"1","lat":40.04234437218452,"lng":-111.74023902498496,"phone":"(211) 545-1141","sd":"25","ssbd":"13","lsbd":"School Board Nebo 7"},{"vid":"1461759","name":"Lelar O'Kon","party":"","address":"946 W 450 S, Payson, UT 84651","precinct":"25PA03","hd":"65","v_score":"15.02598214","decile":"9","lat":40.03773730038579,"lng":-111.74901049647697,"phone":"(257) 883-0941","sd":"25","ssbd":"13","lsbd":"School Board Nebo 7"},{"vid":"1463036","name":"Journey Heaney","party":"","address":"329 W 300 S, Payson, UT 84651","precinct":"25PA03","hd":"65","v_score":"7.153624035","decile":"8","lat":40.03945790551508,"lng":-111.73644910233085,"phone":"(309) 237-1758","sd":"25","ssbd":"13","lsbd":"School Board Nebo 7"},{"vid":"1485919","name":"Hennie Schneider MD","party":"Dem","address":"341 W 100 N, Payson, UT 84651","precinct":"25PA03","hd":"65","v_score":"2.587603312","decile":"5","lat":40.044262163930426,"lng":-111.7369254070608,"phone":"(113) 032-6859","sd":"25","ssbd":"13","lsbd":"School Board Nebo 7"},{"vid":"1494246","name":"Dr. Alby Jenkins","party":"Dem","address":"150 W 100 S, Payson, UT 84651","precinct":"25PA03","hd":"65","v_score":"0","decile":"1","lat":40.042727566232216,"lng":-111.73445058564329,"phone":"(655) 180-6563","sd":"25","ssbd":"13","lsbd":"School Board Nebo 7"},{"vid":"d008626c31c657e93f3080fee9c79f529a7d70e7fb5056de8a405d746577f57c","name":"Audy Brekke","party":"","address":"416 S 1000 W, Payson, UT 84651","precinct":"25PA03","hd":"65","v_score":"2.587603312","decile":"5","lat":40.03828245263825,"lng":-111.74950656072956,"phone":"(833) 949-1249","sd":"25","ssbd":"13","lsbd":"School Board Nebo 7"},{"vid":"1495131","name":"Trae Langworth II","party":"Rep","address":"291 S 600 W, Payson, UT 84651","precinct":"25PA03","hd":"65","v_score":"2.315214949","decile":"5","lat":40.0400382944298,"lng":-111.74135869988744,"phone":"(207) 824-3536","sd":"25","ssbd":"13","lsbd":"School Board Nebo 7"},{"vid":"1499521","name":"Dr. Crockett Schulist DDS","party":"","address":"235 S 700 W, Payson, UT 84651","precinct":"25PA03","hd":"65","v_score":"6.027167436","decile":"7","lat":40.04108604255877,"lng":-111.743353682962,"phone":"(523) 294-4637","sd":"25","ssbd":"13","lsbd":"School Board Nebo 7"},{"vid":"1516707","name":"Ewin Williamson-Wolff","party":"Dem","address":"193 S 300 W, Payson, UT 84651","precinct":"25PA03","hd":"65","v_score":"2.315214949","decile":"5","lat":40.04175828815149,"lng":-111.7356808099196,"phone":"(923) 163-5046","sd":"25","ssbd":"13","lsbd":"School Board Nebo 7"},{"vid":"b4a6080345e17f3a473f82e55bd9e83d1c63d5f8954131b8a6cf73cac0a18103","name":"Kevan Hand Sr.","party":"","address":"596 W 100 N, Payson, UT 84651","precinct":"25PA03","hd":"65","v_score":"5.40460374","decile":"7","lat":40.044851108991274,"lng":-111.7420371756823,"phone":"(187) 487-8486","sd":"25","ssbd":"13","lsbd":"School Board Nebo 7"},{"vid":"1520988","name":"Shelton Rodriguez","party":"Rep","address":"375 S 300 W, Payson, UT 84651","precinct":"25PA03","hd":"65","v_score":"0","decile":"1","lat":40.03869715661546,"lng":-111.73541632254374,"phone":"(942) 264-1887","sd":"25","ssbd":"13","lsbd":"School Board Nebo 7"},{"vid":"1535981","name":"Adalyn Kassulke","party":"","address":"290 S 400 W, Payson, UT 84651","precinct":"25PA03","hd":"65","v_score":"8.363183621","decile":"8","lat":40.04002130518176,"lng":-111.73815806487322,"phone":"(916) 944-5368","sd":"25","ssbd":"13","lsbd":"School Board Nebo 7"},{"vid":"1552448","name":"Nicolle Grady","party":"","address":"534 W 300 S, Payson, UT 84651","precinct":"25PA03","hd":"65","v_score":"12.49472132","decile":"9","lat":40.040057068906385,"lng":-111.74034473396651,"phone":"(924) 889-8899","sd":"25","ssbd":"13","lsbd":"School Board Nebo 7"},{"vid":"1561297","name":"Alexis Bernhard","party":"","address":"374 S 600 W, Payson, UT 84651","precinct":"25PA03","hd":"65","v_score":"0","decile":"1","lat":40.038664248878064,"lng":-111.74205715493285,"phone":"(661) 682-0602","sd":"25","ssbd":"13","lsbd":"School Board Nebo 7"},{"vid":"1562699","name":"Dr. Vito Moore Jr.","party":"Rep","address":"346 S 900 W, Payson, UT 84651","precinct":"25PA03","hd":"65","v_score":"2.315214949","decile":"5","lat":40.039239833985555,"lng":-111.74790955378376,"phone":"(356) 906-2163","sd":"25","ssbd":"13","lsbd":"School Board Nebo 7"},{"vid":"1565280","name":"Dock Cartwright","party":"Dem","address":"343 W 100 N, Payson, UT 84651","precinct":"25PA03","hd":"65","v_score":"6.814370645","decile":"8","lat":40.04432799455801,"lng":-111.73721947559962,"phone":"(947) 591-0930","sd":"25","ssbd":"13","lsbd":"School Board Nebo 7"},{"vid":"1574180","name":"Shelvie Dietrich","party":"Rep","address":"148 S 200 W, Payson, UT 84651","precinct":"25PA03","hd":"65","v_score":"5.40460374","decile":"7","lat":40.041956225453546,"lng":-111.73532796838468,"phone":"(961) 331-1958","sd":"25","ssbd":"13","lsbd":"School Board Nebo 7"},{"vid":"1597410","name":"Alfonse Wolf-Bailey","party":"Dem","address":"142 N 500 W, Payson, UT 84651","precinct":"25PA03","hd":"65","v_score":"6.814370645","decile":"8","lat":40.045097957458616,"lng":-111.73925909344533,"phone":"(904) 909-8430","sd":"25","ssbd":"13","lsbd":"School Board Nebo 7"},{"vid":"d31903f9f6b328f3cafd1152276fd39020a8bb135dab8f87349e2db2f2bcfb1d","name":"Howell Ritchie","party":"","address":"643 W 300 S, Payson, UT 84651","precinct":"25PA03","hd":"65","v_score":"3.781490609","decile":"6","lat":40.03953745054506,"lng":-111.74248714594037,"phone":"(153) 130-6398","sd":"25","ssbd":"13","lsbd":"School Board Nebo 7"},{"vid":"1619624","name":"Leslie Hyatt I","party":"Dem","address":"196 W 300 S, Payson, UT 84651","precinct":"25PA03","hd":"65","v_score":"5.331806201","decile":"7","lat":40.03989056056628,"lng":-111.73477212987373,"phone":"(903) 239-0098","sd":"25","ssbd":"13","lsbd":"School Board Nebo 7"},{"vid":"1622142","name":"Torry Rogahn","party":"Rep","address":"86 N 600 W, Payson, UT 84651","precinct":"25PA03","hd":"65","v_score":"2.315214949","decile":"5","lat":40.04422165352628,"lng":-111.74228250532974,"phone":"(252) 788-0667","sd":"25","ssbd":"13","lsbd":"School Board Nebo 7"},{"vid":"1622231","name":"Vollie Ledner","party":"Rep","address":"363 S 800 W, Payson, UT 84651","precinct":"25PA03","hd":"65","v_score":"2.998909327","decile":"6","lat":40.03879993872439,"lng":-111.7450359711613,"phone":"(243) 919-7967","sd":"25","ssbd":"13","lsbd":"School Board Nebo 7"},{"vid":"1628143","name":"Tamela Kihn","party":"Rep","address":"235 S 700 W, Payson, UT 84651","precinct":"25PA03","hd":"65","v_score":"2.315214949","decile":"5","lat":40.04108604255877,"lng":-111.743353682962,"phone":"(583) 906-2864","sd":"25","ssbd":"13","lsbd":"School Board Nebo 7"},{"vid":"1630414","name":"Isamar Gislason","party":"","address":"353 W 400 N, Payson, UT 84651","precinct":"25PA03","hd":"65","v_score":"3.93832808","decile":"6","lat":40.048333367164254,"lng":-111.73731906193369,"phone":"(784) 129-4351","sd":"25","ssbd":"13","lsbd":"School Board Nebo 7"},{"vid":"1636331","name":"Jenny Armstrong","party":"","address":"259 W Utah Ave, Payson, UT 84651","precinct":"25PA03","hd":"65","v_score":"0","decile":"1","lat":40.04340674895672,"lng":-111.73560565093405,"phone":"(598) 685-3020","sd":"25","ssbd":"13","lsbd":"School Board Nebo 7"},{"vid":"1638028","name":"Harlan O'Conner","party":"Rep","address":"371 S 1000 W, Payson, UT 84651","precinct":"25PA03","hd":"65","v_score":"6.724398202","decile":"8","lat":40.038638017099586,"lng":-111.748463166926,"phone":"(603) 268-9918","sd":"25","ssbd":"13","lsbd":"School Board Nebo 7"},{"vid":"1638042","name":"Belen Price","party":"Rep","address":"371 S 1000 W, Payson, UT 84651","precinct":"25PA03","hd":"65","v_score":"6.724398202","decile":"8","lat":40.038638017099586,"lng":-111.748463166926,"phone":"(694) 827-8645","sd":"25","ssbd":"13","lsbd":"School Board Nebo 7"},{"vid":"1640337","name":"Irvin Lemke-Hettinger","party":"Dem","address":"451 N 150 W, Payson, UT 84651","precinct":"25PA03","hd":"65","v_score":"3.781490609","decile":"6","lat":40.049679898961344,"lng":-111.7347070207006,"phone":"(597) 160-7572","sd":"25","ssbd":"13","lsbd":"School Board Nebo 7"},{"vid":"1642701","name":"Mr. Sharon Denesik Sr.","party":"","address":"235 S 700 W, Payson, UT 84651","precinct":"25PA03","hd":"65","v_score":"2.315214949","decile":"5","lat":40.04108604255877,"lng":-111.743353682962,"phone":"(880) 633-2240","sd":"25","ssbd":"13","lsbd":"School Board Nebo 7"},{"vid":"1647585","name":"Sky Hamill","party":"Dem","address":"371 S 1000 W, Payson, UT 84651","precinct":"25PA03","hd":"65","v_score":"2.315214949","decile":"5","lat":40.038638017099586,"lng":-111.748463166926,"phone":"(524) 998-2752","sd":"25","ssbd":"13","lsbd":"School Board Nebo 7"},{"vid":"1649267","name":"Jule Cummings","party":"","address":"110 N 400 W, Payson, UT 84651","precinct":"25PA03","hd":"65","v_score":"18.6326806","decile":"10","lat":40.044778830187965,"lng":-111.73785299754172,"phone":"(236) 493-7877","sd":"25","ssbd":"13","lsbd":"School Board Nebo 7"},{"vid":"1650835","name":"Alease Heathcote","party":"","address":"255 S 500 W, Payson, UT 84651","precinct":"25PA03","hd":"65","v_score":"2.315214949","decile":"5","lat":40.04058278976546,"lng":-111.739372424153,"phone":"(757) 935-7438","sd":"25","ssbd":"13","lsbd":"School Board Nebo 7"},{"vid":"1652069","name":"Dr. Stefan Schneider MD","party":"Dem","address":"383 N 400 W, Payson, UT 84651","precinct":"25PA03","hd":"65","v_score":"1.121327652","decile":"3","lat":40.04814239059767,"lng":-111.73844207734136,"phone":"(521) 334-1790","sd":"25","ssbd":"13","lsbd":"School Board Nebo 7"},{"vid":"1655948","name":"Raekwon Effertz","party":"","address":"289 W 200 S, Payson, UT 84651","precinct":"25PA03","hd":"65","v_score":"13.77600699","decile":"9","lat":40.04125726103429,"lng":-111.73569238165777,"phone":"(581) 316-4759","sd":"25","ssbd":"13","lsbd":"School Board Nebo 7"},{"vid":"1662925","name":"Vira Lowe PhD","party":"Rep","address":"95 N 500 W, Payson, UT 84651","precinct":"25PA03","hd":"65","v_score":"2.876042565","decile":"6","lat":40.044284721140265,"lng":-111.73994837202048,"phone":"(279) 677-5510","sd":"25","ssbd":"13","lsbd":"School Board Nebo 7"},{"vid":"1664609","name":"Mrs. Amaris Bode","party":"Rep","address":"395 S 300 W, Payson, UT 84651","precinct":"25PA03","hd":"65","v_score":"5.40460374","decile":"7","lat":40.038561037912885,"lng":-111.7355473686491,"phone":"(991) 217-0124","sd":"25","ssbd":"13","lsbd":"School Board Nebo 7"},{"vid":"1665035","name":"Godfrey Botsford","party":"Dem","address":"189 N 400 W, Payson, UT 84651","precinct":"25PA03","hd":"65","v_score":"1.121327652","decile":"3","lat":40.04548933426704,"lng":-111.73870407294031,"phone":"(312) 457-7499","sd":"25","ssbd":"13","lsbd":"School Board Nebo 7"},{"vid":"1682941","name":"Mrs. Lucille Orn MD","party":"","address":"750 W 300 S, Payson, UT 84651","precinct":"25PA03","hd":"65","v_score":"1.193887297","decile":"3","lat":40.04010615096881,"lng":-111.7450276101303,"phone":"(996) 316-3570","sd":"25","ssbd":"13","lsbd":"School Board Nebo 7"},{"vid":"1692960","name":"Melissia Block PhD","party":"Dem","address":"502 W 200 N, Apt A, Payson, UT 84651","precinct":"25PA03","hd":"65","v_score":"20.32009306","decile":"10","lat":40.04618071773543,"lng":-111.73959845953236,"phone":"(165) 029-0134","sd":"25","ssbd":"13","lsbd":"School Board Nebo 7"},{"vid":"1693528","name":"Rico Heaney","party":"Dem","address":"379 W 100 N, Payson, UT 84651","precinct":"25PA03","hd":"65","v_score":"0","decile":"1","lat":40.04427455235142,"lng":-111.73771416974174,"phone":"(744) 698-4073","sd":"25","ssbd":"13","lsbd":"School Board Nebo 7"},{"vid":"a4fbfcb4602822c63f896ada90317ef5383234889197e6b54ed43784af6be4ad","name":"Dr. Naoma Goodwin","party":"Rep","address":"674 W 300 S, Payson, UT 84651","precinct":"25PA03","hd":"65","v_score":"0","decile":"1","lat":40.040211191470306,"lng":-111.74313027061618,"phone":"(825) 069-4081","sd":"25","ssbd":"13","lsbd":"School Board Nebo 7"},{"vid":"1696569","name":"Dr. Thad Schroeder IV","party":"","address":"263 S 700 W, Payson, UT 84651","precinct":"25PA03","hd":"65","v_score":"0","decile":"1","lat":40.04033255255745,"lng":-111.7433568921035,"phone":"(704) 872-7784","sd":"25","ssbd":"13","lsbd":"School Board Nebo 7"},{"vid":"1705386","name":"Manuelita O'Conner","party":"","address":"57 W 200 N, Payson, UT 84651","precinct":"25PA03","hd":"65","v_score":"13.5493502","decile":"9","lat":40.04547397716755,"lng":-111.73322867437662,"phone":"(567) 062-5349","sd":"25","ssbd":"13","lsbd":"School Board Nebo 7"},{"vid":"6d0fe7d9a777e2f583804c97a2fe180db5e624a3e8a2b9ca2c18d481a67dc0bf","name":"Shirleyann Howe","party":"Rep","address":"359 S 900 W, Payson, UT 84651","precinct":"25PA03","hd":"65","v_score":"0","decile":"1","lat":40.039197312492455,"lng":-111.74695382687962,"phone":"(174) 090-5175","sd":"25","ssbd":"13","lsbd":"School Board Nebo 7"},{"vid":"1707078","name":"Cory Rowe","party":"Dem","address":"374 W 100 N, Payson, UT 84651","precinct":"25PA03","hd":"65","v_score":"1.193887297","decile":"3","lat":40.29895372721031,"lng":-111.70468925730854,"phone":"(598) 913-0732","sd":"25","ssbd":"13","lsbd":"School Board Nebo 7"},{"vid":"1707854","name":"Sherry Durgan","party":"Dem","address":"530 W 200 N, Payson, UT 84651","precinct":"25PA03","hd":"65","v_score":"29.80287197","decile":"10","lat":40.04615593415694,"lng":-111.74065365605871,"phone":"(461) 990-4466","sd":"25","ssbd":"13","lsbd":"School Board Nebo 7"},{"vid":"b8124a2306850d8c33fe72cf9b7875d8f810269dd45f21b56c7888b8e3f7fdcc","name":"Oney Renner","party":"Dem","address":"412 S 800 W, Payson, UT 84651","precinct":"25PA03","hd":"65","v_score":"7.830610533","decile":"8","lat":40.03811661938077,"lng":-111.74621955993858,"phone":"(873) 006-4138","sd":"25","ssbd":"13","lsbd":"School Board Nebo 7"},{"vid":"1715620","name":"Ilda Considine","party":"","address":"550 W 100 N, # 1, Payson, UT 84651","precinct":"25PA03","hd":"65","v_score":"0","decile":"1","lat":40.04508959843709,"lng":-111.74103697752109,"phone":"(518) 945-1631","sd":"25","ssbd":"13","lsbd":"School Board Nebo 7"},{"vid":"1717164","name":"Twyla Hayes","party":"Dem","address":"335 N Main St, Payson, UT 84651","precinct":"25PA03","hd":"65","v_score":"5.243007221","decile":"7","lat":40.05984086718921,"lng":-111.67364252110976,"phone":"(778) 152-3979","sd":"25","ssbd":"13","lsbd":"School Board Nebo 7"},{"vid":"66f9d30fbf6551d0414e59ccdf30aeb39fb7b4d214707f35692dcb5242e3e478","name":"Staci Shields-Heaney","party":"","address":"173 N 400 W, Payson, UT 84651","precinct":"25PA03","hd":"65","v_score":"0","decile":"1","lat":40.04528836478351,"lng":-111.73878302418629,"phone":"(563) 130-7457","sd":"25","ssbd":"13","lsbd":"School Board Nebo 7"},{"vid":"1728239","name":"Kloe Gutmann","party":"","address":"395 S 300 W, Payson, UT 84651","precinct":"25PA03","hd":"65","v_score":"5.40460374","decile":"7","lat":40.038561037912885,"lng":-111.7355473686491,"phone":"(394) 416-4498","sd":"25","ssbd":"13","lsbd":"School Board Nebo 7"},{"vid":"1737728","name":"Dr. Keanu Nitzsche Sr.","party":"","address":"333 S 100 W, Payson, UT 84651","precinct":"25PA03","hd":"65","v_score":"0","decile":"1","lat":40.03919928112016,"lng":-111.73341138990877,"phone":"(881) 373-8477","sd":"25","ssbd":"13","lsbd":"School Board Nebo 7"},{"vid":"1739759","name":"Ronda Douglas-Mills","party":"Dem","address":"235 N 100 W, Payson, UT 84651","precinct":"25PA03","hd":"65","v_score":"8.489090786","decile":"8","lat":40.04624257665314,"lng":-111.73408558056009,"phone":"(735) 472-4029","sd":"25","ssbd":"13","lsbd":"School Board Nebo 7"},{"vid":"1741822","name":"Geoff Pfeffer","party":"Dem","address":"363 S 800 W, Payson, UT 84651","precinct":"25PA03","hd":"65","v_score":"0","decile":"1","lat":40.03879993872439,"lng":-111.7450359711613,"phone":"(920) 737-9346","sd":"25","ssbd":"13","lsbd":"School Board Nebo 7"},{"vid":"1742703","name":"Mr. Jamison Prosacco","party":"Rep","address":"625 W 100 N, Payson, UT 84651","precinct":"25PA03","hd":"65","v_score":"5.40460374","decile":"7","lat":40.04434861407615,"lng":-111.74293426979662,"phone":"(568) 576-8403","sd":"25","ssbd":"13","lsbd":"School Board Nebo 7"},{"vid":"1755640","name":"Jaclyn Ferry","party":"Dem","address":"262 S 800 W, Apt 3, Payson, UT 84651","precinct":"25PA03","hd":"65","v_score":"4.568975008","decile":"7","lat":40.040350229883174,"lng":-111.7459488473662,"phone":"(797) 053-5955","sd":"25","ssbd":"13","lsbd":"School Board Nebo 7"},{"vid":"1755753","name":"Dr. Paralee Russel","party":"Dem","address":"40 S 300 W, Payson, UT 84651","precinct":"25PA03","hd":"65","v_score":"5.40460374","decile":"7","lat":40.04316172024718,"lng":-111.73622182119779,"phone":"(590) 233-6950","sd":"25","ssbd":"13","lsbd":"School Board Nebo 7"},{"vid":"1763324","name":"Raoul Stracke","party":"Rep","address":"320 W 100 N, Payson, UT 84651","precinct":"25PA03","hd":"65","v_score":"1.193887297","decile":"3","lat":40.04514343807495,"lng":-111.73632918989384,"phone":"(527) 077-0025","sd":"25","ssbd":"13","lsbd":"School Board Nebo 7"},{"vid":"1766504","name":"Debra Altenwerth","party":"Dem","address":"288 S 500 W, Payson, UT 84651","precinct":"25PA03","hd":"65","v_score":"9.61867875","decile":"8","lat":40.04027234752701,"lng":-111.73997690934111,"phone":"(741) 840-1631","sd":"25","ssbd":"13","lsbd":"School Board Nebo 7"},{"vid":"1775761","name":"Jerod Feest II","party":"Dem","address":"237 S 500 W, Payson, UT 84651","precinct":"25PA03","hd":"65","v_score":"0","decile":"1","lat":40.04106293616549,"lng":-111.739451206613,"phone":"(425) 110-3696","sd":"25","ssbd":"13","lsbd":"School Board Nebo 7"},{"vid":"1779332","name":"Ephraim McClure","party":"","address":"233 S 300 W, Payson, UT 84651","precinct":"25PA03","hd":"65","v_score":"9.682978083","decile":"8","lat":40.040941670696476,"lng":-111.73568058731706,"phone":"(543) 009-1442","sd":"25","ssbd":"13","lsbd":"School Board Nebo 7"},{"vid":"1782246","name":"Dr. Clem Bartoletti","party":"","address":"212 S 650 W, Payson, UT 84651","precinct":"25PA03","hd":"65","v_score":"0","decile":"1","lat":40.04078141727222,"lng":-111.74290334085352,"phone":"(633) 526-9496","sd":"25","ssbd":"13","lsbd":"School Board Nebo 7"},{"vid":"ccf5cabca2c6ea6ae8375e8341a96215c454e426652dcea4d54bf6f467365921","name":"Laureen Orn-Ebert","party":"Rep","address":"390 W 200 S, Payson, UT 84651","precinct":"25PA03","hd":"65","v_score":"3.781490609","decile":"6","lat":40.041734061538506,"lng":-111.73741902178729,"phone":"(291) 625-6381","sd":"25","ssbd":"13","lsbd":"School Board Nebo 7"},{"vid":"1793069","name":"Roby Schiller DVM","party":"Dem","address":"896 W 450 S, Payson, UT 84651","precinct":"25PA03","hd":"65","v_score":"18.6326806","decile":"10","lat":40.03765983527247,"lng":-111.74752101373844,"phone":"(244) 851-0020","sd":"25","ssbd":"13","lsbd":"School Board Nebo 7"},{"vid":"1813786","name":"Mrs. Jillian Kerluke DVM","party":"Dem","address":"428 S 1000 W, Payson, UT 84651","precinct":"25PA03","hd":"65","v_score":"0","decile":"1","lat":40.03811938303723,"lng":-111.74966996427978,"phone":"(507) 377-0974","sd":"25","ssbd":"13","lsbd":"School Board Nebo 7"},{"vid":"1927320ac023d1112dd62b7724e00585e666c2edaf4a836654d729c3ff788f9d","name":"Dr. Venessa Sauer","party":"","address":"233 S 300 W, Payson, UT 84651","precinct":"25PA03","hd":"65","v_score":"11.30609121","decile":"9","lat":40.040941670696476,"lng":-111.73568058731706,"phone":"(749) 574-3594","sd":"25","ssbd":"13","lsbd":"School Board Nebo 7"},{"vid":"22845b5f5ee83d1045346bc8d18d607937da0c9e04add054a736b56648cb2a92","name":"Ingrid Glover MD","party":"Dem","address":"290 S 400 W, Payson, UT 84651","precinct":"25PA03","hd":"65","v_score":"8.363183621","decile":"8","lat":40.04002130518176,"lng":-111.73815806487322,"phone":"(353) 636-6982","sd":"25","ssbd":"13","lsbd":"School Board Nebo 7"},{"vid":"1837782","name":"Larry Breitenberg","party":"Rep","address":"288 S 500 W, Payson, UT 84651","precinct":"25PA03","hd":"65","v_score":"10.93847321","decile":"9","lat":40.04027234752701,"lng":-111.73997690934111,"phone":"(510) 814-3981","sd":"25","ssbd":"13","lsbd":"School Board Nebo 7"},{"vid":"1841650","name":"Casimiro Pfannerstill-Tillman","party":"","address":"289 N 200 W, Payson, UT 84651","precinct":"25PA03","hd":"65","v_score":"10.9941379","decile":"9","lat":40.046695540640414,"lng":-111.73535542593031,"phone":"(973) 696-9052","sd":"25","ssbd":"13","lsbd":"School Board Nebo 7"},{"vid":"1842020","name":"Alesha Hammes-Bode","party":"Rep","address":"198 S 800 W, Payson, UT 84651","precinct":"25PA03","hd":"65","v_score":"4.15282392","decile":"7","lat":40.04130702780879,"lng":-111.74581180720511,"phone":"(610) 484-8056","sd":"25","ssbd":"13","lsbd":"School Board Nebo 7"},{"vid":"1847825","name":"Jana Frami","party":"Rep","address":"192 S 800 W, Payson, UT 84651","precinct":"25PA03","hd":"65","v_score":"12.95232993","decile":"9","lat":40.041696322555744,"lng":-111.74601889062583,"phone":"(881) 391-2424","sd":"25","ssbd":"13","lsbd":"School Board Nebo 7"},{"vid":"1848983","name":"Pamela King PhD","party":"Dem","address":"248 S 300 W, Payson, UT 84651","precinct":"25PA03","hd":"65","v_score":"3.781490609","decile":"6","lat":40.040632287537775,"lng":-111.73635664969808,"phone":"(514) 484-8419","sd":"25","ssbd":"13","lsbd":"School Board Nebo 7"},{"vid":"4da0d431fe222e9a8bc04296cdf953edd2f88d34209a97dd6e459965d153866a","name":"Hershel Berge DVM","party":"","address":"43 N 100 W, Unit A, Payson, UT 84651","precinct":"25PA03","hd":"65","v_score":"2.587603312","decile":"5","lat":40.04406030157493,"lng":-111.73400145566936,"phone":"(934) 346-0345","sd":"25","ssbd":"13","lsbd":"School Board Nebo 7"},{"vid":"1867283","name":"Kalene Franecki DDS","party":"","address":"262 S 200 W, Payson, UT 84651","precinct":"25PA03","hd":"65","v_score":"2.587603312","decile":"5","lat":40.04022449391197,"lng":-111.73531687131629,"phone":"(281) 783-3267","sd":"25","ssbd":"13","lsbd":"School Board Nebo 7"},{"vid":"1874935","name":"Tyson Grady","party":"","address":"239 S 300 W, Payson, UT 84651","precinct":"25PA03","hd":"65","v_score":"0","decile":"1","lat":40.040776729654276,"lng":-111.73568002173778,"phone":"(831) 409-7554","sd":"25","ssbd":"13","lsbd":"School Board Nebo 7"},{"vid":"1876660","name":"Mathilda O'Kon","party":"Dem","address":"70 W 400 S, Payson, UT 84651","precinct":"25PA03","hd":"65","v_score":"1.46627566","decile":"4","lat":40.03848171571831,"lng":-111.7332278876321,"phone":"(737) 122-5494","sd":"25","ssbd":"13","lsbd":"School Board Nebo 7"},{"vid":"1877681","name":"Alger Tremblay-Hegmann","party":"Dem","address":"245 N 200 W, Payson, UT 84651","precinct":"25PA03","hd":"65","v_score":"2.315214949","decile":"5","lat":40.04641289672041,"lng":-111.73544873322022,"phone":"(795) 347-8788","sd":"25","ssbd":"13","lsbd":"School Board Nebo 7"},{"vid":"1881984","name":"Jax Bahringer","party":"","address":"250 S 300 W, Payson, UT 84651","precinct":"25PA03","hd":"65","v_score":"6.814370645","decile":"8","lat":40.040478324437785,"lng":-111.73635612005143,"phone":"(432) 148-3058","sd":"25","ssbd":"13","lsbd":"School Board Nebo 7"},{"vid":"1887606","name":"Miss Aimee Wilkinson DVM","party":"","address":"361 N 230 W, Payson, UT 84651","precinct":"25PA03","hd":"65","v_score":"5.407962308","decile":"7","lat":40.04787370178798,"lng":-111.7366883360469,"phone":"(936) 106-2563","sd":"25","ssbd":"13","lsbd":"School Board Nebo 7"},{"vid":"cbf7b788762b1e42413dd0c5754c743e5430a74a74c1d3289563699561f94994","name":"Miss Zada Schulist","party":"Rep","address":"47 N 200 W, Payson, UT 84651","precinct":"25PA03","hd":"65","v_score":"3.781490609","decile":"6","lat":40.04410411512091,"lng":-111.7354484946277,"phone":"(383) 666-9165","sd":"25","ssbd":"13","lsbd":"School Board Nebo 7"},{"vid":"1891567","name":"Mrs. Caitlin Wuckert DDS","party":"Rep","address":"559 W 300 N, Payson, UT 84651","precinct":"25PA03","hd":"65","v_score":"1.121327652","decile":"3","lat":40.046688108393035,"lng":-111.74024898313924,"phone":"(168) 098-0041","sd":"25","ssbd":"13","lsbd":"School Board Nebo 7"},{"vid":"1892360","name":"Neppie McCullough MD","party":"","address":"194 W 300 N, Payson, UT 84651","precinct":"25PA03","hd":"65","v_score":"1.193887297","decile":"3","lat":40.047233215442255,"lng":-111.73476885048396,"phone":"(838) 831-0018","sd":"25","ssbd":"13","lsbd":"School Board Nebo 7"},{"vid":"1904170","name":"Jennie Funk","party":"","address":"206 S 400 W, Payson, UT 84651","precinct":"25PA03","hd":"65","v_score":"1.193887297","decile":"3","lat":40.041253257737694,"lng":-111.73809937182713,"phone":"(673) 131-6142","sd":"25","ssbd":"13","lsbd":"School Board Nebo 7"},{"vid":"1913268","name":"Isaiah Brown","party":"","address":"235 N 100 W, Payson, UT 84651","precinct":"25PA03","hd":"65","v_score":"8.489090786","decile":"8","lat":40.04624257665314,"lng":-111.73408558056009,"phone":"(276) 130-6471","sd":"25","ssbd":"13","lsbd":"School Board Nebo 7"},{"vid":"1925066","name":"Hymen Schuppe","party":"","address":"445 W 400 N, Apt 8, Payson, UT 84651","precinct":"25PA03","hd":"65","v_score":"0","decile":"1","lat":40.04838237118454,"lng":-111.73880703604154,"phone":"(321) 804-2852","sd":"25","ssbd":"13","lsbd":"School Board Nebo 7"},{"vid":"1934231","name":"Gerhard Watsica-Thiel","party":"Rep","address":"332 S 500 W, Payson, UT 84651","precinct":"25PA03","hd":"65","v_score":"2.315214949","decile":"5","lat":40.039359082964474,"lng":-111.74018353030061,"phone":"(374) 159-4764","sd":"25","ssbd":"13","lsbd":"School Board Nebo 7"},{"vid":"1934233","name":"Elmina Zemlak","party":"Rep","address":"332 S 500 W, Payson, UT 84651","precinct":"25PA03","hd":"65","v_score":"2.315214949","decile":"5","lat":40.039359082964474,"lng":-111.74018353030061,"phone":"(337) 693-8714","sd":"25","ssbd":"13","lsbd":"School Board Nebo 7"},{"vid":"1938135","name":"Jaiden Parisian","party":"Dem","address":"350 S 900 W, Payson, UT 84651","precinct":"25PA03","hd":"65","v_score":"1.121327652","decile":"3","lat":40.03901318929203,"lng":-111.74796779569589,"phone":"(560) 909-9788","sd":"25","ssbd":"13","lsbd":"School Board Nebo 7"},{"vid":"1941410","name":"Stetson Strosin","party":"Rep","address":"263 S 700 W, Payson, UT 84651","precinct":"25PA03","hd":"65","v_score":"2.315214949","decile":"5","lat":40.04033255255745,"lng":-111.7433568921035,"phone":"(479) 967-0235","sd":"25","ssbd":"13","lsbd":"School Board Nebo 7"},{"vid":"700e9ecad44b99b66d235331ac6d7607c521d7868228c6977c436f9e86c8b023","name":"Tishie Crooks DVM","party":"Rep","address":"356 N 230 W, Payson, UT 84651","precinct":"25PA03","hd":"65","v_score":"1.121327652","decile":"3","lat":40.047729222001706,"lng":-111.73602804623063,"phone":"(341) 138-5644","sd":"25","ssbd":"13","lsbd":"School Board Nebo 7"},{"vid":"1947153","name":"Mercedes Bernhard","party":"","address":"176 W 300 S, Payson, UT 84651","precinct":"25PA03","hd":"65","v_score":"2.315214949","decile":"5","lat":40.229992042188364,"lng":-111.66170162904338,"phone":"(434) 980-5161","sd":"25","ssbd":"13","lsbd":"School Board Nebo 7"},{"vid":"1b65ea313c235cc8a2d19a0c9cfc69d3c3da49b07fc9b8329f2e5a52c8094c4d","name":"Jerod Murphy","party":"","address":"524 W Utah Ave, Payson, UT 84651","precinct":"25PA03","hd":"65","v_score":"6.74007049","decile":"8","lat":40.043885829307314,"lng":-111.7401362311263,"phone":"(899) 005-4955","sd":"25","ssbd":"13","lsbd":"School Board Nebo 7"},{"vid":"1953475","name":"Rudolf Frami","party":"","address":"221 S Majestic Meadows Dr, Payson, UT 84651","precinct":"25PA03","hd":"65","v_score":"16.2066738","decile":"9","lat":40.040591583632214,"lng":-111.74707075172752,"phone":"(585) 001-3426","sd":"25","ssbd":"13","lsbd":"School Board Nebo 7"},{"vid":"1971047","name":"Colonel Schoen-Thompson","party":"","address":"342 N 400 W, Payson, UT 84651","precinct":"25PA03","hd":"65","v_score":"2.744440783","decile":"5","lat":40.04779650643607,"lng":-111.73797646432999,"phone":"(519) 867-7482","sd":"25","ssbd":"13","lsbd":"School Board Nebo 7"},{"vid":"e522ec2c2b0e7092252370209fba1fcfee39955079dfc110069a51b2d39e8d2d","name":"Larue Mante","party":"Rep","address":"342 N 400 W, Payson, UT 84651","precinct":"25PA03","hd":"65","v_score":"2.315214949","decile":"5","lat":40.04779650643607,"lng":-111.73797646432999,"phone":"(588) 940-9397","sd":"25","ssbd":"13","lsbd":"School Board Nebo 7"},{"vid":"1973045","name":"Mackenzie Douglas","party":"","address":"427 W 200 S, Payson, UT 84651","precinct":"25PA03","hd":"65","v_score":"5.273794831","decile":"7","lat":40.041194856778674,"lng":-111.73849919815171,"phone":"(599) 588-1128","sd":"25","ssbd":"13","lsbd":"School Board Nebo 7"},{"vid":"1974337","name":"Dr. Valeria Ledner","party":"Dem","address":"175 W Utah Ave, Payson, UT 84651","precinct":"25PA03","hd":"65","v_score":"5.687348376","decile":"7","lat":40.04340200663366,"lng":-111.73467183387058,"phone":"(769) 804-0986","sd":"25","ssbd":"13","lsbd":"School Board Nebo 7"},{"vid":"1987562","name":"Arkie Connelly","party":"","address":"351 W Utah Ave, Payson, UT 84651","precinct":"25PA03","hd":"65","v_score":"1.193887297","decile":"3","lat":40.04334341246025,"lng":-111.73695347348453,"phone":"(429) 336-5174","sd":"25","ssbd":"13","lsbd":"School Board Nebo 7"},{"vid":"60613ebbbd44c020d8073ededa300dbf811ba13ef0fe54de3b3db172e01c8c80","name":"Tatsuo Pfeffer","party":"Dem","address":"70 W 100 S, Payson, UT 84651","precinct":"25PA03","hd":"65","v_score":"6.798081861","decile":"8","lat":40.04270964552019,"lng":-111.73330541834966,"phone":"(327) 398-0824","sd":"25","ssbd":"13","lsbd":"School Board Nebo 7"},{"vid":"1989537","name":"Alease Maggio","party":"Rep","address":"657 W Utah Ave, Payson, UT 84651","precinct":"25PA03","hd":"65","v_score":"2.817000428","decile":"6","lat":40.04341484318636,"lng":-111.74277365066447,"phone":"(521) 582-3644","sd":"25","ssbd":"13","lsbd":"School Board Nebo 7"},{"vid":"7c82e05c5a72da383d340d9abd4d11713069ab8f57df6b74cc961718faa62ebd","name":"Julisa Gaylord","party":"Rep","address":"740 W 400 S, Payson, UT 84651","precinct":"25PA03","hd":"65","v_score":"5.40460374","decile":"7","lat":40.038520980696404,"lng":-111.7444900708407,"phone":"(723) 824-6701","sd":"25","ssbd":"13","lsbd":"School Board Nebo 7"},{"vid":"2010868","name":"Dominique Roberts","party":"Dem","address":"196 W Utah Ave, Unit B, Payson, UT 84651","precinct":"25PA03","hd":"65","v_score":"0","decile":"1","lat":40.04383643349994,"lng":-111.73481980741845,"phone":"(534) 107-8443","sd":"25","ssbd":"13","lsbd":"School Board Nebo 7"},{"vid":"2010877","name":"Danelle Cole-Bartell","party":"","address":"777 W 300 S, Payson, UT 84651","precinct":"25PA03","hd":"65","v_score":"6.550708384","decile":"7","lat":40.03944646875501,"lng":-111.74502028454879,"phone":"(934) 748-8064","sd":"25","ssbd":"13","lsbd":"School Board Nebo 7"},{"vid":"2012311","name":"Dr. Phillip Ruecker Jr.","party":"","address":"450 W 300 S, Payson, UT 84651","precinct":"25PA03","hd":"65","v_score":"4.833280139","decile":"7","lat":40.04002073352736,"lng":-111.73874725657298,"phone":"(449) 835-9681","sd":"25","ssbd":"13","lsbd":"School Board Nebo 7"},{"vid":"2012480","name":"Rigoberto Walter","party":"","address":"494 W 300 S, Payson, UT 84651","precinct":"25PA03","hd":"65","v_score":"12.56158634","decile":"9","lat":40.04001142240959,"lng":-111.73906894561185,"phone":"(310) 728-6920","sd":"25","ssbd":"13","lsbd":"School Board Nebo 7"},{"vid":"2019461","name":"Jorge Walsh I","party":"Dem","address":"185 W Utah Ave, Payson, UT 84651","precinct":"25PA03","hd":"65","v_score":"0","decile":"1","lat":40.04337305712295,"lng":-111.73487170399073,"phone":"(461) 886-9371","sd":"25","ssbd":"13","lsbd":"School Board Nebo 7"},{"vid":"2021571","name":"Marissa Hoeger","party":"Rep","address":"340 N 100 W, Payson, UT 84651","precinct":"25PA03","hd":"65","v_score":"0","decile":"1","lat":40.0475231729105,"lng":-111.73339053462115,"phone":"(321) 553-1389","sd":"25","ssbd":"13","lsbd":"School Board Nebo 7"},{"vid":"2022659","name":"Brian Jaskolski","party":"","address":"58 S 300 W, Payson, UT 84651","precinct":"25PA03","hd":"65","v_score":"17.16640494","decile":"9","lat":40.04295577633814,"lng":-111.73628514937103,"phone":"(991) 644-2019","sd":"25","ssbd":"13","lsbd":"School Board Nebo 7"},{"vid":"528d23ad28a76da7da78856d4cae9486342fd81a108129f3bca904f891f2fc56","name":"Caylee Jenkins DDS","party":"","address":"346 W 300 N, Payson, UT 84651","precinct":"25PA03","hd":"65","v_score":"2.315214949","decile":"5","lat":40.04730506183747,"lng":-111.73771592004688,"phone":"(353) 274-3591","sd":"25","ssbd":"13","lsbd":"School Board Nebo 7"},{"vid":"2027409","name":"Ty Champlin","party":"Dem","address":"522 W 400 S, Payson, UT 84651","precinct":"25PA03","hd":"65","v_score":"2.315214949","decile":"5","lat":40.0385309870689,"lng":-111.74050777540577,"phone":"(739) 076-8195","sd":"25","ssbd":"13","lsbd":"School Board Nebo 7"},{"vid":"2044188","name":"Terell Stiedemann","party":"","address":"60 S 200 W, Payson, UT 84651","precinct":"25PA03","hd":"65","v_score":"6.657533174","decile":"7","lat":40.042957346532056,"lng":-111.73531980647167,"phone":"(940) 449-6309","sd":"25","ssbd":"13","lsbd":"School Board Nebo 7"},{"vid":"2049284","name":"Aniya Brakus","party":"Rep","address":"251 S Majestic Meadows Dr, Payson, UT 84651","precinct":"25PA03","hd":"65","v_score":"1.193887297","decile":"3","lat":40.04067271280051,"lng":-111.74644115702021,"phone":"(189) 294-6506","sd":"25","ssbd":"13","lsbd":"School Board Nebo 7"},{"vid":"2066585","name":"Vollie Bogan-Simonis","party":"Rep","address":"310 S 300 W, Payson, UT 84651","precinct":"25PA03","hd":"65","v_score":"0","decile":"1","lat":40.039526939511084,"lng":-111.73624188255438,"phone":"(642) 854-9066","sd":"25","ssbd":"13","lsbd":"School Board Nebo 7"},{"vid":"2072435","name":"Cheryl Jakubowski","party":"Dem","address":"667 W Utah Ave, Payson, UT 84651","precinct":"25PA03","hd":"65","v_score":"0","decile":"1","lat":40.04341426193243,"lng":-111.74305217852856,"phone":"(154) 163-9177","sd":"25","ssbd":"13","lsbd":"School Board Nebo 7"},{"vid":"1835bc3cffb8a0e890f5af1ab7539ea647e28f6527b2402a0b699196d8a80144","name":"Mr. Arley Larkin","party":"","address":"559 W 300 N, Payson, UT 84651","precinct":"25PA03","hd":"65","v_score":"17.69897802","decile":"10","lat":40.046688108393035,"lng":-111.74024898313924,"phone":"(840) 432-4245","sd":"25","ssbd":"13","lsbd":"School Board Nebo 7"},{"vid":"2074814","name":"Jannette Schumm-Roob","party":"","address":"451 N 150 W, Payson, UT 84651","precinct":"25PA03","hd":"65","v_score":"3.781490609","decile":"6","lat":40.049679898961344,"lng":-111.7347070207006,"phone":"(123) 098-2573","sd":"25","ssbd":"13","lsbd":"School Board Nebo 7"},{"vid":"f6cf203a86ff3d7890a851b4e737614493d0d16e8ac5064e13f52394421cff53","name":"Bird Nitzsche Sr.","party":"Rep","address":"630 W 200 S, Payson, UT 84651","precinct":"25PA03","hd":"65","v_score":"0","decile":"1","lat":40.04172733225086,"lng":-111.74225107640922,"phone":"(722) 312-3694","sd":"25","ssbd":"13","lsbd":"School Board Nebo 7"},{"vid":"2083284","name":"Abner Becker-Simonis","party":"Dem","address":"350 S Main St, Payson, UT 84651","precinct":"25PA03","hd":"65","v_score":"5.546183193","decile":"7","lat":40.104805586389624,"lng":-111.65531901005643,"phone":"(404) 420-8709","sd":"25","ssbd":"13","lsbd":"School Board Nebo 7"},{"vid":"0dda1e837f8ba90ce3c23849a88380f880cbd91c433f6a6642a8471aab06e453","name":"Mr. Issac Lehner I","party":"Dem","address":"432 S 800 W, Payson, UT 84651","precinct":"25PA03","hd":"65","v_score":"28.7696615","decile":"10","lat":40.03777362929582,"lng":-111.74592858748194,"phone":"(300) 500-0949","sd":"25","ssbd":"13","lsbd":"School Board Nebo 7"},{"vid":"2084245","name":"Dr. Lavelle Boehm","party":"","address":"794 W 400 S, Payson, UT 84651","precinct":"25PA03","hd":"65","v_score":"1.46627566","decile":"4","lat":40.03859672061642,"lng":-111.74531804210918,"phone":"(876) 461-8656","sd":"25","ssbd":"13","lsbd":"School Board Nebo 7"},{"vid":"2089349","name":"Torey Lakin","party":"Rep","address":"194 S 800 W, Payson, UT 84651","precinct":"25PA03","hd":"65","v_score":"0","decile":"1","lat":40.04149472618263,"lng":-111.74586412024489,"phone":"(764) 634-3227","sd":"25","ssbd":"13","lsbd":"School Board Nebo 7"},{"vid":"d4b6d1e5e4907168b055f6fd7038a04f87af684c68bc4bf359b71e41d202680d","name":"Amina Aufderhar","party":"","address":"20 S 700 W, Payson, UT 84651","precinct":"25PA03","hd":"65","v_score":"3.781490609","decile":"6","lat":40.04343522021853,"lng":-111.74398668998975,"phone":"(163) 419-1052","sd":"25","ssbd":"13","lsbd":"School Board Nebo 7"},{"vid":"2107772","name":"Mrs. Valery Schultz DVM","party":"","address":"658 W 100 S, Payson, UT 84651","precinct":"25PA03","hd":"65","v_score":"2.315214949","decile":"5","lat":40.04278362641878,"lng":-111.74277458024116,"phone":"(235) 097-4720","sd":"25","ssbd":"13","lsbd":"School Board Nebo 7"},{"vid":"2108357","name":"Dena Lind","party":"","address":"230 S 100 W, Bsmt, Payson, UT 84651","precinct":"25PA03","hd":"65","v_score":"1.623113131","decile":"5","lat":40.04074915814124,"lng":-111.73403178500062,"phone":"(234) 204-1519","sd":"25","ssbd":"13","lsbd":"School Board Nebo 7"},{"vid":"3d50c7d9ed43d0e97432bd0870b2294d6836f4ea562f6d285dcd395d78a09202","name":"Miss Gwendolyn West","party":"","address":"139 N 400 W, Payson, UT 84651","precinct":"25PA03","hd":"65","v_score":"2.587603312","decile":"5","lat":40.04507270007729,"lng":-111.73871539836044,"phone":"(118) 147-8523","sd":"25","ssbd":"13","lsbd":"School Board Nebo 7"},{"vid":"b3a3c7a90a11bc44cb9da2b52fecda16b91cd59d2bc2f8813ac728cfd6481a15","name":"Gay Hoppe","party":"","address":"557 W 200 N, Payson, UT 84651","precinct":"25PA03","hd":"65","v_score":"8.347511332","decile":"8","lat":40.04546965489239,"lng":-111.74146130977108,"phone":"(310) 622-1248","sd":"25","ssbd":"13","lsbd":"School Board Nebo 7"},{"vid":"2123123","name":"Ryley Legros","party":"","address":"371 S 1000 W, Payson, UT 84651","precinct":"25PA03","hd":"65","v_score":"5.530510904","decile":"7","lat":40.038638017099586,"lng":-111.748463166926,"phone":"(692) 545-7616","sd":"25","ssbd":"13","lsbd":"School Board Nebo 7"},{"vid":"2131822","name":"Jean Emard","party":"Dem","address":"774 W 200 S, Payson, UT 84651","precinct":"25PA03","hd":"65","v_score":"2.587603312","decile":"5","lat":40.04190979270475,"lng":-111.74498492824519,"phone":"(480) 085-8537","sd":"25","ssbd":"13","lsbd":"School Board Nebo 7"},{"vid":"2132095","name":"Hoyt Parker-Hansen","party":"","address":"697 W Utah Ave, Payson, UT 84651","precinct":"25PA03","hd":"65","v_score":"0","decile":"1","lat":40.04341379635162,"lng":-111.74327500096354,"phone":"(631) 646-9270","sd":"25","ssbd":"13","lsbd":"School Board Nebo 7"},{"vid":"7c329ac04b3dd0325b218fcba07667d689119a62d899c049fa5b829da22622e9","name":"Roslyn Abbott","party":"Dem","address":"794 W 400 S, Payson, UT 84651","precinct":"25PA03","hd":"65","v_score":"0","decile":"1","lat":40.03859672061642,"lng":-111.74531804210918,"phone":"(293) 668-9634","sd":"25","ssbd":"13","lsbd":"School Board Nebo 7"},{"vid":"e8af332459b7d94904fd2888273e6790614ff919851c08c07cbd436182a0d7c7","name":"Jorja Stehr-Bernier","party":"Dem","address":"114 S 600 W, Payson, UT 84651","precinct":"25PA03","hd":"65","v_score":"8.280646305","decile":"8","lat":40.04237430447442,"lng":-111.74213099016103,"phone":"(464) 099-6364","sd":"25","ssbd":"13","lsbd":"School Board Nebo 7"},{"vid":"2135919","name":"Ashley O'Connell","party":"Rep","address":"289 W 200 S, Payson, UT 84651","precinct":"25PA03","hd":"65","v_score":"9.207031979","decile":"8","lat":40.04125726103429,"lng":-111.73569238165777,"phone":"(468) 254-1322","sd":"25","ssbd":"13","lsbd":"School Board Nebo 7"},{"vid":"367b1dab7aa20cfd178dc6abe904a4f82f424282d13ca755b23b98b4a137c71f","name":"Pearley Rowe","party":"","address":"226 S 800 W, Apt 4, Payson, UT 84651","precinct":"25PA03","hd":"65","v_score":"4.210716443","decile":"7","lat":40.040794819645264,"lng":-111.74594286925762,"phone":"(704) 740-3280","sd":"25","ssbd":"13","lsbd":"School Board Nebo 7"},{"vid":"54c19241dfcfdb043f29c229a32881460a42fa3ce0974c097d74a9d43883c526","name":"Dr. Shayne Koch DVM","party":"Rep","address":"361 N 230 W, Payson, UT 84651","precinct":"25PA03","hd":"65","v_score":"5.273794831","decile":"7","lat":40.04787370178798,"lng":-111.7366883360469,"phone":"(264) 858-5366","sd":"25","ssbd":"13","lsbd":"School Board Nebo 7"},{"vid":"2142576","name":"Mrs. Rene Torp","party":"Dem","address":"174 W Utah Ave, Bsmt, Payson, UT 84651","precinct":"25PA03","hd":"65","v_score":"2.587603312","decile":"5","lat":40.04383677914171,"lng":-111.73464840472998,"phone":"(626) 076-9418","sd":"25","ssbd":"13","lsbd":"School Board Nebo 7"},{"vid":"2142930","name":"Kaleena Gutkowski","party":"","address":"848 W 450 S, Payson, UT 84651","precinct":"25PA03","hd":"65","v_score":"18.39620879","decile":"10","lat":40.038017506997235,"lng":-111.7468455020022,"phone":"(251) 304-7663","sd":"25","ssbd":"13","lsbd":"School Board Nebo 7"},{"vid":"2144666","name":"Mackenzie Wiza","party":"","address":"848 W 450 S, Payson, UT 84651","precinct":"25PA03","hd":"65","v_score":"2.660162957","decile":"5","lat":40.038017506997235,"lng":-111.7468455020022,"phone":"(537) 804-0794","sd":"25","ssbd":"13","lsbd":"School Board Nebo 7"},{"vid":"2152785","name":"Marcelino Kihn","party":"Dem","address":"226 S 500 W, Payson, UT 84651","precinct":"25PA03","hd":"65","v_score":"3.93832808","decile":"6","lat":40.04114057718659,"lng":-111.74010777303711,"phone":"(559) 276-3556","sd":"25","ssbd":"13","lsbd":"School Board Nebo 7"},{"vid":"2ca0f8191bcdc7c6f0cffa7b3d647080f39927f7bbeba24a12efc7f8a07140fd","name":"Dr. Red O'Connell DVM","party":"","address":"360 W 100 N, Payson, UT 84651","precinct":"25PA03","hd":"65","v_score":"0","decile":"1","lat":40.045090636397774,"lng":-111.73732877092529,"phone":"(418) 563-6277","sd":"25","ssbd":"13","lsbd":"School Board Nebo 7"},{"vid":"8f65a3859c68ad86de7b958bf139f83bf06f5c068a11818cc679a56408d1b425","name":"Miss Vilma Jenkins PhD","party":"Rep","address":"64 W 100 N, Payson, UT 84651","precinct":"25PA03","hd":"65","v_score":"1.46627566","decile":"4","lat":40.044903165331824,"lng":-111.73320100698453,"phone":"(925) 975-6476","sd":"25","ssbd":"13","lsbd":"School Board Nebo 7"},{"vid":"cad97ad51b2c8c5572bd77b375425abbdd41ff1c621adcb8d7357fd3a2f178ad","name":"Giancarlo Borer","party":"","address":"421 S 1000 W, Payson, UT 84651","precinct":"25PA03","hd":"65","v_score":"2.587603312","decile":"5","lat":40.038053265806475,"lng":-111.74899263473517,"phone":"(485) 150-2014","sd":"25","ssbd":"13","lsbd":"School Board Nebo 7"},{"vid":"dca444d90bddeb9dccd4e14650ec3d7e4ea82a1db29f0023c529200dee15ecba","name":"Fabian Sawayn","party":"","address":"264 S 800 W, Payson, UT 84651","precinct":"25PA03","hd":"65","v_score":"3.781490609","decile":"6","lat":40.03997746258144,"lng":-111.74633226021486,"phone":"(439) 508-0944","sd":"25","ssbd":"13","lsbd":"School Board Nebo 7"},{"vid":"254f0f66ca5a3bf37f220376a2b293fbd91c1e5a380a0c87fce438600b17c1a3","name":"Archibald Dibbert","party":"","address":"235 N 100 W, Payson, UT 84651","precinct":"25PA03","hd":"65","v_score":"6.74007049","decile":"8","lat":40.04624257665314,"lng":-111.73408558056009,"phone":"(353) 743-4742","sd":"25","ssbd":"13","lsbd":"School Board Nebo 7"},{"vid":"7d22c63ff0e34c5f3b6076fa6a3444baf8b0f3c377a133e9dd6d2171e74e1c0e","name":"Josie Jast","party":"Dem","address":"214 N 340 W, Payson, UT 84651","precinct":"25PA03","hd":"65","v_score":"0","decile":"1","lat":40.04603266309409,"lng":-111.73676672426105,"phone":"(842) 136-3576","sd":"25","ssbd":"13","lsbd":"School Board Nebo 7"},{"vid":"2174132","name":"Payton Homenick","party":"Rep","address":"707 W 100 S, Payson, UT 84651","precinct":"25PA03","hd":"65","v_score":"5.429380732","decile":"7","lat":40.0423403474948,"lng":-111.74400237691023,"phone":"(470) 146-2431","sd":"25","ssbd":"13","lsbd":"School Board Nebo 7"},{"vid":"2177150","name":"Loree Kuhlman","party":"","address":"333 S 100 W, Payson, UT 84651","precinct":"25PA03","hd":"65","v_score":"0","decile":"1","lat":40.03919928112016,"lng":-111.73341138990877,"phone":"(820) 649-5140","sd":"25","ssbd":"13","lsbd":"School Board Nebo 7"},{"vid":"63022c509756998eb0487b394a8c0d8c9485022dca4804698f612cd461d0409d","name":"Cory Heathcote","party":"","address":"75 N 600 W, Payson, UT 84651","precinct":"25PA03","hd":"65","v_score":"0","decile":"1","lat":40.044106878456056,"lng":-111.7427753411142,"phone":"(623) 274-2428","sd":"25","ssbd":"13","lsbd":"School Board Nebo 7"},{"vid":"2178657","name":"Dr. Jane Mohr MD","party":"","address":"544 W 200 N, Payson, UT 84651","precinct":"25PA03","hd":"65","v_score":"0","decile":"1","lat":40.04615547739718,"lng":-111.74087461179454,"phone":"(616) 626-1130","sd":"25","ssbd":"13","lsbd":"School Board Nebo 7"},{"vid":"3a0fe80fd782b1e256ece4159d9d8e0694375c71e5f4773777d7daa45941c3ca","name":"Tonia Gerhold PhD","party":"","address":"375 S 500 W, Payson, UT 84651","precinct":"25PA03","hd":"65","v_score":"5.243007221","decile":"7","lat":40.03866125616083,"lng":-111.7393705538905,"phone":"(479) 233-4352","sd":"25","ssbd":"13","lsbd":"School Board Nebo 7"},{"vid":"2186685","name":"Mr. Tuan Schumm","party":"","address":"247 S 800 W, Payson, UT 84651","precinct":"25PA03","hd":"65","v_score":"0","decile":"1","lat":40.04084675595832,"lng":-111.74530040764117,"phone":"(709) 725-1761","sd":"25","ssbd":"13","lsbd":"School Board Nebo 7"},{"vid":"2190400","name":"Fate Halvorson","party":"","address":"704 W Utah Ave, Payson, UT 84651","precinct":"25PA03","hd":"65","v_score":"1.121327652","decile":"3","lat":40.0437871936977,"lng":-111.74377358034921,"phone":"(852) 539-2174","sd":"25","ssbd":"13","lsbd":"School Board Nebo 7"},{"vid":"01e057b25a091d4260d45cd79720956cbe8ea08abe57171109e489cc761f7825","name":"Mr. Del Stracke","party":"","address":"196 W Utah Ave, Apt B, Payson, UT 84651","precinct":"25PA03","hd":"65","v_score":"0","decile":"1","lat":40.04383643349994,"lng":-111.73481980741845,"phone":"(791) 063-3195","sd":"25","ssbd":"13","lsbd":"School Board Nebo 7"},{"vid":"a0f71997717f64812a6ba7a05e691157dc4950947b0dda031bbc07edd63f8b97","name":"Oral Purdy","party":"","address":"450 S 1000 W, Payson, UT 84651","precinct":"25PA03","hd":"65","v_score":"2.942907593","decile":"6","lat":40.03768537811478,"lng":-111.74974262893492,"phone":"(590) 788-5708","sd":"25","ssbd":"13","lsbd":"School Board Nebo 7"},{"vid":"e00de4c62a6d12e42933726fb1957c8086d846c8c41f89c5f3ead29062189fd2","name":"Thurman Walker","party":"Rep","address":"205 S 800 W, Payson, UT 84651","precinct":"25PA03","hd":"65","v_score":"2.958579882","decile":"6","lat":40.04129324145148,"lng":-111.74526227325902,"phone":"(494) 001-2935","sd":"25","ssbd":"13","lsbd":"School Board Nebo 7"},{"vid":"2203158","name":"Lou Mueller","party":"Rep","address":"396 S 1000 W, Payson, UT 84651","precinct":"25PA03","hd":"65","v_score":"1.193887297","decile":"3","lat":40.03844555032261,"lng":-111.74934319239334,"phone":"(400) 267-7805","sd":"25","ssbd":"13","lsbd":"School Board Nebo 7"},{"vid":"2bd5b214e5e07ca5b3122a529ef10997d0e3cfd6c2dde0e84ebc6a102046cee2","name":"Jovita Erdman","party":"","address":"313 S 800 W, Payson, UT 84651","precinct":"25PA03","hd":"65","v_score":"12.42192378","decile":"9","lat":40.039281206353735,"lng":-111.74530035122696,"phone":"(253) 132-7631","sd":"25","ssbd":"13","lsbd":"School Board Nebo 7"},{"vid":"5648f737212e2df2715248a7786218f8b297a74bb7daff89a7525d0eafb59886","name":"Londyn Gaylord","party":"Dem","address":"130 N 500 W, Payson, UT 84651","precinct":"25PA03","hd":"65","v_score":"0","decile":"1","lat":40.044880083181596,"lng":-111.73920103494352,"phone":"(387) 029-8142","sd":"25","ssbd":"13","lsbd":"School Board Nebo 7"},{"vid":"d60006a71bb41d8156525d15bf1293f09fc9278664e6003633d320bcb95ede53","name":"Yael Morar","party":"Rep","address":"345 N 100 W, Payson, UT 84651","precinct":"25PA03","hd":"65","v_score":"4.069929862","decile":"6","lat":40.04766037773928,"lng":-111.73403224001336,"phone":"(290) 573-5926","sd":"25","ssbd":"13","lsbd":"School Board Nebo 7"},{"vid":"2db6f86d9b8110d73b808c6dca2ae0618f5374d5d6d74e4b7b9583e5a66a0d2c","name":"Jennifer Moore-Hackett","party":"","address":"234 S 500 W, Payson, UT 84651","precinct":"25PA03","hd":"65","v_score":"1.121327652","decile":"3","lat":40.040977546469215,"lng":-111.74013955058095,"phone":"(124) 561-7882","sd":"25","ssbd":"13","lsbd":"School Board Nebo 7"},{"vid":"2212647","name":"Tod Gorczany DVM","party":"","address":"346 S 500 W, Payson, UT 84651","precinct":"25PA03","hd":"65","v_score":"0","decile":"1","lat":40.03910346437276,"lng":-111.74014822453367,"phone":"(254) 722-4132","sd":"25","ssbd":"13","lsbd":"School Board Nebo 7"},{"vid":"2213869","name":"Destin Bartoletti","party":"Dem","address":"51 N 100 W, Unit 203, Payson, UT 84651","precinct":"25PA03","hd":"65","v_score":"1.193887297","decile":"3","lat":40.04423921548629,"lng":-111.73413490673295,"phone":"(405) 777-1193","sd":"25","ssbd":"13","lsbd":"School Board Nebo 7"},{"vid":"2215248","name":"Mrs. Joan Doyle MD","party":"Rep","address":"340 N 100 W, Payson, UT 84651","precinct":"25PA03","hd":"65","v_score":"0","decile":"1","lat":40.0475231729105,"lng":-111.73339053462115,"phone":"(248) 390-2855","sd":"25","ssbd":"13","lsbd":"School Board Nebo 7"},{"vid":"2a28023b230eb129e413a57602f6a5d9247396daf4d1552ed8aca0b4a3e10ef3","name":"Lauryn Effertz","party":"","address":"794 W 400 S, Payson, UT 84651","precinct":"25PA03","hd":"65","v_score":"0","decile":"1","lat":40.03859672061642,"lng":-111.74531804210918,"phone":"(908) 532-1812","sd":"25","ssbd":"13","lsbd":"School Board Nebo 7"},{"vid":"287e4a91d0dc83b3dd956341763ab46105e2d5826c0cda5935d1e12e671a7072","name":"Maverick Block","party":"Rep","address":"248 S 300 W, Payson, UT 84651","precinct":"25PA03","hd":"65","v_score":"2.315214949","decile":"5","lat":40.040632287537775,"lng":-111.73635664969808,"phone":"(290) 550-2996","sd":"25","ssbd":"13","lsbd":"School Board Nebo 7"},{"vid":"d6e36ee4b04a25837ef7c4cb1d5ebe1bcc509a39d8cd4b03f82fa97d5cc643ea","name":"Dr. Courtland Renner IV","party":"","address":"355 N 200 W, Payson, UT 84651","precinct":"25PA03","hd":"65","v_score":"1.193887297","decile":"3","lat":40.0477408783762,"lng":-111.73550156368107,"phone":"(777) 142-8086","sd":"25","ssbd":"13","lsbd":"School Board Nebo 7"},{"vid":"eb36c28ac81c53425142631d112df6a9f923095ceb89805f014540fd1efd5f1d","name":"Mr. Arnoldo Kiehn IV","party":"","address":"360 W Utah Ave, Payson, UT 84651","precinct":"25PA03","hd":"65","v_score":"2.315214949","decile":"5","lat":40.04386605374096,"lng":-111.73723221119505,"phone":"(660) 217-1790","sd":"25","ssbd":"13","lsbd":"School Board Nebo 7"},{"vid":"2229443","name":"John Tremblay PhD","party":"Rep","address":"547 W 200 N, Payson, UT 84651","precinct":"25PA03","hd":"65","v_score":"0","decile":"1","lat":40.045442060402365,"lng":-111.74104575810382,"phone":"(865) 525-9003","sd":"25","ssbd":"13","lsbd":"School Board Nebo 7"},{"vid":"2232893","name":"Travis Glover","party":"Dem","address":"562 W 200 N, Payson, UT 84651","precinct":"25PA03","hd":"65","v_score":"0","decile":"1","lat":40.04609801191461,"lng":-111.74128610561448,"phone":"(173) 563-8838","sd":"25","ssbd":"13","lsbd":"School Board Nebo 7"},{"vid":"67b16fd6049db86d20a9691cb97526fb2bd63641888eed9a6a5d2036a915b1d1","name":"Shanda Vandervort","party":"Rep","address":"364 W 100 N, Payson, UT 84651","precinct":"25PA03","hd":"65","v_score":"1.121327652","decile":"3","lat":40.34069597920272,"lng":-111.72384620234851,"phone":"(193) 056-8616","sd":"25","ssbd":"13","lsbd":"School Board Nebo 7"},{"vid":"72e7365fd437f5fd8b1eca2ed1eeca9f3857eb72d24a8c032611d93b73d65d75","name":"Dr. Brendan Koss DDS","party":"Dem","address":"207 W 100 S, Payson, UT 84651","precinct":"25PA03","hd":"65","v_score":"8.900396801","decile":"8","lat":40.04229132606449,"lng":-111.7353195863844,"phone":"(943) 360-7332","sd":"25","ssbd":"13","lsbd":"School Board Nebo 7"},{"vid":"3076d309630cc631fc960f34cd0be64aa85504ee1dff20518b3f8d6dc0014404","name":"Gwyn Stokes","party":"Dem","address":"328 W 300 N, Payson, UT 84651","precinct":"25PA03","hd":"65","v_score":"1.121327652","decile":"3","lat":40.04720987250962,"lng":-111.73741668706585,"phone":"(399) 169-4640","sd":"25","ssbd":"13","lsbd":"School Board Nebo 7"},{"vid":"2244630","name":"Sharen Steuber","party":"Dem","address":"240 S Main St, Payson, UT 84651","precinct":"25PA03","hd":"65","v_score":"12.19895732","decile":"9","lat":40.360630503633054,"lng":-111.7411394755645,"phone":"(536) 419-8391","sd":"25","ssbd":"13","lsbd":"School Board Nebo 7"},{"vid":"2261233","name":"Consuelo Morissette","party":"Dem","address":"208 S 800 W, Payson, UT 84651","precinct":"25PA03","hd":"65","v_score":"0","decile":"1","lat":40.04102457523561,"lng":-111.74603558078485,"phone":"(356) 202-0973","sd":"25","ssbd":"13","lsbd":"School Board Nebo 7"},{"vid":"d06331ebc9708299966cb3357b25ea879ad3576cbe6b0aba30800349585487e6","name":"Acie Schulist II","party":"","address":"351 W 200 S, Payson, UT 84651","precinct":"25PA03","hd":"65","v_score":"7.650280567","decile":"8","lat":40.0413047587792,"lng":-111.73679058413,"phone":"(932) 106-3655","sd":"25","ssbd":"13","lsbd":"School Board Nebo 7"},{"vid":"2264347","name":"Keshawn Schulist","party":"Dem","address":"64 W 100 N, Payson, UT 84651","precinct":"25PA03","hd":"65","v_score":"0","decile":"1","lat":40.044903165331824,"lng":-111.73320100698453,"phone":"(350) 953-3123","sd":"25","ssbd":"13","lsbd":"School Board Nebo 7"},{"vid":"2bcd167363d61599474dbb13f9affc8847abafc08f4da4ba4e4af666a3a88a1b","name":"Rachel Wolff","party":"","address":"314 N 100 W, Payson, UT 84651","precinct":"25PA03","hd":"65","v_score":"5.258122542","decile":"7","lat":40.047144314095554,"lng":-111.73341763912889,"phone":"(387) 134-2739","sd":"25","ssbd":"13","lsbd":"School Board Nebo 7"},{"vid":"36d053f3b6ab5c3d927d855e9837ec75a137b253437290914b3fbde1c719aef4","name":"Amirah Connelly","party":"Dem","address":"60 W Utah Ave, Apt B, Payson, UT 84651","precinct":"25PA03","hd":"65","v_score":"0","decile":"1","lat":40.04378036262556,"lng":-111.73312019867383,"phone":"(222) 628-3764","sd":"25","ssbd":"13","lsbd":"School Board Nebo 7"},{"vid":"0904d52ade077c38e818af76441b75f302ee1f6f86561b8a995f1ff634db1cf9","name":"Cora Hodkiewicz","party":"Dem","address":"176 W 300 S, Payson, UT 84651","precinct":"25PA03","hd":"65","v_score":"3.781490609","decile":"6","lat":40.229992042188364,"lng":-111.66170162904338,"phone":"(321) 258-5620","sd":"25","ssbd":"13","lsbd":"School Board Nebo 7"},{"vid":"9ffdf8721075354d7554a207b2f4c8c35f29ea22d69a12f98b2df46aa5850f92","name":"Lowell Johns","party":"Dem","address":"94 N 500 W, Payson, UT 84651","precinct":"25PA03","hd":"65","v_score":"1.193887297","decile":"3","lat":40.044348457004965,"lng":-111.73938484249345,"phone":"(142) 279-0250","sd":"25","ssbd":"13","lsbd":"School Board Nebo 7"},{"vid":"2279778","name":"Ishmael Douglas","party":"Dem","address":"544 W 200 N, Payson, UT 84651","precinct":"25PA03","hd":"65","v_score":"1.121327652","decile":"3","lat":40.04615547739718,"lng":-111.74087461179454,"phone":"(642) 246-2150","sd":"25","ssbd":"13","lsbd":"School Board Nebo 7"},{"vid":"5c182f3ae373d050bcaac0ebb954c18f32f0a07eddf9e0b7716d1e6d80a7ee19","name":"Deeann Smitham","party":"Dem","address":"557 W 200 N, Payson, UT 84651","precinct":"25PA03","hd":"65","v_score":"2.315214949","decile":"5","lat":40.04546965489239,"lng":-111.74146130977108,"phone":"(891) 834-4852","sd":"25","ssbd":"13","lsbd":"School Board Nebo 7"},{"vid":"2283402","name":"Ida Rutherford","party":"Dem","address":"571 W 100 S, Payson, UT 84651","precinct":"25PA03","hd":"65","v_score":"14.13332036","decile":"9","lat":40.04220349978782,"lng":-111.74133694448787,"phone":"(883) 067-3090","sd":"25","ssbd":"13","lsbd":"School Board Nebo 7"},{"vid":"2290758","name":"Wyatt Rice-Beatty","party":"Dem","address":"362 N 200 W, Payson, UT 84651","precinct":"25PA03","hd":"65","v_score":"2.315214949","decile":"5","lat":40.04781250321098,"lng":-111.73471118084998,"phone":"(783) 345-8758","sd":"25","ssbd":"13","lsbd":"School Board Nebo 7"},{"vid":"2291205","name":"Raynard Muller V","party":"Dem","address":"60 W Utah Ave, Apt B, Payson, UT 84651","precinct":"25PA03","hd":"65","v_score":"0","decile":"1","lat":40.04378036262556,"lng":-111.73312019867383,"phone":"(267) 462-5728","sd":"25","ssbd":"13","lsbd":"School Board Nebo 7"},{"vid":"527509a988b9fc0e821422c090eb277437cf2e451260b267367c1a35e7a4653d","name":"Sheilah Langworth","party":"","address":"239 S 300 W, Payson, UT 84651","precinct":"25PA03","hd":"65","v_score":"0","decile":"1","lat":40.040776729654276,"lng":-111.73568002173778,"phone":"(935) 073-3928","sd":"25","ssbd":"13","lsbd":"School Board Nebo 7"},{"vid":"703215f3528930453578de1bfccbd51cd7cdf944ed4c41d17f0a9ec6cf54a876","name":"Chris Torphy-Gutmann","party":"Dem","address":"343 W 300 N, Payson, UT 84651","precinct":"25PA03","hd":"65","v_score":"0","decile":"1","lat":40.04664715310381,"lng":-111.73735829258987,"phone":"(468) 269-6198","sd":"25","ssbd":"13","lsbd":"School Board Nebo 7"},{"vid":"2295865","name":"Olevia Christiansen PhD","party":"","address":"145 W 200 S, Payson, UT 84651","precinct":"25PA03","hd":"65","v_score":"3.93832808","decile":"6","lat":40.041134183572794,"lng":-111.73451093289844,"phone":"(803) 474-6100","sd":"25","ssbd":"13","lsbd":"School Board Nebo 7"},{"vid":"2296990","name":"Dr. Paulina Aufderhar DDS","party":"Dem","address":"250 S 300 W, Payson, UT 84651","precinct":"25PA03","hd":"65","v_score":"9.757278238","decile":"8","lat":40.040478324437785,"lng":-111.73635612005143,"phone":"(320) 911-1502","sd":"25","ssbd":"13","lsbd":"School Board Nebo 7"},{"vid":"2302093","name":"Ty Krajcik","party":"","address":"176 N 600 W, Payson, UT 84651","precinct":"25PA03","hd":"65","v_score":"5.191257514","decile":"7","lat":40.04556128071292,"lng":-111.74198953856175,"phone":"(347) 687-7454","sd":"25","ssbd":"13","lsbd":"School Board Nebo 7"},{"vid":"b088bf32a391cda0b67ab805085d50329f886e13c8a41394610dfdeefb6e7305","name":"Alessandro Hartmann","party":"Dem","address":"390 S 600 W, Payson, UT 84651","precinct":"25PA03","hd":"65","v_score":"1.121327652","decile":"3","lat":40.038460649581545,"lng":-111.74216784156926,"phone":"(299) 716-5741","sd":"25","ssbd":"13","lsbd":"School Board Nebo 7"},{"vid":"ed9f63b176b36c1846b86a9972cd4ae8d3708ccfb8d0c4ebcc66d40602e3dd78","name":"Zayne Hirthe","party":"Dem","address":"142 N 500 W, Payson, UT 84651","precinct":"25PA03","hd":"65","v_score":"8.284004873","decile":"8","lat":40.045097957458616,"lng":-111.73925909344533,"phone":"(525) 530-5937","sd":"25","ssbd":"13","lsbd":"School Board Nebo 7"},{"vid":"2313481","name":"Norris Denesik","party":"Rep","address":"557 W 200 N, Payson, UT 84651","precinct":"25PA03","hd":"65","v_score":"3.93832808","decile":"6","lat":40.04546965489239,"lng":-111.74146130977108,"phone":"(418) 900-2189","sd":"25","ssbd":"13","lsbd":"School Board Nebo 7"},{"vid":"2314438","name":"Marcus Kuphal","party":"Rep","address":"562 W 200 N, Payson, UT 84651","precinct":"25PA03","hd":"65","v_score":"0","decile":"1","lat":40.04609801191461,"lng":-111.74128610561448,"phone":"(578) 795-2786","sd":"25","ssbd":"13","lsbd":"School Board Nebo 7"},{"vid":"2316021","name":"Ms. Rettie Bernhard","party":"Dem","address":"210 S 650 W, Payson, UT 84651","precinct":"25PA03","hd":"65","v_score":"0","decile":"1","lat":40.040994035506635,"lng":-111.74283200010264,"phone":"(230) 533-2834","sd":"25","ssbd":"13","lsbd":"School Board Nebo 7"},{"vid":"2320064","name":"Abner Fadel","party":"","address":"588 W Utah Ave, Apt B, Payson, UT 84651","precinct":"25PA03","hd":"65","v_score":"2.315214949","decile":"5","lat":40.043920361935655,"lng":-111.74164966133335,"phone":"(426) 553-2029","sd":"25","ssbd":"13","lsbd":"School Board Nebo 7"},{"vid":"2322647","name":"Ovila Bogan-Dietrich","party":"","address":"333 W 300 N, Payson, UT 84651","precinct":"25PA03","hd":"65","v_score":"1.193887297","decile":"3","lat":40.046608205814124,"lng":-111.73712993746096,"phone":"(707) 706-2904","sd":"25","ssbd":"13","lsbd":"School Board Nebo 7"},{"vid":"2325169","name":"Gracie Bauch-Kulas","party":"Rep","address":"386 S 500 W, Payson, UT 84651","precinct":"25PA03","hd":"65","v_score":"0","decile":"1","lat":40.0386736759985,"lng":-111.74016257350335,"phone":"(843) 794-9000","sd":"25","ssbd":"13","lsbd":"School Board Nebo 7"},{"vid":"2327115","name":"Mrs. Amy Auer","party":"Rep","address":"114 S 600 W, Payson, UT 84651","precinct":"25PA03","hd":"65","v_score":"5.191257514","decile":"7","lat":40.04237430447442,"lng":-111.74213099016103,"phone":"(727) 943-2350","sd":"25","ssbd":"13","lsbd":"School Board Nebo 7"},{"vid":"2328453","name":"Amparo Tillman-Robel","party":"","address":"375 S 500 W, Payson, UT 84651","precinct":"25PA03","hd":"65","v_score":"6.364334873","decile":"7","lat":40.03866125616083,"lng":-111.7393705538905,"phone":"(863) 667-5827","sd":"25","ssbd":"13","lsbd":"School Board Nebo 7"},{"vid":"2330063","name":"Ardell Herzog DVM","party":"","address":"70 W 400 S, Payson, UT 84651","precinct":"25PA03","hd":"65","v_score":"0","decile":"1","lat":40.03848171571831,"lng":-111.7332278876321,"phone":"(102) 416-2311","sd":"25","ssbd":"13","lsbd":"School Board Nebo 7"},{"vid":"2332026","name":"Octavia Eichmann","party":"Dem","address":"682 W 100 S, Payson, UT 84651","precinct":"25PA03","hd":"65","v_score":"1.121327652","decile":"3","lat":40.04271670550362,"lng":-111.74327854966825,"phone":"(927) 906-9714","sd":"25","ssbd":"13","lsbd":"School Board Nebo 7"},{"vid":"2332722","name":"Art Fadel-Gibson","party":"Dem","address":"216 W 370 N, Payson, UT 84651","precinct":"25PA03","hd":"65","v_score":"1.193887297","decile":"3","lat":40.04837924342447,"lng":-111.73584011625377,"phone":"(999) 875-0662","sd":"25","ssbd":"13","lsbd":"School Board Nebo 7"},{"vid":"2345073","name":"Danika Treutel DDS","party":"Dem","address":"349 W Utah Ave, Payson, UT 84651","precinct":"25PA03","hd":"65","v_score":"1.121327652","decile":"3","lat":40.04333376206625,"lng":-111.73664696148239,"phone":"(844) 244-6982","sd":"25","ssbd":"13","lsbd":"School Board Nebo 7"},{"vid":"2348518","name":"Mr. Hardin Kemmer","party":"Dem","address":"432 S 800 W, Payson, UT 84651","precinct":"25PA03","hd":"65","v_score":"2.315214949","decile":"5","lat":40.03777362929582,"lng":-111.74592858748194,"phone":"(665) 230-5034","sd":"25","ssbd":"13","lsbd":"School Board Nebo 7"},{"vid":"2356765","name":"Edd Moore V","party":"Rep","address":"252 N 100 W, Payson, UT 84651","precinct":"25PA03","hd":"65","v_score":"1.193887297","decile":"3","lat":40.04639441857962,"lng":-111.73340054814163,"phone":"(341) 207-1666","sd":"25","ssbd":"13","lsbd":"School Board Nebo 7"},{"vid":"2363166","name":"Mr. Maximillian Nikolaus Jr.","party":"","address":"150 W 400 S, Payson, UT 84651","precinct":"25PA03","hd":"65","v_score":"1.193887297","decile":"3","lat":40.038480600719424,"lng":-111.73507399938248,"phone":"(860) 098-9352","sd":"25","ssbd":"13","lsbd":"School Board Nebo 7"},{"vid":"2366829","name":"Hiroshi Little","party":"","address":"229 S Majestic Meadows Dr, Payson, UT 84651","precinct":"25PA03","hd":"65","v_score":"3.93832808","decile":"6","lat":40.04033969452525,"lng":-111.74735394418602,"phone":"(369) 811-7628","sd":"25","ssbd":"13","lsbd":"School Board Nebo 7"},{"vid":"2369825","name":"Riley Kassulke DDS","party":"","address":"270 S 100 W, Payson, UT 84651","precinct":"25PA03","hd":"65","v_score":"5.335402662","decile":"7","lat":40.04005111738929,"lng":-111.734160421696,"phone":"(818) 986-4858","sd":"25","ssbd":"13","lsbd":"School Board Nebo 7"},{"vid":"2379377","name":"Ilah Upton-Huels","party":"","address":"362 S 900 W, Payson, UT 84651","precinct":"25PA03","hd":"65","v_score":"9.35760564","decile":"8","lat":40.03878843146681,"lng":-111.7480251904967,"phone":"(655) 307-3634","sd":"25","ssbd":"13","lsbd":"School Board Nebo 7"},{"vid":"2385898","name":"Meghann Stracke-Balistreri","party":"Dem","address":"349 W Utah Ave, Payson, UT 84651","precinct":"25PA03","hd":"65","v_score":"2.315214949","decile":"5","lat":40.04333376206625,"lng":-111.73664696148239,"phone":"(948) 827-0928","sd":"25","ssbd":"13","lsbd":"School Board Nebo 7"},{"vid":"2387717","name":"Cherryl Donnelly","party":"Rep","address":"346 S 500 W, Payson, UT 84651","precinct":"25PA03","hd":"65","v_score":"0","decile":"1","lat":40.03910346437276,"lng":-111.74014822453367,"phone":"(278) 998-9385","sd":"25","ssbd":"13","lsbd":"School Board Nebo 7"},{"vid":"2389581","name":"Dorthea Thompson-Mosciski","party":"Dem","address":"750 W 200 S, Payson, UT 84651","precinct":"25PA03","hd":"65","v_score":"1.193887297","decile":"3","lat":40.041774916872235,"lng":-111.74463014640058,"phone":"(649) 125-3895","sd":"25","ssbd":"13","lsbd":"School Board Nebo 7"},{"vid":"2391192","name":"Stetson Swaniawski","party":"","address":"341 N Main St, Payson, UT 84651","precinct":"25PA03","hd":"65","v_score":"4.424855541","decile":"7","lat":40.04757712026722,"lng":-111.73260029174762,"phone":"(623) 720-7056","sd":"25","ssbd":"13","lsbd":"School Board Nebo 7"},{"vid":"2395586","name":"Johnnie Kunze","party":"Rep","address":"196 W 300 S, Payson, UT 84651","precinct":"25PA03","hd":"65","v_score":"5.331806201","decile":"7","lat":40.03989056056628,"lng":-111.73477212987373,"phone":"(575) 984-5383","sd":"25","ssbd":"13","lsbd":"School Board Nebo 7"},{"vid":"2401565","name":"Amie Jones-Gerhold","party":"","address":"51 N 100 W, Unit 203, Payson, UT 84651","precinct":"25PA03","hd":"65","v_score":"1.193887297","decile":"3","lat":40.04423921548629,"lng":-111.73413490673295,"phone":"(636) 672-3237","sd":"25","ssbd":"13","lsbd":"School Board Nebo 7"},{"vid":"2401999","name":"Chip Brekke-Bode","party":"","address":"362 N 200 W, Payson, UT 84651","precinct":"25PA03","hd":"65","v_score":"1.121327652","decile":"3","lat":40.04781250321098,"lng":-111.73471118084998,"phone":"(914) 349-3695","sd":"25","ssbd":"13","lsbd":"School Board Nebo 7"},{"vid":"2405989","name":"Mrs. Lannie Thiel","party":"","address":"208 S 700 W, Payson, UT 84651","precinct":"25PA03","hd":"65","v_score":"3.93832808","decile":"6","lat":40.04128493336002,"lng":-111.74395102651366,"phone":"(484) 098-4460","sd":"25","ssbd":"13","lsbd":"School Board Nebo 7"},{"vid":"2430922","name":"Mrs. Milagros McCullough","party":"Dem","address":"391 N 100 W, Payson, UT 84651","precinct":"25PA03","hd":"65","v_score":"2.315214949","decile":"5","lat":40.04835118957523,"lng":-111.73402393061944,"phone":"(330) 975-7836","sd":"25","ssbd":"13","lsbd":"School Board Nebo 7"},{"vid":"2434337","name":"Davian Muller-Fadel","party":"","address":"411 W 300 S, Payson, UT 84651","precinct":"25PA03","hd":"65","v_score":"0","decile":"1","lat":40.0395162850106,"lng":-111.7380539997188,"phone":"(502) 773-8407","sd":"25","ssbd":"13","lsbd":"School Board Nebo 7"},{"vid":"2435011","name":"Iverson Boehm","party":"","address":"80 S Main St, Payson, UT 84651","precinct":"25PA03","hd":"65","v_score":"0","decile":"1","lat":40.45232941706616,"lng":-111.77834343769625,"phone":"(334) 786-8805","sd":"25","ssbd":"13","lsbd":"School Board Nebo 7"},{"vid":"2435484","name":"Helen Haag","party":"Rep","address":"794 W 400 S, Payson, UT 84651","precinct":"25PA03","hd":"65","v_score":"0","decile":"1","lat":40.03859672061642,"lng":-111.74531804210918,"phone":"(491) 088-8496","sd":"25","ssbd":"13","lsbd":"School Board Nebo 7"},{"vid":"2435989","name":"Reese Lynch","party":"Dem","address":"547 W 100 N, Payson, UT 84651","precinct":"25PA03","hd":"65","v_score":"0","decile":"1","lat":40.044372787219665,"lng":-111.74084307661616,"phone":"(483) 938-7588","sd":"25","ssbd":"13","lsbd":"School Board Nebo 7"},{"vid":"2436475","name":"Dr. Lavon Bernier IV","party":"","address":"296 W 100 S, Payson, UT 84651","precinct":"25PA03","hd":"65","v_score":"2.315214949","decile":"5","lat":40.042745483500944,"lng":-111.73567260560611,"phone":"(488) 372-8529","sd":"25","ssbd":"13","lsbd":"School Board Nebo 7"},{"vid":"2439514","name":"Harve Schroeder","party":"Dem","address":"630 W 200 S, Payson, UT 84651","precinct":"25PA03","hd":"65","v_score":"1.193887297","decile":"3","lat":40.04172733225086,"lng":-111.74225107640922,"phone":"(691) 852-0078","sd":"25","ssbd":"13","lsbd":"School Board Nebo 7"},{"vid":"2440642","name":"Beaulah Schumm","party":"Rep","address":"526 W 100 N, Payson, UT 84651","precinct":"25PA03","hd":"65","v_score":"2.315214949","decile":"5","lat":40.04484832719703,"lng":-111.74026767936887,"phone":"(461) 537-4179","sd":"25","ssbd":"13","lsbd":"School Board Nebo 7"},{"vid":"2442105","name":"Leitha Bednar","party":"Dem","address":"49 N 500 W, Payson, UT 84651","precinct":"25PA03","hd":"65","v_score":"3.93832808","decile":"6","lat":40.044035259645476,"lng":-111.73987753366197,"phone":"(592) 594-6396","sd":"25","ssbd":"13","lsbd":"School Board Nebo 7"},{"vid":"2442243","name":"Rufus Tillman","party":"","address":"547 W 200 N, Payson, UT 84651","precinct":"25PA03","hd":"65","v_score":"2.744440783","decile":"5","lat":40.045442060402365,"lng":-111.74104575810382,"phone":"(881) 146-3154","sd":"25","ssbd":"13","lsbd":"School Board Nebo 7"},{"vid":"2445300","name":"Dezzie Conn","party":"Dem","address":"253 S Majestic Meadows Dr, Payson, UT 84651","precinct":"25PA03","hd":"65","v_score":"1.121327652","decile":"3","lat":40.0407358453188,"lng":-111.7464403819538,"phone":"(956) 524-3667","sd":"25","ssbd":"13","lsbd":"School Board Nebo 7"},{"vid":"2448912","name":"Ula Hand","party":"Dem","address":"362 N 200 W, Payson, UT 84651","precinct":"25PA03","hd":"65","v_score":"2.315214949","decile":"5","lat":40.04781250321098,"lng":-111.73471118084998,"phone":"(719) 428-6590","sd":"25","ssbd":"13","lsbd":"School Board Nebo 7"},{"vid":"2454356","name":"Wing O'Hara","party":"","address":"343 S 400 W, Payson, UT 84651","precinct":"25PA03","hd":"65","v_score":"2.315214949","decile":"5","lat":40.03912693979165,"lng":-111.73743527482604,"phone":"(841) 681-2683","sd":"25","ssbd":"13","lsbd":"School Board Nebo 7"},{"vid":"2454579","name":"Margarita Becker DDS","party":"","address":"316 S 500 W, Payson, UT 84651","precinct":"25PA03","hd":"65","v_score":"2.315214949","decile":"5","lat":40.03959347208955,"lng":-111.74018241297605,"phone":"(831) 394-0234","sd":"25","ssbd":"13","lsbd":"School Board Nebo 7"},{"vid":"2456628","name":"Mrs. Kandice Bednar","party":"","address":"714 W 200 S, Payson, UT 84651","precinct":"25PA03","hd":"65","v_score":"2.315214949","decile":"5","lat":40.04177560858929,"lng":-111.74435805065359,"phone":"(711) 008-2003","sd":"25","ssbd":"13","lsbd":"School Board Nebo 7"},{"vid":"2458438","name":"Adam Parker","party":"","address":"687 W 200 S, Payson, UT 84651","precinct":"25PA03","hd":"65","v_score":"2.744440783","decile":"5","lat":40.04133963384746,"lng":-111.74335261217018,"phone":"(901) 940-6230","sd":"25","ssbd":"13","lsbd":"School Board Nebo 7"},{"vid":"2460047","name":"Brian Lockman-Lubowitz","party":"Dem","address":"687 W 200 S, Payson, UT 84651","precinct":"25PA03","hd":"65","v_score":"0","decile":"1","lat":40.04133963384746,"lng":-111.74335261217018,"phone":"(984) 978-8058","sd":"25","ssbd":"13","lsbd":"School Board Nebo 7"},{"vid":"2460361","name":"Bryan Kuphal-Cronin","party":"Dem","address":"390 S 600 W, Payson, UT 84651","precinct":"25PA03","hd":"65","v_score":"0","decile":"1","lat":40.038460649581545,"lng":-111.74216784156926,"phone":"(211) 093-2439","sd":"25","ssbd":"13","lsbd":"School Board Nebo 7"},{"vid":"2460886","name":"Alvis Flatley","party":"Dem","address":"97 W 200 S, Payson, UT 84651","precinct":"25PA03","hd":"65","v_score":"0","decile":"1","lat":40.04120233270329,"lng":-111.73325391272422,"phone":"(661) 595-8892","sd":"25","ssbd":"13","lsbd":"School Board Nebo 7"},{"vid":"2464912","name":"Ms. Kali Conroy","party":"Rep","address":"320 W Utah Ave, Payson, UT 84651","precinct":"25PA03","hd":"65","v_score":"0","decile":"1","lat":40.043890550415355,"lng":-111.73625479116534,"phone":"(271) 637-1876","sd":"25","ssbd":"13","lsbd":"School Board Nebo 7"},{"vid":"2474517","name":"Clevie Rice-D'Amore","party":"Dem","address":"194 W 300 N, Payson, UT 84651","precinct":"25PA03","hd":"65","v_score":"0","decile":"1","lat":40.047233215442255,"lng":-111.73476885048396,"phone":"(132) 430-4714","sd":"25","ssbd":"13","lsbd":"School Board Nebo 7"},{"vid":"2479262","name":"Gisele Walter","party":"","address":"136 N 340 W, Payson, UT 84651","precinct":"25PA03","hd":"65","v_score":"0","decile":"1","lat":40.04501656598891,"lng":-111.73692236590422,"phone":"(622) 659-7996","sd":"25","ssbd":"13","lsbd":"School Board Nebo 7"},{"vid":"2485367","name":"Reagan Brakus","party":"Dem","address":"226 S 800 W, Payson, UT 84651","precinct":"25PA03","hd":"65","v_score":"1.193887297","decile":"3","lat":40.040794819645264,"lng":-111.74594286925762,"phone":"(457) 025-2492","sd":"25","ssbd":"13","lsbd":"School Board Nebo 7"},{"vid":"2490519","name":"Sadie Cormier","party":"Rep","address":"532 W 100 N, Payson, UT 84651","precinct":"25PA03","hd":"65","v_score":"0","decile":"1","lat":40.044943126529695,"lng":-111.74078693873811,"phone":"(145) 875-8368","sd":"25","ssbd":"13","lsbd":"School Board Nebo 7"},{"vid":"2492299","name":"Miss Nannie Stamm","party":"","address":"234 S 500 W, Payson, UT 84651","precinct":"25PA03","hd":"65","v_score":"1.193887297","decile":"3","lat":40.040977546469215,"lng":-111.74013955058095,"phone":"(782) 796-9303","sd":"25","ssbd":"13","lsbd":"School Board Nebo 7"},{"vid":"2498891","name":"Dr. Ricky Stroman","party":"Rep","address":"193 S 300 W, Payson, UT 84651","precinct":"25PA03","hd":"65","v_score":"2.817000428","decile":"6","lat":40.04175828815149,"lng":-111.7356808099196,"phone":"(893) 876-3199","sd":"25","ssbd":"13","lsbd":"School Board Nebo 7"},{"vid":"2505925","name":"Ilona Legros","party":"Rep","address":"794 W 400 S, Payson, UT 84651","precinct":"25PA03","hd":"65","v_score":"0","decile":"1","lat":40.03859672061642,"lng":-111.74531804210918,"phone":"(332) 244-6526","sd":"25","ssbd":"13","lsbd":"School Board Nebo 7"},{"vid":"2515242","name":"Lilianna Grady DVM","party":"","address":"144 N 400 W, Payson, UT 84651","precinct":"25PA03","hd":"65","v_score":"0","decile":"1","lat":40.04500017971508,"lng":-111.73785376326566,"phone":"(299) 171-9754","sd":"25","ssbd":"13","lsbd":"School Board Nebo 7"},{"vid":"2518400","name":"Rexford Hoeger","party":"Rep","address":"20 S 100 W, 202, Payson, UT 84651","precinct":"25PA03","hd":"65","v_score":"0","decile":"1","lat":40.04332107068424,"lng":-111.73419070615005,"phone":"(380) 742-6389","sd":"25","ssbd":"13","lsbd":"School Board Nebo 7"},{"vid":"2524963","name":"Zackary Kilback","party":"","address":"275 W 300 N, Payson, UT 84651","precinct":"25PA03","hd":"65","v_score":"0","decile":"1","lat":40.04632343026685,"lng":-111.73615508276018,"phone":"(602) 052-6820","sd":"25","ssbd":"13","lsbd":"School Board Nebo 7"},{"vid":"2532978","name":"Danyel Von","party":"Dem","address":"351 W Utah Ave, Payson, UT 84651","precinct":"25PA03","hd":"65","v_score":"0","decile":"1","lat":40.04334341246025,"lng":-111.73695347348453,"phone":"(737) 838-1824","sd":"25","ssbd":"13","lsbd":"School Board Nebo 7"},{"vid":"2538843","name":"Gorge Morissette","party":"","address":"192 S 500 W, Payson, UT 84651","precinct":"25PA03","hd":"65","v_score":"0","decile":"1","lat":40.04173960875762,"lng":-111.73994791801194,"phone":"(845) 217-2390","sd":"25","ssbd":"13","lsbd":"School Board Nebo 7"},{"vid":"2548408","name":"Shelba Bauch","party":"","address":"596 W 200 S, Payson, UT 84651","precinct":"25PA03","hd":"65","v_score":"0","decile":"1","lat":40.04181604727259,"lng":-111.74137367659986,"phone":"(344) 602-0187","sd":"25","ssbd":"13","lsbd":"School Board Nebo 7"},{"vid":"2552083","name":"Pete Flatley","party":"","address":"452 W 400 S, Payson, UT 84651","precinct":"25PA03","hd":"65","v_score":"0","decile":"1","lat":40.038536883105834,"lng":-111.73899252557132,"phone":"(989) 341-1245","sd":"25","ssbd":"13","lsbd":"School Board Nebo 7"},{"vid":"2571906","name":"Ms. Addison Koepp","party":"Rep","address":"388 S 1000 W, Payson, UT 84651","precinct":"25PA03","hd":"65","v_score":"0","decile":"1","lat":40.0386086195563,"lng":-111.7491797866872,"phone":"(363) 161-5867","sd":"25","ssbd":"13","lsbd":"School Board Nebo 7"},{"vid":"2582118","name":"Renaldo Schumm","party":"","address":"60 S 200 W, Payson, UT 84651","precinct":"25PA03","hd":"65","v_score":"4.069929862","decile":"6","lat":40.042957346532056,"lng":-111.73531980647167,"phone":"(270) 682-4368","sd":"25","ssbd":"13","lsbd":"School Board Nebo 7"},{"vid":"2586088","name":"Miss Flossie Windler","party":"","address":"209 S 600 W, Payson, UT 84651","precinct":"25PA03","hd":"65","v_score":"0","decile":"1","lat":40.04128108906897,"lng":-111.74131652793743,"phone":"(500) 679-9014","sd":"25","ssbd":"13","lsbd":"School Board Nebo 7"},{"vid":"2592447","name":"Flem Bartoletti-VonRueden","party":"Dem","address":"742 W 400 S, Payson, UT 84651","precinct":"25PA03","hd":"65","v_score":"0","decile":"1","lat":40.03850852327916,"lng":-111.74471286075665,"phone":"(127) 354-8070","sd":"25","ssbd":"13","lsbd":"School Board Nebo 7"},{"vid":"2592612","name":"Brianna Wilderman","party":"Dem","address":"526 W 100 N, Payson, UT 84651","precinct":"25PA03","hd":"65","v_score":"1.193887297","decile":"4","lat":40.04484832719703,"lng":-111.74026767936887,"phone":"(676) 531-0167","sd":"25","ssbd":"13","lsbd":"School Board Nebo 7"},{"vid":"2595508","name":"Alex Nicolas-Lakin","party":"Rep","address":"257 S 200 W, Payson, UT 84651","precinct":"25PA03","hd":"65","v_score":"0","decile":"1","lat":40.04052084458184,"lng":-111.7347578831323,"phone":"(707) 260-0175","sd":"25","ssbd":"13","lsbd":"School Board Nebo 7"},{"vid":"2608335","name":"Saige Friesen","party":"Rep","address":"526 W 100 N, Payson, UT 84651","precinct":"25PA03","hd":"65","v_score":"1.193887297","decile":"4","lat":40.04484832719703,"lng":-111.74026767936887,"phone":"(957) 105-5683","sd":"25","ssbd":"13","lsbd":"School Board Nebo 7"},{"vid":"2626827","name":"Ms. Imelda Cummerata","party":"Rep","address":"284 S 900 W, Payson, UT 84651","precinct":"25PA03","hd":"65","v_score":"0","decile":"1","lat":40.039908804865846,"lng":-111.74762136991694,"phone":"(113) 448-5665","sd":"25","ssbd":"13","lsbd":"School Board Nebo 7"},{"vid":"2627696","name":"Arlan Bahringer","party":"","address":"31 N 500 W, Payson, UT 84651","precinct":"25PA03","hd":"65","v_score":"2.817000428","decile":"6","lat":40.043808482725325,"lng":-111.7398472820863,"phone":"(765) 010-1912","sd":"25","ssbd":"13","lsbd":"School Board Nebo 7"},{"vid":"2635668","name":"Jada Yundt","party":"","address":"550 W Utah Ave, Payson, UT 84651","precinct":"25PA03","hd":"65","v_score":"1.193887297","decile":"4","lat":40.043911033624795,"lng":-111.74077123942087,"phone":"(387) 426-9741","sd":"25","ssbd":"13","lsbd":"School Board Nebo 7"},{"vid":"2644221","name":"Rhona Barton","party":"","address":"327 N 100 W, Payson, UT 84651","precinct":"25PA03","hd":"65","v_score":"1.623113131","decile":"5","lat":40.047286236399344,"lng":-111.73398002330396,"phone":"(925) 330-0401","sd":"25","ssbd":"13","lsbd":"School Board Nebo 7"},{"vid":"2652207","name":"Mr. Wells Kling DVM","party":"Rep","address":"144 N 400 W, Payson, UT 84651","precinct":"25PA03","hd":"65","v_score":"0","decile":"1","lat":40.04500017971508,"lng":-111.73785376326566,"phone":"(547) 472-8810","sd":"25","ssbd":"13","lsbd":"School Board Nebo 7"},{"vid":"2652603","name":"Eldred Murphy","party":"Dem","address":"737 W Utah Ave, Payson, UT 84651","precinct":"25PA03","hd":"65","v_score":"0","decile":"1","lat":40.043287797042424,"lng":-111.74437574908166,"phone":"(709) 307-8351","sd":"25","ssbd":"13","lsbd":"School Board Nebo 7"},{"vid":"2659258","name":"Windy Denesik MD","party":"","address":"240 S Main St, Payson, UT 84651","precinct":"25PA03","hd":"65","v_score":"2.426006793","decile":"5","lat":40.360630503633054,"lng":-111.7411394755645,"phone":"(322) 065-8181","sd":"25","ssbd":"13","lsbd":"School Board Nebo 7"},{"vid":"2662828","name":"Dr. Terrie Fahey","party":"","address":"502 W 200 N, Unit B, Payson, UT 84651","precinct":"25PA03","hd":"65","v_score":"1.193887297","decile":"4","lat":40.04618071773543,"lng":-111.73959845953236,"phone":"(956) 700-1055","sd":"25","ssbd":"13","lsbd":"School Board Nebo 7"},{"vid":"2669796","name":"Dr. Rafe Dicki","party":"Dem","address":"309 N 400 W, Payson, UT 84651","precinct":"25PA03","hd":"65","v_score":"0","decile":"2","lat":40.047090425870415,"lng":-111.7385789033056,"phone":"(805) 748-7994","sd":"25","ssbd":"13","lsbd":"School Board Nebo 7"},{"vid":"2669932","name":"Dorris O'Hara","party":"Dem","address":"323 N 400 W, Payson, UT 84651","precinct":"25PA03","hd":"65","v_score":"1.193887297","decile":"4","lat":40.047290943105835,"lng":-111.7385026424465,"phone":"(855) 911-1269","sd":"25","ssbd":"13","lsbd":"School Board Nebo 7"},{"vid":"2671231","name":"Godfrey Murazik","party":"Rep","address":"445 S 1000 W, Payson, UT 84651","precinct":"25PA03","hd":"65","v_score":"0","decile":"2","lat":40.03771140436581,"lng":-111.74937448885011,"phone":"(512) 440-5128","sd":"25","ssbd":"13","lsbd":"School Board Nebo 7"},{"vid":"2673164","name":"Gilford Bauch","party":"Rep","address":"373 S 400 W, Payson, UT 84651","precinct":"25PA03","hd":"65","v_score":"0","decile":"2","lat":40.03888274781304,"lng":-111.73727123144438,"phone":"(541) 264-2227","sd":"25","ssbd":"13","lsbd":"School Board Nebo 7"},{"vid":"2673175","name":"Hermon Swift","party":"Rep","address":"550 W 100 N, Apt 1, Payson, UT 84651","precinct":"25PA03","hd":"65","v_score":"0","decile":"2","lat":40.04508959843709,"lng":-111.74103697752109,"phone":"(799) 030-1887","sd":"25","ssbd":"13","lsbd":"School Board Nebo 7"},{"vid":"2674471","name":"Heaven Rohan","party":"Dem","address":"365 W 400 N, Payson, UT 84651","precinct":"25PA03","hd":"65","v_score":"4.905839784","decile":"7","lat":40.048097098951516,"lng":-111.73739089371344,"phone":"(188) 594-4662","sd":"25","ssbd":"13","lsbd":"School Board Nebo 7"},{"vid":"2675358","name":"Franco Dare-Gulgowski","party":"Dem","address":"169 W 400 N, Payson, UT 84651","precinct":"25PA03","hd":"65","v_score":"0","decile":"2","lat":40.04833756176531,"lng":-111.73452160609031,"phone":"(665) 056-2057","sd":"25","ssbd":"13","lsbd":"School Board Nebo 7"},{"vid":"2679224","name":"Guthrie Hintz","party":"Rep","address":"742 W 400 S, Payson, UT 84651","precinct":"25PA03","hd":"65","v_score":"0","decile":"2","lat":40.03850852327916,"lng":-111.74471286075665,"phone":"(848) 512-9413","sd":"25","ssbd":"13","lsbd":"School Board Nebo 7"},{"vid":"2685284","name":"Shelvie Kub MD","party":"","address":"350 S Main St, Payson, UT 84651","precinct":"25PA03","hd":"65","v_score":"0","decile":"2","lat":40.104805586389624,"lng":-111.65531901005643,"phone":"(936) 364-6251","sd":"25","ssbd":"13","lsbd":"School Board Nebo 7"},{"vid":"2686129","name":"Claudia Walter","party":"","address":"440 W 300 N, Payson, UT 84651","precinct":"25PA03","hd":"65","v_score":"1.193887297","decile":"4","lat":40.04717486373461,"lng":-111.73889738014866,"phone":"(676) 268-5211","sd":"25","ssbd":"13","lsbd":"School Board Nebo 7"},{"vid":"2688750","name":"Shanice Murray","party":"","address":"341 N 200 W, Payson, UT 84651","precinct":"25PA03","hd":"65","v_score":"1.193887297","decile":"4","lat":40.04752531543559,"lng":-111.73562711389349,"phone":"(659) 358-1224","sd":"25","ssbd":"13","lsbd":"School Board Nebo 7"},{"vid":"2690498","name":"Ms. Carina Stroman","party":"Dem","address":"391 N 100 W, Payson, UT 84651","precinct":"25PA03","hd":"65","v_score":"1.193887297","decile":"4","lat":40.04835118957523,"lng":-111.73402393061944,"phone":"(896) 906-8000","sd":"25","ssbd":"13","lsbd":"School Board Nebo 7"},{"vid":"2698185","name":"Williemae Leuschke","party":"","address":"391 S 400 W, Payson, UT 84651","precinct":"25PA03","hd":"65","v_score":"0","decile":"2","lat":40.03848806279339,"lng":-111.73743320798225,"phone":"(892) 915-6150","sd":"25","ssbd":"13","lsbd":"School Board Nebo 7"},{"vid":"2699367","name":"Ms. Christine Wunsch MD","party":"","address":"192 N 100 W, Payson, UT 84651","precinct":"25PA03","hd":"65","v_score":"4.905839784","decile":"7","lat":40.04547342206344,"lng":-111.73350559659197,"phone":"(520) 843-7434","sd":"25","ssbd":"13","lsbd":"School Board Nebo 7"},{"vid":"2700227","name":"Dr. Harmon Fay","party":"","address":"591 W 100 N, Payson, UT 84651","precinct":"25PA03","hd":"65","v_score":"0","decile":"2","lat":40.044301969965304,"lng":-111.74203791409747,"phone":"(694) 205-2878","sd":"25","ssbd":"13","lsbd":"School Board Nebo 7"},{"vid":"2700567","name":"Leonore Christiansen-Shanahan","party":"Dem","address":"557 W 200 N, Payson, UT 84651","precinct":"25PA03","hd":"65","v_score":"1.193887297","decile":"4","lat":40.04546965489239,"lng":-111.74146130977108,"phone":"(202) 883-3920","sd":"25","ssbd":"13","lsbd":"School Board Nebo 7"},{"vid":"2701636","name":"Mrs. Corine Kirlin","party":"Dem","address":"351 W 200 S, Payson, UT 84651","precinct":"25PA03","hd":"65","v_score":"0","decile":"2","lat":40.0413047587792,"lng":-111.73679058413,"phone":"(604) 655-5522","sd":"25","ssbd":"13","lsbd":"School Board Nebo 7"},{"vid":"2711811","name":"Moira Harris","party":"Dem","address":"641 W 100 S, Payson, UT 84651","precinct":"25PA03","hd":"65","v_score":"0","decile":"2","lat":40.04222947745356,"lng":-111.74248660677155,"phone":"(281) 156-6545","sd":"25","ssbd":"13","lsbd":"School Board Nebo 7"},{"vid":"2714899","name":"Ashtyn Mosciski","party":"","address":"333 W 300 N, Payson, UT 84651","precinct":"25PA03","hd":"65","v_score":"7.090117576","decile":"8","lat":40.046608205814124,"lng":-111.73712993746096,"phone":"(555) 497-6460","sd":"25","ssbd":"13","lsbd":"School Board Nebo 7"},{"vid":"2722561","name":"Ms. Vinie Cartwright DDS","party":"Dem","address":"62 W 300 N, Payson, UT 84651","precinct":"25PA03","hd":"65","v_score":"0","decile":"2","lat":40.04729269485243,"lng":-111.73316959449603,"phone":"(193) 832-5850","sd":"25","ssbd":"13","lsbd":"School Board Nebo 7"},{"vid":"2724588","name":"Dr. Furman Durgan I","party":"Rep","address":"374 W 100 N, Payson, UT 84651","precinct":"25PA03","hd":"65","v_score":"0","decile":"2","lat":40.29895372721031,"lng":-111.70468925730854,"phone":"(552) 353-1487","sd":"25","ssbd":"13","lsbd":"School Board Nebo 7"},{"vid":"2727853","name":"Dr. Virge Olson","party":"Rep","address":"238 S 600 W, Payson, UT 84651","precinct":"25PA03","hd":"65","v_score":"1.193887297","decile":"4","lat":40.040781959078615,"lng":-111.74197758378197,"phone":"(584) 312-5131","sd":"25","ssbd":"13","lsbd":"School Board Nebo 7"},{"vid":"2736246","name":"Walter Miller","party":"Dem","address":"214 S 650 W, Payson, UT 84651","precinct":"25PA03","hd":"65","v_score":"1.193887297","decile":"4","lat":40.04064333983634,"lng":-111.74279337512107,"phone":"(150) 554-5868","sd":"25","ssbd":"13","lsbd":"School Board Nebo 7"},{"vid":"2737512","name":"Dollye Gusikowski","party":"Dem","address":"527 W 100 S, Payson, UT 84651","precinct":"25PA03","hd":"65","v_score":"1.193887297","decile":"4","lat":40.04234437218452,"lng":-111.74023902498496,"phone":"(189) 155-9886","sd":"25","ssbd":"13","lsbd":"School Board Nebo 7"},{"vid":"2740046","name":"Mr. Alan Wiegand Jr.","party":"","address":"463 W 100 N, Payson, UT 84651","precinct":"25PA03","hd":"65","v_score":"1.193887297","decile":"4","lat":40.04428671410328,"lng":-111.73897972529716,"phone":"(208) 516-0097","sd":"25","ssbd":"13","lsbd":"School Board Nebo 7"},{"vid":"2742006","name":"Bronson Boyer IV","party":"","address":"43 W 300 N, Payson, UT 84651","precinct":"25PA03","hd":"65","v_score":"0","decile":"2","lat":40.04668397897414,"lng":-111.73294005268271,"phone":"(121) 959-1960","sd":"25","ssbd":"13","lsbd":"School Board Nebo 7"},{"vid":"2743895","name":"Peyton Smitham","party":"Dem","address":"352 W 300 S, Payson, UT 84651","precinct":"25PA03","hd":"65","v_score":"0","decile":"2","lat":40.03997445082363,"lng":-111.73689600160827,"phone":"(810) 588-4032","sd":"25","ssbd":"13","lsbd":"School Board Nebo 7"},{"vid":"2744155","name":"Lem Borer-Beahan","party":"Rep","address":"432 S 800 W, Payson, UT 84651","precinct":"25PA03","hd":"65","v_score":"10.71001167","decile":"9","lat":40.03777362929582,"lng":-111.74592858748194,"phone":"(487) 674-4260","sd":"25","ssbd":"13","lsbd":"School Board Nebo 7"},{"vid":"2744183","name":"Christophe Stanton","party":"Dem","address":"643 W 300 S, Payson, UT 84651","precinct":"25PA03","hd":"65","v_score":"1.193887297","decile":"4","lat":40.03953745054506,"lng":-111.74248714594037,"phone":"(101) 813-6400","sd":"25","ssbd":"13","lsbd":"School Board Nebo 7"},{"vid":"2745423","name":"Dr. Edrie Keeling DVM","party":"Dem","address":"346 S 500 W, Payson, UT 84651","precinct":"25PA03","hd":"65","v_score":"0","decile":"2","lat":40.03910346437276,"lng":-111.74014822453367,"phone":"(122) 657-9830","sd":"25","ssbd":"13","lsbd":"School Board Nebo 7"},{"vid":"2745467","name":"Mr. Frazier Borer IV","party":"Rep","address":"134 W 400 S, Payson, UT 84651","precinct":"25PA03","hd":"65","v_score":"4.069929862","decile":"7","lat":40.29013788598182,"lng":-111.69859645182039,"phone":"(983) 644-1274","sd":"25","ssbd":"13","lsbd":"School Board Nebo 7"},{"vid":"2757276","name":"Zora Pfannerstill","party":"Dem","address":"441 W 100 S, Payson, UT 84651","precinct":"25PA03","hd":"65","v_score":"0","decile":"2","lat":40.0423416096032,"lng":-111.73849748863208,"phone":"(785) 190-1281","sd":"25","ssbd":"13","lsbd":"School Board Nebo 7"},