[{"id":"262","name":"Joanie Rempel","party":"","address":"526 W 100 N, Payson, UT 84651","precinct":"25PA03","hd":"65","v_score":"6.657533174","decile":"7","lat":40.044644825355,"lng":-111.740514406601},{"id":"333","name":"Shanita Beatty-Conn","party":"","address":"330 S 400 W, Payson, UT 84651","precinct":"25PA03","hd":"65","v_score":"3.781490609","decile":"6","lat":40.039302958825,"lng":-111.737902726449},{"id":"1360","name":"Audra Feil","party":"","address":"777 W 300 S, Payson, UT 84651","precinct":"25PA03","hd":"65","v_score":"0","decile":"1","lat":40.039757737462,"lng":-111.745120273981},{"id":"1402","name":"Dr. Santana Gislason II","party":"Dem","address":"294 S 100 W, Payson, UT 84651","precinct":"25PA03","hd":"65","v_score":"4.210716443","decile":"7","lat":40.039901562042,"lng":-111.733910906535},{"id":"1588","name":"Katherine Christiansen","party":"","address":"333 S 500 W, Payson, UT 84651","precinct":"25PA03","hd":"65","v_score":"0","decile":"1","lat":40.039279983352,"lng":-111.739685169557},{"id":"1893","name":"Nedra Schroeder-Bergnaum","party":"Dem","address":"712 W 200 S, Payson, UT 84651","precinct":"25PA03","hd":"65","v_score":"2.315214949","decile":"5","lat":40.041582328562,"lng":-111.74395049223},{"id":"2075","name":"Shirley Stanton","party":"","address":"352 W 300 S, Payson, UT 84651","precinct":"25PA03","hd":"65","v_score":"2.660162957","decile":"5","lat":40.03984107968,"lng":-111.736975810831},{"id":"2284","name":"Arbie O'Conner","party":"","address":"303 S 800 W, Payson, UT 84651","precinct":"25PA03","hd":"65","v_score":"4.741221742","decile":"7","lat":40.03972823254,"lng":-111.745522375437},{"id":"2740","name":"Velia Eichmann","party":"Dem","address":"365 S 100 W, Payson, UT 84651","precinct":"25PA03","hd":"65","v_score":"4.741221742","decile":"7","lat":40.038814626474,"lng":-111.733770215516},{"id":"2920","name":"Thora Fay","party":"","address":"349 N 230 W, Payson, UT 84651","precinct":"25PA03","hd":"65","v_score":"3.93832808","decile":"6","lat":40.047875309766,"lng":-111.736412433194},{"id":"3440","name":"Torry Hackett","party":"Rep","address":"785 W 100 S, Payson, UT 84651","precinct":"25PA03","hd":"65","v_score":"5.40460374","decile":"7","lat":40.042511737144,"lng":-111.745093885573},{"id":"3449","name":"Dr. Benjiman Quitzon PhD","party":"Dem","address":"130 W 400 S, Payson, UT 84651","precinct":"25PA03","hd":"65","v_score":"2.315214949","decile":"5","lat":40.038333328199,"lng":-111.734230686045},{"id":"3555","name":"Marlin Veum","party":"Dem","address":"327 N 100 W, Payson, UT 84651","precinct":"25PA03","hd":"65","v_score":"7.047822616","decile":"8","lat":40.047413376204,"lng":-111.733872003347},{"id":"4209","name":"Alferd Gibson","party":"","address":"775 W 100 S, Payson, UT 84651","precinct":"25PA03","hd":"65","v_score":"0","decile":"1","lat":40.042511391267,"lng":-111.744932204128},{"id":"4702","name":"Kenyon McLaughlin","party":"Dem","address":"320 S 400 W, Payson, UT 84651","precinct":"25PA03","hd":"65","v_score":"0","decile":"1","lat":40.039445551523,"lng":-111.737902726431},{"id":"5265","name":"Ms. Coleen Weissnat","party":"","address":"373 S 400 W, Payson, UT 84651","precinct":"25PA03","hd":"65","v_score":"2.744440783","decile":"5","lat":40.038704069481,"lng":-111.737753054165},{"id":"5882","name":"Burl Fay","party":"Dem","address":"210 N 400 W, Payson, UT 84651","precinct":"25PA03","hd":"65","v_score":"2.817000428","decile":"6","lat":40.045945763215,"lng":-111.738327774329},{"id":"6163","name":"Oakley Gerlach DDS","party":"Dem","address":"170 W 300 S, Payson, UT 84651","precinct":"25PA03","hd":"65","v_score":"2.660162957","decile":"5","lat":40.039836328067,"lng":-111.734765388887},{"id":"6185","name":"Elberta Rau-Tillman","party":"Rep","address":"455 W 200 N, Payson, UT 84651","precinct":"25PA03","hd":"65","v_score":"0","decile":"1","lat":40.045719831738,"lng":-111.739119623503},{"id":"6449","name":"Mazie Feest","party":"","address":"356 W Utah Ave, Payson, UT 84651","precinct":"25PA03","hd":"65","v_score":"2.315214949","decile":"5","lat":40.043667477674,"lng":-111.737254767272},{"id":"6542","name":"Tawana Abbott","party":"Dem","address":"208 S 700 W, Payson, UT 84651","precinct":"25PA03","hd":"65","v_score":"10.60921719","decile":"9","lat":40.041337497974,"lng":-111.743730227903},{"id":"7141","name":"Fredericka Ebert DVM","party":"","address":"314 S 600 W, Payson, UT 84651","precinct":"25PA03","hd":"65","v_score":"2.942907593","decile":"6","lat":40.039554378656,"lng":-111.741768987969},{"id":"7392","name":"Malissa Grimes MD","party":"Dem","address":"219 S 400 W, Payson, UT 84651","precinct":"25PA03","hd":"65","v_score":"5.40460374","decile":"7","lat":40.041162396388,"lng":-111.737753052191},{"id":"7399","name":"Fronia Kshlerin","party":"Rep","address":"70 W 400 S, Payson, UT 84651","precinct":"25PA03","hd":"65","v_score":"1.46627566","decile":"4","lat":40.038333328134,"lng":-111.733363272049},{"id":"7679","name":"Miss Gia Wolff","party":"Rep","address":"226 S 800 W, Apt 4, Payson, UT 84651","precinct":"25PA03","hd":"65","v_score":"1.121327652","decile":"3","lat":40.04081379541,"lng":-111.745657140418},{"id":"7786","name":"Latanya Bogisich","party":"Dem","address":"644 W 300 S, Payson, UT 84651","precinct":"25PA03","hd":"65","v_score":"2.315214949","decile":"5","lat":40.039872328655,"lng":-111.742585964527},{"id":"7795","name":"Latanya Trantow","party":"","address":"243 S 200 W, Payson, UT 84651","precinct":"25PA03","hd":"65","v_score":"1.121327652","decile":"3","lat":40.040754396178,"lng":-111.73513681444},{"id":"7805","name":"Alexa Mosciski","party":"","address":"46 S 200 W, Payson, UT 84651","precinct":"25PA03","hd":"65","v_score":"13.83018807","decile":"9","lat":40.043108751084,"lng":-111.73527439474},{"id":"8063","name":"Rush Langworth-Douglas","party":"Rep","address":"196 W Utah Ave, Payson, UT 84651","precinct":"25PA03","hd":"65","v_score":"0","decile":"1","lat":40.043660671163,"lng":-111.735094954394},{"id":"8144","name":"Manilla Rath","party":"Rep","address":"356 W Utah Ave, Payson, UT 84651","precinct":"25PA03","hd":"65","v_score":"2.315214949","decile":"5","lat":40.043667477674,"lng":-111.737254767272},{"id":"8680","name":"Hilbert Gerlach","party":"","address":"345 S 700 W, Payson, UT 84651","precinct":"25PA03","hd":"65","v_score":"1.193887297","decile":"3","lat":40.039117822374,"lng":-111.743595667125},{"id":"8769","name":"Ms. Emogene Sauer","party":"","address":"287 S 300 W, Payson, UT 84651","precinct":"25PA03","hd":"65","v_score":"2.660162957","decile":"5","lat":40.040033888371,"lng":-111.73594855271},{"id":"8817","name":"Donnie Wilderman","party":"Dem","address":"347 N Main St, Payson, UT 84651","precinct":"25PA03","hd":"65","v_score":"2.315214949","decile":"5","lat":40.047724516812,"lng":-111.732343113973},{"id":"8993","name":"Saul Sporer PhD","party":"Rep","address":"946 W 450 S, Payson, UT 84651","precinct":"25PA03","hd":"65","v_score":"9.207031979","decile":"8","lat":40.037546073731,"lng":-111.748765337327},{"id":"9550","name":"Dr. Luciano Lehner","party":"","address":"46 S 200 W, Payson, UT 84651","precinct":"25PA03","hd":"65","v_score":"13.83018807","decile":"9","lat":40.043108751084,"lng":-111.73527439474},{"id":"9582","name":"Eric Will-Thompson","party":"Dem","address":"644 W 300 S, Payson, UT 84651","precinct":"25PA03","hd":"65","v_score":"2.315214949","decile":"5","lat":40.039872328655,"lng":-111.742585964527},{"id":"9952","name":"Leisa Graham-Kreiger","party":"Dem","address":"527 W 100 S, Payson, UT 84651","precinct":"25PA03","hd":"65","v_score":"0","decile":"1","lat":40.042496289761,"lng":-111.740273454509},{"id":"10069","name":"Lelar O'Kon","party":"","address":"946 W 450 S, Payson, UT 84651","precinct":"25PA03","hd":"65","v_score":"15.02598214","decile":"9","lat":40.037546073731,"lng":-111.748765337327},{"id":"10152","name":"Journey Heaney","party":"","address":"329 W 300 S, Payson, UT 84651","precinct":"25PA03","hd":"65","v_score":"7.153624035","decile":"8","lat":40.039724469424,"lng":-111.736571522106},{"id":"11200","name":"Hennie Schneider MD","party":"Dem","address":"341 W 100 N, Payson, UT 84651","precinct":"25PA03","hd":"65","v_score":"2.587603312","decile":"5","lat":40.044518044364,"lng":-111.737051961553},{"id":"11597","name":"Dr. Alby Jenkins","party":"Dem","address":"150 W 100 S, Payson, UT 84651","precinct":"25PA03","hd":"65","v_score":"0","decile":"1","lat":40.042585907458,"lng":-111.734529977292},{"id":"11629","name":"Audy Brekke","party":"","address":"416 S 1000 W, Payson, UT 84651","precinct":"25PA03","hd":"65","v_score":"2.587603312","decile":"5","lat":40.037753020495,"lng":-111.749567817554},{"id":"11640","name":"Trae Langworth II","party":"Rep","address":"291 S 600 W, Payson, UT 84651","precinct":"25PA03","hd":"65","v_score":"2.315214949","decile":"5","lat":40.040002394449,"lng":-111.741617789532},{"id":"11878","name":"Dr. Crockett Schulist DDS","party":"","address":"235 S 700 W, Payson, UT 84651","precinct":"25PA03","hd":"65","v_score":"6.027167436","decile":"7","lat":40.040914220606,"lng":-111.743580549808},{"id":"12154","name":"Mr. Brenden Walsh PhD","party":"","address":"130 W 400 S, Payson, UT 84651","precinct":"25PA03","hd":"65","v_score":"0","decile":"1","lat":40.038333328199,"lng":-111.734230686045},{"id":"12738","name":"Ewin Williamson-Wolff","party":"Dem","address":"193 S 300 W, Payson, UT 84651","precinct":"25PA03","hd":"65","v_score":"2.315214949","decile":"5","lat":40.041619935809,"lng":-111.735948054998},{"id":"12754","name":"Kevan Hand Sr.","party":"","address":"596 W 100 N, Payson, UT 84651","precinct":"25PA03","hd":"65","v_score":"5.40460374","decile":"7","lat":40.044650918907,"lng":-111.742458202638},{"id":"12878","name":"Shelton Rodriguez","party":"Rep","address":"375 S 300 W, Payson, UT 84651","precinct":"25PA03","hd":"65","v_score":"0","decile":"1","lat":40.038673477983,"lng":-111.735945244295},{"id":"13291","name":"Miss Justice Schumm","party":"Dem","address":"291 N Main St, Payson, UT 84651","precinct":"25PA03","hd":"65","v_score":"1.121327652","decile":"3","lat":40.046804906414,"lng":-111.732345234803},{"id":"13566","name":"Adalyn Kassulke","party":"","address":"290 S 400 W, Payson, UT 84651","precinct":"25PA03","hd":"65","v_score":"8.363183621","decile":"8","lat":40.039977035113,"lng":-111.737902728022},{"id":"14071","name":"Lamont Rice","party":"Rep","address":"179 N 200 W, Apt 4, Payson, UT 84651","precinct":"25PA03","hd":"65","v_score":"1.193887297","decile":"3","lat":40.045470005936,"lng":-111.735258825454},{"id":"14413","name":"Nicolle Grady","party":"","address":"534 W 300 S, Payson, UT 84651","precinct":"25PA03","hd":"65","v_score":"12.49472132","decile":"9","lat":40.039860781793,"lng":-111.740448778158},{"id":"14887","name":"Alexis Bernhard","party":"","address":"374 S 600 W, Payson, UT 84651","precinct":"25PA03","hd":"65","v_score":"0","decile":"1","lat":40.03868229168,"lng":-111.741771538042},{"id":"14973","name":"Dr. Vito Moore Jr.","party":"Rep","address":"346 S 900 W, Payson, UT 84651","precinct":"25PA03","hd":"65","v_score":"2.315214949","decile":"5","lat":40.038159426402,"lng":-111.74798278513},{"id":"15172","name":"Dock Cartwright","party":"Dem","address":"343 W 100 N, Payson, UT 84651","precinct":"25PA03","hd":"65","v_score":"6.814370645","decile":"8","lat":40.044520945151,"lng":-111.737203510981},{"id":"15565","name":"Shelvie Dietrich","party":"Rep","address":"148 S 200 W, Payson, UT 84651","precinct":"25PA03","hd":"65","v_score":"5.40460374","decile":"7","lat":40.042025305528,"lng":-111.73528364684},{"id":"16844","name":"Alfonse Wolf-Bailey","party":"Dem","address":"142 N 500 W, Payson, UT 84651","precinct":"25PA03","hd":"65","v_score":"6.814370645","decile":"8","lat":40.045102360091,"lng":-111.739643046038},{"id":"17110","name":"Howell Ritchie","party":"","address":"643 W 300 S, Payson, UT 84651","precinct":"25PA03","hd":"65","v_score":"3.781490609","decile":"6","lat":40.039757737268,"lng":-111.742548794667},{"id":"17764","name":"Leslie Hyatt I","party":"Dem","address":"196 W 300 S, Payson, UT 84651","precinct":"25PA03","hd":"65","v_score":"5.331806201","decile":"7","lat":40.039836328091,"lng":-111.735082648333},{"id":"17870","name":"Torry Rogahn","party":"Rep","address":"86 N 600 W, Payson, UT 84651","precinct":"25PA03","hd":"65","v_score":"2.315214949","decile":"5","lat":40.044430376533,"lng":-111.742519426404},{"id":"17880","name":"Vollie Ledner","party":"Rep","address":"363 S 800 W, Payson, UT 84651","precinct":"25PA03","hd":"65","v_score":"2.998909327","decile":"6","lat":40.038878171631,"lng":-111.745545281377},{"id":"18218","name":"Tamela Kihn","party":"Rep","address":"235 S 700 W, Payson, UT 84651","precinct":"25PA03","hd":"65","v_score":"2.315214949","decile":"5","lat":40.040914220606,"lng":-111.743580549808},{"id":"18474","name":"Isamar Gislason","party":"","address":"353 W 400 N, Payson, UT 84651","precinct":"25PA03","hd":"65","v_score":"3.93832808","decile":"6","lat":40.048545695007,"lng":-111.737886583187},{"id":"18842","name":"Jenny Armstrong","party":"","address":"259 W Utah Ave, Payson, UT 84651","precinct":"25PA03","hd":"65","v_score":"0","decile":"1","lat":40.043546736313,"lng":-111.735669021216},{"id":"18965","name":"Harlan O'Conner","party":"Rep","address":"371 S 1000 W, Payson, UT 84651","precinct":"25PA03","hd":"65","v_score":"6.724398202","decile":"8","lat":40.037949325993,"lng":-111.749291361456},{"id":"18967","name":"Belen Price","party":"Rep","address":"371 S 1000 W, Payson, UT 84651","precinct":"25PA03","hd":"65","v_score":"6.724398202","decile":"8","lat":40.037949325993,"lng":-111.749291361456},{"id":"19066","name":"Irvin Lemke-Hettinger","party":"Dem","address":"451 N 150 W, Payson, UT 84651","precinct":"25PA03","hd":"65","v_score":"3.781490609","decile":"6","lat":40.049484078058,"lng":-111.73451571934},{"id":"19140","name":"Mr. Sharon Denesik Sr.","party":"","address":"235 S 700 W, Payson, UT 84651","precinct":"25PA03","hd":"65","v_score":"2.315214949","decile":"5","lat":40.040914220606,"lng":-111.743580549808},{"id":"19372","name":"Sky Hamill","party":"Dem","address":"371 S 1000 W, Payson, UT 84651","precinct":"25PA03","hd":"65","v_score":"2.315214949","decile":"5","lat":40.037949325993,"lng":-111.749291361456},{"id":"19547","name":"Jule Cummings","party":"","address":"110 N 400 W, Payson, UT 84651","precinct":"25PA03","hd":"65","v_score":"18.6326806","decile":"10","lat":40.044752115069,"lng":-111.73834452886},{"id":"19625","name":"Alease Heathcote","party":"","address":"255 S 500 W, Payson, UT 84651","precinct":"25PA03","hd":"65","v_score":"2.315214949","decile":"5","lat":40.040573971094,"lng":-111.739666906851},{"id":"19823","name":"Dr. Stefan Schneider MD","party":"Dem","address":"383 N 400 W, Payson, UT 84651","precinct":"25PA03","hd":"65","v_score":"1.121327652","decile":"3","lat":40.048297135212,"lng":-111.738484376213},{"id":"20050","name":"Raekwon Effertz","party":"","address":"289 W 200 S, Payson, UT 84651","precinct":"25PA03","hd":"65","v_score":"13.77600699","decile":"9","lat":40.041448162454,"lng":-111.735882263339},{"id":"20149","name":"Edwardo Hilpert","party":"Dem","address":"136 W 400 S, Payson, UT 84651","precinct":"25PA03","hd":"65","v_score":"5.530510904","decile":"7","lat":40.038333328204,"lng":-111.734291877779},{"id":"20547","name":"Vira Lowe PhD","party":"Rep","address":"95 N 500 W, Payson, UT 84651","precinct":"25PA03","hd":"65","v_score":"2.876042565","decile":"6","lat":40.044493312896,"lng":-111.739793160343},{"id":"20713","name":"Mrs. Amaris Bode","party":"Rep","address":"395 S 300 W, Payson, UT 84651","precinct":"25PA03","hd":"65","v_score":"5.40460374","decile":"7","lat":40.038390129259,"lng":-111.735944395981},{"id":"20746","name":"Godfrey Botsford","party":"Dem","address":"189 N 400 W, Payson, UT 84651","precinct":"25PA03","hd":"65","v_score":"1.121327652","decile":"3","lat":40.045614948993,"lng":-111.738481249934},{"id":"21488","name":"Mrs. Lucille Orn MD","party":"","address":"750 W 300 S, Payson, UT 84651","precinct":"25PA03","hd":"65","v_score":"1.193887297","decile":"3","lat":40.039872328811,"lng":-111.744647810491},{"id":"22019","name":"Melissia Block PhD","party":"Dem","address":"502 W 200 N, Apt A, Payson, UT 84651","precinct":"25PA03","hd":"65","v_score":"20.32009306","decile":"10","lat":40.045830795546,"lng":-111.739835575368},{"id":"22059","name":"Rico Heaney","party":"Dem","address":"379 W 100 N, Payson, UT 84651","precinct":"25PA03","hd":"65","v_score":"0","decile":"1","lat":40.044527736372,"lng":-111.73793756922},{"id":"22104","name":"Dr. Naoma Goodwin","party":"Rep","address":"674 W 300 S, Payson, UT 84651","precinct":"25PA03","hd":"65","v_score":"0","decile":"1","lat":40.039872328697,"lng":-111.743143512648},{"id":"22217","name":"Dr. Thad Schroeder IV","party":"","address":"263 S 700 W, Payson, UT 84651","precinct":"25PA03","hd":"65","v_score":"0","decile":"1","lat":40.040458032858,"lng":-111.743584279106},{"id":"22687","name":"Manuelita O'Conner","party":"","address":"57 W 200 N, Payson, UT 84651","precinct":"25PA03","hd":"65","v_score":"13.5493502","decile":"9","lat":40.045684817352,"lng":-111.733131989735},{"id":"22741","name":"Shirleyann Howe","party":"Rep","address":"359 S 900 W, Payson, UT 84651","precinct":"25PA03","hd":"65","v_score":"0","decile":"1","lat":40.038586644015,"lng":-111.747647308667},{"id":"22785","name":"Cory Rowe","party":"Dem","address":"374 W 100 N, Payson, UT 84651","precinct":"25PA03","hd":"65","v_score":"1.193887297","decile":"3","lat":40.044642327754,"lng":-111.737917095348},{"id":"22837","name":"Sherry Durgan","party":"Dem","address":"530 W 200 N, Payson, UT 84651","precinct":"25PA03","hd":"65","v_score":"29.80287197","decile":"10","lat":40.045833197307,"lng":-111.740440807574},{"id":"23182","name":"Oney Renner","party":"Dem","address":"412 S 800 W, Payson, UT 84651","precinct":"25PA03","hd":"65","v_score":"7.830610533","decile":"8","lat":40.038159658697,"lng":-111.74570635125},{"id":"23200","name":"Ilda Considine","party":"","address":"550 W 100 N, # 1, Payson, UT 84651","precinct":"25PA03","hd":"65","v_score":"0","decile":"1","lat":40.044646914573,"lng":-111.741180850956},{"id":"23266","name":"Twyla Hayes","party":"Dem","address":"335 N Main St, Payson, UT 84651","precinct":"25PA03","hd":"65","v_score":"5.243007221","decile":"7","lat":40.047537976974,"lng":-111.732343626469},{"id":"23635","name":"Staci Shields-Heaney","party":"","address":"173 N 400 W, Payson, UT 84651","precinct":"25PA03","hd":"65","v_score":"0","decile":"1","lat":40.045438228002,"lng":-111.738483907415},{"id":"23812","name":"Kloe Gutmann","party":"","address":"395 S 300 W, Payson, UT 84651","precinct":"25PA03","hd":"65","v_score":"5.40460374","decile":"7","lat":40.038390129259,"lng":-111.735944395981},{"id":"24253","name":"Dr. Keanu Nitzsche Sr.","party":"","address":"333 S 100 W, Payson, UT 84651","precinct":"25PA03","hd":"65","v_score":"0","decile":"1","lat":40.039267985218,"lng":-111.733766143374},{"id":"24391","name":"Ronda Douglas-Mills","party":"Dem","address":"235 N 100 W, Payson, UT 84651","precinct":"25PA03","hd":"65","v_score":"8.489090786","decile":"8","lat":40.046181979236,"lng":-111.733870734584},{"id":"24507","name":"Geoff Pfeffer","party":"Dem","address":"363 S 800 W, Payson, UT 84651","precinct":"25PA03","hd":"65","v_score":"0","decile":"1","lat":40.038878171631,"lng":-111.745545281377},{"id":"24544","name":"Mr. Jamison Prosacco","party":"Rep","address":"625 W 100 N, Payson, UT 84651","precinct":"25PA03","hd":"65","v_score":"5.40460374","decile":"7","lat":40.044534022261,"lng":-111.742787737912},{"id":"25060","name":"Jaclyn Ferry","party":"Dem","address":"262 S 800 W, Apt 3, Payson, UT 84651","precinct":"25PA03","hd":"65","v_score":"4.568975008","decile":"7","lat":40.040343337265,"lng":-111.745663070623},{"id":"25081","name":"Dr. Paralee Russel","party":"Dem","address":"40 S 300 W, Payson, UT 84651","precinct":"25PA03","hd":"65","v_score":"5.40460374","decile":"7","lat":40.043168157983,"lng":-111.736093730993},{"id":"25601","name":"Raoul Stracke","party":"Rep","address":"320 W 100 N, Payson, UT 84651","precinct":"25PA03","hd":"65","v_score":"1.193887297","decile":"3","lat":40.044631117504,"lng":-111.736887840571},{"id":"25857","name":"Hughes Gulgowski","party":"","address":"233 Majestic Meadows Dr, Payson, UT 84651","precinct":"25PA03","hd":"65","v_score":"2.315214949","decile":"5","lat":40.040504534536,"lng":-111.746340226938},{"id":"25861","name":"Debra Altenwerth","party":"Dem","address":"288 S 500 W, Payson, UT 84651","precinct":"25PA03","hd":"65","v_score":"9.61867875","decile":"8","lat":40.04001872154,"lng":-111.739825269104},{"id":"26252","name":"Mr. Devon Greenholt","party":"Rep","address":"221 Majestic Meadows Dr, Payson, UT 84651","precinct":"25PA03","hd":"65","v_score":"16.2066738","decile":"9","lat":40.040790895668,"lng":-111.746340226901},{"id":"26398","name":"Jerod Feest II","party":"Dem","address":"237 S 500 W, Payson, UT 84651","precinct":"25PA03","hd":"65","v_score":"0","decile":"1","lat":40.040868652409,"lng":-111.739662302418},{"id":"26600","name":"Ephraim McClure","party":"","address":"233 S 300 W, Payson, UT 84651","precinct":"25PA03","hd":"65","v_score":"9.682978083","decile":"8","lat":40.040922909336,"lng":-111.735948552597},{"id":"26768","name":"Dr. Clem Bartoletti","party":"","address":"212 S 650 W, Payson, UT 84651","precinct":"25PA03","hd":"65","v_score":"0","decile":"1","lat":40.041394709757,"lng":-111.742721000554},{"id":"26805","name":"Laureen Orn-Ebert","party":"Rep","address":"390 W 200 S, Payson, UT 84651","precinct":"25PA03","hd":"65","v_score":"3.781490609","decile":"6","lat":40.04157227986,"lng":-111.737617476665},{"id":"27314","name":"Roby Schiller DVM","party":"Dem","address":"896 W 450 S, Payson, UT 84651","precinct":"25PA03","hd":"65","v_score":"18.6326806","decile":"10","lat":40.037548799605,"lng":-111.747973137729},{"id":"28470","name":"Mrs. Jillian Kerluke DVM","party":"Dem","address":"428 S 1000 W, Payson, UT 84651","precinct":"25PA03","hd":"65","v_score":"0","decile":"1","lat":40.037676564012,"lng":-111.749574094964},{"id":"28569","name":"Dr. Venessa Sauer","party":"","address":"233 S 300 W, Payson, UT 84651","precinct":"25PA03","hd":"65","v_score":"11.30609121","decile":"9","lat":40.040922909336,"lng":-111.735948552597},{"id":"29424","name":"Ingrid Glover MD","party":"Dem","address":"290 S 400 W, Payson, UT 84651","precinct":"25PA03","hd":"65","v_score":"8.363183621","decile":"8","lat":40.039977035113,"lng":-111.737902728022},{"id":"30100","name":"Larry Breitenberg","party":"Rep","address":"288 S 500 W, Payson, UT 84651","precinct":"25PA03","hd":"65","v_score":"10.93847321","decile":"9","lat":40.04001872154,"lng":-111.739825269104},{"id":"30383","name":"Casimiro Pfannerstill-Tillman","party":"","address":"289 N 200 W, Payson, UT 84651","precinct":"25PA03","hd":"65","v_score":"10.9941379","decile":"9","lat":40.046775948604,"lng":-111.735241251716},{"id":"30418","name":"Alesha Hammes-Bode","party":"Rep","address":"198 S 800 W, Payson, UT 84651","precinct":"25PA03","hd":"65","v_score":"4.15282392","decile":"7","lat":40.041266698703,"lng":-111.74567504183},{"id":"30896","name":"Jana Frami","party":"Rep","address":"192 S 800 W, Payson, UT 84651","precinct":"25PA03","hd":"65","v_score":"12.95232993","decile":"9","lat":40.041583873286,"lng":-111.74567665468},{"id":"30967","name":"Pamela King PhD","party":"Dem","address":"248 S 300 W, Payson, UT 84651","precinct":"25PA03","hd":"65","v_score":"3.781490609","decile":"6","lat":40.040659495728,"lng":-111.73609822829},{"id":"31256","name":"Hershel Berge DVM","party":"","address":"43 N 100 W, Unit A, Payson, UT 84651","precinct":"25PA03","hd":"65","v_score":"2.587603312","decile":"5","lat":40.043940452739,"lng":-111.733888964793},{"id":"31330","name":"Ah O'Reilly I","party":"Rep","address":"239 Majestic Meadows Dr, Payson, UT 84651","precinct":"25PA03","hd":"65","v_score":"4.296586645","decile":"7","lat":40.040363839917,"lng":-111.746343305266},{"id":"31899","name":"Kalene Franecki DDS","party":"","address":"262 S 200 W, Payson, UT 84651","precinct":"25PA03","hd":"65","v_score":"2.587603312","decile":"5","lat":40.040424309294,"lng":-111.735276452046},{"id":"32602","name":"Tyson Grady","party":"","address":"239 S 300 W, Payson, UT 84651","precinct":"25PA03","hd":"65","v_score":"0","decile":"1","lat":40.040824129229,"lng":-111.735948552609},{"id":"32825","name":"Mathilda O'Kon","party":"Dem","address":"70 W 400 S, Payson, UT 84651","precinct":"25PA03","hd":"65","v_score":"1.46627566","decile":"4","lat":40.038333328134,"lng":-111.733363272049},{"id":"32846","name":"Monroe Orn IV","party":"","address":"122 W 400 S, Payson, UT 84651","precinct":"25PA03","hd":"65","v_score":"7.153624035","decile":"8","lat":40.038333328193,"lng":-111.734149097068},{"id":"32930","name":"Alger Tremblay-Hegmann","party":"Dem","address":"245 N 200 W, Payson, UT 84651","precinct":"25PA03","hd":"65","v_score":"2.315214949","decile":"5","lat":40.046289965878,"lng":-111.735248559789},{"id":"33252","name":"Jax Bahringer","party":"","address":"250 S 300 W, Payson, UT 84651","precinct":"25PA03","hd":"65","v_score":"6.814370645","decile":"8","lat":40.040626569026,"lng":-111.736098228295},{"id":"33485","name":"Miss Aimee Wilkinson DVM","party":"","address":"361 N 230 W, Payson, UT 84651","precinct":"25PA03","hd":"65","v_score":"5.407962308","decile":"7","lat":40.04791845716,"lng":-111.73641131268},{"id":"33517","name":"Miss Zada Schulist","party":"Rep","address":"47 N 200 W, Payson, UT 84651","precinct":"25PA03","hd":"65","v_score":"3.781490609","decile":"6","lat":40.044055542618,"lng":-111.735268102943},{"id":"33870","name":"Mrs. Caitlin Wuckert DDS","party":"Rep","address":"559 W 300 N, Payson, UT 84651","precinct":"25PA03","hd":"65","v_score":"1.121327652","decile":"3","lat":40.046885736273,"lng":-111.740207055919},{"id":"33942","name":"Neppie McCullough MD","party":"","address":"194 W 300 N, Payson, UT 84651","precinct":"25PA03","hd":"65","v_score":"1.193887297","decile":"3","lat":40.047001144686,"lng":-111.735039963},{"id":"34736","name":"Jennie Funk","party":"","address":"206 S 400 W, Payson, UT 84651","precinct":"25PA03","hd":"65","v_score":"1.193887297","decile":"3","lat":40.041359956614,"lng":-111.737902727845},{"id":"35485","name":"Isaiah Brown","party":"","address":"235 N 100 W, Payson, UT 84651","precinct":"25PA03","hd":"65","v_score":"8.489090786","decile":"8","lat":40.046181979236,"lng":-111.733870734584},{"id":"36384","name":"Hymen Schuppe","party":"","address":"445 W 400 N, Apt 8, Payson, UT 84651","precinct":"25PA03","hd":"65","v_score":"0","decile":"1","lat":40.048544478889,"lng":-111.738962957768},{"id":"36739","name":"Ms. Launa Hyatt","party":"","address":"291 N Main St, Payson, UT 84651","precinct":"25PA03","hd":"65","v_score":"12.86295755","decile":"9","lat":40.046804906414,"lng":-111.732345234803},{"id":"36968","name":"Gerhard Watsica-Thiel","party":"Rep","address":"332 S 500 W, Payson, UT 84651","precinct":"25PA03","hd":"65","v_score":"2.315214949","decile":"5","lat":40.039281021579,"lng":-111.739834835774},{"id":"36969","name":"Elmina Zemlak","party":"Rep","address":"332 S 500 W, Payson, UT 84651","precinct":"25PA03","hd":"65","v_score":"2.315214949","decile":"5","lat":40.039281021579,"lng":-111.739834835774},{"id":"37126","name":"Jaiden Parisian","party":"Dem","address":"350 S 900 W, Payson, UT 84651","precinct":"25PA03","hd":"65","v_score":"1.121327652","decile":"3","lat":40.038113924325,"lng":-111.747998564081},{"id":"37296","name":"Stetson Strosin","party":"Rep","address":"263 S 700 W, Payson, UT 84651","precinct":"25PA03","hd":"65","v_score":"2.315214949","decile":"5","lat":40.040458032858,"lng":-111.743584279106},{"id":"37613","name":"Tishie Crooks DVM","party":"Rep","address":"356 N 230 W, Payson, UT 84651","precinct":"25PA03","hd":"65","v_score":"1.121327652","decile":"3","lat":40.047897364638,"lng":-111.73626329039},{"id":"37724","name":"Mercedes Bernhard","party":"","address":"176 W 300 S, Payson, UT 84651","precinct":"25PA03","hd":"65","v_score":"2.315214949","decile":"5","lat":40.039836328073,"lng":-111.734838602605},{"id":"38187","name":"Jerod Murphy","party":"","address":"524 W Utah Ave, Payson, UT 84651","precinct":"25PA03","hd":"65","v_score":"6.74007049","decile":"8","lat":40.043685757571,"lng":-111.740294067283},{"id":"38193","name":"Rudolf Frami","party":"","address":"221 S Majestic Meadows Dr, Payson, UT 84651","precinct":"25PA03","hd":"65","v_score":"16.2066738","decile":"9","lat":40.040790895668,"lng":-111.746340226901},{"id":"39545","name":"Colonel Schoen-Thompson","party":"","address":"342 N 400 W, Payson, UT 84651","precinct":"25PA03","hd":"65","v_score":"2.744440783","decile":"5","lat":40.047665262143,"lng":-111.73832784872},{"id":"39750","name":"Larue Mante","party":"Rep","address":"342 N 400 W, Payson, UT 84651","precinct":"25PA03","hd":"65","v_score":"2.315214949","decile":"5","lat":40.047665262143,"lng":-111.73832784872},{"id":"40020","name":"Mackenzie Douglas","party":"","address":"427 W 200 S, Payson, UT 84651","precinct":"25PA03","hd":"65","v_score":"5.273794831","decile":"7","lat":40.041458736757,"lng":-111.738369222828},{"id":"40329","name":"Dr. Valeria Ledner","party":"Dem","address":"175 W Utah Ave, Payson, UT 84651","precinct":"25PA03","hd":"65","v_score":"5.687348376","decile":"7","lat":40.043544283883,"lng":-111.73482172561},{"id":"40625","name":"Arkie Connelly","party":"","address":"351 W Utah Ave, Payson, UT 84651","precinct":"25PA03","hd":"65","v_score":"1.193887297","decile":"3","lat":40.043551321852,"lng":-111.736940808098},{"id":"40778","name":"Tatsuo Pfeffer","party":"Dem","address":"70 W 100 S, Payson, UT 84651","precinct":"25PA03","hd":"65","v_score":"6.798081861","decile":"8","lat":40.042581327645,"lng":-111.733350481585},{"id":"40880","name":"Alease Maggio","party":"Rep","address":"657 W Utah Ave, Payson, UT 84651","precinct":"25PA03","hd":"65","v_score":"2.817000428","decile":"6","lat":40.04358779084,"lng":-111.743204543958},{"id":"41374","name":"Julisa Gaylord","party":"Rep","address":"740 W 400 S, Payson, UT 84651","precinct":"25PA03","hd":"65","v_score":"5.40460374","decile":"7","lat":40.03834825906,"lng":-111.744488812978},{"id":"42452","name":"Dominique Roberts","party":"Dem","address":"196 W Utah Ave, Unit B, Payson, UT 84651","precinct":"25PA03","hd":"65","v_score":"0","decile":"1","lat":40.043660671163,"lng":-111.735094954394},{"id":"42453","name":"Danelle Cole-Bartell","party":"","address":"777 W 300 S, Payson, UT 84651","precinct":"25PA03","hd":"65","v_score":"6.550708384","decile":"7","lat":40.039757737462,"lng":-111.745120273981},{"id":"42590","name":"Dr. Phillip Ruecker Jr.","party":"","address":"450 W 300 S, Payson, UT 84651","precinct":"25PA03","hd":"65","v_score":"4.833280139","decile":"7","lat":40.039849912008,"lng":-111.738808559015},{"id":"42599","name":"Rigoberto Walter","party":"","address":"494 W 300 S, Payson, UT 84651","precinct":"25PA03","hd":"65","v_score":"12.56158634","decile":"9","lat":40.039853638865,"lng":-111.739606093455},{"id":"43194","name":"Jorge Walsh I","party":"Dem","address":"185 W Utah Ave, Payson, UT 84651","precinct":"25PA03","hd":"65","v_score":"0","decile":"1","lat":40.043545102107,"lng":-111.73494650328},{"id":"43379","name":"Marissa Hoeger","party":"Rep","address":"340 N 100 W, Payson, UT 84651","precinct":"25PA03","hd":"65","v_score":"0","decile":"1","lat":40.047631246997,"lng":-111.733722910125},{"id":"43435","name":"Brian Jaskolski","party":"","address":"58 S 300 W, Payson, UT 84651","precinct":"25PA03","hd":"65","v_score":"17.16640494","decile":"9","lat":40.042988831391,"lng":-111.736093731016},{"id":"43531","name":"Caylee Jenkins DDS","party":"","address":"346 W 300 N, Payson, UT 84651","precinct":"25PA03","hd":"65","v_score":"2.315214949","decile":"5","lat":40.047000327453,"lng":-111.737510811081},{"id":"43682","name":"Ty Champlin","party":"Dem","address":"522 W 400 S, Payson, UT 84651","precinct":"25PA03","hd":"65","v_score":"2.315214949","decile":"5","lat":40.038333328654,"lng":-111.740245493521},{"id":"44909","name":"Terell Stiedemann","party":"","address":"60 S 200 W, Payson, UT 84651","precinct":"25PA03","hd":"65","v_score":"6.657533174","decile":"7","lat":40.0429692745,"lng":-111.73527556683},{"id":"45131","name":"Aniya Brakus","party":"Rep","address":"251 S Majestic Meadows Dr, Payson, UT 84651","precinct":"25PA03","hd":"65","v_score":"1.193887297","decile":"3","lat":40.040332464967,"lng":-111.746574110612},{"id":"46584","name":"Vollie Bogan-Simonis","party":"Rep","address":"310 S 300 W, Payson, UT 84651","precinct":"25PA03","hd":"65","v_score":"0","decile":"1","lat":40.039579931237,"lng":-111.736097630864},{"id":"46924","name":"Cheryl Jakubowski","party":"Dem","address":"667 W Utah Ave, Payson, UT 84651","precinct":"25PA03","hd":"65","v_score":"0","decile":"1","lat":40.043588576981,"lng":-111.743295342449},{"id":"47183","name":"Mr. Arley Larkin","party":"","address":"559 W 300 N, Payson, UT 84651","precinct":"25PA03","hd":"65","v_score":"17.69897802","decile":"10","lat":40.046885736273,"lng":-111.740207055919},{"id":"47185","name":"Jannette Schumm-Roob","party":"","address":"451 N 150 W, Payson, UT 84651","precinct":"25PA03","hd":"65","v_score":"3.781490609","decile":"6","lat":40.049484078058,"lng":-111.73451571934},{"id":"47415","name":"Bird Nitzsche Sr.","party":"Rep","address":"630 W 200 S, Payson, UT 84651","precinct":"25PA03","hd":"65","v_score":"0","decile":"1","lat":40.041582328436,"lng":-111.742283590017},{"id":"47711","name":"Abner Becker-Simonis","party":"Dem","address":"350 S Main St, Payson, UT 84651","precinct":"25PA03","hd":"65","v_score":"5.546183193","decile":"7","lat":40.039018295158,"lng":-111.732354394255},{"id":"47712","name":"Mr. Issac Lehner I","party":"Dem","address":"432 S 800 W, Payson, UT 84651","precinct":"25PA03","hd":"65","v_score":"28.7696615","decile":"10","lat":40.038003040255,"lng":-111.745702355902},{"id":"47911","name":"Dr. Lavelle Boehm","party":"","address":"794 W 400 S, Payson, UT 84651","precinct":"25PA03","hd":"65","v_score":"1.46627566","decile":"4","lat":40.038366579568,"lng":-111.745484986442},{"id":"48350","name":"Torey Lakin","party":"Rep","address":"194 S 800 W, Payson, UT 84651","precinct":"25PA03","hd":"65","v_score":"0","decile":"1","lat":40.041467114136,"lng":-111.745677904881},{"id":"48604","name":"Amina Aufderhar","party":"","address":"20 S 700 W, Payson, UT 84651","precinct":"25PA03","hd":"65","v_score":"3.781490609","decile":"6","lat":40.043408854251,"lng":-111.743733737347},{"id":"49674","name":"Mrs. Valery Schultz DVM","party":"","address":"658 W 100 S, Payson, UT 84651","precinct":"25PA03","hd":"65","v_score":"2.315214949","decile":"5","lat":40.042617328358,"lng":-111.742824295607},{"id":"49715","name":"Dena Lind","party":"","address":"230 S 100 W, Bsmt, Payson, UT 84651","precinct":"25PA03","hd":"65","v_score":"1.623113131","decile":"5","lat":40.04094346157,"lng":-111.733908164561},{"id":"49941","name":"Miss Gwendolyn West","party":"","address":"139 N 400 W, Payson, UT 84651","precinct":"25PA03","hd":"65","v_score":"2.587603312","decile":"5","lat":40.045062695896,"lng":-111.738489554562},{"id":"50142","name":"Gay Hoppe","party":"","address":"557 W 200 N, Payson, UT 84651","precinct":"25PA03","hd":"65","v_score":"8.347511332","decile":"8","lat":40.045720837662,"lng":-111.741003584849},{"id":"50628","name":"Jude Morissette","party":"","address":"297 N Main St, Payson, UT 84651","precinct":"25PA03","hd":"65","v_score":"2.315214949","decile":"5","lat":40.046872278361,"lng":-111.732345234795},{"id":"50789","name":"Ryley Legros","party":"","address":"371 S 1000 W, Payson, UT 84651","precinct":"25PA03","hd":"65","v_score":"5.530510904","decile":"7","lat":40.037949325993,"lng":-111.749291361456},{"id":"51363","name":"Jean Emard","party":"Dem","address":"774 W 200 S, Payson, UT 84651","precinct":"25PA03","hd":"65","v_score":"2.587603312","decile":"5","lat":40.041582328648,"lng":-111.745088521281},{"id":"51410","name":"Hoyt Parker-Hansen","party":"","address":"697 W Utah Ave, Payson, UT 84651","precinct":"25PA03","hd":"65","v_score":"0","decile":"1","lat":40.043590935404,"lng":-111.743567737923},{"id":"51559","name":"Roslyn Abbott","party":"Dem","address":"794 W 400 S, Payson, UT 84651","precinct":"25PA03","hd":"65","v_score":"0","decile":"1","lat":40.038366579568,"lng":-111.745484986442},{"id":"51750","name":"Jorja Stehr-Bernier","party":"Dem","address":"114 S 600 W, Payson, UT 84651","precinct":"25PA03","hd":"65","v_score":"8.280646305","decile":"8","lat":40.04237220907,"lng":-111.741731822331},{"id":"51850","name":"Ashley O'Connell","party":"Rep","address":"289 W 200 S, Payson, UT 84651","precinct":"25PA03","hd":"65","v_score":"9.207031979","decile":"8","lat":40.041448162454,"lng":-111.735882263339},{"id":"51893","name":"Pearley Rowe","party":"","address":"226 S 800 W, Apt 4, Payson, UT 84651","precinct":"25PA03","hd":"65","v_score":"4.210716443","decile":"7","lat":40.04081379541,"lng":-111.745657140418},{"id":"52151","name":"Dr. Shayne Koch DVM","party":"Rep","address":"361 N 230 W, Payson, UT 84651","precinct":"25PA03","hd":"65","v_score":"5.273794831","decile":"7","lat":40.04791845716,"lng":-111.73641131268},{"id":"52311","name":"Mrs. Rene Torp","party":"Dem","address":"174 W Utah Ave, Bsmt, Payson, UT 84651","precinct":"25PA03","hd":"65","v_score":"2.587603312","decile":"5","lat":40.043658871071,"lng":-111.734820443521},{"id":"52333","name":"Kaleena Gutkowski","party":"","address":"848 W 450 S, Payson, UT 84651","precinct":"25PA03","hd":"65","v_score":"18.39620879","decile":"10","lat":40.037534575068,"lng":-111.746828069577},{"id":"52482","name":"Mackenzie Wiza","party":"","address":"848 W 450 S, Payson, UT 84651","precinct":"25PA03","hd":"65","v_score":"2.660162957","decile":"5","lat":40.037534575068,"lng":-111.746828069577},{"id":"53061","name":"Marcelino Kihn","party":"Dem","address":"226 S 500 W, Payson, UT 84651","precinct":"25PA03","hd":"65","v_score":"3.93832808","decile":"6","lat":40.041033055622,"lng":-111.739810728775},{"id":"53140","name":"Dr. Red O'Connell DVM","party":"","address":"360 W 100 N, Payson, UT 84651","precinct":"25PA03","hd":"65","v_score":"0","decile":"1","lat":40.044642327735,"lng":-111.737666290591},{"id":"53797","name":"Miss Vilma Jenkins PhD","party":"Rep","address":"64 W 100 N, Payson, UT 84651","precinct":"25PA03","hd":"65","v_score":"1.46627566","decile":"4","lat":40.044606327395,"lng":-111.733109216815},{"id":"54117","name":"Giancarlo Borer","party":"","address":"421 S 1000 W, Payson, UT 84651","precinct":"25PA03","hd":"65","v_score":"2.587603312","decile":"5","lat":40.037709290097,"lng":-111.74942247089},{"id":"54159","name":"Fabian Sawayn","party":"","address":"264 S 800 W, Payson, UT 84651","precinct":"25PA03","hd":"65","v_score":"3.781490609","decile":"6","lat":40.040317200702,"lng":-111.745663400079},{"id":"54225","name":"Archibald Dibbert","party":"","address":"235 N 100 W, Payson, UT 84651","precinct":"25PA03","hd":"65","v_score":"6.74007049","decile":"8","lat":40.046181979236,"lng":-111.733870734584},{"id":"54699","name":"Josie Jast","party":"Dem","address":"214 N 340 W, Payson, UT 84651","precinct":"25PA03","hd":"65","v_score":"0","decile":"1","lat":40.045330598562,"lng":-111.73707820052},{"id":"54712","name":"Payton Homenick","party":"Rep","address":"707 W 100 S, Payson, UT 84651","precinct":"25PA03","hd":"65","v_score":"5.429380732","decile":"7","lat":40.042503907042,"lng":-111.743828293276},{"id":"54974","name":"Loree Kuhlman","party":"","address":"333 S 100 W, Payson, UT 84651","precinct":"25PA03","hd":"65","v_score":"0","decile":"1","lat":40.039267985218,"lng":-111.733766143374},{"id":"55170","name":"Cory Heathcote","party":"","address":"75 N 600 W, Payson, UT 84651","precinct":"25PA03","hd":"65","v_score":"0","decile":"1","lat":40.044332624477,"lng":-111.742672386029},{"id":"55192","name":"Dr. Jane Mohr MD","party":"","address":"544 W 200 N, Payson, UT 84651","precinct":"25PA03","hd":"65","v_score":"0","decile":"1","lat":40.045834398188,"lng":-111.740743423677},{"id":"55725","name":"Tonia Gerhold PhD","party":"","address":"375 S 500 W, Payson, UT 84651","precinct":"25PA03","hd":"65","v_score":"5.243007221","decile":"7","lat":40.038677234861,"lng":-111.739692302751},{"id":"55866","name":"Mr. Tuan Schumm","party":"","address":"247 S 800 W, Payson, UT 84651","precinct":"25PA03","hd":"65","v_score":"0","decile":"1","lat":40.040664582405,"lng":-111.745509338565},{"id":"56222","name":"Fate Halvorson","party":"","address":"704 W Utah Ave, Payson, UT 84651","precinct":"25PA03","hd":"65","v_score":"1.121327652","decile":"3","lat":40.043706328304,"lng":-111.74376775359},{"id":"56239","name":"Mr. Del Stracke","party":"","address":"196 W Utah Ave, Apt B, Payson, UT 84651","precinct":"25PA03","hd":"65","v_score":"0","decile":"1","lat":40.043660671163,"lng":-111.735094954394},{"id":"56545","name":"Oral Purdy","party":"","address":"450 S 1000 W, Payson, UT 84651","precinct":"25PA03","hd":"65","v_score":"2.942907593","decile":"6","lat":40.037543712543,"lng":-111.749581475618},{"id":"56573","name":"Thurman Walker","party":"Rep","address":"205 S 800 W, Payson, UT 84651","precinct":"25PA03","hd":"65","v_score":"2.958579882","decile":"6","lat":40.041401562178,"lng":-111.745527280681},{"id":"57394","name":"Lou Mueller","party":"Rep","address":"396 S 1000 W, Payson, UT 84651","precinct":"25PA03","hd":"65","v_score":"1.193887297","decile":"3","lat":40.037882280409,"lng":-111.74953368652},{"id":"57533","name":"Jovita Erdman","party":"","address":"313 S 800 W, Payson, UT 84651","precinct":"25PA03","hd":"65","v_score":"12.42192378","decile":"9","lat":40.039586555722,"lng":-111.745526193093},{"id":"57637","name":"Londyn Gaylord","party":"Dem","address":"130 N 500 W, Payson, UT 84651","precinct":"25PA03","hd":"65","v_score":"0","decile":"1","lat":40.044970922318,"lng":-111.739643046055},{"id":"57656","name":"Yael Morar","party":"Rep","address":"345 N 100 W, Payson, UT 84651","precinct":"25PA03","hd":"65","v_score":"4.069929862","decile":"6","lat":40.047693185962,"lng":-111.733872772019},{"id":"57985","name":"Jennifer Moore-Hackett","party":"","address":"234 S 500 W, Payson, UT 84651","precinct":"25PA03","hd":"65","v_score":"1.121327652","decile":"3","lat":40.040902765486,"lng":-111.739811455806},{"id":"58155","name":"Tod Gorczany DVM","party":"","address":"346 S 500 W, Payson, UT 84651","precinct":"25PA03","hd":"65","v_score":"0","decile":"1","lat":40.039080105416,"lng":-111.739837213506},{"id":"58292","name":"Destin Bartoletti","party":"Dem","address":"51 N 100 W, Unit 203, Payson, UT 84651","precinct":"25PA03","hd":"65","v_score":"1.193887297","decile":"3","lat":40.04399512342,"lng":-111.733887574854},{"id":"58432","name":"Mrs. Joan Doyle MD","party":"Rep","address":"340 N 100 W, Payson, UT 84651","precinct":"25PA03","hd":"65","v_score":"0","decile":"1","lat":40.047631246997,"lng":-111.733722910125},{"id":"58651","name":"Marcello Treutel","party":"","address":"363 N Main St, Payson, UT 84651","precinct":"25PA03","hd":"65","v_score":"0","decile":"1","lat":40.047973236597,"lng":-111.732342430645},{"id":"58681","name":"Lauryn Effertz","party":"","address":"794 W 400 S, Payson, UT 84651","precinct":"25PA03","hd":"65","v_score":"0","decile":"1","lat":40.038366579568,"lng":-111.745484986442},{"id":"58797","name":"Maverick Block","party":"Rep","address":"248 S 300 W, Payson, UT 84651","precinct":"25PA03","hd":"65","v_score":"2.315214949","decile":"5","lat":40.040659495728,"lng":-111.73609822829},{"id":"59043","name":"Dr. Courtland Renner IV","party":"","address":"355 N 200 W, Payson, UT 84651","precinct":"25PA03","hd":"65","v_score":"1.193887297","decile":"3","lat":40.047800101104,"lng":-111.735248782208},{"id":"59707","name":"Mr. Arnoldo Kiehn IV","party":"","address":"360 W Utah Ave, Payson, UT 84651","precinct":"25PA03","hd":"65","v_score":"2.315214949","decile":"5","lat":40.043667890446,"lng":-111.737337733208},{"id":"59830","name":"John Tremblay PhD","party":"Rep","address":"547 W 200 N, Payson, UT 84651","precinct":"25PA03","hd":"65","v_score":"0","decile":"1","lat":40.04571997989,"lng":-111.74078743049},{"id":"60106","name":"Travis Glover","party":"Dem","address":"562 W 200 N, Payson, UT 84651","precinct":"25PA03","hd":"65","v_score":"0","decile":"1","lat":40.045835942177,"lng":-111.741132501524},{"id":"60145","name":"Shanda Vandervort","party":"Rep","address":"364 W 100 N, Payson, UT 84651","precinct":"25PA03","hd":"65","v_score":"1.121327652","decile":"3","lat":40.044642327741,"lng":-111.737737949093},{"id":"61046","name":"Dr. Brendan Koss DDS","party":"Dem","address":"207 W 100 S, Payson, UT 84651","precinct":"25PA03","hd":"65","v_score":"8.900396801","decile":"8","lat":40.042475736409,"lng":-111.735319934397},{"id":"61170","name":"Gwyn Stokes","party":"Dem","address":"328 W 300 N, Payson, UT 84651","precinct":"25PA03","hd":"65","v_score":"1.121327652","decile":"3","lat":40.047000327432,"lng":-111.737230692176},{"id":"61180","name":"Sharen Steuber","party":"Dem","address":"240 S Main St, Payson, UT 84651","precinct":"25PA03","hd":"65","v_score":"12.19895732","decile":"9","lat":40.040634263609,"lng":-111.732361004964},{"id":"62558","name":"Consuelo Morissette","party":"Dem","address":"208 S 800 W, Payson, UT 84651","precinct":"25PA03","hd":"65","v_score":"0","decile":"1","lat":40.041045897684,"lng":-111.745665176549},{"id":"62737","name":"Acie Schulist II","party":"","address":"351 W 200 S, Payson, UT 84651","precinct":"25PA03","hd":"65","v_score":"7.650280567","decile":"8","lat":40.041454322081,"lng":-111.736943013678},{"id":"62901","name":"Keshawn Schulist","party":"Dem","address":"64 W 100 N, Payson, UT 84651","precinct":"25PA03","hd":"65","v_score":"0","decile":"1","lat":40.044606327395,"lng":-111.733109216815},{"id":"62990","name":"Rachel Wolff","party":"","address":"314 N 100 W, Payson, UT 84651","precinct":"25PA03","hd":"65","v_score":"5.258122542","decile":"7","lat":40.047227077347,"lng":-111.733721799821},{"id":"62998","name":"Amirah Connelly","party":"Dem","address":"60 W Utah Ave, Apt B, Payson, UT 84651","precinct":"25PA03","hd":"65","v_score":"0","decile":"1","lat":40.043652327511,"lng":-111.733196329809},{"id":"63700","name":"Cora Hodkiewicz","party":"Dem","address":"176 W 300 S, Payson, UT 84651","precinct":"25PA03","hd":"65","v_score":"3.781490609","decile":"6","lat":40.039836328073,"lng":-111.734838602605},{"id":"64173","name":"Lowell Johns","party":"Dem","address":"94 N 500 W, Payson, UT 84651","precinct":"25PA03","hd":"65","v_score":"1.193887297","decile":"3","lat":40.044492181517,"lng":-111.739643480576},{"id":"64225","name":"Ishmael Douglas","party":"Dem","address":"544 W 200 N, Payson, UT 84651","precinct":"25PA03","hd":"65","v_score":"1.121327652","decile":"3","lat":40.045834398188,"lng":-111.740743423677},{"id":"64484","name":"Deeann Smitham","party":"Dem","address":"557 W 200 N, Payson, UT 84651","precinct":"25PA03","hd":"65","v_score":"2.315214949","decile":"5","lat":40.045720837662,"lng":-111.741003584849},{"id":"64659","name":"Ida Rutherford","party":"Dem","address":"571 W 100 S, Payson, UT 84651","precinct":"25PA03","hd":"65","v_score":"14.13332036","decile":"9","lat":40.042500016605,"lng":-111.741070986226},{"id":"65270","name":"Wyatt Rice-Beatty","party":"Dem","address":"362 N 200 W, Payson, UT 84651","precinct":"25PA03","hd":"65","v_score":"2.315214949","decile":"5","lat":40.047657161509,"lng":-111.735097409742},{"id":"65304","name":"Raynard Muller V","party":"Dem","address":"60 W Utah Ave, Apt B, Payson, UT 84651","precinct":"25PA03","hd":"65","v_score":"0","decile":"1","lat":40.043652327511,"lng":-111.733196329809},{"id":"65537","name":"Sheilah Langworth","party":"","address":"239 S 300 W, Payson, UT 84651","precinct":"25PA03","hd":"65","v_score":"0","decile":"1","lat":40.040824129229,"lng":-111.735948552609},{"id":"65618","name":"Chris Torphy-Gutmann","party":"Dem","address":"343 W 300 N, Payson, UT 84651","precinct":"25PA03","hd":"65","v_score":"0","decile":"1","lat":40.046885736064,"lng":-111.73744856245},{"id":"65658","name":"Olevia Christiansen PhD","party":"","address":"145 W 200 S, Payson, UT 84651","precinct":"25PA03","hd":"65","v_score":"3.93832808","decile":"6","lat":40.041435829099,"lng":-111.734460429236},{"id":"65839","name":"Dr. Paulina Aufderhar DDS","party":"Dem","address":"250 S 300 W, Payson, UT 84651","precinct":"25PA03","hd":"65","v_score":"9.757278238","decile":"8","lat":40.040626569026,"lng":-111.736098228295},{"id":"66552","name":"Ty Krajcik","party":"","address":"176 N 600 W, Payson, UT 84651","precinct":"25PA03","hd":"65","v_score":"5.191257514","decile":"7","lat":40.045478385896,"lng":-111.742168726486},{"id":"66580","name":"Alessandro Hartmann","party":"Dem","address":"390 S 600 W, Payson, UT 84651","precinct":"25PA03","hd":"65","v_score":"1.121327652","decile":"3","lat":40.038449735154,"lng":-111.741772218061},{"id":"67028","name":"Zayne Hirthe","party":"Dem","address":"142 N 500 W, Payson, UT 84651","precinct":"25PA03","hd":"65","v_score":"8.284004873","decile":"8","lat":40.045102360091,"lng":-111.739643046038},{"id":"67331","name":"Norris Denesik","party":"Rep","address":"557 W 200 N, Payson, UT 84651","precinct":"25PA03","hd":"65","v_score":"3.93832808","decile":"6","lat":40.045720837662,"lng":-111.741003584849},{"id":"67407","name":"Marcus Kuphal","party":"Rep","address":"562 W 200 N, Payson, UT 84651","precinct":"25PA03","hd":"65","v_score":"0","decile":"1","lat":40.045835942177,"lng":-111.741132501524},{"id":"67544","name":"Ms. Rettie Bernhard","party":"Dem","address":"210 S 650 W, Payson, UT 84651","precinct":"25PA03","hd":"65","v_score":"0","decile":"1","lat":40.041407065462,"lng":-111.74272069166},{"id":"67898","name":"Abner Fadel","party":"","address":"588 W Utah Ave, Apt B, Payson, UT 84651","precinct":"25PA03","hd":"65","v_score":"2.315214949","decile":"5","lat":40.043697328179,"lng":-111.742104656052},{"id":"68147","name":"Ovila Bogan-Dietrich","party":"","address":"333 W 300 N, Payson, UT 84651","precinct":"25PA03","hd":"65","v_score":"1.193887297","decile":"3","lat":40.046885736053,"lng":-111.737292940836},{"id":"68295","name":"Gracie Bauch-Kulas","party":"Rep","address":"386 S 500 W, Payson, UT 84651","precinct":"25PA03","hd":"65","v_score":"0","decile":"1","lat":40.038506059235,"lng":-111.739844007025},{"id":"68435","name":"Mrs. Amy Auer","party":"Rep","address":"114 S 600 W, Payson, UT 84651","precinct":"25PA03","hd":"65","v_score":"5.191257514","decile":"7","lat":40.04237220907,"lng":-111.741731822331},{"id":"68549","name":"Amparo Tillman-Robel","party":"","address":"375 S 500 W, Payson, UT 84651","precinct":"25PA03","hd":"65","v_score":"6.364334873","decile":"7","lat":40.038677234861,"lng":-111.739692302751},{"id":"68684","name":"Ardell Herzog DVM","party":"","address":"70 W 400 S, Payson, UT 84651","precinct":"25PA03","hd":"65","v_score":"0","decile":"1","lat":40.038333328134,"lng":-111.733363272049},{"id":"68758","name":"Dr. Irl Kuhlman Sr.","party":"","address":"179 N 200 W, Apt 3, Payson, UT 84651","precinct":"25PA03","hd":"65","v_score":"11.32921679","decile":"9","lat":40.045470005936,"lng":-111.735258825454},{"id":"68913","name":"Octavia Eichmann","party":"Dem","address":"682 W 100 S, Payson, UT 84651","precinct":"25PA03","hd":"65","v_score":"1.121327652","decile":"3","lat":40.042617328392,"lng":-111.743278046912},{"id":"68983","name":"Marisol Champlin","party":"","address":"522 W 200 N, Payson, UT 84651","precinct":"25PA03","hd":"65","v_score":"2.315214949","decile":"5","lat":40.04583251109,"lng":-111.740267884087},{"id":"69053","name":"Art Fadel-Gibson","party":"Dem","address":"216 W 370 N, Payson, UT 84651","precinct":"25PA03","hd":"65","v_score":"1.193887297","decile":"3","lat":40.048154391195,"lng":-111.735406056514},{"id":"69764","name":"Thornton Ward Sr.","party":"","address":"397 S 100 W, Payson, UT 84651","precinct":"25PA03","hd":"65","v_score":"5.191257514","decile":"7","lat":40.038361267731,"lng":-111.733774287659},{"id":"70128","name":"Danika Treutel DDS","party":"Dem","address":"349 W Utah Ave, Payson, UT 84651","precinct":"25PA03","hd":"65","v_score":"1.121327652","decile":"3","lat":40.043551153374,"lng":-111.736906944451},{"id":"70455","name":"Mr. Hardin Kemmer","party":"Dem","address":"432 S 800 W, Payson, UT 84651","precinct":"25PA03","hd":"65","v_score":"2.315214949","decile":"5","lat":40.038003040255,"lng":-111.745702355902},{"id":"71123","name":"Edd Moore V","party":"Rep","address":"252 N 100 W, Payson, UT 84651","precinct":"25PA03","hd":"65","v_score":"1.193887297","decile":"3","lat":40.046382442006,"lng":-111.733721045798},{"id":"71662","name":"Mr. Maximillian Nikolaus Jr.","party":"","address":"150 W 400 S, Payson, UT 84651","precinct":"25PA03","hd":"65","v_score":"1.193887297","decile":"3","lat":40.038333328215,"lng":-111.73443465849},{"id":"72023","name":"Hiroshi Little","party":"","address":"229 S Majestic Meadows Dr, Payson, UT 84651","precinct":"25PA03","hd":"65","v_score":"3.93832808","decile":"6","lat":40.040599988247,"lng":-111.746340226926},{"id":"72302","name":"Riley Kassulke DDS","party":"","address":"270 S 100 W, Payson, UT 84651","precinct":"25PA03","hd":"65","v_score":"5.335402662","decile":"7","lat":40.040292274365,"lng":-111.733909878295},{"id":"72965","name":"Ilah Upton-Huels","party":"","address":"362 S 900 W, Payson, UT 84651","precinct":"25PA03","hd":"65","v_score":"9.35760564","decile":"8","lat":40.037977418095,"lng":-111.748045900934},{"id":"73372","name":"Meghann Stracke-Balistreri","party":"Dem","address":"349 W Utah Ave, Payson, UT 84651","precinct":"25PA03","hd":"65","v_score":"2.315214949","decile":"5","lat":40.043551153374,"lng":-111.736906944451},{"id":"73650","name":"Cherryl Donnelly","party":"Rep","address":"346 S 500 W, Payson, UT 84651","precinct":"25PA03","hd":"65","v_score":"0","decile":"1","lat":40.039080105416,"lng":-111.739837213506},{"id":"73769","name":"Dorthea Thompson-Mosciski","party":"Dem","address":"750 W 200 S, Payson, UT 84651","precinct":"25PA03","hd":"65","v_score":"1.193887297","decile":"3","lat":40.041582328614,"lng":-111.744647993907},{"id":"73895","name":"Stetson Swaniawski","party":"","address":"341 N Main St, Payson, UT 84651","precinct":"25PA03","hd":"65","v_score":"4.424855541","decile":"7","lat":40.047631246893,"lng":-111.732343370221},{"id":"74341","name":"Johnnie Kunze","party":"Rep","address":"196 W 300 S, Payson, UT 84651","precinct":"25PA03","hd":"65","v_score":"5.331806201","decile":"7","lat":40.039836328091,"lng":-111.735082648333},{"id":"74863","name":"Amie Jones-Gerhold","party":"","address":"51 N 100 W, Unit 203, Payson, UT 84651","precinct":"25PA03","hd":"65","v_score":"1.193887297","decile":"3","lat":40.04399512342,"lng":-111.733887574854},{"id":"74908","name":"Chip Brekke-Bode","party":"","address":"362 N 200 W, Payson, UT 84651","precinct":"25PA03","hd":"65","v_score":"1.121327652","decile":"3","lat":40.047657161509,"lng":-111.735097409742},{"id":"75281","name":"Mrs. Lannie Thiel","party":"","address":"208 S 700 W, Payson, UT 84651","precinct":"25PA03","hd":"65","v_score":"3.93832808","decile":"6","lat":40.041337497974,"lng":-111.743730227903},{"id":"77438","name":"Lillian Nicolas","party":"Rep","address":"235 Majestic Meadows Dr, Payson, UT 84651","precinct":"25PA03","hd":"65","v_score":"3.93832808","decile":"6","lat":40.040456807681,"lng":-111.746340226944},{"id":"77495","name":"Mrs. Milagros McCullough","party":"Dem","address":"391 N 100 W, Payson, UT 84651","precinct":"25PA03","hd":"65","v_score":"2.315214949","decile":"5","lat":40.048408255343,"lng":-111.733874736403},{"id":"77751","name":"Davian Muller-Fadel","party":"","address":"411 W 300 S, Payson, UT 84651","precinct":"25PA03","hd":"65","v_score":"0","decile":"1","lat":40.039731934699,"lng":-111.738084441263},{"id":"77786","name":"Iverson Boehm","party":"","address":"80 S Main St, Payson, UT 84651","precinct":"25PA03","hd":"65","v_score":"0","decile":"1","lat":40.042753706458,"lng":-111.73236124435},{"id":"77846","name":"Helen Haag","party":"Rep","address":"794 W 400 S, Payson, UT 84651","precinct":"25PA03","hd":"65","v_score":"0","decile":"1","lat":40.038366579568,"lng":-111.745484986442},{"id":"77951","name":"Reese Lynch","party":"Dem","address":"547 W 100 N, Payson, UT 84651","precinct":"25PA03","hd":"65","v_score":"0","decile":"1","lat":40.044531975939,"lng":-111.741070389851},{"id":"78044","name":"Dr. Lavon Bernier IV","party":"","address":"296 W 100 S, Payson, UT 84651","precinct":"25PA03","hd":"65","v_score":"2.315214949","decile":"5","lat":40.042590327839,"lng":-111.735930481644},{"id":"78283","name":"Harve Schroeder","party":"Dem","address":"630 W 200 S, Payson, UT 84651","precinct":"25PA03","hd":"65","v_score":"1.193887297","decile":"3","lat":40.041582328436,"lng":-111.742283590017},{"id":"78455","name":"Beaulah Schumm","party":"Rep","address":"526 W 100 N, Payson, UT 84651","precinct":"25PA03","hd":"65","v_score":"2.315214949","decile":"5","lat":40.044644825355,"lng":-111.740514406601},{"id":"78741","name":"Leitha Bednar","party":"Dem","address":"49 N 500 W, Payson, UT 84651","precinct":"25PA03","hd":"65","v_score":"3.93832808","decile":"6","lat":40.044095079988,"lng":-111.739795021296},{"id":"78780","name":"Dr. Wallace West II","party":"Rep","address":"344 N 400 W, Payson, UT 84651","precinct":"25PA03","hd":"65","v_score":"0","decile":"1","lat":40.047696903212,"lng":-111.738328190782},{"id":"78786","name":"Rufus Tillman","party":"","address":"547 W 200 N, Payson, UT 84651","precinct":"25PA03","hd":"65","v_score":"2.744440783","decile":"5","lat":40.04571997989,"lng":-111.74078743049},{"id":"78865","name":"Cory Goodwin","party":"Dem","address":"297 N Main St, Payson, UT 84651","precinct":"25PA03","hd":"65","v_score":"2.315214949","decile":"5","lat":40.046872278361,"lng":-111.732345234795},{"id":"79249","name":"Dezzie Conn","party":"Dem","address":"253 S Majestic Meadows Dr, Payson, UT 84651","precinct":"25PA03","hd":"65","v_score":"1.121327652","decile":"3","lat":40.04033346219,"lng":-111.746636436776},{"id":"79805","name":"Ula Hand","party":"Dem","address":"362 N 200 W, Payson, UT 84651","precinct":"25PA03","hd":"65","v_score":"2.315214949","decile":"5","lat":40.047657161509,"lng":-111.735097409742},{"id":"80225","name":"Wing O'Hara","party":"","address":"343 S 400 W, Payson, UT 84651","precinct":"25PA03","hd":"65","v_score":"2.315214949","decile":"5","lat":40.039131847576,"lng":-111.73775305411},{"id":"80259","name":"Margarita Becker DDS","party":"","address":"316 S 500 W, Payson, UT 84651","precinct":"25PA03","hd":"65","v_score":"2.315214949","decile":"5","lat":40.039510640051,"lng":-111.739832118367},{"id":"80431","name":"Mrs. Kandice Bednar","party":"","address":"714 W 200 S, Payson, UT 84651","precinct":"25PA03","hd":"65","v_score":"2.315214949","decile":"5","lat":40.041582328565,"lng":-111.743987202845},{"id":"80766","name":"Adam Parker","party":"","address":"687 W 200 S, Payson, UT 84651","precinct":"25PA03","hd":"65","v_score":"2.744440783","decile":"5","lat":40.041467737142,"lng":-111.7434748976},{"id":"81049","name":"Brian Lockman-Lubowitz","party":"Dem","address":"687 W 200 S, Payson, UT 84651","precinct":"25PA03","hd":"65","v_score":"0","decile":"1","lat":40.041467737142,"lng":-111.7434748976},{"id":"81144","name":"Bryan Kuphal-Cronin","party":"Dem","address":"390 S 600 W, Payson, UT 84651","precinct":"25PA03","hd":"65","v_score":"0","decile":"1","lat":40.038449735154,"lng":-111.741772218061},{"id":"81265","name":"Alvis Flatley","party":"Dem","address":"97 W 200 S, Payson, UT 84651","precinct":"25PA03","hd":"65","v_score":"0","decile":"1","lat":40.04143113462,"lng":-111.733729271376},{"id":"81516","name":"Ms. Kali Conroy","party":"Rep","address":"320 W Utah Ave, Payson, UT 84651","precinct":"25PA03","hd":"65","v_score":"0","decile":"1","lat":40.043663762724,"lng":-111.736508073845},{"id":"82465","name":"Clevie Rice-D'Amore","party":"Dem","address":"194 W 300 N, Payson, UT 84651","precinct":"25PA03","hd":"65","v_score":"0","decile":"1","lat":40.047001144686,"lng":-111.735039963},{"id":"82909","name":"Gisele Walter","party":"","address":"136 N 340 W, Payson, UT 84651","precinct":"25PA03","hd":"65","v_score":"0","decile":"1","lat":40.044857654378,"lng":-111.73706986267},{"id":"83522","name":"Reagan Brakus","party":"Dem","address":"226 S 800 W, Payson, UT 84651","precinct":"25PA03","hd":"65","v_score":"1.193887297","decile":"3","lat":40.04081379541,"lng":-111.745657140418},{"id":"84045","name":"Sadie Cormier","party":"Rep","address":"532 W 100 N, Payson, UT 84651","precinct":"25PA03","hd":"65","v_score":"0","decile":"1","lat":40.044645347659,"lng":-111.74068101769},{"id":"84197","name":"Miss Nannie Stamm","party":"","address":"234 S 500 W, Payson, UT 84651","precinct":"25PA03","hd":"65","v_score":"1.193887297","decile":"3","lat":40.040902765486,"lng":-111.739811455806},{"id":"84900","name":"Dr. Ricky Stroman","party":"Rep","address":"193 S 300 W, Payson, UT 84651","precinct":"25PA03","hd":"65","v_score":"2.817000428","decile":"6","lat":40.041619935809,"lng":-111.735948054998},{"id":"85216","name":"Timmie Hoeger","party":"","address":"239 Majestic Meadows Dr, Payson, UT 84651","precinct":"25PA03","hd":"65","v_score":"6.528952915","decile":"7","lat":40.040363839917,"lng":-111.746343305266},{"id":"85655","name":"Ilona Legros","party":"Rep","address":"794 W 400 S, Payson, UT 84651","precinct":"25PA03","hd":"65","v_score":"0","decile":"1","lat":40.038366579568,"lng":-111.745484986442},{"id":"86684","name":"Lilianna Grady DVM","party":"","address":"144 N 400 W, Payson, UT 84651","precinct":"25PA03","hd":"65","v_score":"0","decile":"1","lat":40.045127647175,"lng":-111.738338881713},{"id":"86961","name":"Rexford Hoeger","party":"Rep","address":"20 S 100 W, 202, Payson, UT 84651","precinct":"25PA03","hd":"65","v_score":"0","decile":"1","lat":40.043358491987,"lng":-111.733906731401},{"id":"87595","name":"Zackary Kilback","party":"","address":"275 W 300 N, Payson, UT 84651","precinct":"25PA03","hd":"65","v_score":"0","decile":"1","lat":40.046885735984,"lng":-111.736390335475},{"id":"88542","name":"Danyel Von","party":"Dem","address":"351 W Utah Ave, Payson, UT 84651","precinct":"25PA03","hd":"65","v_score":"0","decile":"1","lat":40.043551321852,"lng":-111.736940808098},{"id":"89073","name":"Gorge Morissette","party":"","address":"192 S 500 W, Payson, UT 84651","precinct":"25PA03","hd":"65","v_score":"0","decile":"1","lat":40.041630060097,"lng":-111.739809739435},{"id":"89999","name":"Dax Gutkowski","party":"Rep","address":"434 W 400 S, Payson, UT 84651","precinct":"25PA03","hd":"65","v_score":"1.193887297","decile":"4","lat":40.038333328524,"lng":-111.738525248271},{"id":"90052","name":"Shelba Bauch","party":"","address":"596 W 200 S, Payson, UT 84651","precinct":"25PA03","hd":"65","v_score":"0","decile":"1","lat":40.041581810556,"lng":-111.741563570219},{"id":"90395","name":"Pete Flatley","party":"","address":"452 W 400 S, Payson, UT 84651","precinct":"25PA03","hd":"65","v_score":"0","decile":"1","lat":40.038333328549,"lng":-111.738854818581},{"id":"92102","name":"Ms. Addison Koepp","party":"Rep","address":"388 S 1000 W, Payson, UT 84651","precinct":"25PA03","hd":"65","v_score":"0","decile":"1","lat":40.037940207215,"lng":-111.749489965253},{"id":"92807","name":"Renaldo Schumm","party":"","address":"60 S 200 W, Payson, UT 84651","precinct":"25PA03","hd":"65","v_score":"4.069929862","decile":"6","lat":40.0429692745,"lng":-111.73527556683},{"id":"92895","name":"Miss Flossie Windler","party":"","address":"209 S 600 W, Payson, UT 84651","precinct":"25PA03","hd":"65","v_score":"0","decile":"1","lat":40.04133653755,"lng":-111.741604759193},{"id":"93002","name":"Jaylene Marks","party":"Rep","address":"249 Majestic Meadows Dr, Payson, UT 84651","precinct":"25PA03","hd":"65","v_score":"0","decile":"1","lat":40.040331467743,"lng":-111.746511784448},{"id":"93324","name":"Flem Bartoletti-VonRueden","party":"Dem","address":"742 W 400 S, Payson, UT 84651","precinct":"25PA03","hd":"65","v_score":"0","decile":"1","lat":40.038348937597,"lng":-111.744525708291},{"id":"93371","name":"Brianna Wilderman","party":"Dem","address":"526 W 100 N, Payson, UT 84651","precinct":"25PA03","hd":"65","v_score":"1.193887297","decile":"4","lat":40.044644825355,"lng":-111.740514406601},{"id":"93614","name":"Alex Nicolas-Lakin","party":"Rep","address":"257 S 200 W, Payson, UT 84651","precinct":"25PA03","hd":"65","v_score":"0","decile":"1","lat":40.040525210004,"lng":-111.735129816418},{"id":"94570","name":"Saige Friesen","party":"Rep","address":"526 W 100 N, Payson, UT 84651","precinct":"25PA03","hd":"65","v_score":"1.193887297","decile":"4","lat":40.044644825355,"lng":-111.740514406601},{"id":"96195","name":"Ms. Imelda Cummerata","party":"Rep","address":"284 S 900 W, Payson, UT 84651","precinct":"25PA03","hd":"65","v_score":"0","decile":"1","lat":40.038856979284,"lng":-111.747689066834},{"id":"96328","name":"Arlan Bahringer","party":"","address":"31 N 500 W, Payson, UT 84651","precinct":"25PA03","hd":"65","v_score":"2.817000428","decile":"6","lat":40.04393924972,"lng":-111.739795749494},{"id":"97164","name":"Jada Yundt","party":"","address":"550 W Utah Ave, Payson, UT 84651","precinct":"25PA03","hd":"65","v_score":"1.193887297","decile":"4","lat":40.043691818708,"lng":-111.740833504762},{"id":"98133","name":"Rhona Barton","party":"","address":"327 N 100 W, Payson, UT 84651","precinct":"25PA03","hd":"65","v_score":"1.623113131","decile":"5","lat":40.047413376204,"lng":-111.733872003347},{"id":"98817","name":"Mr. Wells Kling DVM","party":"Rep","address":"144 N 400 W, Payson, UT 84651","precinct":"25PA03","hd":"65","v_score":"0","decile":"1","lat":40.045127647175,"lng":-111.738338881713},{"id":"98902","name":"Eldred Murphy","party":"Dem","address":"737 W Utah Ave, Payson, UT 84651","precinct":"25PA03","hd":"65","v_score":"0","decile":"1","lat":40.04359173694,"lng":-111.744031937509},{"id":"99379","name":"Shirley Johns","party":"","address":"363 N Main St, Payson, UT 84651","precinct":"25PA03","hd":"65","v_score":"1.193887297","decile":"4","lat":40.047973236597,"lng":-111.732342430645},{"id":"99654","name":"Windy Denesik MD","party":"","address":"240 S Main St, Payson, UT 84651","precinct":"25PA03","hd":"65","v_score":"2.426006793","decile":"5","lat":40.040634263609,"lng":-111.732361004964},{"id":"100068","name":"Dr. Terrie Fahey","party":"","address":"502 W 200 N, Unit B, Payson, UT 84651","precinct":"25PA03","hd":"65","v_score":"1.193887297","decile":"4","lat":40.045830795546,"lng":-111.739835575368},{"id":"100342","name":"Kimberly Heaney","party":"Dem","address":"247 Majestic Meadows Dr, Payson, UT 84651","precinct":"25PA03","hd":"65","v_score":"0","decile":"1","lat":40.040333845375,"lng":-111.746456000067},{"id":"100584","name":"Clovis Mosciski","party":"","address":"247 Majestic Meadows Dr, Payson, UT 84651","precinct":"25PA03","hd":"65","v_score":"1.193887297","decile":"4","lat":40.040333845375,"lng":-111.746456000067},{"id":"100839","name":"Dr. Rafe Dicki","party":"Dem","address":"309 N 400 W, Payson, UT 84651","precinct":"25PA03","hd":"65","v_score":"0","decile":"2","lat":40.047126415682,"lng":-111.738471719937},{"id":"100875","name":"Dorris O'Hara","party":"Dem","address":"323 N 400 W, Payson, UT 84651","precinct":"25PA03","hd":"65","v_score":"1.193887297","decile":"4","lat":40.047347903161,"lng":-111.738474114368},{"id":"100986","name":"Godfrey Murazik","party":"Rep","address":"445 S 1000 W, Payson, UT 84651","precinct":"25PA03","hd":"65","v_score":"0","decile":"2","lat":40.03756319244,"lng":-111.749430587445},{"id":"101199","name":"Gilford Bauch","party":"Rep","address":"373 S 400 W, Payson, UT 84651","precinct":"25PA03","hd":"65","v_score":"0","decile":"2","lat":40.038704069481,"lng":-111.737753054165},{"id":"101201","name":"Hermon Swift","party":"Rep","address":"550 W 100 N, Apt 1, Payson, UT 84651","precinct":"25PA03","hd":"65","v_score":"0","decile":"2","lat":40.044646914573,"lng":-111.741180850956},{"id":"101290","name":"Heaven Rohan","party":"Dem","address":"365 W 400 N, Payson, UT 84651","precinct":"25PA03","hd":"65","v_score":"4.905839784","decile":"7","lat":40.048546824368,"lng":-111.738004600498},{"id":"101421","name":"Franco Dare-Gulgowski","party":"Dem","address":"169 W 400 N, Payson, UT 84651","precinct":"25PA03","hd":"65","v_score":"0","decile":"2","lat":40.048556621082,"lng":-111.734895955571},{"id":"101894","name":"Guthrie Hintz","party":"Rep","address":"742 W 400 S, Payson, UT 84651","precinct":"25PA03","hd":"65","v_score":"0","decile":"2","lat":40.038348937597,"lng":-111.744525708291},{"id":"102956","name":"Shanice Murray","party":"","address":"341 N 200 W, Payson, UT 84651","precinct":"25PA03","hd":"65","v_score":"1.193887297","decile":"4","lat":40.047592618485,"lng":-111.735246350798},{"id":"103177","name":"Ms. Carina Stroman","party":"Dem","address":"391 N 100 W, Payson, UT 84651","precinct":"25PA03","hd":"65","v_score":"1.193887297","decile":"4","lat":40.048408255343,"lng":-111.733874736403},{"id":"104107","name":"Williemae Leuschke","party":"","address":"391 S 400 W, Payson, UT 84651","precinct":"25PA03","hd":"65","v_score":"0","decile":"2","lat":40.038447402624,"lng":-111.737753054198},{"id":"104254","name":"Ms. Christine Wunsch MD","party":"","address":"192 N 100 W, Payson, UT 84651","precinct":"25PA03","hd":"65","v_score":"4.905839784","decile":"7","lat":40.045622466013,"lng":-111.73372104721},{"id":"104350","name":"Dr. Harmon Fay","party":"","address":"591 W 100 N, Payson, UT 84651","precinct":"25PA03","hd":"65","v_score":"0","decile":"2","lat":40.044535806172,"lng":-111.742292204503},{"id":"104383","name":"Leonore Christiansen-Shanahan","party":"Dem","address":"557 W 200 N, Payson, UT 84651","precinct":"25PA03","hd":"65","v_score":"1.193887297","decile":"4","lat":40.045720837662,"lng":-111.741003584849},{"id":"104566","name":"Mrs. Corine Kirlin","party":"Dem","address":"351 W 200 S, Payson, UT 84651","precinct":"25PA03","hd":"65","v_score":"0","decile":"2","lat":40.041454322081,"lng":-111.736943013678},{"id":"105780","name":"Moira Harris","party":"Dem","address":"641 W 100 S, Payson, UT 84651","precinct":"25PA03","hd":"65","v_score":"0","decile":"2","lat":40.042502736948,"lng":-111.742483982142},{"id":"106275","name":"Ashtyn Mosciski","party":"","address":"333 W 300 N, Payson, UT 84651","precinct":"25PA03","hd":"65","v_score":"7.090117576","decile":"8","lat":40.046885736053,"lng":-111.737292940836},{"id":"106631","name":"Ms. Vinie Cartwright DDS","party":"Dem","address":"62 W 300 N, Payson, UT 84651","precinct":"25PA03","hd":"65","v_score":"0","decile":"2","lat":40.047009327126,"lng":-111.733205116288},{"id":"106897","name":"Dr. Furman Durgan I","party":"Rep","address":"374 W 100 N, Payson, UT 84651","precinct":"25PA03","hd":"65","v_score":"0","decile":"2","lat":40.044642327754,"lng":-111.737917095348},{"id":"107278","name":"Dr. Virge Olson","party":"Rep","address":"238 S 600 W, Payson, UT 84651","precinct":"25PA03","hd":"65","v_score":"1.193887297","decile":"4","lat":40.04084934007,"lng":-111.74176402302},{"id":"108162","name":"Walter Miller","party":"Dem","address":"214 S 650 W, Payson, UT 84651","precinct":"25PA03","hd":"65","v_score":"1.193887297","decile":"4","lat":40.041382354053,"lng":-111.742721309448},{"id":"108311","name":"Dollye Gusikowski","party":"Dem","address":"527 W 100 S, Payson, UT 84651","precinct":"25PA03","hd":"65","v_score":"1.193887297","decile":"4","lat":40.042496289761,"lng":-111.740273454509},{"id":"108565","name":"Mr. Alan Wiegand Jr.","party":"","address":"463 W 100 N, Payson, UT 84651","precinct":"25PA03","hd":"65","v_score":"1.193887297","decile":"4","lat":40.044527736469,"lng":-111.739221951346},{"id":"108836","name":"Bronson Boyer IV","party":"","address":"43 W 300 N, Payson, UT 84651","precinct":"25PA03","hd":"65","v_score":"0","decile":"2","lat":40.046894735722,"lng":-111.732934868247},{"id":"109015","name":"Peyton Smitham","party":"Dem","address":"352 W 300 S, Payson, UT 84651","precinct":"25PA03","hd":"65","v_score":"0","decile":"2","lat":40.03984107968,"lng":-111.736975810831},{"id":"109028","name":"Lem Borer-Beahan","party":"Rep","address":"432 S 800 W, Payson, UT 84651","precinct":"25PA03","hd":"65","v_score":"10.71001167","decile":"9","lat":40.038003040255,"lng":-111.745702355902},{"id":"109033","name":"Christophe Stanton","party":"Dem","address":"643 W 300 S, Payson, UT 84651","precinct":"25PA03","hd":"65","v_score":"1.193887297","decile":"4","lat":40.039757737268,"lng":-111.742548794667},{"id":"109160","name":"Dr. Edrie Keeling DVM","party":"Dem","address":"346 S 500 W, Payson, UT 84651","precinct":"25PA03","hd":"65","v_score":"0","decile":"2","lat":40.039080105416,"lng":-111.739837213506},{"id":"109170","name":"Mr. Frazier Borer IV","party":"Rep","address":"134 W 400 S, Payson, UT 84651","precinct":"25PA03","hd":"65","v_score":"4.069929862","decile":"7","lat":40.038333328202,"lng":-111.734271480534},{"id":"110306","name":"Zora Pfannerstill","party":"Dem","address":"441 W 100 S, Payson, UT 84651","precinct":"25PA03","hd":"65","v_score":"0","decile":"2","lat":40.042488476368,"lng":-111.738617201066},{"id":"110376","name":"Mr. Cordero Pouros","party":"Dem","address":"300 W Utah Ave, # B, Payson, UT 84651","precinct":"25PA03","hd":"65","v_score":"0","decile":"2","lat":40.043661698863,"lng":-111.736093244163},{"id":"110614","name":"Vashti Wunsch MD","party":"Dem","address":"431 S 1000 W, Payson, UT 84651","precinct":"25PA03","hd":"65","v_score":"0","decile":"2","lat":40.037648416073,"lng":-111.749425852788},{"id":"111156","name":"Maxine Schroeder","party":"Rep","address":"235 S 600 W, Payson, UT 84651","precinct":"25PA03","hd":"65","v_score":"0","decile":"2","lat":40.040914105661,"lng":-111.741614083273},{"id":"111191","name":"Mcarthur Hirthe","party":"Dem","address":"785 W 100 S, Payson, UT 84651","precinct":"25PA03","hd":"65","v_score":"0","decile":"2","lat":40.042511737144,"lng":-111.745093885573},{"id":"111379","name":"Mr. Merton Luettgen","party":"","address":"451 N 150 W, Payson, UT 84651","precinct":"25PA03","hd":"65","v_score":"0","decile":"2","lat":40.049484078058,"lng":-111.73451571934},{"id":"111794","name":"Thor D'Amore","party":"Rep","address":"254 S 500 W, Payson, UT 84651","precinct":"25PA03","hd":"65","v_score":"0","decile":"2","lat":40.040575341802,"lng":-111.739816571842},{"id":"112163","name":"Gaylon Stamm MD","party":"","address":"372 S 1000 W, Payson, UT 84651","precinct":"25PA03","hd":"65","v_score":"1.193887297","decile":"4","lat":40.038017310724,"lng":-111.749411949364},{"id":"112399","name":"Branden Eichmann","party":"Rep","address":"370 S 400 W, Payson, UT 84651","precinct":"25PA03","hd":"65","v_score":"1.193887297","decile":"4","lat":40.038732588032,"lng":-111.737902726522},{"id":"113020","name":"Mr. Greg Nikolaus","party":"","address":"380 W 400 S, Payson, UT 84651","precinct":"25PA03","hd":"65","v_score":"0","decile":"2","lat":40.038333328443,"lng":-111.737448279815},{"id":"113126","name":"Rosemary Watsica","party":"Rep","address":"363 S 900 W, Payson, UT 84651","precinct":"25PA03","hd":"65","v_score":"1.193887297","decile":"4","lat":40.038556920058,"lng":-111.747660035778},{"id":"113576","name":"Dr. Edwin Heidenreich","party":"Rep","address":"242 S 200 W, Payson, UT 84651","precinct":"25PA03","hd":"65","v_score":"0","decile":"2","lat":40.040751718114,"lng":-111.73528644922},{"id":"114798","name":"Dillie Gerhold-Homenick","party":"Dem","address":"202 N 340 W, Payson, UT 84651","precinct":"25PA03","hd":"65","v_score":"1.193887297","decile":"4","lat":40.045256844223,"lng":-111.73708461395},{"id":"114865","name":"Darian Huels","party":"Dem","address":"349 W Utah Ave, Payson, UT 84651","precinct":"25PA03","hd":"65","v_score":"1.193887297","decile":"4","lat":40.043551153374,"lng":-111.736906944451},{"id":"114914","name":"Abbott Nitzsche","party":"Dem","address":"235 N 100 W, Payson, UT 84651","precinct":"25PA03","hd":"65","v_score":"1.193887297","decile":"4","lat":40.046181979236,"lng":-111.733870734584},{"id":"115036","name":"Luvenia Brown MD","party":"","address":"547 W 200 N, Payson, UT 84651","precinct":"25PA03","hd":"65","v_score":"0","decile":"2","lat":40.04571997989,"lng":-111.74078743049},{"id":"115437","name":"Sandie Boyle DDS","party":"Dem","address":"173 N 400 W, Payson, UT 84651","precinct":"25PA03","hd":"65","v_score":"0","decile":"2","lat":40.045438228002,"lng":-111.738483907415},{"id":"115612","name":"Ed Mueller","party":"Rep","address":"235 S 600 W, Payson, UT 84651","precinct":"25PA03","hd":"65","v_score":"1.193887297","decile":"4","lat":40.040914105661,"lng":-111.741614083273},{"id":"115908","name":"Marva Hermann","party":"Rep","address":"428 S 1000 W, Payson, UT 84651","precinct":"25PA03","hd":"65","v_score":"1.193887297","decile":"4","lat":40.037676564012,"lng":-111.749574094964},{"id":"117317","name":"Dr. Herman Pfannerstill V","party":"","address":"657 W Utah Ave, Payson, UT 84651","precinct":"25PA03","hd":"65","v_score":"1.193887297","decile":"4","lat":40.04358779084,"lng":-111.743204543958},{"id":"117506","name":"Ovila Cole-Stamm","party":"Rep","address":"372 S 1000 W, Payson, UT 84651","precinct":"25PA03","hd":"65","v_score":"1.193887297","decile":"4","lat":40.038017310724,"lng":-111.749411949364},{"id":"118317","name":"Stephanie Tillman","party":"Rep","address":"547 W 200 N, Payson, UT 84651","precinct":"25PA03","hd":"65","v_score":"0","decile":"2","lat":40.04571997989,"lng":-111.74078743049},{"id":"118593","name":"Burl Huel I","party":"Dem","address":"625 W 100 N, Payson, UT 84651","precinct":"25PA03","hd":"65","v_score":"1.193887297","decile":"4","lat":40.044534022261,"lng":-111.742787737912},{"id":"118964","name":"Audie Conroy","party":"Dem","address":"230 S 100 W, Payson, UT 84651","precinct":"25PA03","hd":"65","v_score":"1.193887297","decile":"4","lat":40.04094346157,"lng":-111.733908164561},{"id":"119895","name":"Dr. Jamila Bartoletti","party":"Dem","address":"502 W 200 N, Unit B, Payson, UT 84651","precinct":"25PA03","hd":"65","v_score":"0","decile":"2","lat":40.045830795546,"lng":-111.739835575368},{"id":"119897","name":"Miss Rocio Emard","party":"","address":"502 W 200 N, # B, Payson, UT 84651","precinct":"25PA03","hd":"65","v_score":"1.193887297","decile":"4","lat":40.045830795546,"lng":-111.739835575368},{"id":"119930","name":"Hailie Bailey","party":"","address":"658 W 100 S, Payson, UT 84651","precinct":"25PA03","hd":"65","v_score":"1.193887297","decile":"4","lat":40.042617328358,"lng":-111.742824295607},{"id":"120581","name":"Rollie Spinka","party":"Dem","address":"207 W 100 S, Payson, UT 84651","precinct":"25PA03","hd":"65","v_score":"1.193887297","decile":"4","lat":40.042475736409,"lng":-111.735319934397},{"id":"121129","name":"Lovina Hand","party":"","address":"290 S 500 W, Payson, UT 84651","precinct":"25PA03","hd":"65","v_score":"0","decile":"2","lat":40.039985979171,"lng":-111.739825780708},{"id":"121404","name":"Genaro O'Reilly","party":"Dem","address":"707 W 300 S, Payson, UT 84651","precinct":"25PA03","hd":"65","v_score":"1.193887297","decile":"4","lat":40.039757737366,"lng":-111.743848256931},{"id":"122512","name":"Hershell Goldner-Mann","party":"Dem","address":"163 W 300 N, Apt C, Payson, UT 84651","precinct":"25PA03","hd":"65","v_score":"1.193887297","decile":"4","lat":40.046889174727,"lng":-111.734640859828},{"id":"122658","name":"Kameron McLaughlin","party":"Dem","address":"526 W 100 N, Payson, UT 84651","precinct":"25PA03","hd":"65","v_score":"14.73694277","decile":"9","lat":40.044644825355,"lng":-111.740514406601},{"id":"122706","name":"Bradford Weimann","party":"Dem","address":"432 S 800 W, Payson, UT 84651","precinct":"25PA03","hd":"65","v_score":"1.193887297","decile":"4","lat":40.038003040255,"lng":-111.745702355902},{"id":"123533","name":"Shelli Monahan","party":"","address":"47 W 300 N, Payson, UT 84651","precinct":"25PA03","hd":"65","v_score":"1.193887297","decile":"4","lat":40.046894735726,"lng":-111.732991023687},{"id":"123727","name":"Armstead Pacocha","party":"","address":"170 W 300 S, Payson, UT 84651","precinct":"25PA03","hd":"65","v_score":"1.193887297","decile":"4","lat":40.039836328067,"lng":-111.734765388887},{"id":"124257","name":"Kiara Hand-Quitzon","party":"Dem","address":"307 W 300 N, Payson, UT 84651","precinct":"25PA03","hd":"65","v_score":"1.193887297","decile":"4","lat":40.046885736022,"lng":-111.73688832464},{"id":"124295","name":"Rusty Wuckert","party":"Dem","address":"390 S 700 W, Payson, UT 84651","precinct":"25PA03","hd":"65","v_score":"1.193887297","decile":"4","lat":40.038449990863,"lng":-111.743751201118},{"id":"124451","name":"Vernelle Kub","party":"Rep","address":"192 S 500 W, Payson, UT 84651","precinct":"25PA03","hd":"65","v_score":"1.193887297","decile":"4","lat":40.041630060097,"lng":-111.739809739435},{"id":"124780","name":"Adalynn Bergstrom","party":"Rep","address":"550 W 100 N, Payson, UT 84651","precinct":"25PA03","hd":"65","v_score":"0","decile":"2","lat":40.044646914573,"lng":-111.741180850956},{"id":"125376","name":"Cleola Predovic","party":"","address":"194 S 800 W, Payson, UT 84651","precinct":"25PA03","hd":"65","v_score":"0","decile":"2","lat":40.041467114136,"lng":-111.745677904881},{"id":"126033","name":"Haywood Skiles-Konopelski","party":"Rep","address":"180 S 700 W, Payson, UT 84651","precinct":"25PA03","hd":"65","v_score":"0","decile":"2","lat":40.041751383167,"lng":-111.743730228522},{"id":"127024","name":"Cinthia McDermott","party":"Rep","address":"445 W 400 N, Unit B, Payson, UT 84651","precinct":"25PA03","hd":"65","v_score":"0","decile":"2","lat":40.048544478889,"lng":-111.738962957768},{"id":"127334","name":"Ellwood Abbott","party":"","address":"328 W 300 N, Payson, UT 84651","precinct":"25PA03","hd":"65","v_score":"0","decile":"2","lat":40.047000327432,"lng":-111.737230692176},{"id":"127448","name":"Mrs. Dora Schuster PhD","party":"","address":"314 N 100 W, Payson, UT 84651","precinct":"25PA03","hd":"65","v_score":"0","decile":"2","lat":40.047227077347,"lng":-111.733721799821},{"id":"127541","name":"Felton Quigley-Fadel","party":"Dem","address":"281 S 900 W, Payson, UT 84651","precinct":"25PA03","hd":"65","v_score":"0","decile":"2","lat":40.03916626117,"lng":-111.74739912999},{"id":"127754","name":"Del Kiehn","party":"","address":"254 S 500 W, Payson, UT 84651","precinct":"25PA03","hd":"65","v_score":"0","decile":"2","lat":40.040575341802,"lng":-111.739816571842},{"id":"127889","name":"Leota Nitzsche","party":"Rep","address":"261 S 200 W, Payson, UT 84651","precinct":"25PA03","hd":"65","v_score":"0","decile":"2","lat":40.04045972824,"lng":-111.735127816984},{"id":"127990","name":"Linn Raynor","party":"Dem","address":"61 S 300 W, Payson, UT 84651","precinct":"25PA03","hd":"65","v_score":"2.876042565","decile":"6","lat":40.042961180113,"lng":-111.735944049314},{"id":"129310","name":"Aleen Mann","party":"Dem","address":"348 W 200 S, Payson, UT 84651","precinct":"25PA03","hd":"65","v_score":"0","decile":"2","lat":40.041568742599,"lng":-111.736908266659},{"id":"130178","name":"Ms. Bette Jerde","party":"","address":"320 W 300 N, Payson, UT 84651","precinct":"25PA03","hd":"65","v_score":"0","decile":"2","lat":40.047000327422,"lng":-111.737106194885},{"id":"131245","name":"Savanah Keeling MD","party":"Rep","address":"248 S 400 W, Payson, UT 84651","precinct":"25PA03","hd":"65","v_score":"0","decile":"2","lat":40.040668495864,"lng":-111.737902727934},{"id":"132825","name":"Dr. Oley Luettgen","party":"Rep","address":"134 W 400 S, Payson, UT 84651","precinct":"25PA03","hd":"65","v_score":"2.876042565","decile":"6","lat":40.038333328202,"lng":-111.734271480534},{"id":"133118","name":"Manie Erdman DDS","party":"","address":"342 N 230 W, Payson, UT 84651","precinct":"25PA03","hd":"65","v_score":"0","decile":"2","lat":40.047860116933,"lng":-111.736262090506},{"id":"133904","name":"Randy Dare","party":"","address":"273 W 100 N, Apt 1, Payson, UT 84651","precinct":"25PA03","hd":"65","v_score":"0","decile":"2","lat":40.044509977716,"lng":-111.736184803946},{"id":"133934","name":"Ama Okuneva","party":"","address":"75 N 600 W, Payson, UT 84651","precinct":"25PA03","hd":"65","v_score":"0","decile":"2","lat":40.044332624477,"lng":-111.742672386029},{"id":"133978","name":"Ena Reichel","party":"Dem","address":"144 S 300 W, Payson, UT 84651","precinct":"25PA03","hd":"65","v_score":"0","decile":"2","lat":40.042066725072,"lng":-111.736095775636},{"id":"134111","name":"Osborn Krajcik","party":"Dem","address":"188 S 200 W, Payson, UT 84651","precinct":"25PA03","hd":"65","v_score":"0","decile":"2","lat":40.041649627554,"lng":-111.735286913653},{"id":"134399","name":"Anthony Ullrich","party":"","address":"231 Majestic Meadows Dr, Payson, UT 84651","precinct":"25PA03","hd":"65","v_score":"0","decile":"2","lat":40.040552261391,"lng":-111.746340226932},{"id":"134544","name":"Arne Ritchie","party":"Rep","address":"276 N 400 W, Payson, UT 84651","precinct":"25PA03","hd":"65","v_score":"0","decile":"2","lat":40.046650488653,"lng":-111.738322311252},{"id":"135764","name":"Brayden Ortiz-VonRueden","party":"","address":"192 N 100 W, Payson, UT 84651","precinct":"25PA03","hd":"65","v_score":"19.0928603","decile":"10","lat":40.045622466013,"lng":-111.73372104721},{"id":"137034","name":"Mrs. Regenia Walter","party":"Rep","address":"245 W 100 S, Payson, UT 84651","precinct":"25PA03","hd":"65","v_score":"8.347511332","decile":"8","lat":40.042475736429,"lng":-111.735577721019},{"id":"139195","name":"Florentino Huels","party":"Dem","address":"359 S 900 W, Payson, UT 84651","precinct":"25PA03","hd":"65","v_score":"3.781490609","decile":"6","lat":40.038586644015,"lng":-111.747647308667},{"id":"139197","name":"Tyreek Corkery","party":"","address":"359 S 900 W, Payson, UT 84651","precinct":"25PA03","hd":"65","v_score":"2.315214949","decile":"5","lat":40.038586644015,"lng":-111.747647308667},{"id":"140797","name":"Abie Hettinger","party":"","address":"330 S 400 W, Payson, UT 84651","precinct":"25PA03","hd":"65","v_score":"2.315214949","decile":"5","lat":40.039302958825,"lng":-111.737902726449},{"id":"141098","name":"Val Friesen","party":"","address":"395 N Main St, Payson, UT 84651","precinct":"25PA03","hd":"65","v_score":"13.98702554","decile":"9","lat":40.048470676166,"lng":-111.732341063989},{"id":"141830","name":"Naoma Kshlerin","party":"Dem","address":"226 S 500 W, Payson, UT 84651","precinct":"25PA03","hd":"65","v_score":"2.315214949","decile":"5","lat":40.041033055622,"lng":-111.739810728775},{"id":"141949","name":"Abe Baumbach","party":"Dem","address":"134 W 400 S, Payson, UT 84651","precinct":"25PA03","hd":"65","v_score":"0","decile":"2","lat":40.038333328202,"lng":-111.734271480534},{"id":"142007","name":"Orion Stracke","party":"Dem","address":"750 W 300 S, Payson, UT 84651","precinct":"25PA03","hd":"65","v_score":"1.193887297","decile":"4","lat":40.039872328811,"lng":-111.744647810491},{"id":"142130","name":"Dr. Olin Muller II","party":"","address":"244 S 400 W, Payson, UT 84651","precinct":"25PA03","hd":"65","v_score":"2.315214949","decile":"5","lat":40.040734349268,"lng":-111.737902727925},{"id":"142160","name":"Deirdre Nitzsche","party":"Dem","address":"109 N 400 W, Payson, UT 84651","precinct":"25PA03","hd":"65","v_score":"3.781490609","decile":"6","lat":40.044731344038,"lng":-111.738494537339},{"id":"142186","name":"Marleigh Haag-Von","party":"Rep","address":"280 N 100 W, Payson, UT 84651","precinct":"25PA03","hd":"65","v_score":"2.315214949","decile":"5","lat":40.046694273,"lng":-111.733721045759},{"id":"142283","name":"Octavia Rowe-Beier","party":"","address":"202 N 340 W, Payson, UT 84651","precinct":"25PA03","hd":"65","v_score":"1.193887297","decile":"4","lat":40.045256844223,"lng":-111.73708461395},{"id":"142596","name":"Arminta Nader","party":"Dem","address":"196 W 200 S, Payson, UT 84651","precinct":"25PA03","hd":"65","v_score":"0","decile":"3","lat":40.041554674514,"lng":-111.735112777385},{"id":"142743","name":"Cato Schamberger","party":"Dem","address":"281 N Main St, Payson, UT 84651","precinct":"25PA03","hd":"65","v_score":"8.347511332","decile":"8","lat":40.046692619835,"lng":-111.732345234818},{"id":"143312","name":"Achsah Emmerich","party":"Rep","address":"560 W 100 N, Payson, UT 84651","precinct":"25PA03","hd":"65","v_score":"2.587603312","decile":"5","lat":40.04464778508,"lng":-111.741458536104},{"id":"144304","name":"Burnice Wuckert","party":"Dem","address":"347 N Main St, Payson, UT 84651","precinct":"25PA03","hd":"65","v_score":"1.193887297","decile":"4","lat":40.047724516812,"lng":-111.732343113973},{"id":"144364","name":"Bernadette Marvin","party":"","address":"194 S 800 W, Payson, UT 84651","precinct":"25PA03","hd":"65","v_score":"1.193887297","decile":"4","lat":40.041467114136,"lng":-111.745677904881},{"id":"144502","name":"Casimiro Mitchell","party":"Dem","address":"525 W 100 N, Payson, UT 84651","precinct":"25PA03","hd":"65","v_score":"3.93832808","decile":"6","lat":40.044530060823,"lng":-111.740459482525},{"id":"144716","name":"Jamaal Carter","party":"Rep","address":"243 S 200 W, Payson, UT 84651","precinct":"25PA03","hd":"65","v_score":"1.121327652","decile":"3","lat":40.040754396178,"lng":-111.73513681444},{"id":"144883","name":"Luster Mosciski-Champlin","party":"Dem","address":"320 W 100 N, Payson, UT 84651","precinct":"25PA03","hd":"65","v_score":"0","decile":"3","lat":40.044631117504,"lng":-111.736887840571},{"id":"144896","name":"Stevan King","party":"","address":"172 W 300 N, Payson, UT 84651","precinct":"25PA03","hd":"65","v_score":"6.657533174","decile":"7","lat":40.047002944002,"lng":-111.734766463972},{"id":"145015","name":"Mrs. Jocelyne Lang","party":"Dem","address":"542 W Utah Ave, Payson, UT 84651","precinct":"25PA03","hd":"65","v_score":"3.781490609","decile":"6","lat":40.043689953743,"lng":-111.740667523999},{"id":"146509","name":"Dr. Azzie Tremblay","party":"Dem","address":"260 S 100 W, Payson, UT 84651","precinct":"25PA03","hd":"65","v_score":"14.95117867","decile":"9","lat":40.040455071166,"lng":-111.733909449862},{"id":"147039","name":"Miss Latanya Rutherford DVM","party":"","address":"114 S 600 W, Payson, UT 84651","precinct":"25PA03","hd":"65","v_score":"8.280646305","decile":"8","lat":40.04237220907,"lng":-111.741731822331},{"id":"147260","name":"Kenan Schuster","party":"Dem","address":"750 W 300 S, Payson, UT 84651","precinct":"25PA03","hd":"65","v_score":"12.49472132","decile":"9","lat":40.039872328811,"lng":-111.744647810491},{"id":"147345","name":"Leif Hane-Paucek","party":"Rep","address":"130 W 400 S, Payson, UT 84651","precinct":"25PA03","hd":"65","v_score":"2.587603312","decile":"5","lat":40.038333328199,"lng":-111.734230686045},{"id":"147371","name":"Rome Haag","party":"Rep","address":"421 S 1000 W, Payson, UT 84651","precinct":"25PA03","hd":"65","v_score":"8.347511332","decile":"8","lat":40.037709290097,"lng":-111.74942247089},{"id":"147458","name":"Dr. Chance Strosin Jr.","party":"Rep","address":"531 W 200 S, Payson, UT 84651","precinct":"25PA03","hd":"65","v_score":"29.80287197","decile":"10","lat":40.041461627716,"lng":-111.740359086549},{"id":"147478","name":"Mr. Leland Daugherty DVM","party":"Dem","address":"531 W 200 S, Payson, UT 84651","precinct":"25PA03","hd":"65","v_score":"21.59126048","decile":"10","lat":40.041461627716,"lng":-111.740359086549},{"id":"147480","name":"Darin Marks II","party":"Rep","address":"118 S 400 W, Payson, UT 84651","precinct":"25PA03","hd":"65","v_score":"14.92072811","decile":"9","lat":40.042317335043,"lng":-111.737902729619},{"id":"147494","name":"Frances Barrows","party":"Dem","address":"377 N 400 W, Payson, UT 84651","precinct":"25PA03","hd":"65","v_score":"17.36151318","decile":"9","lat":40.048202212007,"lng":-111.738483350029},{"id":"147612","name":"Dr. Shanon Conroy","party":"","address":"140 W 200 S, Payson, UT 84651","precinct":"25PA03","hd":"65","v_score":"20.12498482","decile":"10","lat":40.04155008879,"lng":-111.734408876977},{"id":"147665","name":"Laurie Kirlin-Buckridge","party":"Rep","address":"582 W 300 S, Payson, UT 84651","precinct":"25PA03","hd":"65","v_score":"21.59126048","decile":"10","lat":40.039868917858,"lng":-111.741325431978},{"id":"147666","name":"Lucie Ryan","party":"","address":"582 W 300 S, Payson, UT 84651","precinct":"25PA03","hd":"65","v_score":"21.59126048","decile":"10","lat":40.039868917858,"lng":-111.741325431978},{"id":"147758","name":"Michaela Harris-Kuhn","party":"Dem","address":"524 W Utah Ave, Payson, UT 84651","precinct":"25PA03","hd":"65","v_score":"19.16525368","decile":"10","lat":40.043685757571,"lng":-111.740294067283},{"id":"147768","name":"Gearld Cartwright","party":"Rep","address":"185 W Utah Ave, Payson, UT 84651","precinct":"25PA03","hd":"65","v_score":"0","decile":"3","lat":40.043545102107,"lng":-111.73494650328},{"id":"148025","name":"Adaline Johns","party":"","address":"535 W 300 S, Payson, UT 84651","precinct":"25PA03","hd":"65","v_score":"14.95117867","decile":"9","lat":40.039746198812,"lng":-111.740450592441},{"id":"148043","name":"Ms. Shirlie Howell","party":"","address":"144 W 200 N, Payson, UT 84651","precinct":"25PA03","hd":"65","v_score":"9.907118004","decile":"8","lat":40.045803327357,"lng":-111.734425813023},{"id":"148113","name":"Milas Rutherford-Zboncak","party":"Dem","address":"521 W 200 N, Payson, UT 84651","precinct":"25PA03","hd":"65","v_score":"2.315214949","decile":"5","lat":40.045717749683,"lng":-111.740225429156},{"id":"148233","name":"Stetson Torphy","party":"Rep","address":"58 S 300 W, Payson, UT 84651","precinct":"25PA03","hd":"65","v_score":"21.59126048","decile":"10","lat":40.042988831391,"lng":-111.736093731016},{"id":"148486","name":"Urban Berge","party":"Rep","address":"218 S Main St, Payson, UT 84651","precinct":"25PA03","hd":"65","v_score":"5.40460374","decile":"7","lat":40.040933827307,"lng":-111.732366586858},{"id":"148504","name":"Ms. Maritza Murray MD","party":"Rep","address":"355 S 300 W, Payson, UT 84651","precinct":"25PA03","hd":"65","v_score":"0","decile":"3","lat":40.038956826706,"lng":-111.735946092608},{"id":"148708","name":"Freeda Waters","party":"","address":"332 W 100 N, Payson, UT 84651","precinct":"25PA03","hd":"65","v_score":"13.29761498","decile":"9","lat":40.044632627304,"lng":-111.737050142797},{"id":"148732","name":"Graves Lind-Lueilwitz","party":"Dem","address":"396 S 1000 W, Payson, UT 84651","precinct":"25PA03","hd":"65","v_score":"8.363183621","decile":"8","lat":40.037882280409,"lng":-111.74953368652},{"id":"148894","name":"Orvin Brakus","party":"","address":"60 W Utah Ave, Apt A, Payson, UT 84651","precinct":"25PA03","hd":"65","v_score":"0","decile":"3","lat":40.043652327511,"lng":-111.733196329809},{"id":"148953","name":"Ebert Swaniawski I","party":"Dem","address":"245 W 100 S, Payson, UT 84651","precinct":"25PA03","hd":"65","v_score":"8.347511332","decile":"8","lat":40.042475736429,"lng":-111.735577721019},{"id":"148962","name":"Rollin Zieme-Buckridge","party":"Dem","address":"160 N 600 W, Payson, UT 84651","precinct":"25PA03","hd":"65","v_score":"16.2066738","decile":"9","lat":40.045315516616,"lng":-111.742315575855},{"id":"149397","name":"Dr. Moises Bailey IV","party":"","address":"524 W Utah Ave, Payson, UT 84651","precinct":"25PA03","hd":"65","v_score":"19.16525368","decile":"10","lat":40.043685757571,"lng":-111.740294067283},{"id":"149417","name":"Chelsea Durgan","party":"","address":"375 S 500 W, Payson, UT 84651","precinct":"25PA03","hd":"65","v_score":"31.68045364","decile":"10","lat":40.038677234861,"lng":-111.739692302751},{"id":"149937","name":"Dr. Rayford Quigley","party":"Rep","address":"332 W 100 N, Payson, UT 84651","precinct":"25PA03","hd":"65","v_score":"13.29761498","decile":"9","lat":40.044632627304,"lng":-111.737050142797},{"id":"150445","name":"Arthor Blanda","party":"Rep","address":"402 S 800 W, Payson, UT 84651","precinct":"25PA03","hd":"65","v_score":"7.92266893","decile":"8","lat":40.038237967918,"lng":-111.745708348924},{"id":"150947","name":"Mrs. Daisha Kuhn","party":"","address":"384 S 800 W, Payson, UT 84651","precinct":"25PA03","hd":"65","v_score":"15.0180437","decile":"9","lat":40.038568846197,"lng":-111.745703320821},{"id":"150948","name":"Andrew Von","party":"","address":"384 S 800 W, Payson, UT 84651","precinct":"25PA03","hd":"65","v_score":"15.0180437","decile":"9","lat":40.038568846197,"lng":-111.745703320821},{"id":"151104","name":"Darnell Cassin","party":"Rep","address":"323 N 400 W, Payson, UT 84651","precinct":"25PA03","hd":"65","v_score":"2.315214949","decile":"5","lat":40.047347903161,"lng":-111.738474114368},{"id":"151298","name":"Leana Quitzon-Hackett","party":"Dem","address":"502 W 200 N, Unit B, Payson, UT 84651","precinct":"25PA03","hd":"65","v_score":"3.93832808","decile":"6","lat":40.045830795546,"lng":-111.739835575368},{"id":"151556","name":"Fletcher Smitham","party":"","address":"62 W 300 N, Payson, UT 84651","precinct":"25PA03","hd":"65","v_score":"5.40460374","decile":"7","lat":40.047009327126,"lng":-111.733205116288},{"id":"152945","name":"Agatha Legros DDS","party":"Dem","address":"163 W 300 N, Apt C, Payson, UT 84651","precinct":"25PA03","hd":"65","v_score":"8.347511332","decile":"8","lat":40.046889174727,"lng":-111.734640859828},{"id":"152982","name":"Keith Schultz-Schneider","party":"Dem","address":"395 W 400 N, Payson, UT 84651","precinct":"25PA03","hd":"65","v_score":"24.12097127","decile":"10","lat":40.048549647771,"lng":-111.738299643776},{"id":"153029","name":"Damian Romaguera Sr.","party":"","address":"560 W 100 N, Payson, UT 84651","precinct":"25PA03","hd":"65","v_score":"16.25619486","decile":"9","lat":40.04464778508,"lng":-111.741458536104},{"id":"153114","name":"Faye Mitchell","party":"Rep","address":"477 W 300 N, Payson, UT 84651","precinct":"25PA03","hd":"65","v_score":"13.66523298","decile":"9","lat":40.046885736205,"lng":-111.73930540829},{"id":"153509","name":"Kaylyn Satterfield","party":"Dem","address":"412 S 800 W, Payson, UT 84651","precinct":"25PA03","hd":"65","v_score":"7.830610533","decile":"8","lat":40.038159658697,"lng":-111.74570635125},{"id":"153660","name":"Dori Labadie-Christiansen","party":"","address":"257 S 200 W, Payson, UT 84651","precinct":"25PA03","hd":"65","v_score":"9.682978083","decile":"8","lat":40.040525210004,"lng":-111.735129816418},{"id":"153729","name":"Mikalah Morissette-Fisher","party":"","address":"199 N 200 W, Payson, UT 84651","precinct":"25PA03","hd":"65","v_score":"11.99259879","decile":"9","lat":40.045689069285,"lng":-111.735257165855},{"id":"153824","name":"Sanford Runte III","party":"Rep","address":"330 W Utah Ave, Payson, UT 84651","precinct":"25PA03","hd":"65","v_score":"24.14553471","decile":"10","lat":40.043664794655,"lng":-111.736715488685},{"id":"153852","name":"Diane Thompson-Durgan","party":"","address":"90 N 200 W, Payson, UT 84651","precinct":"25PA03","hd":"65","v_score":"2.315214949","decile":"5","lat":40.044430578864,"lng":-111.735116648823},{"id":"154122","name":"Mr. Le Mraz","party":"","address":"60 W 200 N, Payson, UT 84651","precinct":"25PA03","hd":"65","v_score":"0","decile":"3","lat":40.045799671076,"lng":-111.733175877726},{"id":"154258","name":"Marni Gleichner PhD","party":"Dem","address":"249 S 300 W, Payson, UT 84651","precinct":"25PA03","hd":"65","v_score":"26.17938142","decile":"10","lat":40.040659495717,"lng":-111.73594855263},{"id":"154363","name":"Wilton Jast","party":"","address":"393 S 600 W, Payson, UT 84651","precinct":"25PA03","hd":"65","v_score":"8.363183621","decile":"8","lat":40.038420409048,"lng":-111.741622631078},{"id":"154533","name":"Billy Lebsack","party":"Rep","address":"249 S 300 W, Payson, UT 84651","precinct":"25PA03","hd":"65","v_score":"13.87018047","decile":"9","lat":40.040659495717,"lng":-111.73594855263},