[{"id":"322","name":"Ignatius Beatty","party":"","address":"1517 S 780 W, Payson, UT 84651","precinct":"25PA11","hd":"65","v_score":"9.82542041","decile":"8","lat":40.019082852495,"lng":-111.745192836257},{"id":"1511","name":"Hollis Ziemann-Ryan","party":"","address":"798 Brookside Ct, Payson, UT 84651","precinct":"25PA11","hd":"65","v_score":"1.121327652","decile":"3","lat":40.020832788427,"lng":-111.745709101608},{"id":"2285","name":"Sunshine Rempel","party":"Dem","address":"1459 S 930 W, Payson, UT 84651","precinct":"25PA11","hd":"65","v_score":"0","decile":"1","lat":40.018874173183,"lng":-111.748296575645},{"id":"2515","name":"Kareen Considine","party":"","address":"1461 S 910 W, Payson, UT 84651","precinct":"25PA11","hd":"65","v_score":"8.280646305","decile":"8","lat":40.020610610483,"lng":-111.747330487962},{"id":"2959","name":"Madalynn Hayes","party":"","address":"1181 S 730 W, Payson, UT 84651","precinct":"25PA11","hd":"65","v_score":"0","decile":"1","lat":40.026181581335,"lng":-111.744120567621},{"id":"2978","name":"Dr. Cappie O'Reilly DVM","party":"Dem","address":"1461 S 910 W, Payson, UT 84651","precinct":"25PA11","hd":"65","v_score":"10.45202298","decile":"9","lat":40.020610610483,"lng":-111.747330487962},{"id":"3446","name":"Mr. Verlin Wilderman","party":"Dem","address":"1151 S 880 W, Payson, UT 84651","precinct":"25PA11","hd":"65","v_score":"2.315214949","decile":"5","lat":40.026199531797,"lng":-111.746974998336},{"id":"3721","name":"Clarinda Koelpin DDS","party":"","address":"1347 S 830 W, Payson, UT 84651","precinct":"25PA11","hd":"65","v_score":"4.210716443","decile":"7","lat":40.025222773498,"lng":-111.746042980615},{"id":"4015","name":"Darcy Buckridge","party":"","address":"1577 S 790 W, Payson, UT 84651","precinct":"25PA11","hd":"65","v_score":"2.817000428","decile":"6","lat":40.017266793037,"lng":-111.74518189896},{"id":"4617","name":"Chancey Boyle","party":"","address":"688 W 1340 S, Payson, UT 84651","precinct":"25PA11","hd":"65","v_score":"2.315214949","decile":"5","lat":40.023447330601,"lng":-111.74340773709},{"id":"4991","name":"Naoma Gottlieb","party":"","address":"834 W 1500 S, Payson, UT 84651","precinct":"25PA11","hd":"65","v_score":"18.71521791","decile":"10","lat":40.019349329373,"lng":-111.745876883161},{"id":"5874","name":"Mr. Bryant Steuber","party":"Dem","address":"1347 S 830 W, Payson, UT 84651","precinct":"25PA11","hd":"65","v_score":"4.210716443","decile":"7","lat":40.025222773498,"lng":-111.746042980615},{"id":"6003","name":"Okey Cummings","party":"Dem","address":"819 Big Leaf Ct, Payson, UT 84651","precinct":"25PA11","hd":"65","v_score":"2.315214949","decile":"5","lat":40.021726976725,"lng":-111.745811420995},{"id":"6087","name":"Ms. Annabell Kilback PhD","party":"Dem","address":"686 W 1400 S, Payson, UT 84651","precinct":"25PA11","hd":"65","v_score":"29.6316773","decile":"10","lat":40.022741376532,"lng":-111.743178381255},{"id":"6315","name":"Graciela Langworth","party":"","address":"829 W 1500 S, Payson, UT 84651","precinct":"25PA11","hd":"65","v_score":"0","decile":"1","lat":40.019250397468,"lng":-111.745958694185},{"id":"7044","name":"Miss Clora Cremin DDS","party":"Dem","address":"819 Sugar Maple Ct, Payson, UT 84651","precinct":"25PA11","hd":"65","v_score":"5.40460374","decile":"7","lat":40.022212976109,"lng":-111.74580874309},{"id":"7262","name":"Mr. Davis Bogan MD","party":"Rep","address":"1121 S 780 W, Payson, UT 84651","precinct":"25PA11","hd":"65","v_score":"6.364334873","decile":"7","lat":40.026770852133,"lng":-111.74505908291},{"id":"7358","name":"Vincenzo Stoltenberg","party":"","address":"1477 S 700 W, Payson, UT 84651","precinct":"25PA11","hd":"65","v_score":"1.193887297","decile":"3","lat":40.020085634359,"lng":-111.743533722868},{"id":"7453","name":"Mr. Lydell Bogan V","party":"Rep","address":"824 W 1620 S, Payson, UT 84651","precinct":"25PA11","hd":"65","v_score":"0","decile":"1","lat":40.016193186848,"lng":-111.746016652995},{"id":"7820","name":"Osborne Fisher","party":"","address":"1229 S 880 W, Payson, UT 84651","precinct":"25PA11","hd":"65","v_score":"6.286764927","decile":"7","lat":40.025079236909,"lng":-111.747016592258},{"id":"8479","name":"Gauge Bradtke MD","party":"","address":"1441 S 780 W, Payson, UT 84651","precinct":"25PA11","hd":"65","v_score":"26.2609852","decile":"10","lat":40.021331937887,"lng":-111.745164063177},{"id":"8671","name":"Son Mosciski","party":"Dem","address":"1137 S 680 W, Payson, UT 84651","precinct":"25PA11","hd":"65","v_score":"0","decile":"1","lat":40.026633143118,"lng":-111.743210972172},{"id":"9714","name":"Kameron Kshlerin","party":"","address":"728 W 1550 S, Payson, UT 84651","precinct":"25PA11","hd":"65","v_score":"3.781490609","decile":"6","lat":40.018538362624,"lng":-111.74395696663},{"id":"10582","name":"Rosalinda Wisoky","party":"","address":"928 W 1620 S, Payson, UT 84651","precinct":"25PA11","hd":"65","v_score":"11.23922619","decile":"9","lat":40.016195581117,"lng":-111.747999420495},{"id":"10725","name":"Miss Harmony Kirlin","party":"","address":"795 W Sugar Maple Ct, Payson, UT 84651","precinct":"25PA11","hd":"65","v_score":"12.4433422","decile":"9","lat":40.022212050823,"lng":-111.745707425127},{"id":"10947","name":"Lavonia Green DDS","party":"Rep","address":"1247 S 780 W, Payson, UT 84651","precinct":"25PA11","hd":"65","v_score":"3.93832808","decile":"6","lat":40.024453332561,"lng":-111.74508356967},{"id":"11405","name":"Haskell Herman","party":"Rep","address":"807 W 1235 S, Payson, UT 84651","precinct":"25PA11","hd":"65","v_score":"20.92591958","decile":"10","lat":40.024898739226,"lng":-111.745899952877},{"id":"11742","name":"Tavion Witting","party":"Dem","address":"807 Big Leaf Ct, Payson, UT 84651","precinct":"25PA11","hd":"65","v_score":"5.40460374","decile":"7","lat":40.021726513705,"lng":-111.745760489228},{"id":"13384","name":"Bryton Braun","party":"Dem","address":"807 Sugar Maple Ct, Payson, UT 84651","precinct":"25PA11","hd":"65","v_score":"17.94617302","decile":"10","lat":40.022212513466,"lng":-111.745758084109},{"id":"13809","name":"Versie Bechtelar","party":"Dem","address":"1248 S 780 W, Payson, UT 84651","precinct":"25PA11","hd":"65","v_score":"4.13679489","decile":"7","lat":40.024520833514,"lng":-111.74523321169},{"id":"14094","name":"Sharita Cruickshank-Mertz","party":"Rep","address":"807 W 1235 S, Payson, UT 84651","precinct":"25PA11","hd":"65","v_score":"18.39620879","decile":"10","lat":40.024898739226,"lng":-111.745899952877},{"id":"14165","name":"Raynard Hauck II","party":"Dem","address":"1538 S 780 W, Payson, UT 84651","precinct":"25PA11","hd":"65","v_score":"6.896907962","decile":"8","lat":40.018853449425,"lng":-111.745317229524},{"id":"14245","name":"Lambert Corwin","party":"","address":"772 W 1280 S, Payson, UT 84651","precinct":"25PA11","hd":"65","v_score":"19.746806","decile":"10","lat":40.024326248613,"lng":-111.745022959086},{"id":"15420","name":"Dr. Rueben Romaguera","party":"","address":"1555 S 840 W, Payson, UT 84651","precinct":"25PA11","hd":"65","v_score":"1.46627566","decile":"4","lat":40.017912619181,"lng":-111.746159933705},{"id":"15930","name":"Adron Johnston V","party":"Rep","address":"1583 S 840 W, Payson, UT 84651","precinct":"25PA11","hd":"65","v_score":"2.660162957","decile":"5","lat":40.01749864099,"lng":-111.746171289204},{"id":"16234","name":"Albertha Mayert","party":"","address":"1529 S 780 W, Payson, UT 84651","precinct":"25PA11","hd":"65","v_score":"8.601979876","decile":"8","lat":40.019023083133,"lng":-111.745185365095},{"id":"17352","name":"Gail Howe MD","party":"","address":"834 W 1500 S, Payson, UT 84651","precinct":"25PA11","hd":"65","v_score":"18.71521791","decile":"10","lat":40.019349329373,"lng":-111.745876883161},{"id":"18028","name":"Lilyanna VonRueden","party":"Dem","address":"1477 S 930 W, Payson, UT 84651","precinct":"25PA11","hd":"65","v_score":"1.121327652","decile":"3","lat":40.018833962766,"lng":-111.74829657565},{"id":"18477","name":"Xavier Mayer","party":"","address":"1598 S 840 W, Payson, UT 84651","precinct":"25PA11","hd":"65","v_score":"6.74007049","decile":"8","lat":40.016187089429,"lng":-111.746799920468},{"id":"19183","name":"Mr. Oddie Labadie","party":"","address":"1583 S 840 W, Payson, UT 84651","precinct":"25PA11","hd":"65","v_score":"1.193887297","decile":"3","lat":40.01749864099,"lng":-111.746171289204},{"id":"19321","name":"Dr. Billy Kuvalis","party":"","address":"1580 S 910 W, Payson, UT 84651","precinct":"25PA11","hd":"65","v_score":"7.830610533","decile":"8","lat":40.017651811159,"lng":-111.747466136414},{"id":"19742","name":"Dr. Littleton Brown PhD","party":"Rep","address":"664 W 1340 S, Payson, UT 84651","precinct":"25PA11","hd":"65","v_score":"0","decile":"1","lat":40.023447330588,"lng":-111.743228646026},{"id":"19749","name":"Lorin Schmidt","party":"","address":"1471 S 910 W, Payson, UT 84651","precinct":"25PA11","hd":"65","v_score":"0","decile":"1","lat":40.020298137969,"lng":-111.747325642548},{"id":"21213","name":"Mr. Artie Hilpert V","party":"","address":"1472 S Red Maple Ct, Payson, UT 84651","precinct":"25PA11","hd":"65","v_score":"2.587603312","decile":"5","lat":40.020096112919,"lng":-111.744193708262},{"id":"22931","name":"Gloria Connelly","party":"Dem","address":"1459 S 930 W, Payson, UT 84651","precinct":"25PA11","hd":"65","v_score":"0","decile":"1","lat":40.018874173183,"lng":-111.748296575645},{"id":"23896","name":"Cathie Bernhard","party":"Rep","address":"1206 S 880 W, Payson, UT 84651","precinct":"25PA11","hd":"65","v_score":"1.121327652","decile":"3","lat":40.025426755297,"lng":-111.747160258431},{"id":"24951","name":"Berta Stanton","party":"Dem","address":"808 W 1620 S, Payson, UT 84651","precinct":"25PA11","hd":"65","v_score":"1.121327652","decile":"3","lat":40.016201297565,"lng":-111.745884064877},{"id":"25384","name":"Torrey Goodwin","party":"Dem","address":"1202 S 830 W, Payson, UT 84651","precinct":"25PA11","hd":"65","v_score":"6.52928996","decile":"7","lat":40.025802053123,"lng":-111.746194610906},{"id":"25402","name":"Nila Pagac","party":"","address":"1585 S 910 W, Payson, UT 84651","precinct":"25PA11","hd":"65","v_score":"2.587603312","decile":"5","lat":40.017535268491,"lng":-111.747318317556},{"id":"25715","name":"Judge Bayer","party":"","address":"1482 S Silver Maple Ct, Payson, UT 84651","precinct":"25PA11","hd":"65","v_score":"3.93832808","decile":"6","lat":40.020031316755,"lng":-111.744851674484},{"id":"25982","name":"Ginger Hagenes DDS","party":"Dem","address":"694 W 1410 S, Payson, UT 84651","precinct":"25PA11","hd":"65","v_score":"4.224027","decile":"7","lat":40.022290655713,"lng":-111.743693389949},{"id":"26376","name":"Jaimie McKenzie","party":"","address":"1481 S Silver Maple Ct, Payson, UT 84651","precinct":"25PA11","hd":"65","v_score":"2.315214949","decile":"5","lat":40.020044751707,"lng":-111.744702120203},{"id":"26541","name":"Izola Berge","party":"","address":"1137 S 680 W, Payson, UT 84651","precinct":"25PA11","hd":"65","v_score":"0","decile":"1","lat":40.026633143118,"lng":-111.743210972172},{"id":"26978","name":"Muriel Bauch DVM","party":"","address":"1423 S 680 W, Payson, UT 84651","precinct":"25PA11","hd":"65","v_score":"17.54775449","decile":"9","lat":40.021879878017,"lng":-111.743138354746},{"id":"27108","name":"Hershel Mohr","party":"Rep","address":"782 W 1235 S, Payson, UT 84651","precinct":"25PA11","hd":"65","v_score":"5.40460374","decile":"7","lat":40.02501333061,"lng":-111.745907071845},{"id":"27470","name":"Mrs. Thomasina Hayes","party":"Rep","address":"792 W 1570 S, Payson, UT 84651","precinct":"25PA11","hd":"65","v_score":"3.93832808","decile":"6","lat":40.017783436831,"lng":-111.745808669158},{"id":"28716","name":"Dr. Tavian Gleichner DDS","party":"Rep","address":"864 W 1550 S, Payson, UT 84651","precinct":"25PA11","hd":"65","v_score":"2.315214949","decile":"5","lat":40.018629954837,"lng":-111.746435816656},{"id":"29459","name":"Arely Bins","party":"","address":"1431 S 730 W, Payson, UT 84651","precinct":"25PA11","hd":"65","v_score":"0","decile":"1","lat":40.021713518174,"lng":-111.744211321049},{"id":"29750","name":"Jerica Rowe","party":"Dem","address":"792 W 1570 S, Payson, UT 84651","precinct":"25PA11","hd":"65","v_score":"5.417914297","decile":"7","lat":40.017783436831,"lng":-111.745808669158},{"id":"29910","name":"Nora Romaguera","party":"Dem","address":"1598 S 790 W, Payson, UT 84651","precinct":"25PA11","hd":"65","v_score":"2.587603312","decile":"5","lat":40.017041678656,"lng":-111.745387770661},{"id":"30563","name":"Eliot Dickens-Treutel","party":"Rep","address":"1106 S 680 W, Payson, UT 84651","precinct":"25PA11","hd":"65","v_score":"0","decile":"1","lat":40.026949712912,"lng":-111.74336430688},{"id":"31136","name":"Bernadette Wilkinson","party":"Rep","address":"1477 S 930 W, Payson, UT 84651","precinct":"25PA11","hd":"65","v_score":"0","decile":"1","lat":40.018833962766,"lng":-111.74829657565},{"id":"31612","name":"German Grimes","party":"Dem","address":"1437 S 780 W, Payson, UT 84651","precinct":"25PA11","hd":"65","v_score":"6.724398202","decile":"8","lat":40.021443198241,"lng":-111.745163069767},{"id":"31682","name":"Odis Lockman","party":"Dem","address":"912 W 1620 S, Payson, UT 84651","precinct":"25PA11","hd":"65","v_score":"0","decile":"1","lat":40.016199179274,"lng":-111.747403918027},{"id":"32492","name":"Babyboy Rice","party":"Dem","address":"771 W 1280 S, Payson, UT 84651","precinct":"25PA11","hd":"65","v_score":"2.587603312","decile":"5","lat":40.024212034287,"lng":-111.745008590947},{"id":"32607","name":"Gerold Schoen","party":"","address":"1561 S 910 W, Payson, UT 84651","precinct":"25PA11","hd":"65","v_score":"0","decile":"1","lat":40.018124342559,"lng":-111.7473091132},{"id":"32889","name":"Zaiden Kris","party":"Rep","address":"1151 S 880 W, Payson, UT 84651","precinct":"25PA11","hd":"65","v_score":"3.997370217","decile":"6","lat":40.026199531797,"lng":-111.746974998336},{"id":"33023","name":"Destany Cummings","party":"","address":"912 W 1420 S, Payson, UT 84651","precinct":"25PA11","hd":"65","v_score":"8.601979876","decile":"8","lat":40.022088606732,"lng":-111.747559067761},{"id":"33613","name":"Virgia Shanahan-Lowe","party":"","address":"851 W 1150 S, Payson, UT 84651","precinct":"25PA11","hd":"65","v_score":"2.817000428","decile":"6","lat":40.026271223254,"lng":-111.734893604041},{"id":"34352","name":"Frances Kuhic","party":"Rep","address":"1135 S 880 W, Payson, UT 84651","precinct":"25PA11","hd":"65","v_score":"3.93832808","decile":"6","lat":40.02653021926,"lng":-111.7470582721},{"id":"34771","name":"Viola Hand","party":"","address":"1498 S 910 W, Payson, UT 84651","precinct":"25PA11","hd":"65","v_score":"1.121327652","decile":"3","lat":40.019417881033,"lng":-111.747488722183},{"id":"35293","name":"Alexzander Yost","party":"","address":"1491 S 910 W, Payson, UT 84651","precinct":"25PA11","hd":"65","v_score":"3.781490609","decile":"6","lat":40.019676190272,"lng":-111.747323559531},{"id":"35410","name":"Ms. Antonette Batz","party":"Rep","address":"818 W 1500 S, Payson, UT 84651","precinct":"25PA11","hd":"65","v_score":"3.781490609","decile":"6","lat":40.019310089478,"lng":-111.745657398568},{"id":"36618","name":"Giovani Gleason MD","party":"","address":"1598 S 790 W, Payson, UT 84651","precinct":"25PA11","hd":"65","v_score":"0","decile":"1","lat":40.017041678656,"lng":-111.745387770661},{"id":"37314","name":"Amalie Eichmann-Kreiger","party":"Rep","address":"694 W 1410 S, Payson, UT 84651","precinct":"25PA11","hd":"65","v_score":"4.224027","decile":"7","lat":40.022290655713,"lng":-111.743693389949},{"id":"38329","name":"Miss Riya Swaniawski DDS","party":"","address":"1144 S Highway 198, Payson, UT 84651","precinct":"25PA11","hd":"65","v_score":"6.814370645","decile":"8","lat":40.026209255388,"lng":-111.741028955407},{"id":"39157","name":"Boss Baumbach-Kub","party":"Dem","address":"1342 S 830 W, Payson, UT 84651","precinct":"25PA11","hd":"65","v_score":"2.587603312","decile":"5","lat":40.025238572451,"lng":-111.74619268125},{"id":"41080","name":"Davey Parisian-Stiedemann","party":"","address":"661 W 1340 S, Payson, UT 84651","precinct":"25PA11","hd":"65","v_score":"1.121327652","decile":"3","lat":40.023332739201,"lng":-111.74319879753},{"id":"41138","name":"Carly Swaniawski","party":"Dem","address":"834 W 1500 S, Payson, UT 84651","precinct":"25PA11","hd":"65","v_score":"18.71521791","decile":"10","lat":40.019349329373,"lng":-111.745876883161},{"id":"41337","name":"Elease Smith","party":"","address":"1149 S 780 W, Payson, UT 84651","precinct":"25PA11","hd":"65","v_score":"0","decile":"1","lat":40.026419594272,"lng":-111.745067066088},{"id":"41932","name":"Ardath Keeling","party":"Rep","address":"824 W 1550 S, Payson, UT 84651","precinct":"25PA11","hd":"65","v_score":"6.724398202","decile":"8","lat":40.018650404714,"lng":-111.74577737118},{"id":"41933","name":"Meryl Schneider","party":"","address":"742 W 1550 S, Payson, UT 84651","precinct":"25PA11","hd":"65","v_score":"0","decile":"1","lat":40.018586877597,"lng":-111.744143562606},{"id":"43038","name":"Jesse Hudson","party":"Dem","address":"854 W 1235 S, Payson, UT 84651","precinct":"25PA11","hd":"65","v_score":"1.193887297","decile":"3","lat":40.025018215341,"lng":-111.746646426964},{"id":"43107","name":"Zetta Hintz","party":"","address":"1613 S 840 W, Payson, UT 84651","precinct":"25PA11","hd":"65","v_score":"7.493443096","decile":"8","lat":40.017127751247,"lng":-111.746191040588},{"id":"43943","name":"Christop Cummerata","party":"","address":"802 Big Leaf Ct, Payson, UT 84651","precinct":"25PA11","hd":"65","v_score":"0","decile":"1","lat":40.021840942683,"lng":-111.745741735733},{"id":"44063","name":"Lidie Kautzer DVM","party":"","address":"1441 S 780 W, Payson, UT 84651","precinct":"25PA11","hd":"65","v_score":"14.131145","decile":"9","lat":40.021331937887,"lng":-111.745164063177},{"id":"44090","name":"Wendel Ferry","party":"","address":"1206 S 880 W, Payson, UT 84651","precinct":"25PA11","hd":"65","v_score":"2.315214949","decile":"5","lat":40.025426755297,"lng":-111.747160258431},{"id":"44127","name":"Leonard Stamm","party":"Rep","address":"728 W 1550 S, Payson, UT 84651","precinct":"25PA11","hd":"65","v_score":"1.121327652","decile":"3","lat":40.018538362624,"lng":-111.74395696663},{"id":"45776","name":"Buffy VonRueden-Beatty","party":"Dem","address":"1434 S 680 W, Payson, UT 84651","precinct":"25PA11","hd":"65","v_score":"1.121327652","decile":"3","lat":40.021827949595,"lng":-111.743296764453},{"id":"46059","name":"Dr. Caden Kreiger I","party":"","address":"841 W 1235 S, Payson, UT 84651","precinct":"25PA11","hd":"65","v_score":"2.315214949","decile":"5","lat":40.024900553673,"lng":-111.74631420522},{"id":"46332","name":"Harvy Huels Sr.","party":"Dem","address":"1595 S 790 W, Payson, UT 84651","precinct":"25PA11","hd":"65","v_score":"1.46627566","decile":"4","lat":40.01702974879,"lng":-111.745237037985},{"id":"46481","name":"Dr. May Hansen MD","party":"Rep","address":"851 W 1150 S, Payson, UT 84651","precinct":"25PA11","hd":"65","v_score":"1.193887297","decile":"3","lat":40.026271223254,"lng":-111.734893604041},{"id":"47274","name":"Makayla Stroman DDS","party":"Dem","address":"766 W 1550 S, Payson, UT 84651","precinct":"25PA11","hd":"65","v_score":"3.997370217","decile":"6","lat":40.018662265661,"lng":-111.744639111962},{"id":"47309","name":"Julio Fritsch","party":"","address":"799 W 1150 S, Payson, UT 84651","precinct":"25PA11","hd":"65","v_score":"2.315214949","decile":"5","lat":40.026272559392,"lng":-111.734746182284},{"id":"47566","name":"Doc Dicki","party":"","address":"1554 S 840 W, Payson, UT 84651","precinct":"25PA11","hd":"65","v_score":"25.99640486","decile":"10","lat":40.017940036029,"lng":-111.746307219379},{"id":"47736","name":"Caylee Spencer","party":"","address":"674 W 1400 S, Payson, UT 84651","precinct":"25PA11","hd":"65","v_score":"9.682978083","decile":"8","lat":40.02274188131,"lng":-111.743065813739},{"id":"47738","name":"Davian O'Reilly","party":"Dem","address":"674 W 1400 S, Payson, UT 84651","precinct":"25PA11","hd":"65","v_score":"2.587603312","decile":"5","lat":40.02274188131,"lng":-111.743065813739},{"id":"47930","name":"Freda Stanton-Flatley","party":"","address":"1443 S 930 W, Payson, UT 84651","precinct":"25PA11","hd":"65","v_score":"1.46627566","decile":"4","lat":40.018909915776,"lng":-111.74829657564},{"id":"48207","name":"Delbert Rowe","party":"Rep","address":"1325 S 780 W, Payson, UT 84651","precinct":"25PA11","hd":"65","v_score":"0","decile":"1","lat":40.023569712725,"lng":-111.745157092417},{"id":"48806","name":"Valarie VonRueden","party":"Dem","address":"1483 S Red Maple Ct, Payson, UT 84651","precinct":"25PA11","hd":"65","v_score":"6.364334873","decile":"7","lat":40.020031581426,"lng":-111.744044074651},{"id":"49007","name":"Martika Buckridge","party":"","address":"766 W 1550 S, Payson, UT 84651","precinct":"25PA11","hd":"65","v_score":"5.463645877","decile":"7","lat":40.018662265661,"lng":-111.744639111962},{"id":"49139","name":"Zebulon Corwin-Wehner","party":"Rep","address":"1586 S 910 W, Payson, UT 84651","precinct":"25PA11","hd":"65","v_score":"2.315214949","decile":"5","lat":40.017498878468,"lng":-111.747468526007},{"id":"49258","name":"Dr. Maye Hammes","party":"Dem","address":"814 Big Leaf Ct, Payson, UT 84651","precinct":"25PA11","hd":"65","v_score":"4.13679489","decile":"7","lat":40.021841405703,"lng":-111.7457926675},{"id":"50264","name":"Davian Kreiger","party":"Dem","address":"854 W 1235 S, Payson, UT 84651","precinct":"25PA11","hd":"65","v_score":"0","decile":"1","lat":40.025018215341,"lng":-111.746646426964},{"id":"50286","name":"Mrs. Cora O'Hara MD","party":"Dem","address":"1325 S 880 W, Payson, UT 84651","precinct":"25PA11","hd":"65","v_score":"3.781490609","decile":"6","lat":40.023941805693,"lng":-111.747062080417},{"id":"50559","name":"Nikolas Rau-O'Kon","party":"Dem","address":"841 W 1235 S, Payson, UT 84651","precinct":"25PA11","hd":"65","v_score":"1.121327652","decile":"3","lat":40.024900553673,"lng":-111.74631420522},{"id":"51638","name":"Rogelio Rolfson","party":"","address":"1474 S 910 W, Payson, UT 84651","precinct":"25PA11","hd":"65","v_score":"0","decile":"1","lat":40.020084996657,"lng":-111.747472824658},{"id":"52307","name":"Lena Kessler","party":"Rep","address":"1249 S 880 W, Payson, UT 84651","precinct":"25PA11","hd":"65","v_score":"3.93832808","decile":"6","lat":40.024761184629,"lng":-111.747030842709},{"id":"52819","name":"Weaver Frami","party":"Rep","address":"1587 S 930 W, Payson, UT 84651","precinct":"25PA11","hd":"65","v_score":"2.315214949","decile":"5","lat":40.017361768738,"lng":-111.748297326315},{"id":"52912","name":"Reinaldo Steuber MD","party":"Rep","address":"1464 S 910 W, Payson, UT 84651","precinct":"25PA11","hd":"65","v_score":"5.40460374","decile":"7","lat":40.020430565594,"lng":-111.747477743264},{"id":"52972","name":"Erlinda Altenwerth","party":"Rep","address":"1178 S 780 W, Payson, UT 84651","precinct":"25PA11","hd":"65","v_score":"1.46627566","decile":"4","lat":40.025945546605,"lng":-111.745224473469},{"id":"53767","name":"Tab Runolfsdottir","party":"","address":"766 W 1550 S, Payson, UT 84651","precinct":"25PA11","hd":"65","v_score":"3.781490609","decile":"6","lat":40.018662265661,"lng":-111.744639111962},{"id":"55312","name":"Author Lubowitz","party":"","address":"803 W Big Leaf Ct, Payson, UT 84651","precinct":"25PA11","hd":"65","v_score":"2.315214949","decile":"5","lat":40.021726359365,"lng":-111.745743511972},{"id":"55556","name":"Sue Auer","party":"Dem","address":"1153 S 680 W, Payson, UT 84651","precinct":"25PA11","hd":"65","v_score":"5.331806201","decile":"7","lat":40.026463761753,"lng":-111.743209002643},{"id":"55896","name":"Samson McCullough","party":"","address":"1455 S 910 W, Payson, UT 84651","precinct":"25PA11","hd":"65","v_score":"1.193887297","decile":"3","lat":40.020798296139,"lng":-111.747332573334},{"id":"56751","name":"Eliseo Davis","party":"","address":"1162 S 680 W, Payson, UT 84651","precinct":"25PA11","hd":"65","v_score":"20.12498482","decile":"10","lat":40.026356878134,"lng":-111.743357413529},{"id":"56756","name":"Jaylan White Sr.","party":"","address":"1498 S 910 W, Payson, UT 84651","precinct":"25PA11","hd":"65","v_score":"1.121327652","decile":"3","lat":40.019417881033,"lng":-111.747488722183},{"id":"57686","name":"Cathi Schroeder","party":"","address":"1505 S 780 W, Payson, UT 84651","precinct":"25PA11","hd":"65","v_score":"0","decile":"1","lat":40.019142621857,"lng":-111.745200307419},{"id":"58467","name":"Sommer Beatty","party":"Dem","address":"1248 S 780 W, Payson, UT 84651","precinct":"25PA11","hd":"65","v_score":"1.193887297","decile":"3","lat":40.024520833514,"lng":-111.74523321169},{"id":"58754","name":"Austen Zemlak","party":"","address":"1182 S 730 W, Payson, UT 84651","precinct":"25PA11","hd":"65","v_score":"1.121327652","decile":"3","lat":40.026160775683,"lng":-111.744270213699},{"id":"58836","name":"Bettye Gleason","party":"Rep","address":"1202 S 830 W, Payson, UT 84651","precinct":"25PA11","hd":"65","v_score":"14.40759057","decile":"9","lat":40.025802053123,"lng":-111.746194610906},{"id":"58895","name":"Mr. Collis Oberbrunner III","party":"Dem","address":"809 W 1570 S, Payson, UT 84651","precinct":"25PA11","hd":"65","v_score":"1.193887297","decile":"3","lat":40.017637840033,"lng":-111.745583149141},{"id":"59237","name":"Justyn Jerde","party":"","address":"795 Big Leaf Ct, Payson, UT 84651","precinct":"25PA11","hd":"65","v_score":"1.121327652","decile":"3","lat":40.021726050685,"lng":-111.74570955746},{"id":"59252","name":"Cody Greenfelder","party":"Dem","address":"1559 S 840 W, Payson, UT 84651","precinct":"25PA11","hd":"65","v_score":"8.670935747","decile":"8","lat":40.017867446833,"lng":-111.74616454809},{"id":"59646","name":"Debrah Tromp-Schroeder","party":"Dem","address":"1579 S 910 W, Payson, UT 84651","precinct":"25PA11","hd":"65","v_score":"0","decile":"1","lat":40.017682537008,"lng":-111.747316016467},{"id":"60153","name":"Mrs. Drew Reichel","party":"Rep","address":"1613 S 840 W, Payson, UT 84651","precinct":"25PA11","hd":"65","v_score":"0","decile":"1","lat":40.017127751247,"lng":-111.746191040588},{"id":"60427","name":"Virginia Hintz","party":"Rep","address":"823 Sugar Maple Ct, Payson, UT 84651","precinct":"25PA11","hd":"65","v_score":"1.193887297","decile":"3","lat":40.022213130324,"lng":-111.745825629417},{"id":"60876","name":"Dr. Hedy Ward DDS","party":"","address":"1573 S 740 W, Payson, UT 84651","precinct":"25PA11","hd":"65","v_score":"0","decile":"1","lat":40.017641445453,"lng":-111.744304572553},{"id":"61237","name":"Ms. Cecile Veum DVM","party":"","address":"1174 S 680 W, Payson, UT 84651","precinct":"25PA11","hd":"65","v_score":"0","decile":"1","lat":40.026229316237,"lng":-111.743355113969},{"id":"61373","name":"Hallie McDermott","party":"","address":"848 W 1500 S, Payson, UT 84651","precinct":"25PA11","hd":"65","v_score":"5.273794831","decile":"7","lat":40.019406698113,"lng":-111.746084582276},{"id":"61374","name":"Kingston Cartwright","party":"","address":"848 W 1500 S, Payson, UT 84651","precinct":"25PA11","hd":"65","v_score":"9.839815554","decile":"8","lat":40.019406698113,"lng":-111.746084582276},{"id":"61701","name":"Jiles Stoltenberg","party":"Dem","address":"1415 S 780 W, Payson, UT 84651","precinct":"25PA11","hd":"65","v_score":"0","decile":"1","lat":40.022101622747,"lng":-111.745160072354},{"id":"61702","name":"Belton Ledner-Crist","party":"","address":"1415 S 780 W, Payson, UT 84651","precinct":"25PA11","hd":"65","v_score":"0","decile":"1","lat":40.022101622747,"lng":-111.745160072354},{"id":"62514","name":"Ms. Holli Kuvalis PhD","party":"Rep","address":"1461 S 910 W, Payson, UT 84651","precinct":"25PA11","hd":"65","v_score":"2.876042565","decile":"6","lat":40.020610610483,"lng":-111.747330487962},{"id":"62544","name":"Hillard Kulas","party":"Dem","address":"905 W 1620 S, Payson, UT 84651","precinct":"25PA11","hd":"65","v_score":"1.193887297","decile":"3","lat":40.016086133531,"lng":-111.747147522274},{"id":"64177","name":"Miss Jami Jones","party":"Dem","address":"829 W 1235 S, Payson, UT 84651","precinct":"25PA11","hd":"65","v_score":"5.687348376","decile":"7","lat":40.024898739237,"lng":-111.746042068867},{"id":"64258","name":"Tamiko O'Hara","party":"","address":"841 W 1350 S, Payson, UT 84651","precinct":"25PA11","hd":"65","v_score":"1.121327652","decile":"3","lat":40.023179739457,"lng":-111.746352570909},{"id":"64616","name":"Kloe Ebert","party":"","address":"1192 S 780 W, Payson, UT 84651","precinct":"25PA11","hd":"65","v_score":"2.817000428","decile":"6","lat":40.025763670699,"lng":-111.745226999546},{"id":"65227","name":"Jelani Altenwerth","party":"Rep","address":"1483 S Red Maple Ct, Payson, UT 84651","precinct":"25PA11","hd":"65","v_score":"1.121327652","decile":"3","lat":40.020031581426,"lng":-111.744044074651},{"id":"65399","name":"Bernetta Buckridge-Klocko","party":"","address":"905 W 1620 S, Payson, UT 84651","precinct":"25PA11","hd":"65","v_score":"3.93832808","decile":"6","lat":40.016086133531,"lng":-111.747147522274},{"id":"65887","name":"Ms. Noelle Bruen MD","party":"","address":"1477 S 700 W, Payson, UT 84651","precinct":"25PA11","hd":"65","v_score":"0","decile":"1","lat":40.020085634359,"lng":-111.743533722868},{"id":"66284","name":"French Koch-Connelly","party":"Dem","address":"1477 S 930 W, Payson, UT 84651","precinct":"25PA11","hd":"65","v_score":"0","decile":"1","lat":40.018833962766,"lng":-111.74829657565},{"id":"67272","name":"Verla Hartmann","party":"Rep","address":"1423 S 780 W, Payson, UT 84651","precinct":"25PA11","hd":"65","v_score":"1.121327652","decile":"3","lat":40.021889389284,"lng":-111.745160072717},{"id":"67970","name":"Lora Strosin Sr.","party":"","address":"905 W 1620 S, Payson, UT 84651","precinct":"25PA11","hd":"65","v_score":"1.193887297","decile":"3","lat":40.016086133531,"lng":-111.747147522274},{"id":"68071","name":"Adalyn Jerde","party":"Dem","address":"1538 S 780 W, Payson, UT 84651","precinct":"25PA11","hd":"65","v_score":"2.315214949","decile":"5","lat":40.018853449425,"lng":-111.745317229524},{"id":"68086","name":"Anne Herzog DDS","party":"Rep","address":"1512 S 910 W, Payson, UT 84651","precinct":"25PA11","hd":"65","v_score":"0","decile":"1","lat":40.019162846616,"lng":-111.747482217936},{"id":"68872","name":"Holli Walter","party":"Rep","address":"848 W 1550 S, Payson, UT 84651","precinct":"25PA11","hd":"65","v_score":"2.817000428","decile":"6","lat":40.018635852714,"lng":-111.746297216315},{"id":"72425","name":"Adela Dooley DVM","party":"Rep","address":"728 W 1550 S, Payson, UT 84651","precinct":"25PA11","hd":"65","v_score":"2.315214949","decile":"5","lat":40.018538362624,"lng":-111.74395696663},{"id":"73004","name":"Dr. Isaac Williamson","party":"Rep","address":"1415 S 780 W, Payson, UT 84651","precinct":"25PA11","hd":"65","v_score":"3.93832808","decile":"6","lat":40.022101622747,"lng":-111.745160072354},{"id":"73589","name":"Mrs. Vicky Gusikowski DVM","party":"Dem","address":"1434 S 680 W, Payson, UT 84651","precinct":"25PA11","hd":"65","v_score":"2.817000428","decile":"6","lat":40.021827949595,"lng":-111.743296764453},{"id":"73611","name":"Somer Reynolds","party":"Dem","address":"1489 S 910 W, Payson, UT 84651","precinct":"25PA11","hd":"65","v_score":"10.52632313","decile":"9","lat":40.019793721736,"lng":-111.747320587738},{"id":"73612","name":"Mell Quitzon","party":"Rep","address":"1489 S 910 W, Payson, UT 84651","precinct":"25PA11","hd":"65","v_score":"10.52632313","decile":"9","lat":40.019793721736,"lng":-111.747320587738},{"id":"74083","name":"Leticia Lind","party":"Dem","address":"1475 S 910 W, Payson, UT 84651","precinct":"25PA11","hd":"65","v_score":"2.315214949","decile":"5","lat":40.020134456568,"lng":-111.747323629969},{"id":"76326","name":"Bernetta Nikolaus","party":"","address":"1331 S 650 W, Payson, UT 84651","precinct":"25PA11","hd":"65","v_score":"2.315214949","decile":"5","lat":40.023579055093,"lng":-111.742463822337},{"id":"76888","name":"Tiffany Schmitt","party":"Rep","address":"925 W 1420 S, Payson, UT 84651","precinct":"25PA11","hd":"65","v_score":"1.193887297","decile":"3","lat":40.021988965175,"lng":-111.747671892532},{"id":"78410","name":"Mr. Arlyn Fritsch III","party":"Rep","address":"813 Brookside Ct, Payson, UT 84651","precinct":"25PA11","hd":"65","v_score":"0","decile":"1","lat":40.020715371423,"lng":-111.745406259537},{"id":"78735","name":"Loy Bartell","party":"Rep","address":"813 W 1150 S, Payson, UT 84651","precinct":"25PA11","hd":"65","v_score":"1.121327652","decile":"3","lat":40.026272199662,"lng":-111.734785872757},{"id":"79274","name":"Kamari Murray","party":"Dem","address":"705 W 1340 S, Payson, UT 84651","precinct":"25PA11","hd":"65","v_score":"2.315214949","decile":"5","lat":40.023332739226,"lng":-111.743527131148},{"id":"79837","name":"Layton Wunsch","party":"Rep","address":"1135 S 880 W, Payson, UT 84651","precinct":"25PA11","hd":"65","v_score":"3.93832808","decile":"6","lat":40.02653021926,"lng":-111.7470582721},{"id":"79992","name":"Skyler Marks","party":"Rep","address":"1589 S 840 W, Payson, UT 84651","precinct":"25PA11","hd":"65","v_score":"1.121327652","decile":"3","lat":40.017426592816,"lng":-111.746169613674},{"id":"80916","name":"Severo Murazik","party":"","address":"705 W 1340 S, Payson, UT 84651","precinct":"25PA11","hd":"65","v_score":"0","decile":"1","lat":40.023332739226,"lng":-111.743527131148},{"id":"81134","name":"Collette Ullrich","party":"Rep","address":"1469 S 910 W, Payson, UT 84651","precinct":"25PA11","hd":"65","v_score":"0","decile":"1","lat":40.020360695829,"lng":-111.747326801018},{"id":"81223","name":"Edsel Labadie-Mills","party":"Dem","address":"1428 S 730 W, Payson, UT 84651","precinct":"25PA11","hd":"65","v_score":"1.193887297","decile":"3","lat":40.021865821349,"lng":-111.74436043646},{"id":"81478","name":"Cal Casper","party":"Dem","address":"907 W 1500 S, Payson, UT 84651","precinct":"25PA11","hd":"65","v_score":"1.193887297","decile":"3","lat":40.019291739958,"lng":-111.747074390243},{"id":"81672","name":"Buster Von","party":"Dem","address":"794 Brookside Ct, Payson, UT 84651","precinct":"25PA11","hd":"65","v_score":"1.193887297","decile":"3","lat":40.020832634726,"lng":-111.745692578842},{"id":"82164","name":"Liam Hane","party":"Rep","address":"818 W 1500 S, Payson, UT 84651","precinct":"25PA11","hd":"65","v_score":"0","decile":"1","lat":40.019310089478,"lng":-111.745657398568},{"id":"82637","name":"Roberto Mayer","party":"Rep","address":"808 W 1570 S, Payson, UT 84651","precinct":"25PA11","hd":"65","v_score":"0","decile":"1","lat":40.017787824898,"lng":-111.745870118894},{"id":"83058","name":"Adrienne Huels-Carroll","party":"Rep","address":"1552 S 740 W, Payson, UT 84651","precinct":"25PA11","hd":"65","v_score":"0","decile":"1","lat":40.018055761992,"lng":-111.744409496224},{"id":"83096","name":"Mykel Bode","party":"Dem","address":"1465 S Red Maple Ct, Payson, UT 84651","precinct":"25PA11","hd":"65","v_score":"1.193887297","decile":"3","lat":40.020147738094,"lng":-111.744044074636},{"id":"83361","name":"Mr. Mykel O'Keefe Sr.","party":"","address":"1151 S 880 W, Payson, UT 84651","precinct":"25PA11","hd":"65","v_score":"0","decile":"1","lat":40.026199531797,"lng":-111.746974998336},{"id":"83513","name":"Elyse Klocko","party":"","address":"1137 S 680 W, Payson, UT 84651","precinct":"25PA11","hd":"65","v_score":"0","decile":"1","lat":40.026633143118,"lng":-111.743210972172},{"id":"83594","name":"Dr. Zena Schultz","party":"Rep","address":"1607 S 840 W, Payson, UT 84651","precinct":"25PA11","hd":"65","v_score":"2.817000428","decile":"6","lat":40.017205232244,"lng":-111.746175239521},{"id":"84870","name":"Josephus Abbott","party":"Dem","address":"1428 S 730 W, Payson, UT 84651","precinct":"25PA11","hd":"65","v_score":"1.193887297","decile":"3","lat":40.021865821349,"lng":-111.74436043646},{"id":"86965","name":"Rosia Donnelly","party":"Rep","address":"802 W Big Leaf Ct, Payson, UT 84651","precinct":"25PA11","hd":"65","v_score":"3.61989409","decile":"6","lat":40.021840942683,"lng":-111.745741735733},{"id":"87219","name":"Dr. Manley Erdman PhD","party":"Rep","address":"818 W 1500 S, Payson, UT 84651","precinct":"25PA11","hd":"65","v_score":"0","decile":"1","lat":40.019310089478,"lng":-111.745657398568},{"id":"88808","name":"Jabbar Herzog","party":"Rep","address":"708 W 1460 S, Payson, UT 84651","precinct":"25PA11","hd":"65","v_score":"0","decile":"1","lat":40.020673256339,"lng":-111.74439460109},{"id":"88937","name":"Shaquita Gislason-Lebsack","party":"","address":"1577 S 790 W, Payson, UT 84651","precinct":"25PA11","hd":"65","v_score":"2.817000428","decile":"6","lat":40.017266793037,"lng":-111.74518189896},{"id":"89183","name":"Atticus Weimann","party":"Dem","address":"1586 S 910 W, Payson, UT 84651","precinct":"25PA11","hd":"65","v_score":"1.193887297","decile":"4","lat":40.017498878468,"lng":-111.747468526007},{"id":"89346","name":"Tavian Treutel","party":"Rep","address":"1575 S 930 W, Payson, UT 84651","precinct":"25PA11","hd":"65","v_score":"2.876042565","decile":"6","lat":40.017736007701,"lng":-111.748292076324},{"id":"89407","name":"Mrs. Jesse Bernier DVM","party":"","address":"1491 S 910 W, Payson, UT 84651","precinct":"25PA11","hd":"65","v_score":"1.193887297","decile":"4","lat":40.019676190272,"lng":-111.747323559531},{"id":"90533","name":"Justin Eichmann-Luettgen","party":"","address":"1201 S 830 W, Payson, UT 84651","precinct":"25PA11","hd":"65","v_score":"1.193887297","decile":"4","lat":40.025810403342,"lng":-111.746044992971},{"id":"91902","name":"Jeannette Gulgowski DVM","party":"Rep","address":"793 W 1620 S, Payson, UT 84651","precinct":"25PA11","hd":"65","v_score":"0","decile":"1","lat":40.016076301752,"lng":-111.746200085156},{"id":"92171","name":"Adela Bashirian","party":"","address":"793 W 1620 S, Payson, UT 84651","precinct":"25PA11","hd":"65","v_score":"0","decile":"1","lat":40.016076301752,"lng":-111.746200085156},{"id":"92247","name":"Makhi Lowe","party":"","address":"895 W 1100 S, Payson, UT 84651","precinct":"25PA11","hd":"65","v_score":"0","decile":"1","lat":40.026983609004,"lng":-111.747503375718},{"id":"92744","name":"Josiah Sipes","party":"","address":"1467 S Silver Maple Ct, Payson, UT 84651","precinct":"25PA11","hd":"65","v_score":"0","decile":"1","lat":40.020135095957,"lng":-111.744702664434},{"id":"92779","name":"Dania Ferry","party":"","address":"848 W 1550 S, Payson, UT 84651","precinct":"25PA11","hd":"65","v_score":"1.193887297","decile":"4","lat":40.018635852714,"lng":-111.746297216315},{"id":"93296","name":"Rayshawn Pfeffer-Langworth","party":"Dem","address":"1607 S 840 W, Payson, UT 84651","precinct":"25PA11","hd":"65","v_score":"1.193887297","decile":"4","lat":40.017205232244,"lng":-111.746175239521},{"id":"93546","name":"Butch Purdy-Mraz","party":"","address":"1315 S 780 W, Payson, UT 84651","precinct":"25PA11","hd":"65","v_score":"0","decile":"1","lat":40.023683567776,"lng":-111.745156715399},{"id":"94094","name":"Ms. Jean Nolan DVM","party":"","address":"728 W 1550 S, Payson, UT 84651","precinct":"25PA11","hd":"65","v_score":"0","decile":"1","lat":40.018538362624,"lng":-111.74395696663},{"id":"94613","name":"Corina Maggio","party":"","address":"1438 S 680 W, Payson, UT 84651","precinct":"25PA11","hd":"65","v_score":"9.40499548","decile":"8","lat":40.021806281086,"lng":-111.743300014732},{"id":"95106","name":"Alfonso Eichmann","party":"Dem","address":"793 W 1620 S, Payson, UT 84651","precinct":"25PA11","hd":"65","v_score":"0","decile":"1","lat":40.016076301752,"lng":-111.746200085156},{"id":"95793","name":"Lorin Cremin","party":"Rep","address":"851 W 1150 S, Payson, UT 84651","precinct":"25PA11","hd":"65","v_score":"1.193887297","decile":"4","lat":40.026271223254,"lng":-111.734893604041},{"id":"96446","name":"Ms. Kasie Hodkiewicz","party":"","address":"1105 S 680 W, Payson, UT 84651","precinct":"25PA11","hd":"65","v_score":"0","decile":"1","lat":40.026971905848,"lng":-111.74321491123},{"id":"97305","name":"Tiffany Kuvalis-Koelpin","party":"","address":"1250 S 880 W, Payson, UT 84651","precinct":"25PA11","hd":"65","v_score":"2.817000428","decile":"6","lat":40.024728942306,"lng":-111.747182601017},{"id":"97899","name":"Tammi Parker-Crist","party":"","address":"1552 S 910 W, Payson, UT 84651","precinct":"25PA11","hd":"65","v_score":"2.817000428","decile":"6","lat":40.018365497048,"lng":-111.747454984982},{"id":"98115","name":"Miss Elena Gerhold DVM","party":"Dem","address":"1111 S 880 W, Payson, UT 84651","precinct":"25PA11","hd":"65","v_score":"2.817000428","decile":"6","lat":40.0268441247,"lng":-111.747106523929},{"id":"99198","name":"Caesar Homenick","party":"","address":"1438 S 730 W, Payson, UT 84651","precinct":"25PA11","hd":"65","v_score":"0","decile":"1","lat":40.021695772736,"lng":-111.74436101884},{"id":"99524","name":"Kaylah Walter","party":"Dem","address":"1561 S 910 W, Payson, UT 84651","precinct":"25PA11","hd":"65","v_score":"0","decile":"1","lat":40.018124342559,"lng":-111.7473091132},{"id":"100147","name":"Dr. Christina Kerluke DDS","party":"","address":"1105 S 680 W, Payson, UT 84651","precinct":"25PA11","hd":"65","v_score":"0","decile":"1","lat":40.026971905848,"lng":-111.74321491123},{"id":"100727","name":"Darien Wintheiser","party":"","address":"813 W 1150 S, Payson, UT 84651","precinct":"25PA11","hd":"65","v_score":"0","decile":"1","lat":40.026272199662,"lng":-111.734785872757},{"id":"100804","name":"Kecia Schneider","party":"","address":"672 W 1410 S, Payson, UT 84651","precinct":"25PA11","hd":"65","v_score":"0","decile":"2","lat":40.022287118545,"lng":-111.743583738003},{"id":"101437","name":"Tyriq Heller-Hartmann","party":"Dem","address":"1573 S 740 W, Payson, UT 84651","precinct":"25PA11","hd":"65","v_score":"0","decile":"2","lat":40.017641445453,"lng":-111.744304572553},{"id":"101896","name":"Priscila Kiehn","party":"","address":"841 W 1350 S, Payson, UT 84651","precinct":"25PA11","hd":"65","v_score":"0","decile":"2","lat":40.023179739457,"lng":-111.746352570909},{"id":"103295","name":"Colie Shanahan-Abshire","party":"Dem","address":"1595 S 840 W, Payson, UT 84651","precinct":"25PA11","hd":"65","v_score":"0","decile":"2","lat":40.017353523314,"lng":-111.746168078135},{"id":"103418","name":"Hence Treutel","party":"","address":"802 W Brookside Ct, Payson, UT 84651","precinct":"25PA11","hd":"65","v_score":"11.83100227","decile":"9","lat":40.020832942129,"lng":-111.745725624373},{"id":"103783","name":"Mr. Camryn Cartwright Jr.","party":"Dem","address":"1331 S 650 W, Payson, UT 84651","precinct":"25PA11","hd":"65","v_score":"1.193887297","decile":"4","lat":40.023579055093,"lng":-111.742463822337},{"id":"104093","name":"Octave Grady","party":"Rep","address":"1438 S 910 W, Payson, UT 84651","precinct":"25PA11","hd":"65","v_score":"0","decile":"2","lat":40.02135179871,"lng":-111.747485741988},{"id":"105811","name":"Augustin Hodkiewicz V","party":"Dem","address":"1331 S 650 W, Payson, UT 84651","precinct":"25PA11","hd":"65","v_score":"0","decile":"2","lat":40.023579055093,"lng":-111.742463822337},{"id":"105854","name":"Dr. Napoleon Eichmann","party":"","address":"826 Sugar Maple Ct, Payson, UT 84651","precinct":"25PA11","hd":"65","v_score":"1.193887297","decile":"4","lat":40.022327867782,"lng":-111.74584073137},{"id":"106786","name":"Britany Gulgowski","party":"","address":"1338 S 780 W, Payson, UT 84651","precinct":"25PA11","hd":"65","v_score":"14.42196415","decile":"9","lat":40.023421280147,"lng":-111.745307222536},{"id":"107026","name":"Mr. Gino Quigley","party":"Dem","address":"803 Sugar Maple Ct, Payson, UT 84651","precinct":"25PA11","hd":"65","v_score":"0","decile":"2","lat":40.022212359252,"lng":-111.745741197781},{"id":"107347","name":"Doug Schmeler","party":"Dem","address":"1444 S 910 W, Payson, UT 84651","precinct":"25PA11","hd":"65","v_score":"4.069929862","decile":"7","lat":40.021101193149,"lng":-111.747485579334},{"id":"108870","name":"Dellar Romaguera","party":"Dem","address":"864 W 1550 S, Payson, UT 84651","precinct":"25PA11","hd":"65","v_score":"1.193887297","decile":"4","lat":40.018629954837,"lng":-111.746435816656},{"id":"108962","name":"Tyriq Mayer","party":"Dem","address":"1286 S 780 W, Payson, UT 84651","precinct":"25PA11","hd":"65","v_score":"10.71001167","decile":"9","lat":40.024022577137,"lng":-111.745305231409},{"id":"109065","name":"Mrs. Gracie Roberts DVM","party":"","address":"861 W 1235 S, Payson, UT 84651","precinct":"25PA11","hd":"65","v_score":"1.193887297","decile":"4","lat":40.024902795133,"lng":-111.746557401543},{"id":"110211","name":"Flint Bradtke","party":"Dem","address":"1138 S 680 W, Payson, UT 84651","precinct":"25PA11","hd":"65","v_score":"0","decile":"2","lat":40.026610950182,"lng":-111.743360367822},{"id":"110934","name":"Miss Leota Bahringer","party":"Rep","address":"1435 S 730 W, Payson, UT 84651","precinct":"25PA11","hd":"65","v_score":"0","decile":"2","lat":40.021652439489,"lng":-111.744211530231},{"id":"112106","name":"Wilford Kuhlman","party":"","address":"1463 S Silver Maple Ct, Payson, UT 84651","precinct":"25PA11","hd":"65","v_score":"3.61989409","decile":"6","lat":40.0201609086,"lng":-111.744702819929},{"id":"112720","name":"Nonie Paucek DVM","party":"Rep","address":"1428 S 680 W, Payson, UT 84651","precinct":"25PA11","hd":"65","v_score":"0","decile":"2","lat":40.021860452359,"lng":-111.743291889035},{"id":"113162","name":"Amarion Will","party":"","address":"1438 S 680 W, Payson, UT 84651","precinct":"25PA11","hd":"65","v_score":"0","decile":"2","lat":40.021806281086,"lng":-111.743300014732},{"id":"113484","name":"Mr. Cain Rath","party":"Rep","address":"1573 S 910 W, Payson, UT 84651","precinct":"25PA11","hd":"65","v_score":"1.193887297","decile":"4","lat":40.017829805525,"lng":-111.747313715378},{"id":"113873","name":"Josue Schowalter-Lang","party":"Rep","address":"794 Big Leaf Ct, Payson, UT 84651","precinct":"25PA11","hd":"65","v_score":"4.214075011","decile":"7","lat":40.021840634003,"lng":-111.745707781221},{"id":"115676","name":"Hiroshi Gleason","party":"Rep","address":"648 W 1400 S, Payson, UT 84651","precinct":"25PA11","hd":"65","v_score":"0","decile":"2","lat":40.022742974997,"lng":-111.742821917455},{"id":"116056","name":"Hosteen Hills I","party":"Rep","address":"1586 S 910 W, Payson, UT 84651","precinct":"25PA11","hd":"65","v_score":"0","decile":"2","lat":40.017498878468,"lng":-111.747468526007},{"id":"116922","name":"Milford Greenholt","party":"Dem","address":"905 W 1620 S, Payson, UT 84651","precinct":"25PA11","hd":"65","v_score":"1.193887297","decile":"4","lat":40.016086133531,"lng":-111.747147522274},{"id":"117257","name":"Greg Rau","party":"","address":"1151 S 880 W, Payson, UT 84651","precinct":"25PA11","hd":"65","v_score":"4.069929862","decile":"7","lat":40.026199531797,"lng":-111.746974998336},{"id":"118138","name":"Wheeler Douglas DDS","party":"Dem","address":"685 W 1340 S, Payson, UT 84651","precinct":"25PA11","hd":"65","v_score":"2.876042565","decile":"6","lat":40.023332739215,"lng":-111.743377888594},{"id":"119235","name":"Gisselle Abernathy","party":"Rep","address":"1463 S Silver Maple Ct, Payson, UT 84651","precinct":"25PA11","hd":"65","v_score":"0","decile":"2","lat":40.0201609086,"lng":-111.744702819929},{"id":"119459","name":"Mr. Belton Hane MD","party":"Rep","address":"1455 S 780 W, Payson, UT 84651","precinct":"25PA11","hd":"65","v_score":"1.193887297","decile":"4","lat":40.021134270321,"lng":-111.745164573651},{"id":"120701","name":"Mallory Koch","party":"Dem","address":"1492 S 910 W, Payson, UT 84651","precinct":"25PA11","hd":"65","v_score":"1.193887297","decile":"4","lat":40.0195759975,"lng":-111.747479310469},{"id":"122299","name":"Dayton Ferry","party":"Dem","address":"822 W Sugar Maple Ct, Payson, UT 84651","precinct":"25PA11","hd":"65","v_score":"1.193887297","decile":"4","lat":40.022327713568,"lng":-111.745823845043},{"id":"123301","name":"Orland Macejkovic","party":"","address":"1552 S 910 W, Payson, UT 84651","precinct":"25PA11","hd":"65","v_score":"1.193887297","decile":"4","lat":40.018365497048,"lng":-111.747454984982},{"id":"123484","name":"Kirstie Brown","party":"Dem","address":"771 W 1280 S, Payson, UT 84651","precinct":"25PA11","hd":"65","v_score":"0","decile":"2","lat":40.024212034287,"lng":-111.745008590947},{"id":"124995","name":"Mr. Lew Veum","party":"Rep","address":"794 Brookside Ct, Payson, UT 84651","precinct":"25PA11","hd":"65","v_score":"0","decile":"2","lat":40.020832634726,"lng":-111.745692578842},{"id":"125927","name":"Vivienne Sawayn","party":"Dem","address":"1337 S 650 W, Payson, UT 84651","precinct":"25PA11","hd":"65","v_score":"0","decile":"2","lat":40.023565279347,"lng":-111.742469234238},{"id":"127958","name":"Geo Baumbach-Rogahn","party":"","address":"1431 S 910 W, Payson, UT 84651","precinct":"25PA11","hd":"65","v_score":"0","decile":"2","lat":40.02147049746,"lng":-111.747332031612},{"id":"128320","name":"Prudence Padberg","party":"Dem","address":"814 Big Leaf Ct, Payson, UT 84651","precinct":"25PA11","hd":"65","v_score":"0","decile":"2","lat":40.021841405703,"lng":-111.7457926675},{"id":"129697","name":"Lora Rogahn","party":"Rep","address":"1568 S 740 W, Payson, UT 84651","precinct":"25PA11","hd":"65","v_score":"0","decile":"2","lat":40.017819664019,"lng":-111.744393938777},{"id":"130058","name":"Gregory Graham-Glover","party":"Dem","address":"809 W 1570 S, Payson, UT 84651","precinct":"25PA11","hd":"65","v_score":"0","decile":"2","lat":40.017637840033,"lng":-111.745583149141},{"id":"131188","name":"Farris Paucek","party":"","address":"708 W 1460 S, Payson, UT 84651","precinct":"25PA11","hd":"65","v_score":"0","decile":"2","lat":40.020673256339,"lng":-111.74439460109},{"id":"131941","name":"Carmelita Strosin","party":"","address":"809 W 1570 S, Payson, UT 84651","precinct":"25PA11","hd":"65","v_score":"0","decile":"2","lat":40.017637840033,"lng":-111.745583149141},{"id":"132068","name":"Bridgette Franecki-Fahey","party":"Rep","address":"662 W 1400 S, Payson, UT 84651","precinct":"25PA11","hd":"65","v_score":"0","decile":"2","lat":40.022742386089,"lng":-111.742953246224},{"id":"132826","name":"Domenic Ledner","party":"Rep","address":"1586 S 910 W, Payson, UT 84651","precinct":"25PA11","hd":"65","v_score":"2.876042565","decile":"6","lat":40.017498878468,"lng":-111.747468526007},{"id":"133055","name":"Debra Ritchie","party":"","address":"1602 S 790 W, Payson, UT 84651","precinct":"25PA11","hd":"65","v_score":"0","decile":"2","lat":40.017009062183,"lng":-111.74539918643},{"id":"133999","name":"Carsen Reinger","party":"Dem","address":"808 W 1570 S, Payson, UT 84651","precinct":"25PA11","hd":"65","v_score":"0","decile":"2","lat":40.017787824898,"lng":-111.745870118894},{"id":"134404","name":"Carlie Haley","party":"","address":"1437 S 780 W, Payson, UT 84651","precinct":"25PA11","hd":"65","v_score":"0","decile":"2","lat":40.021443198241,"lng":-111.745163069767},{"id":"134407","name":"Janie Feeney-Corkery","party":"","address":"1455 S 780 W, Payson, UT 84651","precinct":"25PA11","hd":"65","v_score":"0","decile":"2","lat":40.021134270321,"lng":-111.745164573651},{"id":"135257","name":"Desmond Schaefer","party":"","address":"1487 S Red Maple Ct, Payson, UT 84651","precinct":"25PA11","hd":"65","v_score":"1.193887297","decile":"4","lat":40.020005768832,"lng":-111.744044074654},{"id":"135978","name":"Arabella Rempel DDS","party":"","address":"1325 S 880 W, Payson, UT 84651","precinct":"25PA11","hd":"65","v_score":"2.660162957","decile":"5","lat":40.023941805693,"lng":-111.747062080417},{"id":"137414","name":"Beau Daniel","party":"Dem","address":"1613 S 840 W, Payson, UT 84651","precinct":"25PA11","hd":"65","v_score":"13.33063124","decile":"9","lat":40.017127751247,"lng":-111.746191040588},{"id":"138111","name":"Cody Schinner","party":"Dem","address":"824 W 1150 S, Payson, UT 84651","precinct":"25PA11","hd":"65","v_score":"2.315214949","decile":"5","lat":40.026386483636,"lng":-111.73482067369},{"id":"139619","name":"Magdalene Goldner MD","party":"Dem","address":"1555 S 840 W, Payson, UT 84651","precinct":"25PA11","hd":"65","v_score":"0","decile":"2","lat":40.017912619181,"lng":-111.746159933705},{"id":"141862","name":"Elizah Harvey","party":"Rep","address":"1562 S 840 W, Payson, UT 84651","precinct":"25PA11","hd":"65","v_score":"24.85936106","decile":"10","lat":40.017852429051,"lng":-111.74631616849},{"id":"142443","name":"Tomas Walter-Friesen","party":"","address":"809 W 1570 S, Payson, UT 84651","precinct":"25PA11","hd":"65","v_score":"2.660162957","decile":"5","lat":40.017637840033,"lng":-111.745583149141},{"id":"142778","name":"Sharen Torp","party":"","address":"1293 S 830 W, Payson, UT 84651","precinct":"25PA11","hd":"65","v_score":"2.315214949","decile":"5","lat":40.025440116043,"lng":-111.746043724911},{"id":"143028","name":"Fran Harber","party":"","address":"1295 S 880 W, Payson, UT 84651","precinct":"25PA11","hd":"65","v_score":"0","decile":"3","lat":40.024195692086,"lng":-111.74705596264},{"id":"143202","name":"Evaline Ward PhD","party":"Dem","address":"1442 S 680 W, Payson, UT 84651","precinct":"25PA11","hd":"65","v_score":"22.10816128","decile":"10","lat":40.021784612577,"lng":-111.743303265011},{"id":"143807","name":"Dimitri Hirthe","party":"Dem","address":"812 W 1280 S, Payson, UT 84651","precinct":"25PA11","hd":"65","v_score":"0","decile":"3","lat":40.024320330693,"lng":-111.745950607528},{"id":"143941","name":"Dr. Randell Barton MD","party":"Dem","address":"808 W 1570 S, Payson, UT 84651","precinct":"25PA11","hd":"65","v_score":"6.550708384","decile":"7","lat":40.017787824898,"lng":-111.745870118894},{"id":"144551","name":"Dr. Lindsay Prohaska","party":"Dem","address":"1427 S 780 W, Payson, UT 84651","precinct":"25PA11","hd":"65","v_score":"8.507303088","decile":"8","lat":40.021721349124,"lng":-111.745160586241},{"id":"144570","name":"Effie Reilly","party":"","address":"1147 S 730 W, Payson, UT 84651","precinct":"25PA11","hd":"65","v_score":"1.121327652","decile":"3","lat":40.02653602154,"lng":-111.744124728429},{"id":"144575","name":"Dr. Dane Walker","party":"","address":"1293 S 830 W, Payson, UT 84651","precinct":"25PA11","hd":"65","v_score":"2.315214949","decile":"5","lat":40.025440116043,"lng":-111.746043724911},{"id":"145680","name":"Earlene Murazik-Huel","party":"","address":"917 W 1620 S, Payson, UT 84651","precinct":"25PA11","hd":"65","v_score":"1.193887297","decile":"4","lat":40.01608266388,"lng":-111.747721756797},{"id":"145753","name":"Benjamine Sipes","party":"","address":"1445 S 680 W, Payson, UT 84651","precinct":"25PA11","hd":"65","v_score":"5.40460374","decile":"7","lat":40.021760701218,"lng":-111.74315623128},{"id":"145761","name":"Brisa Hauck","party":"","address":"1445 S 680 W, Payson, UT 84651","precinct":"25PA11","hd":"65","v_score":"5.40460374","decile":"7","lat":40.021760701218,"lng":-111.74315623128},{"id":"145845","name":"Rossie Denesik","party":"Dem","address":"1247 S 780 W, Payson, UT 84651","precinct":"25PA11","hd":"65","v_score":"2.315214949","decile":"5","lat":40.024453332561,"lng":-111.74508356967},{"id":"146799","name":"Adonis Leannon","party":"","address":"799 W Sugar Maple Ct, Payson, UT 84651","precinct":"25PA11","hd":"65","v_score":"3.93832808","decile":"6","lat":40.022212205038,"lng":-111.745724311454},{"id":"147434","name":"Haruko Kuhlman","party":"","address":"1602 S 790 W, Payson, UT 84651","precinct":"25PA11","hd":"65","v_score":"7.445017574","decile":"8","lat":40.017009062183,"lng":-111.74539918643},{"id":"148243","name":"Gale Emard","party":"Dem","address":"1115 S 730 W, Payson, UT 84651","precinct":"25PA11","hd":"65","v_score":"14.95117867","decile":"9","lat":40.026868882471,"lng":-111.7441305341},{"id":"148524","name":"Mr. Elex Collier V","party":"Dem","address":"1477 S Silver Maple Ct, Payson, UT 84651","precinct":"25PA11","hd":"65","v_score":"3.93832808","decile":"6","lat":40.02007056435,"lng":-111.744702275698},{"id":"149354","name":"Marilyn Nikolaus","party":"Dem","address":"1202 S 830 W, Payson, UT 84651","precinct":"25PA11","hd":"65","v_score":"32.05768409","decile":"10","lat":40.025802053123,"lng":-111.746194610906},{"id":"149408","name":"Nicky Waelchi","party":"Rep","address":"1121 S 780 W, Payson, UT 84651","precinct":"25PA11","hd":"65","v_score":"10.18588758","decile":"9","lat":40.026770852133,"lng":-111.74505908291},{"id":"150868","name":"Anona Champlin","party":"Rep","address":"834 W 1500 S, Payson, UT 84651","precinct":"25PA11","hd":"65","v_score":"18.71521791","decile":"10","lat":40.019349329373,"lng":-111.745876883161},{"id":"150926","name":"Johnnie Daniel","party":"Dem","address":"1229 S 880 W, Payson, UT 84651","precinct":"25PA11","hd":"65","v_score":"6.088298118","decile":"7","lat":40.025079236909,"lng":-111.747016592258},{"id":"151222","name":"Goebel Olson","party":"Dem","address":"1202 S 830 W, Payson, UT 84651","precinct":"25PA11","hd":"65","v_score":"26.67309741","decile":"10","lat":40.025802053123,"lng":-111.746194610906},{"id":"151315","name":"Jovany Herman I","party":"Dem","address":"1444 S 910 W, Payson, UT 84651","precinct":"25PA11","hd":"65","v_score":"5.191257514","decile":"7","lat":40.021101193149,"lng":-111.747485579334},{"id":"151932","name":"Phyllis Kuphal","party":"Dem","address":"1306 S 880 W, Payson, UT 84651","precinct":"25PA11","hd":"65","v_score":"0","decile":"3","lat":40.024027954735,"lng":-111.747209671593},{"id":"152816","name":"Scarlett Zboncak","party":"Dem","address":"1415 S 780 W, Payson, UT 84651","precinct":"25PA11","hd":"65","v_score":"11.23922619","decile":"9","lat":40.022101622747,"lng":-111.745160072354},{"id":"152985","name":"Mrs. Taniyah Jerde","party":"","address":"848 W 1550 S, Payson, UT 84651","precinct":"25PA11","hd":"65","v_score":"12.07513611","decile":"9","lat":40.018635852714,"lng":-111.746297216315},{"id":"153476","name":"Christian Rau","party":"","address":"1144 S Highway 198, Payson, UT 84651","precinct":"25PA11","hd":"65","v_score":"2.876042565","decile":"6","lat":40.026209255388,"lng":-111.741028955407},{"id":"153958","name":"Graves Frami","party":"Rep","address":"672 W 1410 S, Payson, UT 84651","precinct":"25PA11","hd":"65","v_score":"6.027167436","decile":"7","lat":40.022287118545,"lng":-111.743583738003},{"id":"154137","name":"Trista Nikolaus","party":"Rep","address":"1553 S 740 W, Payson, UT 84651","precinct":"25PA11","hd":"65","v_score":"16.28921112","decile":"9","lat":40.017997396186,"lng":-111.744250694674},{"id":"155777","name":"Caroline Jakubowski-Batz","party":"Rep","address":"1492 S 910 W, Payson, UT 84651","precinct":"25PA11","hd":"65","v_score":"2.315214949","decile":"5","lat":40.0195759975,"lng":-111.747479310469},{"id":"156497","name":"Donte Rogahn","party":"Rep","address":"662 W 1400 S, Payson, UT 84651","precinct":"25PA11","hd":"65","v_score":"4.079907534","decile":"7","lat":40.022742386089,"lng":-111.742953246224},{"id":"157167","name":"Mrs. Brittnee Hackett","party":"Dem","address":"1553 S 740 W, Payson, UT 84651","precinct":"25PA11","hd":"65","v_score":"19.16525368","decile":"10","lat":40.017997396186,"lng":-111.744250694674},{"id":"157227","name":"Dr. Micah Gerlach DDS","party":"Rep","address":"1491 S 910 W, Payson, UT 84651","precinct":"25PA11","hd":"65","v_score":"1.46627566","decile":"4","lat":40.019676190272,"lng":-111.747323559531},{"id":"158195","name":"Jill Walker","party":"","address":"848 W 1550 S, Payson, UT 84651","precinct":"25PA11","hd":"65","v_score":"12.07513611","decile":"9","lat":40.018635852714,"lng":-111.746297216315},{"id":"159074","name":"Dr. Phillip Rohan","party":"Dem","address":"1121 S 680 W, Payson, UT 84651","precinct":"25PA11","hd":"65","v_score":"1.193887297","decile":"4","lat":40.026802524483,"lng":-111.743212941701},{"id":"159272","name":"Delois Kunze","party":"Rep","address":"1268 S 780 W, Payson, UT 84651","precinct":"25PA11","hd":"65","v_score":"3.93832808","decile":"6","lat":40.02432800042,"lng":-111.745257628866},{"id":"160807","name":"Etta Adams DVM","party":"Rep","address":"905 W 1620 S, Payson, UT 84651","precinct":"25PA11","hd":"65","v_score":"8.347511332","decile":"8","lat":40.016086133531,"lng":-111.747147522274},{"id":"161222","name":"Chaim Balistreri","party":"Dem","address":"1130 S Highway 198, Payson, UT 84651","precinct":"25PA11","hd":"65","v_score":"0","decile":"3","lat":40.026552877612,"lng":-111.740851758633},{"id":"161274","name":"Vernon Schroeder","party":"Rep","address":"824 W 1550 S, Payson, UT 84651","precinct":"25PA11","hd":"65","v_score":"2.587603312","decile":"5","lat":40.018650404714,"lng":-111.74577737118},{"id":"161400","name":"Eudora Corkery","party":"Rep","address":"1105 S 680 W, Payson, UT 84651","precinct":"25PA11","hd":"65","v_score":"8.363183621","decile":"8","lat":40.026971905848,"lng":-111.74321491123},{"id":"161876","name":"Amit Turcotte","party":"Dem","address":"785 W 1550 S, Payson, UT 84651","precinct":"25PA11","hd":"65","v_score":"5.40460374","decile":"7","lat":40.018543517387,"lng":-111.745443824974},{"id":"162056","name":"Mrs. Evalyn Kunze MD","party":"","address":"1144 S Highway 198, Payson, UT 84651","precinct":"25PA11","hd":"65","v_score":"6.814370645","decile":"8","lat":40.026209255388,"lng":-111.741028955407},{"id":"162710","name":"Mr. Juwan Hamill","party":"Rep","address":"685 W 1340 S, Payson, UT 84651","precinct":"25PA11","hd":"65","v_score":"9.772950527","decile":"8","lat":40.023332739215,"lng":-111.743377888594},{"id":"163294","name":"Sherwood Emmerich","party":"Dem","address":"1147 S 730 W, Payson, UT 84651","precinct":"25PA11","hd":"65","v_score":"6.74007049","decile":"8","lat":40.02653602154,"lng":-111.744124728429},{"id":"163713","name":"Kelsie Dooley","party":"","address":"917 W 1620 S, Payson, UT 84651","precinct":"25PA11","hd":"65","v_score":"9.116556227","decile":"8","lat":40.01608266388,"lng":-111.747721756797},{"id":"163811","name":"Burns Hickle","party":"Dem","address":"817 W 1500 S, Payson, UT 84651","precinct":"25PA11","hd":"65","v_score":"15.0180437","decile":"9","lat":40.019202758439,"lng":-111.745722951013},{"id":"164001","name":"Annemarie Larson","party":"","address":"818 W 1500 S, Payson, UT 84651","precinct":"25PA11","hd":"65","v_score":"3.93832808","decile":"6","lat":40.019310089478,"lng":-111.745657398568},{"id":"164515","name":"Ronald Dibbert I","party":"","address":"1105 S 680 W, Payson, UT 84651","precinct":"25PA11","hd":"65","v_score":"0","decile":"3","lat":40.026971905848,"lng":-111.74321491123},{"id":"164607","name":"Dr. Bobbie Schimmel DDS","party":"Rep","address":"1466 S Red Maple Ct, Payson, UT 84651","precinct":"25PA11","hd":"65","v_score":"1.193887297","decile":"4","lat":40.020134831809,"lng":-111.744193708257},{"id":"165118","name":"Miya Von","party":"Dem","address":"859 W 1500 S, Payson, UT 84651","precinct":"25PA11","hd":"65","v_score":"8.280646305","decile":"8","lat":40.019313399705,"lng":-111.746494750132},{"id":"165370","name":"Dr. Othel Keebler","party":"","address":"1438 S 910 W, Payson, UT 84651","precinct":"25PA11","hd":"65","v_score":"1.121327652","decile":"3","lat":40.02135179871,"lng":-111.747485741988},{"id":"165436","name":"Sherwood Hammes","party":"","address":"1473 S 910 W, Payson, UT 84651","precinct":"25PA11","hd":"65","v_score":"21.31378118","decile":"10","lat":40.020183132973,"lng":-111.747324064574},{"id":"165524","name":"Mr. Ezra Rowe PhD","party":"Rep","address":"809 W 1620 S, Payson, UT 84651","precinct":"25PA11","hd":"65","v_score":"5.40460374","decile":"7","lat":40.016075452741,"lng":-111.746268430957},{"id":"165660","name":"Sheldon Heidenreich","party":"","address":"1284 S 880 W, Payson, UT 84651","precinct":"25PA11","hd":"65","v_score":"2.587603312","decile":"5","lat":40.024197806217,"lng":-111.747205578765},{"id":"166194","name":"Urijah Crist","party":"Rep","address":"1593 S 790 W, Payson, UT 84651","precinct":"25PA11","hd":"65","v_score":"2.817000428","decile":"6","lat":40.017045770917,"lng":-111.745231430238},{"id":"166436","name":"Louann O'Hara","party":"Dem","address":"1553 S 910 W, Payson, UT 84651","precinct":"25PA11","hd":"65","v_score":"1.121327652","decile":"3","lat":40.018320700581,"lng":-111.747306045081},{"id":"167266","name":"Miss Sonji Pagac DVM","party":"","address":"864 W 1550 S, Payson, UT 84651","precinct":"25PA11","hd":"65","v_score":"3.93832808","decile":"6","lat":40.018629954837,"lng":-111.746435816656},{"id":"167411","name":"Constance Glover","party":"","address":"795 W Big Leaf Ct, Payson, UT 84651","precinct":"25PA11","hd":"65","v_score":"3.781490609","decile":"6","lat":40.021726050685,"lng":-111.74570955746},{"id":"167837","name":"Mr. Trystan Rempel I","party":"Dem","address":"1445 S 780 W, Payson, UT 84651","precinct":"25PA11","hd":"65","v_score":"5.40460374","decile":"7","lat":40.021203828047,"lng":-111.745164573554},{"id":"168038","name":"Nathalia Legros-Wolff","party":"","address":"1162 S 680 W, Payson, UT 84651","precinct":"25PA11","hd":"65","v_score":"0","decile":"3","lat":40.026356878134,"lng":-111.743357413529},{"id":"168070","name":"Angelo Zboncak Jr.","party":"","address":"813 Brookside Ct, Payson, UT 84651","precinct":"25PA11","hd":"65","v_score":"22.97681722","decile":"10","lat":40.020715371423,"lng":-111.745406259537},{"id":"168336","name":"Garnet Runte V","party":"Dem","address":"728 W 1550 S, Payson, UT 84651","precinct":"25PA11","hd":"65","v_score":"3.781490609","decile":"6","lat":40.018538362624,"lng":-111.74395696663},{"id":"168667","name":"Giancarlo Nicolas","party":"Dem","address":"1567 S 910 W, Payson, UT 84651","precinct":"25PA11","hd":"65","v_score":"1.121327652","decile":"3","lat":40.017977074042,"lng":-111.747311414289},{"id":"168978","name":"Tori Cronin","party":"","address":"1613 S 840 W, Payson, UT 84651","precinct":"25PA11","hd":"65","v_score":"19.16525368","decile":"10","lat":40.017127751247,"lng":-111.746191040588},{"id":"169191","name":"Jobe Koss","party":"Rep","address":"1201 S 830 W, Payson, UT 84651","precinct":"25PA11","hd":"65","v_score":"5.407962308","decile":"7","lat":40.025810403342,"lng":-111.746044992971},{"id":"169268","name":"Leonard Hackett","party":"","address":"1552 S 910 W, Payson, UT 84651","precinct":"25PA11","hd":"65","v_score":"8.347511332","decile":"8","lat":40.018365497048,"lng":-111.747454984982},{"id":"169275","name":"Mr. Stephanie Smitham PhD","party":"Rep","address":"928 W 1620 S, Payson, UT 84651","precinct":"25PA11","hd":"65","v_score":"14.95117867","decile":"9","lat":40.016195581117,"lng":-111.747999420495},{"id":"169379","name":"Idell D'Amore","party":"Rep","address":"686 W 1400 S, Payson, UT 84651","precinct":"25PA11","hd":"65","v_score":"0","decile":"3","lat":40.022741376532,"lng":-111.743178381255},{"id":"169625","name":"Ruthie Gleason-Kunze","party":"","address":"1552 S 740 W, Payson, UT 84651","precinct":"25PA11","hd":"65","v_score":"3.781490609","decile":"6","lat":40.018055761992,"lng":-111.744409496224},{"id":"169645","name":"Gunda O'Hara-Gerlach","party":"","address":"1443 S 910 W, Payson, UT 84651","precinct":"25PA11","hd":"65","v_score":"5.40460374","decile":"7","lat":40.021173667452,"lng":-111.747336744078},{"id":"169692","name":"Kylee Mitchell PhD","party":"Dem","address":"1581 S 930 W, Payson, UT 84651","precinct":"25PA11","hd":"65","v_score":"2.315214949","decile":"5","lat":40.017624331639,"lng":-111.748292076338},{"id":"170041","name":"Luster Hirthe DDS","party":"","address":"1439 S 910 W, Payson, UT 84651","precinct":"25PA11","hd":"65","v_score":"1.623113131","decile":"5","lat":40.021348824988,"lng":-111.747336156117},{"id":"170176","name":"Angelica Wyman-Stamm","party":"Dem","address":"913 W 1100 S, Payson, UT 84651","precinct":"25PA11","hd":"65","v_score":"3.781490609","decile":"6","lat":40.026981267172,"lng":-111.747635689761},{"id":"170857","name":"Jeptha Bernier","party":"","address":"1602 S 790 W, Payson, UT 84651","precinct":"25PA11","hd":"65","v_score":"0","decile":"3","lat":40.017009062183,"lng":-111.74539918643},{"id":"171238","name":"Mr. Dock Parisian","party":"Rep","address":"1414 S 730 W, Payson, UT 84651","precinct":"25PA11","hd":"65","v_score":"1.121327652","decile":"3","lat":40.022103063424,"lng":-111.744362806112},{"id":"171257","name":"Beverly Kassulke","party":"","address":"799 W Sugar Maple Ct, Payson, UT 84651","precinct":"25PA11","hd":"65","v_score":"8.347511332","decile":"8","lat":40.022212205038,"lng":-111.745724311454},{"id":"171623","name":"Joette Labadie-Gorczany","party":"Dem","address":"1105 S 680 W, Payson, UT 84651","precinct":"25PA11","hd":"65","v_score":"0","decile":"3","lat":40.026971905848,"lng":-111.74321491123},{"id":"171655","name":"Junius Heidenreich-Wunsch","party":"","address":"1434 S 680 W, Payson, UT 84651","precinct":"25PA11","hd":"65","v_score":"5.659072284","decile":"7","lat":40.021827949595,"lng":-111.743296764453},{"id":"172228","name":"Jamison Lynch II","party":"","address":"1567 S 910 W, Payson, UT 84651","precinct":"25PA11","hd":"65","v_score":"2.315214949","decile":"5","lat":40.017977074042,"lng":-111.747311414289},{"id":"172385","name":"Ms. Meredith Halvorson","party":"Dem","address":"782 W 1235 S, Payson, UT 84651","precinct":"25PA11","hd":"65","v_score":"2.315214949","decile":"5","lat":40.02501333061,"lng":-111.745907071845},{"id":"172524","name":"Deonta Green","party":"Rep","address":"1513 S 930 W, Payson, UT 84651","precinct":"25PA11","hd":"65","v_score":"2.315214949","decile":"5","lat":40.018753541931,"lng":-111.74829657566},{"id":"172967","name":"Dr. Louann Thiel MD","party":"Rep","address":"1619 S 790 W, Payson, UT 84651","precinct":"25PA11","hd":"65","v_score":"3.664562647","decile":"6","lat":40.016833495721,"lng":-111.745315200819},{"id":"173195","name":"Mrs. Florine Friesen DDS","party":"Dem","address":"722 W 1410 S, Payson, UT 84651","precinct":"25PA11","hd":"65","v_score":"3.781490609","decile":"6","lat":40.022295157564,"lng":-111.743832946971},{"id":"173438","name":"Marchello Kshlerin","party":"","address":"1338 S 730 W, Payson, UT 84651","precinct":"25PA11","hd":"65","v_score":"4.833280139","decile":"7","lat":40.023486300812,"lng":-111.74437948166},{"id":"173508","name":"Alys Welch","party":"","address":"1575 S 930 W, Payson, UT 84651","precinct":"25PA11","hd":"65","v_score":"2.315214949","decile":"5","lat":40.017736007701,"lng":-111.748292076324},{"id":"173578","name":"Ms. Neta Konopelski","party":"","address":"1445 S 780 W, Payson, UT 84651","precinct":"25PA11","hd":"65","v_score":"6.881235673","decile":"8","lat":40.021203828047,"lng":-111.745164573554},{"id":"173912","name":"Catrina Pfannerstill","party":"Rep","address":"1338 S 730 W, Payson, UT 84651","precinct":"25PA11","hd":"65","v_score":"4.833280139","decile":"7","lat":40.023486300812,"lng":-111.74437948166},{"id":"174167","name":"Dr. Braydon Orn II","party":"Rep","address":"1483 S 700 W, Payson, UT 84651","precinct":"25PA11","hd":"65","v_score":"9.116556227","decile":"8","lat":40.020023862875,"lng":-111.743542057123},{"id":"174827","name":"Georgie Heller PhD","party":"Rep","address":"861 W 1235 S, Payson, UT 84651","precinct":"25PA11","hd":"65","v_score":"2.315214949","decile":"5","lat":40.024902795133,"lng":-111.746557401543},{"id":"174835","name":"Judie Kuhlman","party":"","address":"1566 S 840 W, Payson, UT 84651","precinct":"25PA11","hd":"65","v_score":"0","decile":"3","lat":40.017808625562,"lng":-111.746320643045},{"id":"174883","name":"Ella Cronin","party":"Dem","address":"1177 S 880 W, Payson, UT 84651","precinct":"25PA11","hd":"65","v_score":"12.55902065","decile":"9","lat":40.0258272398,"lng":-111.747000721905},{"id":"174977","name":"Adilene DuBuque","party":"","address":"917 W 1620 S, Payson, UT 84651","precinct":"25PA11","hd":"65","v_score":"8.363183621","decile":"8","lat":40.01608266388,"lng":-111.747721756797},{"id":"175266","name":"Sharlene Hudson","party":"","address":"1415 S 780 W, Payson, UT 84651","precinct":"25PA11","hd":"65","v_score":"8.280646305","decile":"8","lat":40.022101622747,"lng":-111.745160072354},{"id":"176052","name":"Leola Ernser","party":"Rep","address":"782 W 1235 S, Payson, UT 84651","precinct":"25PA11","hd":"65","v_score":"5.40460374","decile":"7","lat":40.02501333061,"lng":-111.745907071845},{"id":"176223","name":"Ginny Wehner","party":"Dem","address":"627 W 1100 S, Payson, UT 84651","precinct":"25PA11","hd":"65","v_score":"8.280646305","decile":"8","lat":40.027019897354,"lng":-111.742318191034},{"id":"176447","name":"Mr. Dayton Lesch","party":"Dem","address":"1482 S Red Maple Ct, Payson, UT 84651","precinct":"25PA11","hd":"65","v_score":"9.116556227","decile":"8","lat":40.020031581437,"lng":-111.74419370827},{"id":"176699","name":"Tollie Pollich","party":"","address":"913 W 1100 S, Payson, UT 84651","precinct":"25PA11","hd":"65","v_score":"1.121327652","decile":"3","lat":40.026981267172,"lng":-111.747635689761},{"id":"176879","name":"Jason Morissette","party":"Dem","address":"705 W 1340 S, Payson, UT 84651","precinct":"25PA11","hd":"65","v_score":"2.587603312","decile":"5","lat":40.023332739226,"lng":-111.743527131148},{"id":"177615","name":"Norwood Emmerich","party":"","address":"1442 S 680 W, Payson, UT 84651","precinct":"25PA11","hd":"65","v_score":"22.10816128","decile":"10","lat":40.021784612577,"lng":-111.743303265011},{"id":"178367","name":"Toy Cartwright-Considine","party":"Rep","address":"1358 S 730 W, Payson, UT 84651","precinct":"25PA11","hd":"65","v_score":"2.817000428","decile":"6","lat":40.023213457584,"lng":-111.744378210866},{"id":"178403","name":"Dr. Erasmo Rosenbaum","party":"Dem","address":"1293 S 780 W, Payson, UT 84651","precinct":"25PA11","hd":"65","v_score":"2.315214949","decile":"5","lat":40.023934048889,"lng":-111.745155885959},{"id":"178477","name":"Mrs. Beatriz Nader DDS","party":"","address":"912 W 1620 S, Payson, UT 84651","precinct":"25PA11","hd":"65","v_score":"2.958579882","decile":"6","lat":40.016199179274,"lng":-111.747403918027},{"id":"178602","name":"Sharla Marvin","party":"Dem","address":"1431 S 910 W, Payson, UT 84651","precinct":"25PA11","hd":"65","v_score":"6.74007049","decile":"8","lat":40.02147049746,"lng":-111.747332031612},{"id":"179569","name":"Azzie Emmerich MD","party":"Rep","address":"822 W Sugar Maple Ct, Payson, UT 84651","precinct":"25PA11","hd":"65","v_score":"12.57725863","decile":"9","lat":40.022327713568,"lng":-111.745823845043},{"id":"180649","name":"Dr. Ninnie Schmidt PhD","party":"Dem","address":"819 Big Leaf Ct, Payson, UT 84651","precinct":"25PA11","hd":"65","v_score":"2.315214949","decile":"5","lat":40.021726976725,"lng":-111.745811420995},{"id":"181079","name":"Dr. Darren O'Conner","party":"Rep","address":"1553 S 910 W, Payson, UT 84651","precinct":"25PA11","hd":"65","v_score":"1.121327652","decile":"3","lat":40.018320700581,"lng":-111.747306045081}]