[{"vid":"1247687","name":"Leonel Franecki","party":"","address":"1196 N 1475 E, Payson, UT 84651","precinct":"25PA01","hd":"65","v_score":"0","decile":"1","lat":40.06021342478629,"lng":-111.70465720987085,"phone":"(359) 387-3191","sd":"25","ssbd":"13","lsbd":"School Board Nebo 7"},{"vid":"1254715","name":"Francesco Ziemann","party":"","address":"1363 E 100 S, Apt 125, Payson, UT 84651","precinct":"25PA01","hd":"65","v_score":"18.70909056","decile":"10","lat":40.043391202141045,"lng":-111.70761180803176,"phone":"(759) 825-3986","sd":"25","ssbd":"13","lsbd":"School Board Nebo 7"},{"vid":"68e6c5274c28b5b781555e5fe2d85de7d3319785e7427a9a5a395815ea85ffc5","name":"Link Leuschke","party":"Dem","address":"1363 E 100 S, Apt 198, Payson, UT 84651","precinct":"25PA01","hd":"65","v_score":"7.947838735","decile":"8","lat":40.043391202141045,"lng":-111.70761180803176,"phone":"(429) 112-0932","sd":"25","ssbd":"13","lsbd":"School Board Nebo 7"},{"vid":"53af6ed3d22a71993269a3e598ae0367cc26c04a75afd5a6e069e046cb0272ba","name":"Spurgeon Hodkiewicz","party":"","address":"1347 E 50 S, Apt A404, Payson, UT 84651","precinct":"25PA01","hd":"65","v_score":"19.76809223","decile":"10","lat":40.04517667838413,"lng":-111.70746915748177,"phone":"(100) 525-0276","sd":"25","ssbd":"13","lsbd":"School Board Nebo 7"},{"vid":"1290585","name":"Stefan Roob","party":"Dem","address":"1728 N 1230 E, Payson, UT 84651","precinct":"25PA01","hd":"65","v_score":"1.193887297","decile":"3","lat":40.069373315462286,"lng":-111.7113378812852,"phone":"(821) 442-0354","sd":"25","ssbd":"13","lsbd":"School Board Nebo 7"},{"vid":"5017a3b9f91ce3f53554f0ce5598635b6b8cf998e37e027918776311cbe70623","name":"Floy Friesen","party":"","address":"1472 N Arrow Park Dr, Payson, UT 84651","precinct":"25PA01","hd":"65","v_score":"3.781490609","decile":"6","lat":40.06471496496031,"lng":-111.7085144005294,"phone":"(441) 912-9097","sd":"25","ssbd":"13","lsbd":"School Board Nebo 7"},{"vid":"1301915","name":"Dakota Donnelly","party":"","address":"252 N 900 E, Apt 102, Payson, UT 84651","precinct":"25PA01","hd":"65","v_score":"1.121327652","decile":"3","lat":40.04641287922476,"lng":-111.7166496296654,"phone":"(315) 929-4554","sd":"25","ssbd":"13","lsbd":"School Board Nebo 7"},{"vid":"1319685","name":"Mrs. Aracely Hauck","party":"","address":"1355 E 1360 N, Payson, UT 84651","precinct":"25PA01","hd":"65","v_score":"2.315214949","decile":"5","lat":40.06284622376358,"lng":-111.70761720724106,"phone":"(896) 388-9346","sd":"25","ssbd":"13","lsbd":"School Board Nebo 7"},{"vid":"5093e440de6b08255a87adbc5b361efd7df51b894aee26f4e9098e53117b2801","name":"Amalie Mueller-Corkery","party":"Dem","address":"1465 N 1190 E, Payson, UT 84651","precinct":"25PA01","hd":"65","v_score":"3.781490609","decile":"6","lat":40.06447964058791,"lng":-111.71289029460263,"phone":"(829) 805-1925","sd":"25","ssbd":"13","lsbd":"School Board Nebo 7"},{"vid":"1325704","name":"Clem DuBuque","party":"","address":"1268 E 1680 N, Payson, UT 84651","precinct":"25PA01","hd":"65","v_score":"1.121327652","decile":"3","lat":40.06872308628467,"lng":-111.7102276512097,"phone":"(962) 975-0039","sd":"25","ssbd":"13","lsbd":"School Board Nebo 7"},{"vid":"1327075","name":"Mr. Dorman Lockman","party":"Rep","address":"1543 N 1350 E, Payson, UT 84651","precinct":"25PA01","hd":"65","v_score":"3.61989409","decile":"6","lat":40.06588527286703,"lng":-111.709133148419,"phone":"(141) 349-8364","sd":"25","ssbd":"13","lsbd":"School Board Nebo 7"},{"vid":"1349149","name":"Mrs. Iridian Dare","party":"Dem","address":"1732 N 1280 E, Payson, UT 84651","precinct":"25PA01","hd":"65","v_score":"0","decile":"1","lat":40.06944678205827,"lng":-111.71014136218761,"phone":"(877) 355-8812","sd":"25","ssbd":"13","lsbd":"School Board Nebo 7"},{"vid":"1355726","name":"Dr. Tyrel Ankunding","party":"","address":"1363 E 100 S, Apt 146, Payson, UT 84651","precinct":"25PA01","hd":"65","v_score":"5.40460374","decile":"7","lat":40.043391202141045,"lng":-111.70761180803176,"phone":"(335) 846-9496","sd":"25","ssbd":"13","lsbd":"School Board Nebo 7"},{"vid":"1369111","name":"Roel Ryan III","party":"","address":"1304 N 1400 E, Payson, UT 84651","precinct":"25PA01","hd":"65","v_score":"1.121327652","decile":"3","lat":40.061807313824694,"lng":-111.70648681633554,"phone":"(671) 826-3210","sd":"25","ssbd":"13","lsbd":"School Board Nebo 7"},{"vid":"1373492","name":"Miss Margeret Nitzsche","party":"Rep","address":"915 E 300 N, Trlr 41, Payson, UT 84651","precinct":"25PA01","hd":"65","v_score":"15.73840005","decile":"9","lat":40.04782053121912,"lng":-111.71686364754844,"phone":"(265) 421-7105","sd":"25","ssbd":"13","lsbd":"School Board Nebo 7"},{"vid":"1382657","name":"Kristen Sporer","party":"","address":"1457 N 1190 E, Payson, UT 84651","precinct":"25PA01","hd":"65","v_score":"1.121327652","decile":"3","lat":40.06434163736452,"lng":-111.7129273589116,"phone":"(554) 299-0342","sd":"25","ssbd":"13","lsbd":"School Board Nebo 7"},{"vid":"1391175","name":"Keion Corwin Jr.","party":"Rep","address":"1574 N Arrow Park Dr, Payson, UT 84651","precinct":"25PA01","hd":"65","v_score":"1.193887297","decile":"3","lat":40.06611693465748,"lng":-111.70999349393462,"phone":"(454) 564-5735","sd":"25","ssbd":"13","lsbd":"School Board Nebo 7"},{"vid":"1392710","name":"Kalene Kunze","party":"Dem","address":"21 S 900 E, Payson, UT 84651","precinct":"25PA01","hd":"65","v_score":"11.43500933","decile":"9","lat":40.04350952382892,"lng":-111.71709484689323,"phone":"(505) 770-5978","sd":"25","ssbd":"13","lsbd":"School Board Nebo 7"},{"vid":"1397347","name":"Mrs. Tamika Walsh DDS","party":"Rep","address":"915 E 300 N, Trlr 44, Payson, UT 84651","precinct":"25PA01","hd":"65","v_score":"2.587603312","decile":"5","lat":40.04782053121912,"lng":-111.71686364754844,"phone":"(504) 732-5106","sd":"25","ssbd":"13","lsbd":"School Board Nebo 7"},{"vid":"1408955","name":"Dr. Chalmer Zulauf PhD","party":"","address":"1472 N Arrow Park Dr, Payson, UT 84651","precinct":"25PA01","hd":"65","v_score":"3.781490609","decile":"6","lat":40.06471496496031,"lng":-111.7085144005294,"phone":"(278) 954-4336","sd":"25","ssbd":"13","lsbd":"School Board Nebo 7"},{"vid":"1423753","name":"Mrs. Judi Rodriguez PhD","party":"","address":"385 N 1140 E, Payson, UT 84651","precinct":"25PA01","hd":"65","v_score":"30.99711601","decile":"10","lat":40.04819042623053,"lng":-111.71375602466071,"phone":"(530) 912-1569","sd":"25","ssbd":"13","lsbd":"School Board Nebo 7"},{"vid":"1423754","name":"Mrs. Stacia Bauch","party":"Dem","address":"385 N 1140 E, Payson, UT 84651","precinct":"25PA01","hd":"65","v_score":"30.99711601","decile":"10","lat":40.04819042623053,"lng":-111.71375602466071,"phone":"(736) 732-6103","sd":"25","ssbd":"13","lsbd":"School Board Nebo 7"},{"vid":"0a8dbf7b4fb80d7e7cff4a058557372b6ca9e11aeb6f781da0f297623ebeebdc","name":"Mrs. Carrie Wolff MD","party":"","address":"1447 N 1130 E, Payson, UT 84651","precinct":"25PA01","hd":"65","v_score":"19.746806","decile":"10","lat":40.064180028752816,"lng":-111.71388628640257,"phone":"(203) 560-6853","sd":"25","ssbd":"13","lsbd":"School Board Nebo 7"},{"vid":"1429656","name":"Freida Hand","party":"Dem","address":"961 E 100 S, Payson, UT 84651","precinct":"25PA01","hd":"65","v_score":"8.761771632","decile":"8","lat":40.042978455591374,"lng":-111.71674468650001,"phone":"(495) 654-5914","sd":"25","ssbd":"13","lsbd":"School Board Nebo 7"},{"vid":"1432553","name":"Loney Hermann DDS","party":"Rep","address":"1640 N 1300 E, Payson, UT 84651","precinct":"25PA01","hd":"65","v_score":"0","decile":"1","lat":40.067293046351146,"lng":-111.7107915510822,"phone":"(136) 669-6445","sd":"25","ssbd":"13","lsbd":"School Board Nebo 7"},{"vid":"de869bb936be1d67a122d68244ae31222fe60ee0e648355510896dbbf2d57257","name":"Cohen Lesch DDS","party":"","address":"45 S 900 E, Payson, UT 84651","precinct":"25PA01","hd":"65","v_score":"3.93832808","decile":"6","lat":40.043295864144476,"lng":-111.71709417225844,"phone":"(873) 281-9105","sd":"25","ssbd":"13","lsbd":"School Board Nebo 7"},{"vid":"1443589","name":"Rashida Yost PhD","party":"Dem","address":"252 N 900 E, Apt 205, Payson, UT 84651","precinct":"25PA01","hd":"65","v_score":"2.315214949","decile":"5","lat":40.04641287922476,"lng":-111.7166496296654,"phone":"(639) 811-6569","sd":"25","ssbd":"13","lsbd":"School Board Nebo 7"},{"vid":"1445657","name":"Omar Senger","party":"","address":"1645 N 1350 E, Payson, UT 84651","precinct":"25PA01","hd":"65","v_score":"6.657533174","decile":"7","lat":40.067426510422465,"lng":-111.70995962381286,"phone":"(237) 414-9260","sd":"25","ssbd":"13","lsbd":"School Board Nebo 7"},{"vid":"ee17e10271897522b0b3502c21781ea34d551d140e893dd2828929c993f3b86d","name":"Mae Mayer","party":"","address":"1788 N 1300 E, Payson, UT 84651","precinct":"25PA01","hd":"65","v_score":"4.833280139","decile":"7","lat":40.07051903246005,"lng":-111.7095229364296,"phone":"(151) 349-2952","sd":"25","ssbd":"13","lsbd":"School Board Nebo 7"},{"vid":"708dc9c01c492b7f37f95f6f64e0a3c1db8f72d3ad5182f5809391964ccb5e88","name":"Melissia Brekke","party":"","address":"1266 E 1470 N, Payson, UT 84651","precinct":"25PA01","hd":"65","v_score":"2.587603312","decile":"5","lat":40.06377901954668,"lng":-111.70992332400041,"phone":"(665) 683-0113","sd":"25","ssbd":"13","lsbd":"School Board Nebo 7"},{"vid":"1dd1a305c2d58af42178ba8c8e80c216176c3a5a7cdc48e5d2bd1a3d10f8bc7e","name":"Katlynn Grimes","party":"","address":"1339 E 1590 N, Payson, UT 84651","precinct":"25PA01","hd":"65","v_score":"2.587603312","decile":"5","lat":40.06668120533479,"lng":-111.70999514679247,"phone":"(383) 719-0085","sd":"25","ssbd":"13","lsbd":"School Board Nebo 7"},{"vid":"1473411","name":"Makai Hills","party":"Dem","address":"1461 E 100 S, Unit G103, Payson, UT 84651","precinct":"25PA01","hd":"65","v_score":"2.660162957","decile":"5","lat":40.04368908324543,"lng":-111.70568704663707,"phone":"(677) 422-7569","sd":"25","ssbd":"13","lsbd":"School Board Nebo 7"},{"vid":"1473597","name":"Olympia Stoltenberg","party":"","address":"1719 N 1260 E, Payson, UT 84651","precinct":"25PA01","hd":"65","v_score":"3.93832808","decile":"6","lat":40.069185291751836,"lng":-111.71032214110173,"phone":"(594) 258-9804","sd":"25","ssbd":"13","lsbd":"School Board Nebo 7"},{"vid":"1476666","name":"Della Klein","party":"","address":"1515 N 1190 E, Payson, UT 84651","precinct":"25PA01","hd":"65","v_score":"5.659072284","decile":"7","lat":40.065410492706256,"lng":-111.71264684379446,"phone":"(300) 986-6834","sd":"25","ssbd":"13","lsbd":"School Board Nebo 7"},{"vid":"3049e1aa8b97568a5ce7a05fcf37a56c61bde521c1a9214045a8d7894b8f6e5f","name":"Abram Ankunding","party":"Rep","address":"1733 N 1310 E, Payson, UT 84651","precinct":"25PA01","hd":"65","v_score":"7.650280567","decile":"8","lat":40.06954236150706,"lng":-111.70909805118094,"phone":"(911) 707-0635","sd":"25","ssbd":"13","lsbd":"School Board Nebo 7"},{"vid":"1484658","name":"Nonie Thompson-Tremblay","party":"","address":"1461 E 100 S, Payson, UT 84651","precinct":"25PA01","hd":"65","v_score":"4.13679489","decile":"7","lat":40.04368908324543,"lng":-111.70568704663707,"phone":"(269) 516-3288","sd":"25","ssbd":"13","lsbd":"School Board Nebo 7"},{"vid":"1498024","name":"Dr. Jessika Volkman DVM","party":"","address":"252 N 900 E, Apt 106, Payson, UT 84651","precinct":"25PA01","hd":"65","v_score":"1.121327652","decile":"3","lat":40.04641287922476,"lng":-111.7166496296654,"phone":"(767) 365-5633","sd":"25","ssbd":"13","lsbd":"School Board Nebo 7"},{"vid":"b73e44d775a2a6cd8cc50b6c7ae45fff398eed437d9891aceb6b9617eebc5b4c","name":"Dr. Tre Mosciski","party":"Dem","address":"957 E 100 S, Payson, UT 84651","precinct":"25PA01","hd":"65","v_score":"2.315214949","decile":"5","lat":40.04299774659839,"lng":-111.71680991362194,"phone":"(580) 158-1196","sd":"25","ssbd":"13","lsbd":"School Board Nebo 7"},{"vid":"1513489","name":"Maybelle Ernser","party":"Rep","address":"1461 E 100 S, Unit G103, Payson, UT 84651","precinct":"25PA01","hd":"65","v_score":"1.193887297","decile":"3","lat":40.04368908324543,"lng":-111.70568704663707,"phone":"(721) 161-9054","sd":"25","ssbd":"13","lsbd":"School Board Nebo 7"},{"vid":"1518123","name":"Osborne Turcotte","party":"Rep","address":"1486 N 1130 E, Payson, UT 84651","precinct":"25PA01","hd":"65","v_score":"0","decile":"1","lat":40.064819265477766,"lng":-111.71311496753717,"phone":"(893) 291-4198","sd":"25","ssbd":"13","lsbd":"School Board Nebo 7"},{"vid":"1519054","name":"Mrs. Ronna Corwin","party":"Rep","address":"18 S 1000 E, Payson, UT 84651","precinct":"25PA01","hd":"65","v_score":"0","decile":"1","lat":40.04355860542146,"lng":-111.71648090764539,"phone":"(652) 088-8277","sd":"25","ssbd":"13","lsbd":"School Board Nebo 7"},{"vid":"1521467","name":"Dr. Maya Gottlieb DDS","party":"","address":"1787 N 1280 E, Payson, UT 84651","precinct":"25PA01","hd":"65","v_score":"5.258122542","decile":"7","lat":40.07046105576173,"lng":-111.70975860187285,"phone":"(536) 726-6547","sd":"25","ssbd":"13","lsbd":"School Board Nebo 7"},{"vid":"1526331","name":"Charls Grant","party":"","address":"1347 E 50 S, Apt A205, Payson, UT 84651","precinct":"25PA01","hd":"65","v_score":"20.1197381","decile":"10","lat":40.04517667838413,"lng":-111.70746915748177,"phone":"(690) 334-5755","sd":"25","ssbd":"13","lsbd":"School Board Nebo 7"},{"vid":"7db696a27eef2264c054700707adc7900cee3e7c7b6b603f0caffa2dc9afc32c","name":"Chadwick Gottlieb","party":"Rep","address":"1363 E 100 S, Apt 119, Payson, UT 84651","precinct":"25PA01","hd":"65","v_score":"1.193887297","decile":"3","lat":40.043391202141045,"lng":-111.70761180803176,"phone":"(275) 796-4183","sd":"25","ssbd":"13","lsbd":"School Board Nebo 7"},{"vid":"18f60de8ac933240600f4ff3d329638fc2372fd3ad5b2daf6c54f22b31c2fa12","name":"Rondal Schumm-McLaughlin","party":"Dem","address":"1461 E 100 S, Payson, UT 84651","precinct":"25PA01","hd":"65","v_score":"2.660162957","decile":"5","lat":40.04368908324543,"lng":-111.70568704663707,"phone":"(254) 961-3044","sd":"25","ssbd":"13","lsbd":"School Board Nebo 7"},{"vid":"1548576","name":"Janiya Wunsch","party":"Dem","address":"1232 E 1475 N, Payson, UT 84651","precinct":"25PA01","hd":"65","v_score":"1.193887297","decile":"3","lat":40.06426447168462,"lng":-111.71116388048927,"phone":"(764) 383-5125","sd":"25","ssbd":"13","lsbd":"School Board Nebo 7"},{"vid":"1548615","name":"Mr. Octavius Deckow PhD","party":"","address":"1232 E 1475 N, Payson, UT 84651","precinct":"25PA01","hd":"65","v_score":"1.193887297","decile":"3","lat":40.06426447168462,"lng":-111.71116388048927,"phone":"(349) 404-2580","sd":"25","ssbd":"13","lsbd":"School Board Nebo 7"},{"vid":"1553265","name":"Marcelo Cormier","party":"","address":"1535 N 1130 E, Payson, UT 84651","precinct":"25PA01","hd":"65","v_score":"2.817000428","decile":"6","lat":40.06580782191061,"lng":-111.71335369661793,"phone":"(931) 205-3909","sd":"25","ssbd":"13","lsbd":"School Board Nebo 7"},{"vid":"1587241","name":"Theodosia Lemke DVM","party":"Rep","address":"919 E 100 S, Payson, UT 84651","precinct":"25PA01","hd":"65","v_score":"11.47802244","decile":"9","lat":40.04298617751948,"lng":-111.71710687731115,"phone":"(336) 130-1979","sd":"25","ssbd":"13","lsbd":"School Board Nebo 7"},{"vid":"1594948","name":"Dina Gorczany","party":"","address":"252 N 900 E, Apt 601, Payson, UT 84651","precinct":"25PA01","hd":"65","v_score":"4.732607667","decile":"7","lat":40.04641287922476,"lng":-111.7166496296654,"phone":"(772) 684-9897","sd":"25","ssbd":"13","lsbd":"School Board Nebo 7"},{"vid":"6dc494d74e34359fcf2c6895f932b640c41dba084413f9bf606ec88a0da8d6cd","name":"Dr. Wm Morar","party":"Dem","address":"1309 E 1775 N, Payson, UT 84651","precinct":"25PA01","hd":"65","v_score":"8.618008907","decile":"8","lat":40.07016367753072,"lng":-111.70917307757517,"phone":"(459) 095-4805","sd":"25","ssbd":"13","lsbd":"School Board Nebo 7"},{"vid":"1609138","name":"Irma Wolff","party":"Rep","address":"1479 N 1210 E, Payson, UT 84651","precinct":"25PA01","hd":"65","v_score":"3.781490609","decile":"6","lat":40.06477266883364,"lng":-111.71194938354337,"phone":"(202) 061-6141","sd":"25","ssbd":"13","lsbd":"School Board Nebo 7"},{"vid":"1cebb349bac914922af15c578ee17e55bb06632d2e30fa4a4bc732a06f4639d7","name":"Sarina Gutmann","party":"Dem","address":"957 E 100 S, Payson, UT 84651","precinct":"25PA01","hd":"65","v_score":"2.315214949","decile":"5","lat":40.04299774659839,"lng":-111.71680991362194,"phone":"(262) 327-7843","sd":"25","ssbd":"13","lsbd":"School Board Nebo 7"},{"vid":"1626490","name":"Gage Mayert-Bins","party":"Dem","address":"1302 E 1700 N, Payson, UT 84651","precinct":"25PA01","hd":"65","v_score":"5.40460374","decile":"7","lat":40.06869065543213,"lng":-111.70939514620385,"phone":"(201) 662-4468","sd":"25","ssbd":"13","lsbd":"School Board Nebo 7"},{"vid":"1628028","name":"Miss Maryann Kunde DDS","party":"","address":"1235 E 1750 N, Payson, UT 84651","precinct":"25PA01","hd":"65","v_score":"1.193887297","decile":"3","lat":40.06975928487476,"lng":-111.71106221885428,"phone":"(473) 541-8917","sd":"25","ssbd":"13","lsbd":"School Board Nebo 7"},{"vid":"1629656","name":"Claribel Barrows","party":"","address":"915 E 300 N, Trlr 4, Payson, UT 84651","precinct":"25PA01","hd":"65","v_score":"1.193887297","decile":"3","lat":40.04782053121912,"lng":-111.71686364754844,"phone":"(533) 607-6196","sd":"25","ssbd":"13","lsbd":"School Board Nebo 7"},{"vid":"1631958","name":"Clemence Hackett","party":"Rep","address":"1489 N Arrow Park Dr, Payson, UT 84651","precinct":"25PA01","hd":"65","v_score":"6.027167436","decile":"7","lat":40.064787692894036,"lng":-111.70947255130702,"phone":"(796) 055-7664","sd":"25","ssbd":"13","lsbd":"School Board Nebo 7"},{"vid":"351f071c732d518192e35df74fa9a360bf4af745883b74f56dcf2317a9232505","name":"Miss Margaretha Hamill DVM","party":"","address":"1636 N 1330 E, Payson, UT 84651","precinct":"25PA01","hd":"65","v_score":"5.762862305","decile":"7","lat":40.06718103430765,"lng":-111.7102197047726,"phone":"(347) 352-3331","sd":"25","ssbd":"13","lsbd":"School Board Nebo 7"},{"vid":"dfc5d3608cb5e58546c49a46d32741eed707d00f6c113e722b2f011ea283e26a","name":"Avon Quigley","party":"Dem","address":"911 E 100 S, Payson, UT 84651","precinct":"25PA01","hd":"65","v_score":"9.175598364","decile":"8","lat":40.0429969375006,"lng":-111.71724376277382,"phone":"(843) 726-3687","sd":"25","ssbd":"13","lsbd":"School Board Nebo 7"},{"vid":"f1058a83189602e6225959f474e2c7b5cab4613a23720c8a191d4b372866908c","name":"Zelpha Kuphal","party":"Rep","address":"1445 N 1210 E, Payson, UT 84651","precinct":"25PA01","hd":"65","v_score":"6.724398202","decile":"8","lat":40.06413206865159,"lng":-111.7121214312821,"phone":"(833) 818-1311","sd":"25","ssbd":"13","lsbd":"School Board Nebo 7"},{"vid":"1656467","name":"Julien Pfannerstill-Daugherty","party":"","address":"14 S 1000 E, Payson, UT 84651","precinct":"25PA01","hd":"65","v_score":"3.781490609","decile":"6","lat":40.04361555888615,"lng":-111.71648108700903,"phone":"(291) 347-6612","sd":"25","ssbd":"13","lsbd":"School Board Nebo 7"},{"vid":"1664206","name":"Mrs. Lorrie Ebert MD","party":"Rep","address":"1474 N 1190 E, Payson, UT 84651","precinct":"25PA01","hd":"65","v_score":"13.55472233","decile":"9","lat":40.06458932915907,"lng":-111.71227213729546,"phone":"(757) 097-0007","sd":"25","ssbd":"13","lsbd":"School Board Nebo 7"},{"vid":"1678159","name":"Tyshawn Hauck","party":"Dem","address":"1610 N 1280 E, Payson, UT 84651","precinct":"25PA01","hd":"65","v_score":"9.922841811","decile":"9","lat":40.06646410650417,"lng":-111.7114292636651,"phone":"(107) 483-6393","sd":"25","ssbd":"13","lsbd":"School Board Nebo 7"},{"vid":"1679038","name":"Miss Danyell Zboncak","party":"Rep","address":"1785 N 1220 E, Payson, UT 84651","precinct":"25PA01","hd":"65","v_score":"5.273794831","decile":"7","lat":40.070458898775115,"lng":-111.71126967174368,"phone":"(914) 168-5783","sd":"25","ssbd":"13","lsbd":"School Board Nebo 7"},{"vid":"1680692","name":"Mechelle Bogisich","party":"","address":"977 E 100 S, Payson, UT 84651","precinct":"25PA01","hd":"65","v_score":"0","decile":"1","lat":40.04299301988094,"lng":-111.71651289848921,"phone":"(546) 619-2234","sd":"25","ssbd":"13","lsbd":"School Board Nebo 7"},{"vid":"1694857","name":"Robin Lemke","party":"Rep","address":"1620 N 1280 E, Payson, UT 84651","precinct":"25PA01","hd":"65","v_score":"20.6943555","decile":"10","lat":40.066753333316136,"lng":-111.71155394767058,"phone":"(780) 503-0003","sd":"25","ssbd":"13","lsbd":"School Board Nebo 7"},{"vid":"1702710","name":"Dr. Chyna Conroy","party":"Rep","address":"1732 N 1260 E, Payson, UT 84651","precinct":"25PA01","hd":"65","v_score":"9.897826925","decile":"8","lat":40.06939224464151,"lng":-111.71074307023403,"phone":"(378) 725-1853","sd":"25","ssbd":"13","lsbd":"School Board Nebo 7"},{"vid":"1704643","name":"Theda Pouros","party":"","address":"1515 N 1190 E, Payson, UT 84651","precinct":"25PA01","hd":"65","v_score":"11.49626043","decile":"9","lat":40.065410492706256,"lng":-111.71264684379446,"phone":"(764) 440-1622","sd":"25","ssbd":"13","lsbd":"School Board Nebo 7"},{"vid":"1707773","name":"Esker Feest","party":"Rep","address":"1739 N 1260 E, Payson, UT 84651","precinct":"25PA01","hd":"65","v_score":"1.46627566","decile":"4","lat":40.069509965322105,"lng":-111.71036347064748,"phone":"(752) 561-0745","sd":"25","ssbd":"13","lsbd":"School Board Nebo 7"},{"vid":"1715599","name":"Alba Parisian","party":"","address":"1443 N 1190 E, Payson, UT 84651","precinct":"25PA01","hd":"65","v_score":"11.57658879","decile":"9","lat":40.06405753552876,"lng":-111.71296940153414,"phone":"(420) 673-7988","sd":"25","ssbd":"13","lsbd":"School Board Nebo 7"},{"vid":"1715849","name":"Lanny Towne","party":"","address":"1794 N 1280 E, Payson, UT 84651","precinct":"25PA01","hd":"65","v_score":"1.193887297","decile":"3","lat":40.07057177338736,"lng":-111.71006727977306,"phone":"(758) 290-8991","sd":"25","ssbd":"13","lsbd":"School Board Nebo 7"},{"vid":"1716827","name":"Mr. Franklin Lesch","party":"Rep","address":"1636 N 1330 E, Payson, UT 84651","precinct":"25PA01","hd":"65","v_score":"9.129866784","decile":"8","lat":40.06718103430765,"lng":-111.7102197047726,"phone":"(423) 004-5615","sd":"25","ssbd":"13","lsbd":"School Board Nebo 7"},{"vid":"1719996","name":"Mrs. Izetta Stehr PhD","party":"Dem","address":"1441 N 1130 E, Payson, UT 84651","precinct":"25PA01","hd":"65","v_score":"0","decile":"1","lat":40.064055642167176,"lng":-111.7139196985209,"phone":"(191) 566-0720","sd":"25","ssbd":"13","lsbd":"School Board Nebo 7"},{"vid":"1720045","name":"Gertrude Kiehn-Rowe","party":"Rep","address":"1612 N 1300 E, Payson, UT 84651","precinct":"25PA01","hd":"65","v_score":"0","decile":"1","lat":40.0665992103217,"lng":-111.71063154424178,"phone":"(854) 953-2028","sd":"25","ssbd":"13","lsbd":"School Board Nebo 7"},{"vid":"1728958","name":"Dr. Nery Spencer","party":"","address":"252 N 900 E, Apt 102, Payson, UT 84651","precinct":"25PA01","hd":"65","v_score":"2.315214949","decile":"5","lat":40.04641287922476,"lng":-111.7166496296654,"phone":"(965) 248-8826","sd":"25","ssbd":"13","lsbd":"School Board Nebo 7"},{"vid":"1738787","name":"Lorine Champlin","party":"","address":"1485 N 1130 E, Payson, UT 84651","precinct":"25PA01","hd":"65","v_score":"12.05946382","decile":"9","lat":40.064818073176795,"lng":-111.7137149088669,"phone":"(351) 143-5612","sd":"25","ssbd":"13","lsbd":"School Board Nebo 7"},{"vid":"1740565","name":"Demetri Cremin","party":"Dem","address":"1235 E 1750 N, Payson, UT 84651","precinct":"25PA01","hd":"65","v_score":"8.363183621","decile":"8","lat":40.06975928487476,"lng":-111.71106221885428,"phone":"(120) 636-8759","sd":"25","ssbd":"13","lsbd":"School Board Nebo 7"},{"vid":"74a2f6d75aa0057b73ca6394753ec690b6f603841154421eb6f296a22fabd202","name":"Rico Marks","party":"","address":"1508 N 1350 E, Payson, UT 84651","precinct":"25PA01","hd":"65","v_score":"34.09981536","decile":"10","lat":40.06535933933157,"lng":-111.70816052227273,"phone":"(696) 495-3130","sd":"25","ssbd":"13","lsbd":"School Board Nebo 7"},{"vid":"1747367","name":"Dr. Dell Nicolas","party":"Dem","address":"1791 N 1280 E, Payson, UT 84651","precinct":"25PA01","hd":"65","v_score":"22.86804183","decile":"10","lat":40.07051862019352,"lng":-111.70980569233002,"phone":"(841) 258-2661","sd":"25","ssbd":"13","lsbd":"School Board Nebo 7"},{"vid":"1750971","name":"Ms. Lora Welch","party":"","address":"952 E 100 N, Unit 2, Payson, UT 84651","precinct":"25PA01","hd":"65","v_score":"1.121327652","decile":"3","lat":40.04410879357614,"lng":-111.71652856816206,"phone":"(294) 323-3124","sd":"25","ssbd":"13","lsbd":"School Board Nebo 7"},{"vid":"1756109","name":"Almon Padberg","party":"","address":"1363 E 100 S, Apt 169, Payson, UT 84651","precinct":"25PA01","hd":"65","v_score":"15.47563559","decile":"9","lat":40.043391202141045,"lng":-111.70761180803176,"phone":"(731) 129-0114","sd":"25","ssbd":"13","lsbd":"School Board Nebo 7"},{"vid":"fa8d193c85d32ad9e1be672e175dfe0a398c6e84bfb7d990ccbeb299818d7ab4","name":"Jermaine Corwin","party":"","address":"1461 E 100 S, Unit A304, Payson, UT 84651","precinct":"25PA01","hd":"65","v_score":"1.46627566","decile":"4","lat":40.04368908324543,"lng":-111.70568704663707,"phone":"(145) 665-7203","sd":"25","ssbd":"13","lsbd":"School Board Nebo 7"},{"vid":"1758691","name":"Ms. Sharde Corkery DDS","party":"Rep","address":"1363 E 100 S, Apt 154, Payson, UT 84651","precinct":"25PA01","hd":"65","v_score":"0","decile":"1","lat":40.043391202141045,"lng":-111.70761180803176,"phone":"(757) 334-0619","sd":"25","ssbd":"13","lsbd":"School Board Nebo 7"},{"vid":"1762548","name":"Landan Schuppe","party":"Dem","address":"1508 N 1350 E, Payson, UT 84651","precinct":"25PA01","hd":"65","v_score":"25.72841211","decile":"10","lat":40.06535933933157,"lng":-111.70816052227273,"phone":"(384) 979-8198","sd":"25","ssbd":"13","lsbd":"School Board Nebo 7"},{"vid":"1762965","name":"Jaquan Goldner","party":"","address":"1467 N 1210 E, Payson, UT 84651","precinct":"25PA01","hd":"65","v_score":"3.781490609","decile":"6","lat":40.06451464242216,"lng":-111.71201867015208,"phone":"(134) 994-7389","sd":"25","ssbd":"13","lsbd":"School Board Nebo 7"},{"vid":"1764496","name":"Colter Huels Sr.","party":"Dem","address":"252 N 900 E, Apt 404, Payson, UT 84651","precinct":"25PA01","hd":"65","v_score":"5.40460374","decile":"7","lat":40.04641287922476,"lng":-111.7166496296654,"phone":"(603) 323-2526","sd":"25","ssbd":"13","lsbd":"School Board Nebo 7"},{"vid":"1765866","name":"Ottis Yost-Crooks","party":"Rep","address":"1694 N 1330 E, Unit 205, Payson, UT 84651","precinct":"25PA01","hd":"65","v_score":"2.587603312","decile":"5","lat":40.069035136981455,"lng":-111.70834259685849,"phone":"(407) 454-9423","sd":"25","ssbd":"13","lsbd":"School Board Nebo 7"},{"vid":"b5e284d30514e47d642884b14f63324d65f76f0778cfb6d332eae15efc6dbcf0","name":"Brant Denesik-Olson","party":"","address":"1183 N 1475 E, Payson, UT 84651","precinct":"25PA01","hd":"65","v_score":"5.273794831","decile":"7","lat":40.05993516391772,"lng":-111.70522091385074,"phone":"(908) 271-0355","sd":"25","ssbd":"13","lsbd":"School Board Nebo 7"},{"vid":"1778098","name":"Pinkey Doyle","party":"","address":"1461 E 100 S, Unit H308, Payson, UT 84651","precinct":"25PA01","hd":"65","v_score":"1.46627566","decile":"4","lat":40.04368908324543,"lng":-111.70568704663707,"phone":"(680) 198-9953","sd":"25","ssbd":"13","lsbd":"School Board Nebo 7"},{"vid":"1778259","name":"Miss Hailie Predovic","party":"","address":"1461 E 100 S, Unit A304, Payson, UT 84651","precinct":"25PA01","hd":"65","v_score":"1.46627566","decile":"4","lat":40.04368908324543,"lng":-111.70568704663707,"phone":"(728) 031-5785","sd":"25","ssbd":"13","lsbd":"School Board Nebo 7"},{"vid":"1783696","name":"Clyde Purdy","party":"","address":"1633 N 1300 E, Payson, UT 84651","precinct":"25PA01","hd":"65","v_score":"2.315214949","decile":"5","lat":40.06709407263047,"lng":-111.71132911247037,"phone":"(223) 953-9068","sd":"25","ssbd":"13","lsbd":"School Board Nebo 7"},{"vid":"1798357","name":"Nelle Feest","party":"","address":"1694 N 1330 E, Unit 101, Payson, UT 84651","precinct":"25PA01","hd":"65","v_score":"26.47016297","decile":"10","lat":40.069035136981455,"lng":-111.70834259685849,"phone":"(269) 770-7650","sd":"25","ssbd":"13","lsbd":"School Board Nebo 7"},{"vid":"1799037","name":"Allyssa Champlin","party":"Dem","address":"1472 N 1130 E, Payson, UT 84651","precinct":"25PA01","hd":"65","v_score":"0","decile":"1","lat":40.064528503474016,"lng":-111.71322664827919,"phone":"(984) 874-4905","sd":"25","ssbd":"13","lsbd":"School Board Nebo 7"},{"vid":"1799250","name":"Mr. Erling Swaniawski III","party":"Rep","address":"1474 N 1190 E, Payson, UT 84651","precinct":"25PA01","hd":"65","v_score":"19.56945563","decile":"10","lat":40.06458932915907,"lng":-111.71227213729546,"phone":"(557) 942-2165","sd":"25","ssbd":"13","lsbd":"School Board Nebo 7"},{"vid":"1799433","name":"Miss Alethea Herman","party":"Dem","address":"1485 N 1130 E, Payson, UT 84651","precinct":"25PA01","hd":"65","v_score":"1.193887297","decile":"3","lat":40.064818073176795,"lng":-111.7137149088669,"phone":"(345) 253-9350","sd":"25","ssbd":"13","lsbd":"School Board Nebo 7"},{"vid":"1799456","name":"Signe Sawayn-Rutherford","party":"Dem","address":"1548 N 1350 E, Payson, UT 84651","precinct":"25PA01","hd":"65","v_score":"2.315214949","decile":"5","lat":40.0660221350406,"lng":-111.70849110775308,"phone":"(335) 543-3674","sd":"25","ssbd":"13","lsbd":"School Board Nebo 7"},{"vid":"4b2a68dd8aa18bf3c50464ce4a39721e3b930f4b5e53bb96246acc86f56b8935","name":"Deanne Conroy","party":"Rep","address":"1631 N 1320 E, Payson, UT 84651","precinct":"25PA01","hd":"65","v_score":"19.59045283","decile":"10","lat":40.06701983845352,"lng":-111.71053005599458,"phone":"(905) 189-7098","sd":"25","ssbd":"13","lsbd":"School Board Nebo 7"},{"vid":"1802184","name":"Benjamen Shields","party":"","address":"1229 E 1420 N, Payson, UT 84651","precinct":"25PA01","hd":"65","v_score":"12.16725927","decile":"9","lat":40.06404344651948,"lng":-111.71123138783484,"phone":"(967) 357-5801","sd":"25","ssbd":"13","lsbd":"School Board Nebo 7"},{"vid":"1804537","name":"Hattie Ruecker","party":"","address":"1785 N 1220 E, Payson, UT 84651","precinct":"25PA01","hd":"65","v_score":"5.273794831","decile":"7","lat":40.070458898775115,"lng":-111.71126967174368,"phone":"(937) 158-7825","sd":"25","ssbd":"13","lsbd":"School Board Nebo 7"},{"vid":"1814305","name":"Math Bauch","party":"","address":"1796 N 1260 E, Payson, UT 84651","precinct":"25PA01","hd":"65","v_score":"8.347511332","decile":"8","lat":40.0705710278612,"lng":-111.71057096949468,"phone":"(686) 532-5156","sd":"25","ssbd":"13","lsbd":"School Board Nebo 7"},{"vid":"1817238","name":"Brigitte Gerlach","party":"","address":"1694 N 1330 E, Unit 203, Payson, UT 84651","precinct":"25PA01","hd":"65","v_score":"15.4533012","decile":"9","lat":40.069035136981455,"lng":-111.70834259685849,"phone":"(767) 688-7265","sd":"25","ssbd":"13","lsbd":"School Board Nebo 7"},{"vid":"1824208","name":"Darwyn Kozey II","party":"Rep","address":"1303 E 1775 N, Payson, UT 84651","precinct":"25PA01","hd":"65","v_score":"2.315214949","decile":"5","lat":40.07015569711655,"lng":-111.70931594893177,"phone":"(373) 959-2862","sd":"25","ssbd":"13","lsbd":"School Board Nebo 7"},{"vid":"1834258","name":"Carson Stoltenberg","party":"Rep","address":"1366 N 1400 E, Payson, UT 84651","precinct":"25PA01","hd":"65","v_score":"12.51600754","decile":"9","lat":40.062713101902396,"lng":-111.70650958341776,"phone":"(581) 842-0758","sd":"25","ssbd":"13","lsbd":"School Board Nebo 7"},{"vid":"1836150","name":"Dr. Carma Jones MD","party":"Dem","address":"214 N 1140 E, Payson, UT 84651","precinct":"25PA01","hd":"65","v_score":"3.93832808","decile":"6","lat":40.04574945761985,"lng":-111.71298502266798,"phone":"(190) 673-1431","sd":"25","ssbd":"13","lsbd":"School Board Nebo 7"},{"vid":"1836540","name":"Trumaine Renner","party":"","address":"1244 N 1475 E, Payson, UT 84651","precinct":"25PA01","hd":"65","v_score":"0","decile":"1","lat":40.06096336607596,"lng":-111.70479482931736,"phone":"(810) 218-0240","sd":"25","ssbd":"13","lsbd":"School Board Nebo 7"},{"vid":"1842145","name":"Janae Schoen","party":"Dem","address":"1363 E 100 S, Apt 153, Payson, UT 84651","precinct":"25PA01","hd":"65","v_score":"2.660162957","decile":"5","lat":40.043391202141045,"lng":-111.70761180803176,"phone":"(492) 870-2930","sd":"25","ssbd":"13","lsbd":"School Board Nebo 7"},{"vid":"1847322","name":"Mrs. Ashlyn Skiles PhD","party":"","address":"1751 N 1280 E, Payson, UT 84651","precinct":"25PA01","hd":"65","v_score":"1.193887297","decile":"3","lat":40.06976378595799,"lng":-111.70975945257742,"phone":"(988) 628-2647","sd":"25","ssbd":"13","lsbd":"School Board Nebo 7"},{"vid":"1850362","name":"Mr. Tavon Cartwright","party":"","address":"1712 N 1310 E, Payson, UT 84651","precinct":"25PA01","hd":"65","v_score":"2.315214949","decile":"5","lat":40.0690216870836,"lng":-111.70945310326019,"phone":"(323) 027-3676","sd":"25","ssbd":"13","lsbd":"School Board Nebo 7"},{"vid":"1854607","name":"Cristopher Kulas-Kohler","party":"Dem","address":"1607 N 1300 E, Payson, UT 84651","precinct":"25PA01","hd":"65","v_score":"5.331806201","decile":"7","lat":40.06643043802971,"lng":-111.71110884304744,"phone":"(799) 772-1942","sd":"25","ssbd":"13","lsbd":"School Board Nebo 7"},{"vid":"1858671","name":"Jillian Eichmann","party":"Dem","address":"1354 N 1400 E, Payson, UT 84651","precinct":"25PA01","hd":"65","v_score":"16.93850135","decile":"9","lat":40.06249571170592,"lng":-111.70650412130152,"phone":"(778) 559-6632","sd":"25","ssbd":"13","lsbd":"School Board Nebo 7"},{"vid":"48c730fd31109d6eac252c34c3d625e114c29d3926bec98b960549caed76be24","name":"Gaylene Dickinson","party":"Dem","address":"915 E 100 S, Payson, UT 84651","precinct":"25PA01","hd":"65","v_score":"3.781490609","decile":"6","lat":40.04297764660798,"lng":-111.71717853430438,"phone":"(259) 559-5997","sd":"25","ssbd":"13","lsbd":"School Board Nebo 7"},{"vid":"1860570","name":"Felipe Wehner","party":"","address":"1364 N 1440 E, Payson, UT 84651","precinct":"25PA01","hd":"65","v_score":"7.650280567","decile":"8","lat":40.06258096829496,"lng":-111.70563865363441,"phone":"(190) 731-2536","sd":"25","ssbd":"13","lsbd":"School Board Nebo 7"},{"vid":"1868201","name":"Besse Wehner","party":"Dem","address":"1358 N 1400 E, Payson, UT 84651","precinct":"25PA01","hd":"65","v_score":"1.193887297","decile":"3","lat":40.062627016469655,"lng":-111.7065374737717,"phone":"(283) 001-6050","sd":"25","ssbd":"13","lsbd":"School Board Nebo 7"},{"vid":"1872315","name":"Ellamae Hills","party":"Dem","address":"1608 N 1280 E, Payson, UT 84651","precinct":"25PA01","hd":"65","v_score":"6.364334873","decile":"7","lat":40.06641312413172,"lng":-111.71139327949044,"phone":"(694) 974-4281","sd":"25","ssbd":"13","lsbd":"School Board Nebo 7"},{"vid":"1872852","name":"Miss Dorotha Jaskolski MD","party":"Rep","address":"1347 E 50 S, Apt B203, Payson, UT 84651","precinct":"25PA01","hd":"65","v_score":"4.192796624","decile":"7","lat":40.04517667838413,"lng":-111.70746915748177,"phone":"(512) 906-9566","sd":"25","ssbd":"13","lsbd":"School Board Nebo 7"},{"vid":"1873096","name":"Edie Mills","party":"","address":"1363 E 100 S, Apt 169, Payson, UT 84651","precinct":"25PA01","hd":"65","v_score":"16.20717711","decile":"9","lat":40.043391202141045,"lng":-111.70761180803176,"phone":"(341) 528-5335","sd":"25","ssbd":"13","lsbd":"School Board Nebo 7"},{"vid":"e304e7d0270a9dac01364fbf05c66f665b82bc6458aebcff5d64991d3c3b1fb2","name":"Mr. Darius Rempel","party":"Dem","address":"1640 N 1300 E, Payson, UT 84651","precinct":"25PA01","hd":"65","v_score":"5.40460374","decile":"7","lat":40.067293046351146,"lng":-111.7107915510822,"phone":"(640) 665-4536","sd":"25","ssbd":"13","lsbd":"School Board Nebo 7"},{"vid":"1873691","name":"Demetrios Quigley","party":"","address":"1706 N 1230 E, Payson, UT 84651","precinct":"25PA01","hd":"65","v_score":"2.315214949","decile":"5","lat":40.06891795861485,"lng":-111.71101337782453,"phone":"(528) 064-3752","sd":"25","ssbd":"13","lsbd":"School Board Nebo 7"},{"vid":"1873879","name":"Ms. Anita Kemmer MD","party":"","address":"1254 E 1530 N, Payson, UT 84651","precinct":"25PA01","hd":"65","v_score":"3.781490609","decile":"6","lat":40.065013331228464,"lng":-111.71077435579537,"phone":"(896) 868-1338","sd":"25","ssbd":"13","lsbd":"School Board Nebo 7"},{"vid":"1877392","name":"Dana Nicolas-Mertz","party":"Rep","address":"1461 E 100 S, Unit E201, Payson, UT 84651","precinct":"25PA01","hd":"65","v_score":"5.530510904","decile":"7","lat":40.04368908324543,"lng":-111.70568704663707,"phone":"(812) 996-3536","sd":"25","ssbd":"13","lsbd":"School Board Nebo 7"},{"vid":"1882055","name":"Ms. Lisa Gislason","party":"Dem","address":"1788 N 1260 E, Payson, UT 84651","precinct":"25PA01","hd":"65","v_score":"8.761771632","decile":"8","lat":40.07045986678719,"lng":-111.71057716177445,"phone":"(171) 632-6636","sd":"25","ssbd":"13","lsbd":"School Board Nebo 7"},{"vid":"3a61222465564cc7c75423b815a662b45a65f75a19541750030b168cf13e500b","name":"Orpha Christiansen","party":"Rep","address":"1509 N 1190 E, Payson, UT 84651","precinct":"25PA01","hd":"65","v_score":"3.781490609","decile":"6","lat":40.06528149323975,"lng":-111.71268148624542,"phone":"(894) 196-3041","sd":"25","ssbd":"13","lsbd":"School Board Nebo 7"},{"vid":"1902931","name":"Jaylen Mertz","party":"Rep","address":"1468 N 1190 E, Payson, UT 84651","precinct":"25PA01","hd":"65","v_score":"2.660162957","decile":"5","lat":40.064463891813425,"lng":-111.71230584942114,"phone":"(879) 135-2511","sd":"25","ssbd":"13","lsbd":"School Board Nebo 7"},{"vid":"1903448","name":"Kyler McLaughlin","party":"Rep","address":"1736 N 1260 E, Payson, UT 84651","precinct":"25PA01","hd":"65","v_score":"10.87160818","decile":"9","lat":40.069517254298574,"lng":-111.71071555974946,"phone":"(861) 315-3698","sd":"25","ssbd":"13","lsbd":"School Board Nebo 7"},{"vid":"1913476","name":"Ivey Schneider II","party":"Rep","address":"1481 N 1190 E, Payson, UT 84651","precinct":"25PA01","hd":"65","v_score":"16.11238254","decile":"9","lat":40.06476442291188,"lng":-111.7128138161716,"phone":"(792) 852-4660","sd":"25","ssbd":"13","lsbd":"School Board Nebo 7"},{"vid":"1917171","name":"Dayna Rowe-Schiller","party":"","address":"1343 E 1590 N, Payson, UT 84651","precinct":"25PA01","hd":"65","v_score":"2.315214949","decile":"5","lat":40.066717276553526,"lng":-111.70995005567713,"phone":"(559) 172-6580","sd":"25","ssbd":"13","lsbd":"School Board Nebo 7"},{"vid":"1920102","name":"Mr. Derik Bosco","party":"","address":"1504 N 1130 E, Payson, UT 84651","precinct":"25PA01","hd":"65","v_score":"5.331806201","decile":"7","lat":40.06521422261695,"lng":-111.71304683125113,"phone":"(719) 175-7483","sd":"25","ssbd":"13","lsbd":"School Board Nebo 7"},{"vid":"1922184","name":"Payten Lakin DDS","party":"Dem","address":"1492 N 1130 E, Payson, UT 84651","precinct":"25PA01","hd":"65","v_score":"3.93832808","decile":"6","lat":40.064947252544385,"lng":-111.71311853801105,"phone":"(526) 285-0744","sd":"25","ssbd":"13","lsbd":"School Board Nebo 7"},{"vid":"1925987","name":"Kaliyah Crooks","party":"Dem","address":"294 N 1140 E, Payson, UT 84651","precinct":"25PA01","hd":"65","v_score":"15.0180437","decile":"9","lat":40.046751005610936,"lng":-111.71280694747327,"phone":"(495) 399-2933","sd":"25","ssbd":"13","lsbd":"School Board Nebo 7"},{"vid":"b48e18a0af58254f40b0b71aaf1ad1b63769adf650cc45bfd2d229a5b857cccd","name":"Mariel Dicki-Becker","party":"","address":"1363 E 100 S, Apt 198, Payson, UT 84651","precinct":"25PA01","hd":"65","v_score":"21.00794067","decile":"10","lat":40.043391202141045,"lng":-111.70761180803176,"phone":"(381) 540-4197","sd":"25","ssbd":"13","lsbd":"School Board Nebo 7"},{"vid":"1927414","name":"Alma Satterfield","party":"Dem","address":"1461 E 100 S, Unit H308, Payson, UT 84651","precinct":"25PA01","hd":"65","v_score":"1.46627566","decile":"4","lat":40.04368908324543,"lng":-111.70568704663707,"phone":"(858) 316-2648","sd":"25","ssbd":"13","lsbd":"School Board Nebo 7"},{"vid":"1937578","name":"Fremont Dietrich","party":"Dem","address":"1733 N 1310 E, Payson, UT 84651","precinct":"25PA01","hd":"65","v_score":"7.650280567","decile":"8","lat":40.06954236150706,"lng":-111.70909805118094,"phone":"(279) 524-5788","sd":"25","ssbd":"13","lsbd":"School Board Nebo 7"},{"vid":"28b46d33c948b39764ecb612aca062a51e4c4a12eb32d18a1719813e23fec992","name":"Mr. Duard O'Hara V","party":"","address":"1265 E 1750 N, Payson, UT 84651","precinct":"25PA01","hd":"65","v_score":"3.781490609","decile":"6","lat":40.06981396591135,"lng":-111.71029242016091,"phone":"(798) 499-6007","sd":"25","ssbd":"13","lsbd":"School Board Nebo 7"},{"vid":"1945007","name":"Charley Cartwright","party":"","address":"1694 N 1330 E, Unit 203, Payson, UT 84651","precinct":"25PA01","hd":"65","v_score":"7.995565619","decile":"8","lat":40.069035136981455,"lng":-111.70834259685849,"phone":"(536) 328-3263","sd":"25","ssbd":"13","lsbd":"School Board Nebo 7"},{"vid":"1945954","name":"Ignatius Bernier","party":"","address":"1623 N 1320 E, Payson, UT 84651","precinct":"25PA01","hd":"65","v_score":"5.463645877","decile":"7","lat":40.066863833342715,"lng":-111.71050321020165,"phone":"(930) 028-7884","sd":"25","ssbd":"13","lsbd":"School Board Nebo 7"},{"vid":"1947126","name":"Miss Carla Lebsack MD","party":"Dem","address":"1366 N 1400 E, Payson, UT 84651","precinct":"25PA01","hd":"65","v_score":"7.934314529","decile":"8","lat":40.062713101902396,"lng":-111.70650958341776,"phone":"(218) 172-7337","sd":"25","ssbd":"13","lsbd":"School Board Nebo 7"},{"vid":"1949059","name":"Ilah Ondricka","party":"Rep","address":"1338 N 1400 E, Payson, UT 84651","precinct":"25PA01","hd":"65","v_score":"6.528952915","decile":"7","lat":40.06224274308738,"lng":-111.70652781418747,"phone":"(715) 672-6894","sd":"25","ssbd":"13","lsbd":"School Board Nebo 7"},{"vid":"1951071","name":"Dr. Abdiel Pacocha","party":"Dem","address":"1438 N 1190 E, Payson, UT 84651","precinct":"25PA01","hd":"65","v_score":"5.40460374","decile":"7","lat":40.06387612285089,"lng":-111.71256462511342,"phone":"(754) 189-1162","sd":"25","ssbd":"13","lsbd":"School Board Nebo 7"},{"vid":"1df371a028fb18a5f1d0e3828e68ea297edd600259cfca2709b6964e24030710","name":"Lovina Johns","party":"Rep","address":"1312 N 1390 E, Payson, UT 84651","precinct":"25PA01","hd":"65","v_score":"5.40460374","decile":"7","lat":40.061927717145785,"lng":-111.70702808560986,"phone":"(145) 391-2990","sd":"25","ssbd":"13","lsbd":"School Board Nebo 7"},{"vid":"1955493","name":"Dayse Kuphal","party":"","address":"1271 E 1750 N, Payson, UT 84651","precinct":"25PA01","hd":"65","v_score":"2.587603312","decile":"5","lat":40.069770834392216,"lng":-111.71008119397698,"phone":"(983) 857-3587","sd":"25","ssbd":"13","lsbd":"School Board Nebo 7"},{"vid":"1955727","name":"Madonna Gottlieb DVM","party":"Dem","address":"1785 N 1300 E, Payson, UT 84651","precinct":"25PA01","hd":"65","v_score":"2.315214949","decile":"5","lat":40.070461770010624,"lng":-111.7092548765822,"phone":"(935) 186-1078","sd":"25","ssbd":"13","lsbd":"School Board Nebo 7"},{"vid":"1956665","name":"Kimberly Boyer","party":"Dem","address":"1538 N 1130 E, Payson, UT 84651","precinct":"25PA01","hd":"65","v_score":"5.40460374","decile":"7","lat":40.065829358309124,"lng":-111.7128944854019,"phone":"(797) 444-8482","sd":"25","ssbd":"13","lsbd":"School Board Nebo 7"},{"vid":"fe96a9899536cd73e29554c6d7348572539dac53c63cb78d24343598deea7d08","name":"Lovell Collins","party":"Rep","address":"1504 N 1130 E, Payson, UT 84651","precinct":"25PA01","hd":"65","v_score":"13.57681029","decile":"9","lat":40.06521422261695,"lng":-111.71304683125113,"phone":"(498) 111-5786","sd":"25","ssbd":"13","lsbd":"School Board Nebo 7"},{"vid":"1969737","name":"Marlee Connelly","party":"Dem","address":"1608 N 1280 E, Payson, UT 84651","precinct":"25PA01","hd":"65","v_score":"6.364334873","decile":"7","lat":40.06641312413172,"lng":-111.71139327949044,"phone":"(420) 010-4505","sd":"25","ssbd":"13","lsbd":"School Board Nebo 7"},{"vid":"1970159","name":"Dr. Mohammed Reynolds","party":"Dem","address":"1488 N 1190 E, Payson, UT 84651","precinct":"25PA01","hd":"65","v_score":"3.781490609","decile":"6","lat":40.0648384113149,"lng":-111.7122052674543,"phone":"(982) 153-5321","sd":"25","ssbd":"13","lsbd":"School Board Nebo 7"},{"vid":"3fa8bd494b06ee29fd35a82d9f936567c1801995402cc3a2acd2bde38e0496b3","name":"Virge Kulas","party":"","address":"1495 N 1190 E, Payson, UT 84651","precinct":"25PA01","hd":"65","v_score":"18.07583379","decile":"10","lat":40.06502346634923,"lng":-111.71275080564261,"phone":"(527) 415-2965","sd":"25","ssbd":"13","lsbd":"School Board Nebo 7"},{"vid":"1970866","name":"Ica Legros","party":"","address":"1536 N 1350 E, Payson, UT 84651","precinct":"25PA01","hd":"65","v_score":"2.660162957","decile":"5","lat":40.065819862764116,"lng":-111.70846435376795,"phone":"(310) 596-8553","sd":"25","ssbd":"13","lsbd":"School Board Nebo 7"},{"vid":"1974072","name":"Kris Hagenes","party":"Dem","address":"1742 N 1310 E, Payson, UT 84651","precinct":"25PA01","hd":"65","v_score":"2.315214949","decile":"5","lat":40.06961761529139,"lng":-111.70955069174109,"phone":"(984) 571-3747","sd":"25","ssbd":"13","lsbd":"School Board Nebo 7"},{"vid":"1986745","name":"Mr. Corry Berge DVM","party":"Rep","address":"1461 E 100 S, Unit F304, Payson, UT 84651","precinct":"25PA01","hd":"65","v_score":"0","decile":"1","lat":40.04368908324543,"lng":-111.70568704663707,"phone":"(734) 734-1292","sd":"25","ssbd":"13","lsbd":"School Board Nebo 7"},{"vid":"1988640","name":"Arther Swaniawski-Toy","party":"Rep","address":"1286 E 1700 N, Payson, UT 84651","precinct":"25PA01","hd":"65","v_score":"0","decile":"1","lat":40.068690094879976,"lng":-111.70975236361218,"phone":"(884) 874-3643","sd":"25","ssbd":"13","lsbd":"School Board Nebo 7"},{"vid":"1989243","name":"Mose Emard","party":"","address":"1744 N 1310 E, Payson, UT 84651","precinct":"25PA01","hd":"65","v_score":"1.121327652","decile":"3","lat":40.06966603910912,"lng":-111.70955396864554,"phone":"(339) 823-9073","sd":"25","ssbd":"13","lsbd":"School Board Nebo 7"},{"vid":"1993285","name":"Orin Kerluke","party":"Rep","address":"1363 E 100 S, Apt 125, Payson, UT 84651","precinct":"25PA01","hd":"65","v_score":"14.2999073","decile":"9","lat":40.043391202141045,"lng":-111.70761180803176,"phone":"(106) 214-9130","sd":"25","ssbd":"13","lsbd":"School Board Nebo 7"},{"vid":"1994361","name":"Maddux Mayer III","party":"","address":"1488 N 1190 E, Payson, UT 84651","precinct":"25PA01","hd":"65","v_score":"3.781490609","decile":"6","lat":40.0648384113149,"lng":-111.7122052674543,"phone":"(575) 671-5151","sd":"25","ssbd":"13","lsbd":"School Board Nebo 7"},{"vid":"1995338","name":"Mallie Kling DVM","party":"Rep","address":"1441 N 1130 E, Payson, UT 84651","precinct":"25PA01","hd":"65","v_score":"2.315214949","decile":"5","lat":40.064055642167176,"lng":-111.7139196985209,"phone":"(667) 568-4076","sd":"25","ssbd":"13","lsbd":"School Board Nebo 7"},{"vid":"2002009","name":"Amon Gottlieb","party":"","address":"915 E 300 N, Trlr 36, Payson, UT 84651","precinct":"25PA01","hd":"65","v_score":"7.169296324","decile":"8","lat":40.04782053121912,"lng":-111.71686364754844,"phone":"(713) 724-3414","sd":"25","ssbd":"13","lsbd":"School Board Nebo 7"},{"vid":"2010961","name":"Brendan Bogisich","party":"Dem","address":"1640 N 1330 E, Payson, UT 84651","precinct":"25PA01","hd":"65","v_score":"9.55742766","decile":"8","lat":40.06734393553156,"lng":-111.71022016524901,"phone":"(334) 235-4883","sd":"25","ssbd":"13","lsbd":"School Board Nebo 7"},{"vid":"2011705","name":"Keenan Gorczany-Kassulke","party":"","address":"1284 N 1440 E, Payson, UT 84651","precinct":"25PA01","hd":"65","v_score":"1.193887297","decile":"3","lat":40.06143312862155,"lng":-111.70560981717479,"phone":"(718) 913-0217","sd":"25","ssbd":"13","lsbd":"School Board Nebo 7"},{"vid":"2022735","name":"Infant Marvin","party":"","address":"1461 E 100 S, Unit C203, Payson, UT 84651","precinct":"25PA01","hd":"65","v_score":"36.95225887","decile":"10","lat":40.04368908324543,"lng":-111.70568704663707,"phone":"(806) 664-5390","sd":"25","ssbd":"13","lsbd":"School Board Nebo 7"},{"vid":"2026748","name":"Mossie Schumm","party":"","address":"1642 N 1330 E, Payson, UT 84651","precinct":"25PA01","hd":"65","v_score":"2.315214949","decile":"5","lat":40.067388642945694,"lng":-111.71022026675864,"phone":"(313) 017-0296","sd":"25","ssbd":"13","lsbd":"School Board Nebo 7"},{"vid":"2027772","name":"Autumn Quigley","party":"","address":"1732 N 1260 E, Payson, UT 84651","precinct":"25PA01","hd":"65","v_score":"8.347511332","decile":"8","lat":40.06939224464151,"lng":-111.71074307023403,"phone":"(740) 488-2693","sd":"25","ssbd":"13","lsbd":"School Board Nebo 7"},{"vid":"2034968","name":"Cooper Deckow","party":"Dem","address":"1222 E 1420 N, Payson, UT 84651","precinct":"25PA01","hd":"65","v_score":"0","decile":"1","lat":40.06359917354741,"lng":-111.71138311397502,"phone":"(398) 657-1054","sd":"25","ssbd":"13","lsbd":"School Board Nebo 7"},{"vid":"e0f623ec5dc8d95a213b1dd3d44ce3b900fa7f90e9dee52be4061e5b4f7e544c","name":"Treasure Shields","party":"Rep","address":"1728 N 1310 E, Payson, UT 84651","precinct":"25PA01","hd":"65","v_score":"3.781490609","decile":"6","lat":40.069342421599465,"lng":-111.70950096974059,"phone":"(651) 317-0981","sd":"25","ssbd":"13","lsbd":"School Board Nebo 7"},{"vid":"cd6f4e0d14362551c7fff2b268dee5891cb429aa2dc76008d820d7ba293fa1d6","name":"Dr. Tobin Schmidt DVM","party":"","address":"1728 N 1310 E, Payson, UT 84651","precinct":"25PA01","hd":"65","v_score":"7.153624035","decile":"8","lat":40.069342421599465,"lng":-111.70950096974059,"phone":"(908) 116-9538","sd":"25","ssbd":"13","lsbd":"School Board Nebo 7"},{"vid":"2065607","name":"Tilla Abshire","party":"","address":"1787 N 1240 E, Payson, UT 84651","precinct":"25PA01","hd":"65","v_score":"2.817000428","decile":"6","lat":40.0704595923027,"lng":-111.71076598200061,"phone":"(238) 869-5355","sd":"25","ssbd":"13","lsbd":"School Board Nebo 7"},{"vid":"2069555","name":"Effie Lang-Oberbrunner","party":"","address":"9 S 900 E, Payson, UT 84651","precinct":"25PA01","hd":"65","v_score":"5.40460374","decile":"7","lat":40.043655817284034,"lng":-111.71707718802094,"phone":"(689) 013-9875","sd":"25","ssbd":"13","lsbd":"School Board Nebo 7"},{"vid":"f11896baf7a1561bbccc3d0796fe8f958bb5f2d1916bd9837d4af3c660b752e3","name":"Lute Zemlak","party":"","address":"1642 N 1300 E, Payson, UT 84651","precinct":"25PA01","hd":"65","v_score":"0","decile":"1","lat":40.067343067119126,"lng":-111.71079170235849,"phone":"(423) 588-9207","sd":"25","ssbd":"13","lsbd":"School Board Nebo 7"},{"vid":"a6414efed26bac1b42511599a681b5c2163b05398f9d213e61f0e62cbbb8e125","name":"Mrs. Sherron Runolfsdottir","party":"","address":"1332 N 1525 E, Payson, UT 84651","precinct":"25PA01","hd":"65","v_score":"15.09248494","decile":"9","lat":40.062208623024716,"lng":-111.70378531691385,"phone":"(528) 756-8331","sd":"25","ssbd":"13","lsbd":"School Board Nebo 7"},{"vid":"6270b902e52e0afe27d914b4f8947e8e6a0cb857133c78165ee189497f954bb6","name":"Ms. Jocelynn Bednar","party":"Rep","address":"923 E 100 S, Payson, UT 84651","precinct":"25PA01","hd":"65","v_score":"2.942907593","decile":"6","lat":40.04298629910766,"lng":-111.71704171136449,"phone":"(233) 234-2285","sd":"25","ssbd":"13","lsbd":"School Board Nebo 7"},{"vid":"8d490b4e83eebab55463b5342ef2f48b500cad79d3f2cc81c3b4a1efb34c4c91","name":"Burnice Cremin","party":"Rep","address":"1363 E 100 S, # A-103, Payson, UT 84651","precinct":"25PA01","hd":"65","v_score":"0","decile":"1","lat":40.043391202141045,"lng":-111.70761180803176,"phone":"(817) 788-2207","sd":"25","ssbd":"13","lsbd":"School Board Nebo 7"},{"vid":"2099380","name":"Mrs. Olivine Walsh DVM","party":"Rep","address":"949 E 100 S, Payson, UT 84651","precinct":"25PA01","hd":"65","v_score":"0","decile":"1","lat":40.04299221195224,"lng":-111.7169467470422,"phone":"(995) 441-9702","sd":"25","ssbd":"13","lsbd":"School Board Nebo 7"},{"vid":"2114115","name":"Mr. Connor Larson","party":"Dem","address":"252 N 900 E, Apt 405, Payson, UT 84651","precinct":"25PA01","hd":"65","v_score":"1.46627566","decile":"4","lat":40.04641287922476,"lng":-111.7166496296654,"phone":"(673) 322-8795","sd":"25","ssbd":"13","lsbd":"School Board Nebo 7"},{"vid":"2115632","name":"Lennie Tremblay","party":"Rep","address":"1715 N 1310 E, Payson, UT 84651","precinct":"25PA01","hd":"65","v_score":"2.587603312","decile":"5","lat":40.06911761996,"lng":-111.70901924913765,"phone":"(236) 074-4357","sd":"25","ssbd":"13","lsbd":"School Board Nebo 7"},{"vid":"5dfa222bf7777688bf7dc4825c142cf8341cc43fbdbf2ef6dfcce5b596ac34a5","name":"Glennie Kertzmann","party":"","address":"915 E 300 N, Trlr 13, Payson, UT 84651","precinct":"25PA01","hd":"65","v_score":"6.74007049","decile":"8","lat":40.04782053121912,"lng":-111.71686364754844,"phone":"(932) 682-6701","sd":"25","ssbd":"13","lsbd":"School Board Nebo 7"},{"vid":"a2fd02b945b73ddba8c328b13c896f80ac9d59f5e0c1e2eecbecb3754e7c3746","name":"Alaya Upton PhD","party":"Dem","address":"252 N 900 E, Apt 401, Payson, UT 84651","precinct":"25PA01","hd":"65","v_score":"2.587603312","decile":"5","lat":40.04641287922476,"lng":-111.7166496296654,"phone":"(323) 812-6340","sd":"25","ssbd":"13","lsbd":"School Board Nebo 7"},{"vid":"978216a622f8b6ba8bd6df46a26ec97d555932d1f1fa09c525efd36bc7993642","name":"Ms. Lulah Streich DDS","party":"Dem","address":"1363 E 100 S, Apt 150, Payson, UT 84651","precinct":"25PA01","hd":"65","v_score":"2.587603312","decile":"5","lat":40.043391202141045,"lng":-111.70761180803176,"phone":"(978) 133-1799","sd":"25","ssbd":"13","lsbd":"School Board Nebo 7"},{"vid":"2151314","name":"Yadiel Hagenes","party":"Dem","address":"1338 E 1590 N, Payson, UT 84651","precinct":"25PA01","hd":"65","v_score":"1.121327652","decile":"3","lat":40.066297498892176,"lng":-111.70970283640636,"phone":"(386) 868-5358","sd":"25","ssbd":"13","lsbd":"School Board Nebo 7"},{"vid":"ec4ff2f632d23b31e7fb63144a600f8f68688c52130b04921e8011eb09a79389","name":"Janyce Feeney","party":"","address":"1363 E 100 S, Apt 119, Payson, UT 84651","precinct":"25PA01","hd":"65","v_score":"0","decile":"1","lat":40.043391202141045,"lng":-111.70761180803176,"phone":"(252) 020-4254","sd":"25","ssbd":"13","lsbd":"School Board Nebo 7"},{"vid":"2156715","name":"Myra Schuppe-Runolfsdottir","party":"","address":"1235 E 1420 N, Payson, UT 84651","precinct":"25PA01","hd":"65","v_score":"15.51131257","decile":"9","lat":40.06404555990542,"lng":-111.71105994017071,"phone":"(636) 140-8881","sd":"25","ssbd":"13","lsbd":"School Board Nebo 7"},{"vid":"b6c67d66cb7a7b7bff1101509f276ddc6973c32eecd4087c66559412881f85b8","name":"Rayshawn O'Kon","party":"Rep","address":"915 E 300 N, Trlr 25, Payson, UT 84651","precinct":"25PA01","hd":"65","v_score":"1.46627566","decile":"4","lat":40.04782053121912,"lng":-111.71686364754844,"phone":"(760) 478-5101","sd":"25","ssbd":"13","lsbd":"School Board Nebo 7"},{"vid":"2166428","name":"Tory Gorczany","party":"Rep","address":"1640 N 1300 E, Payson, UT 84651","precinct":"25PA01","hd":"65","v_score":"5.40460374","decile":"7","lat":40.067293046351146,"lng":-111.7107915510822,"phone":"(231) 162-4633","sd":"25","ssbd":"13","lsbd":"School Board Nebo 7"},{"vid":"2169530","name":"Ferman Bode DDS","party":"","address":"1639 N 1300 E, Payson, UT 84651","precinct":"25PA01","hd":"65","v_score":"2.660162957","decile":"5","lat":40.06725963003834,"lng":-111.71132958821815,"phone":"(490) 257-4530","sd":"25","ssbd":"13","lsbd":"School Board Nebo 7"},{"vid":"e3f45009a588360711c4044e1a3759a15766f90a3d842fe1817f915e1b8bca02","name":"Anibal Koepp","party":"Dem","address":"1461 N 1130 E, Payson, UT 84651","precinct":"25PA01","hd":"65","v_score":"1.121327652","decile":"3","lat":40.06443640045136,"lng":-111.71381741652229,"phone":"(381) 451-1758","sd":"25","ssbd":"13","lsbd":"School Board Nebo 7"},{"vid":"2173622","name":"Terrance Smitham","party":"","address":"1438 N 1190 E, Payson, UT 84651","precinct":"25PA01","hd":"65","v_score":"6.881235673","decile":"8","lat":40.06387612285089,"lng":-111.71256462511342,"phone":"(881) 905-9027","sd":"25","ssbd":"13","lsbd":"School Board Nebo 7"},{"vid":"4c353f9cde05ad961fbb238ab23c634a938ff37ad6311b352138879aa773d209","name":"Jayden Donnelly","party":"","address":"1222 E 1420 N, Payson, UT 84651","precinct":"25PA01","hd":"65","v_score":"1.193887297","decile":"3","lat":40.06359917354741,"lng":-111.71138311397502,"phone":"(141) 955-8356","sd":"25","ssbd":"13","lsbd":"School Board Nebo 7"},{"vid":"2176854","name":"Dr. Pairlee Osinski","party":"Dem","address":"1311 N 1390 E, Payson, UT 84651","precinct":"25PA01","hd":"65","v_score":"3.93832808","decile":"6","lat":40.06190984534555,"lng":-111.70723201198285,"phone":"(668) 283-8942","sd":"25","ssbd":"13","lsbd":"School Board Nebo 7"},{"vid":"2178759","name":"Diandra McDermott-Bauch","party":"Rep","address":"252 N 900 E, Apt 106, Payson, UT 84651","precinct":"25PA01","hd":"65","v_score":"1.121327652","decile":"3","lat":40.04641287922476,"lng":-111.7166496296654,"phone":"(758) 478-2226","sd":"25","ssbd":"13","lsbd":"School Board Nebo 7"},{"vid":"2178828","name":"Monty Satterfield-Ankunding","party":"Rep","address":"1538 N 1130 E, Payson, UT 84651","precinct":"25PA01","hd":"65","v_score":"2.817000428","decile":"6","lat":40.065829358309124,"lng":-111.7128944854019,"phone":"(611) 310-1877","sd":"25","ssbd":"13","lsbd":"School Board Nebo 7"},{"vid":"7c26d5e06ed6272dc787fb64b26be966800091ad986cc2bb8d899189795e598e","name":"Mercedes McKenzie","party":"","address":"1620 N 1280 E, Payson, UT 84651","precinct":"25PA01","hd":"65","v_score":"9.527862242","decile":"8","lat":40.066753333316136,"lng":-111.71155394767058,"phone":"(540) 553-4214","sd":"25","ssbd":"13","lsbd":"School Board Nebo 7"},{"vid":"2193639","name":"Dayna Jones","party":"","address":"1501 N 1130 E, Payson, UT 84651","precinct":"25PA01","hd":"65","v_score":"4.858449944","decile":"7","lat":40.06519974623897,"lng":-111.71361240175051,"phone":"(299) 712-9874","sd":"25","ssbd":"13","lsbd":"School Board Nebo 7"},{"vid":"65361c0aa87e8c26259c17ea5061ff921ce18f135650b23a20f21108a504fc7a","name":"Eliot Jones Jr.","party":"","address":"1221 N 1525 E, Payson, UT 84651","precinct":"25PA01","hd":"65","v_score":"2.315214949","decile":"5","lat":40.06043830297494,"lng":-111.704305508298,"phone":"(255) 166-3665","sd":"25","ssbd":"13","lsbd":"School Board Nebo 7"},{"vid":"adc970535e3e7589d8260cc9c819a62859148e7f0348faa958bb3a26c9764742","name":"Katelynn Gutkowski","party":"","address":"1246 E 1530 N, Payson, UT 84651","precinct":"25PA01","hd":"65","v_score":"3.93832808","decile":"6","lat":40.0651866351612,"lng":-111.71084142489212,"phone":"(285) 746-6625","sd":"25","ssbd":"13","lsbd":"School Board Nebo 7"},{"vid":"b378602856dc1ea5d2b37591db0f805d45fccaad7f08bc866ebc10d85f05cded","name":"Ardis VonRueden","party":"Rep","address":"252 N 900 E, Apt 304, Payson, UT 84651","precinct":"25PA01","hd":"65","v_score":"2.315214949","decile":"5","lat":40.04641287922476,"lng":-111.7166496296654,"phone":"(659) 172-0590","sd":"25","ssbd":"13","lsbd":"School Board Nebo 7"},{"vid":"2e90e53346041a04c859ef404eb5489a80595011fb5fb2e607ec969bb3d55ffe","name":"Mr. Lula Moore II","party":"","address":"1461 E 100 S, Unit C101, Payson, UT 84651","precinct":"25PA01","hd":"65","v_score":"4.741221742","decile":"7","lat":40.04368908324543,"lng":-111.70568704663707,"phone":"(219) 200-4725","sd":"25","ssbd":"13","lsbd":"School Board Nebo 7"},{"vid":"3ffaa64c6ea57a040c85193c06cd76c6c0273688cc4e450fab927aa2b2d51db1","name":"Golden Treutel-Muller","party":"","address":"1461 E 100 S, Unit C101, Payson, UT 84651","precinct":"25PA01","hd":"65","v_score":"4.741221742","decile":"7","lat":40.04368908324543,"lng":-111.70568704663707,"phone":"(857) 126-1695","sd":"25","ssbd":"13","lsbd":"School Board Nebo 7"},{"vid":"2229310","name":"Dr. Gearld Kub","party":"","address":"1234 N 1525 E, Payson, UT 84651","precinct":"25PA01","hd":"65","v_score":"3.93832808","decile":"6","lat":40.06066625000202,"lng":-111.70374661156255,"phone":"(727) 266-3672","sd":"25","ssbd":"13","lsbd":"School Board Nebo 7"},{"vid":"45ddd41bba55b1d0a11e6c34d8b8df36c443c05590c46355d4babd2bffd08367","name":"Margene Stehr","party":"Dem","address":"1574 N Arrow Park Dr, Payson, UT 84651","precinct":"25PA01","hd":"65","v_score":"2.315214949","decile":"5","lat":40.06611693465748,"lng":-111.70999349393462,"phone":"(389) 485-3375","sd":"25","ssbd":"13","lsbd":"School Board Nebo 7"},{"vid":"2256059","name":"Adron Breitenberg DDS","party":"","address":"22 S 1000 E, Payson, UT 84651","precinct":"25PA01","hd":"65","v_score":"17.83952671","decile":"10","lat":40.04351873487318,"lng":-111.71648078228051,"phone":"(161) 916-8503","sd":"25","ssbd":"13","lsbd":"School Board Nebo 7"},{"vid":"0f7bb992b757041f89529a8336352b3e062e60e3793ca71b4f86c4ddf95aa12e","name":"Elsie Lindgren","party":"Dem","address":"1243 E 1420 N, Payson, UT 84651","precinct":"25PA01","hd":"65","v_score":"1.121327652","decile":"3","lat":40.064047678103826,"lng":-111.71088530932639,"phone":"(909) 887-4132","sd":"25","ssbd":"13","lsbd":"School Board Nebo 7"},{"vid":"59d29273ff5bc1bb89759af343d1058f45be264117fb79ae47dbd8abf91bc307","name":"Hosteen Deckow","party":"","address":"1243 E 1420 N, Payson, UT 84651","precinct":"25PA01","hd":"65","v_score":"1.121327652","decile":"3","lat":40.064047678103826,"lng":-111.71088530932639,"phone":"(552) 784-8267","sd":"25","ssbd":"13","lsbd":"School Board Nebo 7"},{"vid":"54f5c1b7d774c8f608b58dce4193428052aeddab4cb74ed41bb79df22ae98930","name":"Destini Goyette","party":"Rep","address":"252 N 900 E, Apt 401, Payson, UT 84651","precinct":"25PA01","hd":"65","v_score":"0","decile":"1","lat":40.04641287922476,"lng":-111.7166496296654,"phone":"(362) 110-1051","sd":"25","ssbd":"13","lsbd":"School Board Nebo 7"},{"vid":"2283297","name":"Agusta Bogisich","party":"Dem","address":"1442 N 1130 E, Payson, UT 84651","precinct":"25PA01","hd":"65","v_score":"4.064235245","decile":"6","lat":40.06412598294633,"lng":-111.7133347330352,"phone":"(640) 666-7074","sd":"25","ssbd":"13","lsbd":"School Board Nebo 7"},{"vid":"034e38d7c069ead55fe9cd6e7386856f089261e7054c54931a2458224aee6394","name":"Dr. Bryce Schaden I","party":"Rep","address":"915 E 300 N, Trlr 22, Payson, UT 84651","precinct":"25PA01","hd":"65","v_score":"1.121327652","decile":"3","lat":40.04782053121912,"lng":-111.71686364754844,"phone":"(910) 268-6156","sd":"25","ssbd":"13","lsbd":"School Board Nebo 7"},{"vid":"2284792","name":"Keandre Maggio","party":"Rep","address":"50 S 1000 E, Payson, UT 84651","precinct":"25PA01","hd":"65","v_score":"0","decile":"1","lat":40.04325095983945,"lng":-111.71647993926153,"phone":"(965) 497-6987","sd":"25","ssbd":"13","lsbd":"School Board Nebo 7"},{"vid":"2287768","name":"Dr. Benjamen Hermiston IV","party":"Rep","address":"1621 N 1300 E, Payson, UT 84651","precinct":"25PA01","hd":"65","v_score":"1.193887297","decile":"3","lat":40.066763965685126,"lng":-111.71129086579883,"phone":"(196) 358-3699","sd":"25","ssbd":"13","lsbd":"School Board Nebo 7"},{"vid":"2445f0effc0f8a17f74409179967955d0399fb4f5d323b599995b4fc67437516","name":"Jamir Little","party":"Rep","address":"49 S 900 E, Payson, UT 84651","precinct":"25PA01","hd":"65","v_score":"5.258122542","decile":"7","lat":40.043244768157194,"lng":-111.71709401074136,"phone":"(949) 069-4426","sd":"25","ssbd":"13","lsbd":"School Board Nebo 7"},{"vid":"2301879","name":"Dr. Docia Price DDS","party":"Dem","address":"1509 N 1190 E, Payson, UT 84651","precinct":"25PA01","hd":"65","v_score":"2.315214949","decile":"5","lat":40.06528149323975,"lng":-111.71268148624542,"phone":"(514) 975-9486","sd":"25","ssbd":"13","lsbd":"School Board Nebo 7"},{"vid":"2302128","name":"Lavar Weber","party":"Dem","address":"1786 N 1300 E, Payson, UT 84651","precinct":"25PA01","hd":"65","v_score":"9.405332525","decile":"8","lat":40.070461328282086,"lng":-111.70956978254502,"phone":"(851) 782-2242","sd":"25","ssbd":"13","lsbd":"School Board Nebo 7"},{"vid":"fbe937a3a1e0b613546e1f64492c689fe50f3fbfc75a05013a14d1a44f2c833d","name":"Declan Mante","party":"","address":"1347 E 50 S, Apt A310, Payson, UT 84651","precinct":"25PA01","hd":"65","v_score":"10.66687182","decile":"9","lat":40.04517667838413,"lng":-111.70746915748177,"phone":"(483) 557-4199","sd":"25","ssbd":"13","lsbd":"School Board Nebo 7"},{"vid":"c485a2dc9b737eb5ea43344912c22399460ffb4b837e8ea8e2d0e5b3e35a6beb","name":"Yamilex Schumm","party":"Rep","address":"1607 N 1300 E, Payson, UT 84651","precinct":"25PA01","hd":"65","v_score":"5.331806201","decile":"7","lat":40.06643043802971,"lng":-111.71110884304744,"phone":"(357) 223-8973","sd":"25","ssbd":"13","lsbd":"School Board Nebo 7"},{"vid":"073c7be727ab43a0a057e54e716e40f06ccc346bb9c8479b5a711d1c63ff038f","name":"Londyn Johnson DVM","party":"","address":"1461 E 100 S, Unit E107, Payson, UT 84651","precinct":"25PA01","hd":"65","v_score":"1.121327652","decile":"3","lat":40.04368908324543,"lng":-111.70568704663707,"phone":"(819) 511-2749","sd":"25","ssbd":"13","lsbd":"School Board Nebo 7"},{"vid":"2313976","name":"Darrell Wunsch","party":"Rep","address":"1642 N 1300 E, Payson, UT 84651","precinct":"25PA01","hd":"65","v_score":"0","decile":"1","lat":40.067343067119126,"lng":-111.71079170235849,"phone":"(406) 826-4603","sd":"25","ssbd":"13","lsbd":"School Board Nebo 7"},{"vid":"2315070","name":"Beecher Reilly","party":"","address":"915 E 100 S, Payson, UT 84651","precinct":"25PA01","hd":"65","v_score":"1.193887297","decile":"3","lat":40.04297764660798,"lng":-111.71717853430438,"phone":"(175) 249-1617","sd":"25","ssbd":"13","lsbd":"School Board Nebo 7"},{"vid":"2319184","name":"Marissa Beer","party":"Rep","address":"1694 N 1330 E, Unit 304, Payson, UT 84651","precinct":"25PA01","hd":"65","v_score":"2.315214949","decile":"5","lat":40.069035136981455,"lng":-111.70834259685849,"phone":"(400) 130-3995","sd":"25","ssbd":"13","lsbd":"School Board Nebo 7"},{"vid":"2320601","name":"French Fay","party":"","address":"1722 N 1280 E, Payson, UT 84651","precinct":"25PA01","hd":"65","v_score":"2.315214949","decile":"5","lat":40.069228288747425,"lng":-111.71011325929227,"phone":"(900) 484-3764","sd":"25","ssbd":"13","lsbd":"School Board Nebo 7"},{"vid":"2323749","name":"Madison Ortiz","party":"Rep","address":"1461 E 100 S, Unit E103, Payson, UT 84651","precinct":"25PA01","hd":"65","v_score":"2.315214949","decile":"5","lat":40.04368908324543,"lng":-111.70568704663707,"phone":"(280) 237-3973","sd":"25","ssbd":"13","lsbd":"School Board Nebo 7"},{"vid":"2325647","name":"Archie Vandervort","party":"","address":"1222 E 1420 N, Payson, UT 84651","precinct":"25PA01","hd":"65","v_score":"14.82009658","decile":"9","lat":40.06359917354741,"lng":-111.71138311397502,"phone":"(112) 066-9544","sd":"25","ssbd":"13","lsbd":"School Board Nebo 7"},{"vid":"2327332","name":"Michel Mills","party":"","address":"1451 N 1210 E, Payson, UT 84651","precinct":"25PA01","hd":"65","v_score":"1.193887297","decile":"3","lat":40.064257478306025,"lng":-111.71208775478955,"phone":"(633) 352-3560","sd":"25","ssbd":"13","lsbd":"School Board Nebo 7"},{"vid":"2332928","name":"Dusty Grant-Roberts","party":"","address":"1755 N 1310 E, Payson, UT 84651","precinct":"25PA01","hd":"65","v_score":"0","decile":"1","lat":40.06981467251348,"lng":-111.7091426400582,"phone":"(823) 991-2901","sd":"25","ssbd":"13","lsbd":"School Board Nebo 7"},{"vid":"2338751","name":"Valencia Ortiz","party":"","address":"1491 N 1260 E, Payson, UT 84651","precinct":"25PA01","hd":"65","v_score":"1.193887297","decile":"3","lat":40.064870828620954,"lng":-111.71072005607712,"phone":"(558) 241-5904","sd":"25","ssbd":"13","lsbd":"School Board Nebo 7"},{"vid":"2341212","name":"Lillis Armstrong","party":"Rep","address":"1461 E 100 S, Unit H103, Payson, UT 84651","precinct":"25PA01","hd":"65","v_score":"0","decile":"1","lat":40.04368908324543,"lng":-111.70568704663707,"phone":"(758) 566-2422","sd":"25","ssbd":"13","lsbd":"School Board Nebo 7"},{"vid":"2344514","name":"Jerrad Shields","party":"","address":"1272 E 1470 N, Payson, UT 84651","precinct":"25PA01","hd":"65","v_score":"7.650280567","decile":"8","lat":40.063672099283906,"lng":-111.70966463273636,"phone":"(406) 144-9004","sd":"25","ssbd":"13","lsbd":"School Board Nebo 7"},{"vid":"2346442","name":"Gurney Rempel","party":"Dem","address":"1722 N 1280 E, Payson, UT 84651","precinct":"25PA01","hd":"65","v_score":"1.121327652","decile":"3","lat":40.069228288747425,"lng":-111.71011325929227,"phone":"(263) 257-7862","sd":"25","ssbd":"13","lsbd":"School Board Nebo 7"},{"vid":"2347487","name":"Antonette Prosacco","party":"Rep","address":"1363 E 100 S, Apt 144, Payson, UT 84651","precinct":"25PA01","hd":"65","v_score":"1.121327652","decile":"3","lat":40.043391202141045,"lng":-111.70761180803176,"phone":"(522) 704-3463","sd":"25","ssbd":"13","lsbd":"School Board Nebo 7"},{"vid":"2348360","name":"Dr. Jeffery Cruickshank","party":"","address":"1618 N 1280 E, Payson, UT 84651","precinct":"25PA01","hd":"65","v_score":"3.93832808","decile":"6","lat":40.06670165103383,"lng":-111.71154061343782,"phone":"(484) 109-5793","sd":"25","ssbd":"13","lsbd":"School Board Nebo 7"},{"vid":"2363027","name":"Mrs. Shameka Rodriguez","party":"Rep","address":"1502 N Arrow Park Dr, Payson, UT 84651","precinct":"25PA01","hd":"65","v_score":"2.315214949","decile":"5","lat":40.06514766659831,"lng":-111.70914989585113,"phone":"(954) 033-2185","sd":"25","ssbd":"13","lsbd":"School Board Nebo 7"},{"vid":"2366223","name":"Mallorie Kohler","party":"","address":"1354 N 1400 E, Payson, UT 84651","precinct":"25PA01","hd":"65","v_score":"2.315214949","decile":"5","lat":40.06249571170592,"lng":-111.70650412130152,"phone":"(772) 121-3381","sd":"25","ssbd":"13","lsbd":"School Board Nebo 7"},{"vid":"2373101","name":"Kendall Powlowski DDS","party":"","address":"1291 E 1470 N, Payson, UT 84651","precinct":"25PA01","hd":"65","v_score":"1.121327652","decile":"3","lat":40.064440850957,"lng":-111.70946022345686,"phone":"(800) 659-1250","sd":"25","ssbd":"13","lsbd":"School Board Nebo 7"},{"vid":"2379528","name":"Xiomara Feeney","party":"","address":"1363 E 100 S, Apt 171, Payson, UT 84651","precinct":"25PA01","hd":"65","v_score":"1.121327652","decile":"3","lat":40.043391202141045,"lng":-111.70761180803176,"phone":"(804) 044-2451","sd":"25","ssbd":"13","lsbd":"School Board Nebo 7"},{"vid":"2384915","name":"Caitlin Turner","party":"","address":"915 E 300 N, Trlr 38, Payson, UT 84651","precinct":"25PA01","hd":"65","v_score":"0","decile":"1","lat":40.04782053121912,"lng":-111.71686364754844,"phone":"(691) 757-6676","sd":"25","ssbd":"13","lsbd":"School Board Nebo 7"},{"vid":"2385015","name":"Lissie Ebert","party":"","address":"49 S 900 E, Payson, UT 84651","precinct":"25PA01","hd":"65","v_score":"1.121327652","decile":"3","lat":40.043244768157194,"lng":-111.71709401074136,"phone":"(339) 351-8264","sd":"25","ssbd":"13","lsbd":"School Board Nebo 7"},{"vid":"2392308","name":"Alize Dooley","party":"Dem","address":"1562 N 1350 E, Payson, UT 84651","precinct":"25PA01","hd":"65","v_score":"2.315214949","decile":"5","lat":40.066284073994446,"lng":-111.70872542955192,"phone":"(391) 610-8171","sd":"25","ssbd":"13","lsbd":"School Board Nebo 7"},{"vid":"2394979","name":"Miss Vena Bode","party":"Dem","address":"1461 E 100 S, Unit E309, Payson, UT 84651","precinct":"25PA01","hd":"65","v_score":"0","decile":"1","lat":40.04368908324543,"lng":-111.70568704663707,"phone":"(127) 314-9400","sd":"25","ssbd":"13","lsbd":"School Board Nebo 7"},{"vid":"2412269","name":"Lynwood King","party":"Dem","address":"1501 N 1130 E, Payson, UT 84651","precinct":"25PA01","hd":"65","v_score":"2.315214949","decile":"5","lat":40.06519974623897,"lng":-111.71361240175051,"phone":"(568) 739-7166","sd":"25","ssbd":"13","lsbd":"School Board Nebo 7"},{"vid":"2416817","name":"Beaulah O'Hara-Mohr","party":"Rep","address":"1492 N 1130 E, Payson, UT 84651","precinct":"25PA01","hd":"65","v_score":"2.315214949","decile":"5","lat":40.064947252544385,"lng":-111.71311853801105,"phone":"(274) 794-1089","sd":"25","ssbd":"13","lsbd":"School Board Nebo 7"},{"vid":"2417547","name":"Armand Hansen","party":"Dem","address":"1737 N 1230 E, Payson, UT 84651","precinct":"25PA01","hd":"65","v_score":"2.315214949","decile":"5","lat":40.06956143893982,"lng":-111.71099709293507,"phone":"(288) 760-4017","sd":"25","ssbd":"13","lsbd":"School Board Nebo 7"},{"vid":"2429436","name":"Katia Hirthe","party":"Dem","address":"303 N 1140 E, Payson, UT 84651","precinct":"25PA01","hd":"65","v_score":"17.75698939","decile":"10","lat":40.04679111783842,"lng":-111.7136442156416,"phone":"(929) 012-8868","sd":"25","ssbd":"13","lsbd":"School Board Nebo 7"},{"vid":"2430272","name":"Vita Gaylord","party":"","address":"915 E 300 N, Trlr 22, Payson, UT 84651","precinct":"25PA01","hd":"65","v_score":"0","decile":"1","lat":40.04782053121912,"lng":-111.71686364754844,"phone":"(948) 210-4849","sd":"25","ssbd":"13","lsbd":"School Board Nebo 7"},{"vid":"2436508","name":"Dr. Ewald Jenkins","party":"Dem","address":"1316 E 1700 N, Payson, UT 84651","precinct":"25PA01","hd":"65","v_score":"3.93832808","decile":"6","lat":40.06869124286386,"lng":-111.70903792852602,"phone":"(839) 175-5854","sd":"25","ssbd":"13","lsbd":"School Board Nebo 7"},{"vid":"2440152","name":"Dr. Evalena Kuphal","party":"Rep","address":"1461 E 100 S, Unit C203, Payson, UT 84651","precinct":"25PA01","hd":"65","v_score":"0","decile":"1","lat":40.04368908324543,"lng":-111.70568704663707,"phone":"(391) 976-4947","sd":"25","ssbd":"13","lsbd":"School Board Nebo 7"},{"vid":"2442165","name":"Hayden Dare III","party":"Dem","address":"1461 E 100 S, Payson, UT 84651","precinct":"25PA01","hd":"65","v_score":"2.315214949","decile":"5","lat":40.04368908324543,"lng":-111.70568704663707,"phone":"(340) 693-0493","sd":"25","ssbd":"13","lsbd":"School Board Nebo 7"},{"vid":"2442277","name":"Darius Bednar","party":"","address":"1635 N 1320 E, Payson, UT 84651","precinct":"25PA01","hd":"65","v_score":"1.121327652","decile":"3","lat":40.06711456660367,"lng":-111.71053030860085,"phone":"(102) 535-3994","sd":"25","ssbd":"13","lsbd":"School Board Nebo 7"},{"vid":"2446465","name":"Vincent Muller","party":"Dem","address":"1363 E 100 S, # C117, Payson, UT 84651","precinct":"25PA01","hd":"65","v_score":"2.315214949","decile":"5","lat":40.043391202141045,"lng":-111.70761180803176,"phone":"(872) 880-1432","sd":"25","ssbd":"13","lsbd":"School Board Nebo 7"},{"vid":"2453033","name":"Shanice Becker DVM","party":"Dem","address":"1312 N 1390 E, Payson, UT 84651","precinct":"25PA01","hd":"65","v_score":"3.93832808","decile":"6","lat":40.061927717145785,"lng":-111.70702808560986,"phone":"(843) 987-5826","sd":"25","ssbd":"13","lsbd":"School Board Nebo 7"},{"vid":"2465623","name":"Helen Turcotte","party":"Dem","address":"1366 N 1475 E, Payson, UT 84651","precinct":"25PA01","hd":"65","v_score":"0","decile":"1","lat":40.062588920131496,"lng":-111.70469303237873,"phone":"(195) 886-0150","sd":"25","ssbd":"13","lsbd":"School Board Nebo 7"},{"vid":"2467899","name":"Rayshawn Ankunding","party":"Rep","address":"1363 E 100 S, Apt 194, Payson, UT 84651","precinct":"25PA01","hd":"65","v_score":"4.639704383","decile":"7","lat":40.043391202141045,"lng":-111.70761180803176,"phone":"(377) 483-7833","sd":"25","ssbd":"13","lsbd":"School Board Nebo 7"},{"vid":"2467940","name":"Ruthann Davis-Cremin","party":"","address":"1363 E 100 S, Apt 194, Payson, UT 84651","precinct":"25PA01","hd":"65","v_score":"4.639704383","decile":"7","lat":40.043391202141045,"lng":-111.70761180803176,"phone":"(850) 477-3883","sd":"25","ssbd":"13","lsbd":"School Board Nebo 7"},{"vid":"2472923","name":"Isabella Glover-Huel","party":"","address":"915 E 300 N, Trlr 42, Payson, UT 84651","precinct":"25PA01","hd":"65","v_score":"17.6018287","decile":"9","lat":40.04782053121912,"lng":-111.71686364754844,"phone":"(258) 696-4548","sd":"25","ssbd":"13","lsbd":"School Board Nebo 7"},{"vid":"2477640","name":"Miss Santos Runte DVM","party":"Dem","address":"1347 E 50 S, Apt B308, Payson, UT 84651","precinct":"25PA01","hd":"65","v_score":"2.817000428","decile":"6","lat":40.04517667838413,"lng":-111.70746915748177,"phone":"(392) 023-5351","sd":"25","ssbd":"13","lsbd":"School Board Nebo 7"},{"vid":"2479560","name":"Darline Little","party":"Dem","address":"1461 E 100 S, Unit I202, Payson, UT 84651","precinct":"25PA01","hd":"65","v_score":"0","decile":"1","lat":40.04368908324543,"lng":-111.70568704663707,"phone":"(501) 380-0137","sd":"25","ssbd":"13","lsbd":"School Board Nebo 7"},{"vid":"2488162","name":"Dink Abshire","party":"","address":"1461 E 100 S, Unit B307, Payson, UT 84651","precinct":"25PA01","hd":"65","v_score":"1.193887297","decile":"3","lat":40.04368908324543,"lng":-111.70568704663707,"phone":"(111) 497-4034","sd":"25","ssbd":"13","lsbd":"School Board Nebo 7"},{"vid":"2491498","name":"Callum Cruickshank","party":"Dem","address":"1714 N 1310 E, Payson, UT 84651","precinct":"25PA01","hd":"65","v_score":"0","decile":"1","lat":40.069070110767385,"lng":-111.70945637996502,"phone":"(629) 035-8285","sd":"25","ssbd":"13","lsbd":"School Board Nebo 7"},{"vid":"2496648","name":"Montie Schamberger PhD","party":"","address":"1284 N 1440 E, Payson, UT 84651","precinct":"25PA01","hd":"65","v_score":"1.623113131","decile":"5","lat":40.06143312862155,"lng":-111.70560981717479,"phone":"(814) 890-8966","sd":"25","ssbd":"13","lsbd":"School Board Nebo 7"},{"vid":"2499076","name":"Miller Kunze","party":"Dem","address":"1793 N 1280 E, Payson, UT 84651","precinct":"25PA01","hd":"65","v_score":"6.724398202","decile":"8","lat":40.070572192266056,"lng":-111.70976895869948,"phone":"(197) 565-0032","sd":"25","ssbd":"13","lsbd":"School Board Nebo 7"},{"vid":"2504891","name":"Miss Scarlet O'Kon","party":"Rep","address":"1226 E 1530 N, Payson, UT 84651","precinct":"25PA01","hd":"65","v_score":"0","decile":"1","lat":40.065439027112454,"lng":-111.71121274409307,"phone":"(969) 316-4567","sd":"25","ssbd":"13","lsbd":"School Board Nebo 7"},{"vid":"2507813","name":"Elle Bayer","party":"","address":"1461 E 100 S, Unit B101, Payson, UT 84651","precinct":"25PA01","hd":"65","v_score":"3.711952487","decile":"6","lat":40.04368908324543,"lng":-111.70568704663707,"phone":"(661) 849-6670","sd":"25","ssbd":"13","lsbd":"School Board Nebo 7"},{"vid":"2509727","name":"Polly Hirthe","party":"Rep","address":"252 N 900 E, Apt 9, Payson, UT 84651","precinct":"25PA01","hd":"65","v_score":"0","decile":"1","lat":40.04641287922476,"lng":-111.7166496296654,"phone":"(989) 102-1186","sd":"25","ssbd":"13","lsbd":"School Board Nebo 7"},{"vid":"2509992","name":"Brad Gerlach","party":"Rep","address":"961 E 100 S, Payson, UT 84651","precinct":"25PA01","hd":"65","v_score":"1.193887297","decile":"4","lat":40.042978455591374,"lng":-111.71674468650001,"phone":"(238) 135-9144","sd":"25","ssbd":"13","lsbd":"School Board Nebo 7"},{"vid":"2510253","name":"Mohamed Bogan","party":"Rep","address":"1363 E 100 S, Apt 114, Payson, UT 84651","precinct":"25PA01","hd":"65","v_score":"0","decile":"1","lat":40.043391202141045,"lng":-111.70761180803176,"phone":"(156) 480-6835","sd":"25","ssbd":"13","lsbd":"School Board Nebo 7"},{"vid":"2512238","name":"Margrett Brekke","party":"Rep","address":"915 E 300 N, Trlr 34, Payson, UT 84651","precinct":"25PA01","hd":"65","v_score":"0","decile":"1","lat":40.04782053121912,"lng":-111.71686364754844,"phone":"(677) 297-1914","sd":"25","ssbd":"13","lsbd":"School Board Nebo 7"},{"vid":"2513050","name":"Daryle Batz","party":"Rep","address":"1436 N 1130 E, Payson, UT 84651","precinct":"25PA01","hd":"65","v_score":"0","decile":"1","lat":40.06383339419244,"lng":-111.71348434517711,"phone":"(170) 749-5638","sd":"25","ssbd":"13","lsbd":"School Board Nebo 7"},{"vid":"2514576","name":"Mr. Hale Kub","party":"","address":"915 E 300 N, Trlr 12, Payson, UT 84651","precinct":"25PA01","hd":"65","v_score":"1.623113131","decile":"5","lat":40.04782053121912,"lng":-111.71686364754844,"phone":"(767) 971-2122","sd":"25","ssbd":"13","lsbd":"School Board Nebo 7"},{"vid":"2524686","name":"Aleena Hegmann","party":"Rep","address":"252 N 900 E, Apt 105, Payson, UT 84651","precinct":"25PA01","hd":"65","v_score":"6.528952915","decile":"7","lat":40.04641287922476,"lng":-111.7166496296654,"phone":"(544) 735-8476","sd":"25","ssbd":"13","lsbd":"School Board Nebo 7"},{"vid":"2534245","name":"Eva Roberts PhD","party":"Rep","address":"1461 E 100 S, Unit H210, Payson, UT 84651","precinct":"25PA01","hd":"65","v_score":"0","decile":"1","lat":40.04368908324543,"lng":-111.70568704663707,"phone":"(538) 860-3248","sd":"25","ssbd":"13","lsbd":"School Board Nebo 7"},{"vid":"2535866","name":"Dr. Esteban Hills","party":"","address":"1363 E 100 S, Apt 141, Payson, UT 84651","precinct":"25PA01","hd":"65","v_score":"0","decile":"1","lat":40.043391202141045,"lng":-111.70761180803176,"phone":"(455) 388-4945","sd":"25","ssbd":"13","lsbd":"School Board Nebo 7"},{"vid":"2542255","name":"Ernestina Bartoletti","party":"","address":"1332 N 1525 E, Payson, UT 84651","precinct":"25PA01","hd":"65","v_score":"1.193887297","decile":"4","lat":40.062208623024716,"lng":-111.70378531691385,"phone":"(151) 119-1249","sd":"25","ssbd":"13","lsbd":"School Board Nebo 7"},{"vid":"2542366","name":"Stevie Cremin","party":"","address":"1517 N Arrow Park Dr, Payson, UT 84651","precinct":"25PA01","hd":"65","v_score":"9.907118004","decile":"8","lat":40.06529106257068,"lng":-111.70975707888186,"phone":"(229) 971-8403","sd":"25","ssbd":"13","lsbd":"School Board Nebo 7"},{"vid":"2545647","name":"Antione Fadel","party":"Rep","address":"1512 N 1190 E, Payson, UT 84651","precinct":"25PA01","hd":"65","v_score":"0","decile":"1","lat":40.06526321233945,"lng":-111.71219519804866,"phone":"(931) 284-8704","sd":"25","ssbd":"13","lsbd":"School Board Nebo 7"},{"vid":"2551233","name":"Colter Orn","party":"Dem","address":"1347 E 50 S, Apt B403, Payson, UT 84651","precinct":"25PA01","hd":"65","v_score":"1.193887297","decile":"4","lat":40.04517667838413,"lng":-111.70746915748177,"phone":"(383) 615-4012","sd":"25","ssbd":"13","lsbd":"School Board Nebo 7"},{"vid":"2556820","name":"Randall Harris","party":"","address":"1347 E 50 S, Apt A112, Payson, UT 84651","precinct":"25PA01","hd":"65","v_score":"1.193887297","decile":"4","lat":40.04517667838413,"lng":-111.70746915748177,"phone":"(355) 796-9697","sd":"25","ssbd":"13","lsbd":"School Board Nebo 7"},{"vid":"2559088","name":"Calhoun Crist","party":"Dem","address":"22 S 1000 E, Payson, UT 84651","precinct":"25PA01","hd":"65","v_score":"10.74302793","decile":"9","lat":40.04351873487318,"lng":-111.71648078228051,"phone":"(134) 303-4916","sd":"25","ssbd":"13","lsbd":"School Board Nebo 7"},{"vid":"2562036","name":"Mr. Gaston Kuphal DVM","party":"","address":"1733 N 1260 E, Payson, UT 84651","precinct":"25PA01","hd":"65","v_score":"1.623113131","decile":"5","lat":40.06940378485689,"lng":-111.71035024489541,"phone":"(320) 643-9854","sd":"25","ssbd":"13","lsbd":"School Board Nebo 7"},{"vid":"2563532","name":"Devan Jakubowski-Legros","party":"Rep","address":"1436 N 1130 E, Payson, UT 84651","precinct":"25PA01","hd":"65","v_score":"0","decile":"1","lat":40.06383339419244,"lng":-111.71348434517711,"phone":"(390) 655-5194","sd":"25","ssbd":"13","lsbd":"School Board Nebo 7"},{"vid":"2571251","name":"Azaria Kris","party":"","address":"1733 N 1260 E, Payson, UT 84651","precinct":"25PA01","hd":"65","v_score":"0","decile":"1","lat":40.06940378485689,"lng":-111.71035024489541,"phone":"(648) 468-7337","sd":"25","ssbd":"13","lsbd":"School Board Nebo 7"},{"vid":"2573440","name":"Layla Kovacek","party":"Rep","address":"1461 E 100 S, Unit H101, Payson, UT 84651","precinct":"25PA01","hd":"65","v_score":"0","decile":"1","lat":40.04368908324543,"lng":-111.70568704663707,"phone":"(114) 668-9171","sd":"25","ssbd":"13","lsbd":"School Board Nebo 7"},{"vid":"2575953","name":"Mr. Guy Hudson","party":"Dem","address":"1543 N 1350 E, Payson, UT 84651","precinct":"25PA01","hd":"65","v_score":"1.623113131","decile":"5","lat":40.06588527286703,"lng":-111.709133148419,"phone":"(706) 755-6436","sd":"25","ssbd":"13","lsbd":"School Board Nebo 7"},{"vid":"2588803","name":"Mr. Durrell Cruickshank II","party":"Dem","address":"1363 E 100 S, Apt D126, Payson, UT 84651","precinct":"25PA01","hd":"65","v_score":"1.193887297","decile":"4","lat":40.043391202141045,"lng":-111.70761180803176,"phone":"(433) 476-0460","sd":"25","ssbd":"13","lsbd":"School Board Nebo 7"},{"vid":"2590639","name":"Marisol Ferry-Bednar","party":"Rep","address":"1433 N 1130 E, Payson, UT 84651","precinct":"25PA01","hd":"65","v_score":"2.817000428","decile":"6","lat":40.06383321031377,"lng":-111.71383884058827,"phone":"(670) 490-4500","sd":"25","ssbd":"13","lsbd":"School Board Nebo 7"},{"vid":"2590643","name":"Mckayla Goodwin","party":"Dem","address":"1620 N 1300 E, Payson, UT 84651","precinct":"25PA01","hd":"65","v_score":"0","decile":"1","lat":40.066803010467595,"lng":-111.71075950009119,"phone":"(411) 611-5428","sd":"25","ssbd":"13","lsbd":"School Board Nebo 7"},{"vid":"2603710","name":"Posey Homenick","party":"","address":"1262 E 1680 N, Payson, UT 84651","precinct":"25PA01","hd":"65","v_score":"8.284004873","decile":"8","lat":40.06871000554736,"lng":-111.71038336164767,"phone":"(144) 044-1401","sd":"25","ssbd":"13","lsbd":"School Board Nebo 7"},{"vid":"2605285","name":"Brandon Waelchi","party":"","address":"1473 N Arrow Park Dr, Payson, UT 84651","precinct":"25PA01","hd":"65","v_score":"1.193887297","decile":"4","lat":40.06450377311958,"lng":-111.70899290360192,"phone":"(353) 754-8857","sd":"25","ssbd":"13","lsbd":"School Board Nebo 7"},{"vid":"2609392","name":"Gee Hoeger-Sawayn","party":"Rep","address":"1635 N 1300 E, Payson, UT 84651","precinct":"25PA01","hd":"65","v_score":"1.623113131","decile":"5","lat":40.06714674993743,"lng":-111.71132927650275,"phone":"(406) 091-7726","sd":"25","ssbd":"13","lsbd":"School Board Nebo 7"},{"vid":"2610254","name":"Miss Sharla Lockman","party":"Rep","address":"1635 N 1300 E, Payson, UT 84651","precinct":"25PA01","hd":"65","v_score":"0","decile":"1","lat":40.06714674993743,"lng":-111.71132927650275,"phone":"(825) 915-7442","sd":"25","ssbd":"13","lsbd":"School Board Nebo 7"},{"vid":"2612958","name":"Dr. Gavin Reynolds","party":"Dem","address":"1737 N 1230 E, Payson, UT 84651","precinct":"25PA01","hd":"65","v_score":"0","decile":"1","lat":40.06956143893982,"lng":-111.71099709293507,"phone":"(396) 518-4941","sd":"25","ssbd":"13","lsbd":"School Board Nebo 7"},{"vid":"2616730","name":"Henri Batz-Volkman","party":"Dem","address":"1247 E 1750 N, Payson, UT 84651","precinct":"25PA01","hd":"65","v_score":"0","decile":"1","lat":40.06981335545986,"lng":-111.7107211247809,"phone":"(842) 732-0751","sd":"25","ssbd":"13","lsbd":"School Board Nebo 7"},{"vid":"2620984","name":"Shamika Bernhard","party":"Dem","address":"1461 E 100 S, Unit A202, Payson, UT 84651","precinct":"25PA01","hd":"65","v_score":"2.817000428","decile":"6","lat":40.04368908324543,"lng":-111.70568704663707,"phone":"(211) 451-2430","sd":"25","ssbd":"13","lsbd":"School Board Nebo 7"},{"vid":"2626521","name":"Steward Fisher","party":"Dem","address":"915 E 300 N, Trlr 25, Payson, UT 84651","precinct":"25PA01","hd":"65","v_score":"0","decile":"1","lat":40.04782053121912,"lng":-111.71686364754844,"phone":"(136) 608-8853","sd":"25","ssbd":"13","lsbd":"School Board Nebo 7"},{"vid":"2638448","name":"Latricia Bauch-Adams","party":"","address":"1347 E 50 S, Apt A310, Payson, UT 84651","precinct":"25PA01","hd":"65","v_score":"6.528952915","decile":"7","lat":40.04517667838413,"lng":-111.70746915748177,"phone":"(868) 004-5041","sd":"25","ssbd":"13","lsbd":"School Board Nebo 7"},{"vid":"2651886","name":"Brad Zemlak-Romaguera","party":"","address":"1338 E 1590 N, Payson, UT 84651","precinct":"25PA01","hd":"65","v_score":"4.905839784","decile":"7","lat":40.066297498892176,"lng":-111.70970283640636,"phone":"(808) 088-1052","sd":"25","ssbd":"13","lsbd":"School Board Nebo 7"},{"vid":"2658337","name":"Jefferson Smith","party":"Dem","address":"1253 E 1775 N, Payson, UT 84651","precinct":"25PA01","hd":"65","v_score":"3.711952487","decile":"6","lat":40.07018502500157,"lng":-111.71055817224486,"phone":"(242) 381-4939","sd":"25","ssbd":"13","lsbd":"School Board Nebo 7"},{"vid":"2661883","name":"Rico Sawayn","party":"","address":"1721 N 1280 E, Payson, UT 84651","precinct":"25PA01","hd":"65","v_score":"1.193887297","decile":"4","lat":40.069213539020986,"lng":-111.70967948077792,"phone":"(417) 400-4875","sd":"25","ssbd":"13","lsbd":"School Board Nebo 7"},{"vid":"2661921","name":"Arden Weber","party":"Rep","address":"915 E 300 N, Trlr 33, Payson, UT 84651","precinct":"25PA01","hd":"65","v_score":"0","decile":"1","lat":40.04782053121912,"lng":-111.71686364754844,"phone":"(565) 583-3417","sd":"25","ssbd":"13","lsbd":"School Board Nebo 7"},{"vid":"2662268","name":"Mr. Scotty Hudson II","party":"","address":"1543 N 1350 E, Payson, UT 84651","precinct":"25PA01","hd":"65","v_score":"0","decile":"1","lat":40.06588527286703,"lng":-111.709133148419,"phone":"(303) 093-8884","sd":"25","ssbd":"13","lsbd":"School Board Nebo 7"},{"vid":"2663488","name":"Miss Erlene Batz DDS","party":"","address":"1481 N Arrow Park Dr, Payson, UT 84651","precinct":"25PA01","hd":"65","v_score":"1.193887297","decile":"4","lat":40.06465301150206,"lng":-111.70931650244373,"phone":"(710) 547-9603","sd":"25","ssbd":"13","lsbd":"School Board Nebo 7"},{"vid":"2668306","name":"Osborne Mante","party":"","address":"1569 N Arrow Park Dr, Payson, UT 84651","precinct":"25PA01","hd":"65","v_score":"1.193887297","decile":"4","lat":40.06569136749656,"lng":-111.71017118984832,"phone":"(966) 259-5064","sd":"25","ssbd":"13","lsbd":"School Board Nebo 7"},{"vid":"2668644","name":"Gracia Bartell-Reinger","party":"","address":"1461 E 100 S, Unit B103, Payson, UT 84651","precinct":"25PA01","hd":"65","v_score":"0","decile":"1","lat":40.04368908324543,"lng":-111.70568704663707,"phone":"(494) 131-4742","sd":"25","ssbd":"13","lsbd":"School Board Nebo 7"},{"vid":"2669250","name":"Dr. Pandora Yost","party":"Rep","address":"1461 E 100 S, Unit H210, Payson, UT 84651","precinct":"25PA01","hd":"65","v_score":"1.193887297","decile":"4","lat":40.04368908324543,"lng":-111.70568704663707,"phone":"(949) 561-6133","sd":"25","ssbd":"13","lsbd":"School Board Nebo 7"},{"vid":"2672068","name":"Cordie Okuneva-Emmerich","party":"","address":"1363 E 100 S, Apt 136, Elk Ridge, UT 84651","precinct":"25PA01","hd":"65","v_score":"0","decile":"2","lat":40.043391202141045,"lng":-111.70761180803176,"phone":"(505) 188-0741","sd":"25","ssbd":"13","lsbd":"School Board Nebo 7"},{"vid":"2674596","name":"Mrs. Santos Jast","party":"","address":"1363 E 100 S, Apt 166, Payson, UT 84651","precinct":"25PA01","hd":"65","v_score":"1.193887297","decile":"4","lat":40.043391202141045,"lng":-111.70761180803176,"phone":"(557) 564-2457","sd":"25","ssbd":"13","lsbd":"School Board Nebo 7"},{"vid":"2674704","name":"Dr. Violeta Pollich","party":"","address":"1363 E 100 S, Apt 148, Payson, UT 84651","precinct":"25PA01","hd":"65","v_score":"1.193887297","decile":"4","lat":40.043391202141045,"lng":-111.70761180803176,"phone":"(553) 996-4104","sd":"25","ssbd":"13","lsbd":"School Board Nebo 7"},{"vid":"2677169","name":"Mr. Marquez Gibson","party":"Dem","address":"1753 N 1310 E, Payson, UT 84651","precinct":"25PA01","hd":"65","v_score":"0","decile":"2","lat":40.069767571790884,"lng":-111.70912567982572,"phone":"(750) 534-1702","sd":"25","ssbd":"13","lsbd":"School Board Nebo 7"},{"vid":"2677387","name":"Claudio White","party":"Rep","address":"1461 E 100 S, Unit H109, Payson, UT 84651","precinct":"25PA01","hd":"65","v_score":"0","decile":"2","lat":40.04368908324543,"lng":-111.70568704663707,"phone":"(638) 734-1137","sd":"25","ssbd":"13","lsbd":"School Board Nebo 7"},{"vid":"2681848","name":"Williams Macejkovic","party":"Rep","address":"1538 N Arrow Park Dr, Payson, UT 84651","precinct":"25PA01","hd":"65","v_score":"0","decile":"2","lat":40.065589903563314,"lng":-111.70943670020837,"phone":"(594) 673-6802","sd":"25","ssbd":"13","lsbd":"School Board Nebo 7"},{"vid":"2687731","name":"Letta Mitchell","party":"Rep","address":"1461 E 100 S, Unit B103, Payson, UT 84651","precinct":"25PA01","hd":"65","v_score":"0","decile":"2","lat":40.04368908324543,"lng":-111.70568704663707,"phone":"(833) 971-0623","sd":"25","ssbd":"13","lsbd":"School Board Nebo 7"},{"vid":"2689529","name":"Lucius Cummerata","party":"Rep","address":"1287 E 1775 N, Payson, UT 84651","precinct":"25PA01","hd":"65","v_score":"1.193887297","decile":"4","lat":40.07019115192267,"lng":-111.70974939016294,"phone":"(902) 397-8957","sd":"25","ssbd":"13","lsbd":"School Board Nebo 7"},{"vid":"2697344","name":"Kacie Daniel","party":"","address":"1234 E 1530 N, Payson, UT 84651","precinct":"25PA01","hd":"65","v_score":"4.214075011","decile":"7","lat":40.06535620555791,"lng":-111.71101715696052,"phone":"(264) 832-9794","sd":"25","ssbd":"13","lsbd":"School Board Nebo 7"},{"vid":"2697380","name":"Darla Abbott","party":"","address":"1234 E 1530 N, Payson, UT 84651","precinct":"25PA01","hd":"65","v_score":"5.407962308","decile":"7","lat":40.06535620555791,"lng":-111.71101715696052,"phone":"(671) 366-3032","sd":"25","ssbd":"13","lsbd":"School Board Nebo 7"},{"vid":"2699137","name":"Roseann Heidenreich-Olson","party":"","address":"1461 E 100 S, Unit H109, Payson, UT 84651","precinct":"25PA01","hd":"65","v_score":"0","decile":"2","lat":40.04368908324543,"lng":-111.70568704663707,"phone":"(159) 831-7106","sd":"25","ssbd":"13","lsbd":"School Board Nebo 7"},{"vid":"2705920","name":"Elisha Russel","party":"Rep","address":"1363 E 100 S, Apt 164, Payson, UT 84651","precinct":"25PA01","hd":"65","v_score":"0","decile":"2","lat":40.043391202141045,"lng":-111.70761180803176,"phone":"(335) 823-4244","sd":"25","ssbd":"13","lsbd":"School Board Nebo 7"},{"vid":"2712096","name":"Ms. Jaunita Fay","party":"Dem","address":"1363 E 100 S, Apt 155, Payson, UT 84651","precinct":"25PA01","hd":"65","v_score":"1.193887297","decile":"4","lat":40.043391202141045,"lng":-111.70761180803176,"phone":"(314) 200-3890","sd":"25","ssbd":"13","lsbd":"School Board Nebo 7"},{"vid":"2713544","name":"Dr. Emmer Connelly","party":"","address":"1694 N 1330 E, Unit 305, Payson, UT 84651","precinct":"25PA01","hd":"65","v_score":"0","decile":"2","lat":40.069035136981455,"lng":-111.70834259685849,"phone":"(346) 968-6045","sd":"25","ssbd":"13","lsbd":"School Board Nebo 7"},{"vid":"2715747","name":"Ford Jacobson","party":"Rep","address":"252 N 900 E, Apt 101, Payson, UT 84651","precinct":"25PA01","hd":"65","v_score":"0","decile":"2","lat":40.04641287922476,"lng":-111.7166496296654,"phone":"(737) 188-2960","sd":"25","ssbd":"13","lsbd":"School Board Nebo 7"},{"vid":"2723856","name":"Mrs. Jaden Buckridge","party":"","address":"915 E 300 N, Trlr 43, Payson, UT 84651","precinct":"25PA01","hd":"65","v_score":"0","decile":"2","lat":40.04782053121912,"lng":-111.71686364754844,"phone":"(764) 401-1302","sd":"25","ssbd":"13","lsbd":"School Board Nebo 7"},{"vid":"2725768","name":"Miss Kimberlie Frami DDS","party":"","address":"1363 E 100 S, Apt A101, Payson, UT 84651","precinct":"25PA01","hd":"65","v_score":"1.193887297","decile":"4","lat":40.043391202141045,"lng":-111.70761180803176,"phone":"(337) 451-3172","sd":"25","ssbd":"13","lsbd":"School Board Nebo 7"},{"vid":"2726850","name":"Patrick Wehner","party":"Rep","address":"1627 N 1350 E, Payson, UT 84651","precinct":"25PA01","hd":"65","v_score":"1.193887297","decile":"4","lat":40.06699368241787,"lng":-111.70995509756148,"phone":"(133) 342-1885","sd":"25","ssbd":"13","lsbd":"School Board Nebo 7"},{"vid":"2729608","name":"Dr. Dario Zulauf","party":"Dem","address":"1641 N 1350 E, Payson, UT 84651","precinct":"25PA01","hd":"65","v_score":"0","decile":"2","lat":40.06734214013422,"lng":-111.70995939582046,"phone":"(760) 086-0000","sd":"25","ssbd":"13","lsbd":"School Board Nebo 7"},{"vid":"2735065","name":"Waylon Wolf","party":"Dem","address":"1461 E 100 S, Unit A308, Payson, UT 84651","precinct":"25PA01","hd":"65","v_score":"0","decile":"2","lat":40.04368908324543,"lng":-111.70568704663707,"phone":"(992) 295-9739","sd":"25","ssbd":"13","lsbd":"School Board Nebo 7"},{"vid":"2735405","name":"Dr. Presley Homenick Sr.","party":"Dem","address":"1363 E 100 S, Apt 125, Payson, UT 84651","precinct":"25PA01","hd":"65","v_score":"0","decile":"2","lat":40.043391202141045,"lng":-111.70761180803176,"phone":"(270) 584-0883","sd":"25","ssbd":"13","lsbd":"School Board Nebo 7"},{"vid":"2735557","name":"Pearle Haley","party":"Dem","address":"1461 E 100 S, Payson, UT 84651","precinct":"25PA01","hd":"65","v_score":"0","decile":"2","lat":40.04368908324543,"lng":-111.70568704663707,"phone":"(279) 773-7158","sd":"25","ssbd":"13","lsbd":"School Board Nebo 7"},{"vid":"2736037","name":"Marci Rolfson","party":"Rep","address":"1473 N 1190 E, Payson, UT 84651","precinct":"25PA01","hd":"65","v_score":"0","decile":"2","lat":40.06462652627753,"lng":-111.71285083969705,"phone":"(913) 817-3693","sd":"25","ssbd":"13","lsbd":"School Board Nebo 7"},{"vid":"2736569","name":"Alberta Schaden","party":"Dem","address":"1716 N 1230 E, Payson, UT 84651","precinct":"25PA01","hd":"65","v_score":"1.193887297","decile":"4","lat":40.06911830035451,"lng":-111.71123350740973,"phone":"(224) 295-3349","sd":"25","ssbd":"13","lsbd":"School Board Nebo 7"},{"vid":"2744495","name":"Harrold Jones","party":"","address":"923 E 100 S, Payson, UT 84651","precinct":"25PA01","hd":"65","v_score":"0","decile":"2","lat":40.04298629910766,"lng":-111.71704171136449,"phone":"(616) 857-7751","sd":"25","ssbd":"13","lsbd":"School Board Nebo 7"},{"vid":"2744905","name":"Mr. Raleigh Rau MD","party":"Rep","address":"1347 E 50 S, Apt B106, Payson, UT 84651","precinct":"25PA01","hd":"65","v_score":"1.193887297","decile":"4","lat":40.04517667838413,"lng":-111.70746915748177,"phone":"(150) 343-8202","sd":"25","ssbd":"13","lsbd":"School Board Nebo 7"},{"vid":"2746076","name":"Ms. Juanita Zemlak","party":"Rep","address":"1463 E 1400 N, Payson, UT 84651","precinct":"25PA01","hd":"65","v_score":"0","decile":"2","lat":40.06329054553183,"lng":-111.70532044305197,"phone":"(109) 553-6267","sd":"25","ssbd":"13","lsbd":"School Board Nebo 7"},{"vid":"2748228","name":"Marlen Boehm","party":"Dem","address":"1347 E 50 S, Apt A303, Payson, UT 84651","precinct":"25PA01","hd":"65","v_score":"0","decile":"2","lat":40.04517667838413,"lng":-111.70746915748177,"phone":"(808) 833-8700","sd":"25","ssbd":"13","lsbd":"School Board Nebo 7"},{"vid":"2750891","name":"Rylan Olson","party":"","address":"1363 E 100 S, Apt 111, Payson, UT 84651","precinct":"25PA01","hd":"65","v_score":"0","decile":"2","lat":40.043391202141045,"lng":-111.70761180803176,"phone":"(293) 776-8491","sd":"25","ssbd":"13","lsbd":"School Board Nebo 7"},{"vid":"2761648","name":"Kaelyn Bailey","party":"","address":"1461 E 100 S, Unit I107, Payson, UT 84651","precinct":"25PA01","hd":"65","v_score":"1.193887297","decile":"4","lat":40.04368908324543,"lng":-111.70568704663707,"phone":"(458) 698-0355","sd":"25","ssbd":"13","lsbd":"School Board Nebo 7"},{"vid":"2762050","name":"Euphemia Johnston","party":"Dem","address":"1787 N 1280 E, Payson, UT 84651","precinct":"25PA01","hd":"65","v_score":"0","decile":"2","lat":40.07046105576173,"lng":-111.70975860187285,"phone":"(933) 316-7468","sd":"25","ssbd":"13","lsbd":"School Board Nebo 7"},{"vid":"2762400","name":"Ernestine Smitham","party":"Dem","address":"1495 N 1190 E, Payson, UT 84651","precinct":"25PA01","hd":"65","v_score":"1.193887297","decile":"4","lat":40.06502346634923,"lng":-111.71275080564261,"phone":"(857) 390-5198","sd":"25","ssbd":"13","lsbd":"School Board Nebo 7"},