[{"vid":"783655","name":"Elmina Hirthe","party":"Dem","address":"735 W 1590 S, Payson, UT 84651","precinct":"25PA11","hd":"65","v_score":"7.830610533","decile":"8","lat":40.01703296477969,"lng":-111.74450640117965},{"vid":"804799","name":"Ignatius Beatty","party":"","address":"1517 S 780 W, Payson, UT 84651","precinct":"25PA11","hd":"65","v_score":"9.82542041","decile":"8","lat":40.0192102965776,"lng":-111.74495469184966},{"vid":"1279876","name":"Sunshine Rempel","party":"Dem","address":"1459 S 930 W, Payson, UT 84651","precinct":"25PA11","hd":"65","v_score":"0","decile":"1","lat":40.020820152331915,"lng":-111.74803160770175},{"vid":"1287271","name":"Kareen Considine","party":"","address":"1461 S 910 W, Payson, UT 84651","precinct":"25PA11","hd":"65","v_score":"8.280646305","decile":"8","lat":40.020695184969284,"lng":-111.74718003283984},{"vid":"1296372","name":"Madalynn Hayes","party":"","address":"1181 S 730 W, Payson, UT 84651","precinct":"25PA11","hd":"65","v_score":"0","decile":"1","lat":40.02606170713743,"lng":-111.74384302940331},{"vid":"1296669","name":"Dr. Cappie O'Reilly DVM","party":"Dem","address":"1461 S 910 W, Payson, UT 84651","precinct":"25PA11","hd":"65","v_score":"10.45202298","decile":"9","lat":40.020695184969284,"lng":-111.74718003283984},{"vid":"1316973","name":"Mr. Verlin Wilderman","party":"Dem","address":"1151 S 880 W, Payson, UT 84651","precinct":"25PA11","hd":"65","v_score":"2.315214949","decile":"5","lat":40.02613781636182,"lng":-111.74687487201777},{"vid":"1319637","name":"Clarinda Koelpin DDS","party":"","address":"1347 S 830 W, Payson, UT 84651","precinct":"25PA11","hd":"65","v_score":"4.210716443","decile":"7","lat":40.02334246639413,"lng":-111.74601128616737},{"vid":"1325610","name":"Darcy Buckridge","party":"","address":"1577 S 790 W, Payson, UT 84651","precinct":"25PA11","hd":"65","v_score":"2.817000428","decile":"6","lat":40.01737900882973,"lng":-111.74514090184103},{"vid":"1341674","name":"Chancey Boyle","party":"","address":"688 W 1340 S, Payson, UT 84651","precinct":"25PA11","hd":"65","v_score":"2.315214949","decile":"5","lat":40.02363533941239,"lng":-111.74351182220494},{"vid":"1349411","name":"Naoma Gottlieb","party":"","address":"834 W 1500 S, Payson, UT 84651","precinct":"25PA11","hd":"65","v_score":"18.71521791","decile":"10","lat":40.01949344949432,"lng":-111.74592311368755},{"vid":"1375183","name":"Mr. Bryant Steuber","party":"Dem","address":"1347 S 830 W, Payson, UT 84651","precinct":"25PA11","hd":"65","v_score":"4.210716443","decile":"7","lat":40.02334246639413,"lng":-111.74601128616737},{"vid":"6e708a8fe64bfb4f46d67e2501a28f6b20a60c96311ab37e0e07f3a5b2a986f1","name":"Ms. Annabell Kilback PhD","party":"Dem","address":"686 W 1400 S, Payson, UT 84651","precinct":"25PA11","hd":"65","v_score":"29.6316773","decile":"10","lat":40.02296674632115,"lng":-111.74344376943228},{"vid":"1384320","name":"Graciela Langworth","party":"","address":"829 W 1500 S, Payson, UT 84651","precinct":"25PA11","hd":"65","v_score":"0","decile":"1","lat":40.019172244628024,"lng":-111.74592241408868},{"vid":"cc9d8dfe7c9c3b1539dea8e46bf7e7d3a0eb60c1747f3e77516b9e7b155efc98","name":"Mr. Davis Bogan MD","party":"Rep","address":"1121 S 780 W, Payson, UT 84651","precinct":"25PA11","hd":"65","v_score":"6.364334873","decile":"7","lat":40.02688696810604,"lng":-111.74503987879993},{"vid":"1397205","name":"Vincenzo Stoltenberg","party":"","address":"1477 S 700 W, Payson, UT 84651","precinct":"25PA11","hd":"65","v_score":"1.193887297","decile":"3","lat":40.02019392261625,"lng":-111.74333424252092},{"vid":"1399097","name":"Mr. Lydell Bogan V","party":"Rep","address":"824 W 1620 S, Payson, UT 84651","precinct":"25PA11","hd":"65","v_score":"0","decile":"1","lat":40.01629838625605,"lng":-111.74657641099114},{"vid":"1412189","name":"Osborne Fisher","party":"","address":"1229 S 880 W, Payson, UT 84651","precinct":"25PA11","hd":"65","v_score":"6.286764927","decile":"7","lat":40.02512174866214,"lng":-111.74694144497528},{"vid":"cb8593f7d9515ad80eb0886af40b1fd7e9935839d833d72a2d5e7a11517580b4","name":"Gauge Bradtke MD","party":"","address":"1441 S 780 W, Payson, UT 84651","precinct":"25PA11","hd":"65","v_score":"26.2609852","decile":"10","lat":40.02130796632944,"lng":-111.74489000209275},{"vid":"1427172","name":"Son Mosciski","party":"Dem","address":"1137 S 680 W, Payson, UT 84651","precinct":"25PA11","hd":"65","v_score":"0","decile":"1","lat":40.02648604402933,"lng":-111.74303240391423},{"vid":"bdb4b3291aa77f28b5e5748334ad4775bf9525f6b54a9f76d184aad3d3b6e28e","name":"Kameron Kshlerin","party":"","address":"728 W 1550 S, Payson, UT 84651","precinct":"25PA11","hd":"65","v_score":"3.781490609","decile":"6","lat":40.018762150650176,"lng":-111.74388896227},{"vid":"1473166","name":"Rosalinda Wisoky","party":"","address":"928 W 1620 S, Payson, UT 84651","precinct":"25PA11","hd":"65","v_score":"11.23922619","decile":"9","lat":40.01628841960232,"lng":-111.74818828205082},{"vid":"207a50af4a5a0e1e1a912c277905b0313b2f6c8bbf3a468a383c6e78d724dca2","name":"Miss Harmony Kirlin","party":"","address":"795 W Sugar Maple Ct, Payson, UT 84651","precinct":"25PA11","hd":"65","v_score":"12.4433422","decile":"9","lat":40.02229695776901,"lng":-111.74550882795884},{"vid":"1483069","name":"Lavonia Green DDS","party":"Rep","address":"1247 S 780 W, Payson, UT 84651","precinct":"25PA11","hd":"65","v_score":"3.93832808","decile":"6","lat":40.02467009904501,"lng":-111.7448307608947},{"vid":"359cd21d1e1b100519328f893981349290c0da0718f6cfb374b30ecf6039b31e","name":"Haskell Herman","party":"Rep","address":"807 W 1235 S, Payson, UT 84651","precinct":"25PA11","hd":"65","v_score":"20.92591958","decile":"10","lat":40.02476711877705,"lng":-111.745760309134},{"vid":"1541608","name":"Versie Bechtelar","party":"Dem","address":"1248 S 780 W, Payson, UT 84651","precinct":"25PA11","hd":"65","v_score":"4.13679489","decile":"7","lat":40.02481498157687,"lng":-111.74535435796375},{"vid":"1546507","name":"Sharita Cruickshank-Mertz","party":"Rep","address":"807 W 1235 S, Payson, UT 84651","precinct":"25PA11","hd":"65","v_score":"18.39620879","decile":"10","lat":40.02476711877705,"lng":-111.745760309134},{"vid":"7fc2e9c32b4fc9ec5642ed522eed703201337341603afecee868d6cf4dbdc419","name":"Raynard Hauck II","party":"Dem","address":"1538 S 780 W, Payson, UT 84651","precinct":"25PA11","hd":"65","v_score":"6.896907962","decile":"8","lat":40.018778839110276,"lng":-111.74541753941428},{"vid":"1549360","name":"Lambert Corwin","party":"","address":"772 W 1280 S, Payson, UT 84651","precinct":"25PA11","hd":"65","v_score":"19.746806","decile":"10","lat":40.02444094123987,"lng":-111.74499019306916},{"vid":"1571263","name":"Dr. Rueben Romaguera","party":"","address":"1555 S 840 W, Payson, UT 84651","precinct":"25PA11","hd":"65","v_score":"1.46627566","decile":"4","lat":40.01846898808519,"lng":-111.74601571460232},{"vid":"8633629fca7747b90d65dab0b69c6b3c00759845350f1b4d948c1cddb3a58888","name":"Adron Johnston V","party":"Rep","address":"1583 S 840 W, Payson, UT 84651","precinct":"25PA11","hd":"65","v_score":"2.660162957","decile":"5","lat":40.01762036599707,"lng":-111.7460833994771},{"vid":"1586070","name":"Albertha Mayert","party":"","address":"1529 S 780 W, Payson, UT 84651","precinct":"25PA11","hd":"65","v_score":"8.601979876","decile":"8","lat":40.01910866592493,"lng":-111.74509296533232},{"vid":"1610211","name":"Gail Howe MD","party":"","address":"834 W 1500 S, Payson, UT 84651","precinct":"25PA11","hd":"65","v_score":"18.71521791","decile":"10","lat":40.01949344949432,"lng":-111.74592311368755},{"vid":"1625811","name":"Lilyanna VonRueden","party":"Dem","address":"1477 S 930 W, Payson, UT 84651","precinct":"25PA11","hd":"65","v_score":"1.121327652","decile":"3","lat":40.02016530406064,"lng":-111.74809446196956},{"vid":"36563b319544e523f5f44ace74241873a7956185265922e7729680bf123fde0f","name":"Xavier Mayer","party":"","address":"1598 S 840 W, Payson, UT 84651","precinct":"25PA11","hd":"65","v_score":"6.74007049","decile":"8","lat":40.017096684455794,"lng":-111.74654875912991},{"vid":"1643635","name":"Mr. Oddie Labadie","party":"","address":"1583 S 840 W, Payson, UT 84651","precinct":"25PA11","hd":"65","v_score":"1.193887297","decile":"3","lat":40.01762036599707,"lng":-111.7460833994771},{"vid":"1647018","name":"Dr. Billy Kuvalis","party":"","address":"1580 S 910 W, Payson, UT 84651","precinct":"25PA11","hd":"65","v_score":"7.830610533","decile":"8","lat":40.0175968900389,"lng":-111.74770654818394},{"vid":"1651586","name":"Dr. Littleton Brown PhD","party":"Rep","address":"664 W 1340 S, Payson, UT 84651","precinct":"25PA11","hd":"65","v_score":"0","decile":"1","lat":40.02358400337292,"lng":-111.74286165936627},{"vid":"1651612","name":"Lorin Schmidt","party":"","address":"1471 S 910 W, Payson, UT 84651","precinct":"25PA11","hd":"65","v_score":"0","decile":"1","lat":40.02031953770653,"lng":-111.74701352625688},{"vid":"1677982","name":"Mr. Artie Hilpert V","party":"","address":"1472 S Red Maple Ct, Payson, UT 84651","precinct":"25PA11","hd":"65","v_score":"2.587603312","decile":"5","lat":40.020340047690105,"lng":-111.74432307831135},{"vid":"1710152","name":"Gloria Connelly","party":"Dem","address":"1459 S 930 W, Payson, UT 84651","precinct":"25PA11","hd":"65","v_score":"0","decile":"1","lat":40.020820152331915,"lng":-111.74803160770175},{"vid":"1730534","name":"Cathie Bernhard","party":"Rep","address":"1206 S 880 W, Payson, UT 84651","precinct":"25PA11","hd":"65","v_score":"1.121327652","decile":"3","lat":40.02536733234512,"lng":-111.74744472000101},{"vid":"1751493","name":"Berta Stanton","party":"Dem","address":"808 W 1620 S, Payson, UT 84651","precinct":"25PA11","hd":"65","v_score":"1.121327652","decile":"3","lat":40.016311028198615,"lng":-111.7459858456497},{"vid":"1759723","name":"Torrey Goodwin","party":"Dem","address":"1202 S 830 W, Payson, UT 84651","precinct":"25PA11","hd":"65","v_score":"6.52928996","decile":"7","lat":40.02542856820324,"lng":-111.74648239274605},{"vid":"1759910","name":"Nila Pagac","party":"","address":"1585 S 910 W, Payson, UT 84651","precinct":"25PA11","hd":"65","v_score":"2.587603312","decile":"5","lat":40.017419109434286,"lng":-111.74716156581323},{"vid":"1764830","name":"Judge Bayer","party":"","address":"1482 S Silver Maple Ct, Payson, UT 84651","precinct":"25PA11","hd":"65","v_score":"3.93832808","decile":"6","lat":40.020097300801986,"lng":-111.74495937838329},{"vid":"bf987f8a1fd5749ba233185c73f7e683cbf38b995f22c5b0f646ac3bb5043855","name":"Ginger Hagenes DDS","party":"Dem","address":"694 W 1410 S, Payson, UT 84651","precinct":"25PA11","hd":"65","v_score":"4.224027","decile":"7","lat":40.022411790399765,"lng":-111.74353859966318},{"vid":"51e5d9b77df201f20066d359ab8dad48b2f3a558aee4a3f3cea131e7d09fc59b","name":"Jaimie McKenzie","party":"","address":"1481 S Silver Maple Ct, Payson, UT 84651","precinct":"25PA11","hd":"65","v_score":"2.315214949","decile":"5","lat":40.020098312255826,"lng":-111.74464833170055},{"vid":"1778446","name":"Izola Berge","party":"","address":"1137 S 680 W, Payson, UT 84651","precinct":"25PA11","hd":"65","v_score":"0","decile":"1","lat":40.02648604402933,"lng":-111.74303240391423},{"vid":"f42c5d4d251cb98f87eb3fad3fee0d64188dbe6f35e16eb344d887aa5f1d12b1","name":"Muriel Bauch DVM","party":"","address":"1423 S 680 W, Payson, UT 84651","precinct":"25PA11","hd":"65","v_score":"17.54775449","decile":"9","lat":40.02191308846261,"lng":-111.74295161089336},{"vid":"1787632","name":"Hershel Mohr","party":"Rep","address":"782 W 1235 S, Payson, UT 84651","precinct":"25PA11","hd":"65","v_score":"5.40460374","decile":"7","lat":40.02511772501203,"lng":-111.7453942288201},{"vid":"1796042","name":"Mrs. Thomasina Hayes","party":"Rep","address":"792 W 1570 S, Payson, UT 84651","precinct":"25PA11","hd":"65","v_score":"3.93832808","decile":"6","lat":40.01787091369869,"lng":-111.74538892425984},{"vid":"1817174","name":"Dr. Tavian Gleichner DDS","party":"Rep","address":"864 W 1550 S, Payson, UT 84651","precinct":"25PA11","hd":"65","v_score":"2.315214949","decile":"5","lat":40.01883571725315,"lng":-111.74654316287669},{"vid":"1831641","name":"Arely Bins","party":"","address":"1431 S 730 W, Payson, UT 84651","precinct":"25PA11","hd":"65","v_score":"0","decile":"1","lat":40.021680315167075,"lng":-111.74405256183258},{"vid":"1834589","name":"Jerica Rowe","party":"Dem","address":"792 W 1570 S, Payson, UT 84651","precinct":"25PA11","hd":"65","v_score":"5.417914297","decile":"7","lat":40.01787091369869,"lng":-111.74538892425984},{"vid":"1836208","name":"Nora Romaguera","party":"Dem","address":"1598 S 790 W, Payson, UT 84651","precinct":"25PA11","hd":"65","v_score":"2.587603312","decile":"5","lat":40.016896860226325,"lng":-111.74561823692144},{"vid":"1843742","name":"Eliot Dickens-Treutel","party":"Rep","address":"1106 S 680 W, Payson, UT 84651","precinct":"25PA11","hd":"65","v_score":"0","decile":"1","lat":40.02696343627839,"lng":-111.74347855499398},{"vid":"1852267","name":"Bernadette Wilkinson","party":"Rep","address":"1477 S 930 W, Payson, UT 84651","precinct":"25PA11","hd":"65","v_score":"0","decile":"1","lat":40.02016530406064,"lng":-111.74809446196956},{"vid":"1858930","name":"German Grimes","party":"Dem","address":"1437 S 780 W, Payson, UT 84651","precinct":"25PA11","hd":"65","v_score":"6.724398202","decile":"8","lat":40.021464397443,"lng":-111.74489055904824},{"vid":"1860166","name":"Odis Lockman","party":"Dem","address":"912 W 1620 S, Payson, UT 84651","precinct":"25PA11","hd":"65","v_score":"0","decile":"1","lat":40.01636520901525,"lng":-111.74745794356132},{"vid":"1874210","name":"Babyboy Rice","party":"Dem","address":"771 W 1280 S, Payson, UT 84651","precinct":"25PA11","hd":"65","v_score":"2.587603312","decile":"5","lat":40.02412880026029,"lng":-111.74506601461377},{"vid":"1875012","name":"Gerold Schoen","party":"","address":"1561 S 910 W, Payson, UT 84651","precinct":"25PA11","hd":"65","v_score":"0","decile":"1","lat":40.0181838724291,"lng":-111.74715645044667},{"vid":"1877323","name":"Zaiden Kris","party":"Rep","address":"1151 S 880 W, Payson, UT 84651","precinct":"25PA11","hd":"65","v_score":"3.997370217","decile":"6","lat":40.02613781636182,"lng":-111.74687487201777},{"vid":"1879061","name":"Destany Cummings","party":"","address":"912 W 1420 S, Payson, UT 84651","precinct":"25PA11","hd":"65","v_score":"8.601979876","decile":"8","lat":40.02214054421028,"lng":-111.74740593003361},{"vid":"cc2c1fce71b0c7169355636295e7f722d5e3d3d67cdbc5ebf4d712d992c2ece7","name":"Virgia Shanahan-Lowe","party":"","address":"851 W 1150 S, Payson, UT 84651","precinct":"25PA11","hd":"65","v_score":"2.817000428","decile":"6","lat":40.026159464213336,"lng":-111.74632661558876},{"vid":"1897480","name":"Frances Kuhic","party":"Rep","address":"1135 S 880 W, Payson, UT 84651","precinct":"25PA11","hd":"65","v_score":"3.93832808","decile":"6","lat":40.02649259459628,"lng":-111.74696233963729},{"vid":"1904570","name":"Viola Hand","party":"","address":"1498 S 910 W, Payson, UT 84651","precinct":"25PA11","hd":"65","v_score":"1.121327652","decile":"3","lat":40.019478011333995,"lng":-111.74765954719042},{"vid":"1911037","name":"Alexzander Yost","party":"","address":"1491 S 910 W, Payson, UT 84651","precinct":"25PA11","hd":"65","v_score":"3.781490609","decile":"6","lat":40.01957145937842,"lng":-111.74700549666669},{"vid":"1912303","name":"Ms. Antonette Batz","party":"Rep","address":"818 W 1500 S, Payson, UT 84651","precinct":"25PA11","hd":"65","v_score":"3.781490609","decile":"6","lat":40.01943746866134,"lng":-111.7456913310897},{"vid":"264cf938e28e21d59fb7724ed7715d7f941497ad40604c669689cf6176824222","name":"Giovani Gleason MD","party":"","address":"1598 S 790 W, Payson, UT 84651","precinct":"25PA11","hd":"65","v_score":"0","decile":"1","lat":40.016896860226325,"lng":-111.74561823692144},{"vid":"1941492","name":"Amalie Eichmann-Kreiger","party":"Rep","address":"694 W 1410 S, Payson, UT 84651","precinct":"25PA11","hd":"65","v_score":"4.224027","decile":"7","lat":40.022411790399765,"lng":-111.74353859966318},{"vid":"1969215","name":"Boss Baumbach-Kub","party":"Dem","address":"1342 S 830 W, Payson, UT 84651","precinct":"25PA11","hd":"65","v_score":"2.587603312","decile":"5","lat":40.02342542021314,"lng":-111.74638986215697},{"vid":"1991394","name":"Davey Parisian-Stiedemann","party":"","address":"661 W 1340 S, Payson, UT 84651","precinct":"25PA11","hd":"65","v_score":"1.121327652","decile":"3","lat":40.023241505011036,"lng":-111.74287520029736},{"vid":"1992184","name":"Carly Swaniawski","party":"Dem","address":"834 W 1500 S, Payson, UT 84651","precinct":"25PA11","hd":"65","v_score":"18.71521791","decile":"10","lat":40.01949344949432,"lng":-111.74592311368755},{"vid":"1993786","name":"Elease Smith","party":"","address":"1149 S 780 W, Payson, UT 84651","precinct":"25PA11","hd":"65","v_score":"0","decile":"1","lat":40.02638662141984,"lng":-111.74485417293737},{"vid":"2002001","name":"Ardath Keeling","party":"Rep","address":"824 W 1550 S, Payson, UT 84651","precinct":"25PA11","hd":"65","v_score":"6.724398202","decile":"8","lat":40.01884490996483,"lng":-111.74579306974277},{"vid":"2002006","name":"Meryl Schneider","party":"","address":"742 W 1550 S, Payson, UT 84651","precinct":"25PA11","hd":"65","v_score":"0","decile":"1","lat":40.0188146272793,"lng":-111.74412170893291},{"vid":"2017491","name":"Jesse Hudson","party":"Dem","address":"854 W 1235 S, Payson, UT 84651","precinct":"25PA11","hd":"65","v_score":"1.193887297","decile":"3","lat":40.0251197641839,"lng":-111.7463689573428},{"vid":"2017962","name":"Zetta Hintz","party":"","address":"1613 S 840 W, Payson, UT 84651","precinct":"25PA11","hd":"65","v_score":"7.493443096","decile":"8","lat":40.016544948060734,"lng":-111.74639453180944},{"vid":"e109654beb112d76a869606745ab4550020a45d717e8b13c66a029af3f667f4f","name":"Lidie Kautzer DVM","party":"","address":"1441 S 780 W, Payson, UT 84651","precinct":"25PA11","hd":"65","v_score":"14.131145","decile":"9","lat":40.02130796632944,"lng":-111.74489000209275},{"vid":"2031606","name":"Wendel Ferry","party":"","address":"1206 S 880 W, Payson, UT 84651","precinct":"25PA11","hd":"65","v_score":"2.315214949","decile":"5","lat":40.02536733234512,"lng":-111.74744472000101},{"vid":"2031755","name":"Leonard Stamm","party":"Rep","address":"728 W 1550 S, Payson, UT 84651","precinct":"25PA11","hd":"65","v_score":"1.121327652","decile":"3","lat":40.018762150650176,"lng":-111.74388896227},{"vid":"2057565","name":"Buffy VonRueden-Beatty","party":"Dem","address":"1434 S 680 W, Payson, UT 84651","precinct":"25PA11","hd":"65","v_score":"1.121327652","decile":"3","lat":40.02154930301928,"lng":-111.7435290095919},{"vid":"2059020","name":"Dr. Caden Kreiger I","party":"","address":"841 W 1235 S, Payson, UT 84651","precinct":"25PA11","hd":"65","v_score":"2.315214949","decile":"5","lat":40.024768500354945,"lng":-111.7463273250227},{"vid":"2063177","name":"Harvy Huels Sr.","party":"Dem","address":"1595 S 790 W, Payson, UT 84651","precinct":"25PA11","hd":"65","v_score":"1.46627566","decile":"4","lat":40.01677738771181,"lng":-111.74524579420833},{"vid":"2065224","name":"Dr. May Hansen MD","party":"Rep","address":"851 W 1150 S, Payson, UT 84651","precinct":"25PA11","hd":"65","v_score":"1.193887297","decile":"3","lat":40.026159464213336,"lng":-111.74632661558876},{"vid":"8f1fdf6c9d05f63bda5a2ebd5bb26ecc288d395a2555951ad407cb788751cdaa","name":"Makayla Stroman DDS","party":"Dem","address":"766 W 1550 S, Payson, UT 84651","precinct":"25PA11","hd":"65","v_score":"3.997370217","decile":"6","lat":40.01880157206092,"lng":-111.74466437555566},{"vid":"2076316","name":"Julio Fritsch","party":"","address":"799 W 1150 S, Payson, UT 84651","precinct":"25PA11","hd":"65","v_score":"2.315214949","decile":"5","lat":40.026165975090315,"lng":-111.74537051815629},{"vid":"30b7b16accca559cf4e55a0ba778d56b397a0f78792659a5542a1bfa90f33f8c","name":"Doc Dicki","party":"","address":"1554 S 840 W, Payson, UT 84651","precinct":"25PA11","hd":"65","v_score":"25.99640486","decile":"10","lat":40.01844920918536,"lng":-111.74640295184066},{"vid":"817cd59004bb5aa2f464d5576903460c91a8fedd197c10bbfe5af7cb3b012337","name":"Caylee Spencer","party":"","address":"674 W 1400 S, Payson, UT 84651","precinct":"25PA11","hd":"65","v_score":"9.682978083","decile":"8","lat":40.022967328574865,"lng":-111.74316533122007},{"vid":"6406094eb806dd27e48c533a0a6af35157bd12850b07d8acc31b8459b9b80bf0","name":"Davian O'Reilly","party":"Dem","address":"674 W 1400 S, Payson, UT 84651","precinct":"25PA11","hd":"65","v_score":"2.587603312","decile":"5","lat":40.022967328574865,"lng":-111.74316533122007},{"vid":"2084333","name":"Freda Stanton-Flatley","party":"","address":"1443 S 930 W, Payson, UT 84651","precinct":"25PA11","hd":"65","v_score":"1.46627566","decile":"4","lat":40.02123547820487,"lng":-111.7480289136542},{"vid":"2e9775f1d175c5c5b8b6c5575da80a12e5f39dcb082f3466f52a322eaeabed45","name":"Delbert Rowe","party":"Rep","address":"1325 S 780 W, Payson, UT 84651","precinct":"25PA11","hd":"65","v_score":"0","decile":"1","lat":40.023390736883506,"lng":-111.74497683285887},{"vid":"2094097","name":"Valarie VonRueden","party":"Dem","address":"1483 S Red Maple Ct, Payson, UT 84651","precinct":"25PA11","hd":"65","v_score":"6.364334873","decile":"7","lat":40.020033353360624,"lng":-111.74399844573284},{"vid":"bedf09b623f610ff2a79a13a30fd26133816e15c3137b5096d3c2d6b97689cd8","name":"Martika Buckridge","party":"","address":"766 W 1550 S, Payson, UT 84651","precinct":"25PA11","hd":"65","v_score":"5.463645877","decile":"7","lat":40.01880157206092,"lng":-111.74466437555566},{"vid":"a0454245a2a596faf90af042292c80ee2f06d6620a44b1de899947bea438fbf6","name":"Zebulon Corwin-Wehner","party":"Rep","address":"1586 S 910 W, Payson, UT 84651","precinct":"25PA11","hd":"65","v_score":"2.315214949","decile":"5","lat":40.01740477425926,"lng":-111.74770778282847},{"vid":"4e1eb37b696c02d1294673f7d13a4330036f499485fe9821ca12aa3169147b45","name":"Davian Kreiger","party":"Dem","address":"854 W 1235 S, Payson, UT 84651","precinct":"25PA11","hd":"65","v_score":"0","decile":"1","lat":40.0251197641839,"lng":-111.7463689573428},{"vid":"2116866","name":"Mrs. Cora O'Hara MD","party":"Dem","address":"1325 S 880 W, Payson, UT 84651","precinct":"25PA11","hd":"65","v_score":"3.781490609","decile":"6","lat":40.02343148375622,"lng":-111.74692817054718},{"vid":"2119689","name":"Nikolas Rau-O'Kon","party":"Dem","address":"841 W 1235 S, Payson, UT 84651","precinct":"25PA11","hd":"65","v_score":"1.121327652","decile":"3","lat":40.024768500354945,"lng":-111.7463273250227},{"vid":"eed667d607bbc6be4fa2dfcd05d5bbefb0128e4fa3266c55e4fb93c405198fcd","name":"Rogelio Rolfson","party":"","address":"1474 S 910 W, Payson, UT 84651","precinct":"25PA11","hd":"65","v_score":"0","decile":"1","lat":40.020164061106335,"lng":-111.74758153815341},{"vid":"2142550","name":"Lena Kessler","party":"Rep","address":"1249 S 880 W, Payson, UT 84651","precinct":"25PA11","hd":"65","v_score":"3.93832808","decile":"6","lat":40.024812718921105,"lng":-111.74696394028848},{"vid":"51e4ef9d042d3a0b8e6aac179d3293dc3e895365a2544aeca4831341cb2d238f","name":"Weaver Frami","party":"Rep","address":"1587 S 930 W, Payson, UT 84651","precinct":"25PA11","hd":"65","v_score":"2.315214949","decile":"5","lat":40.017406122413114,"lng":-111.74805402587832},{"vid":"2150549","name":"Reinaldo Steuber MD","party":"Rep","address":"1464 S 910 W, Payson, UT 84651","precinct":"25PA11","hd":"65","v_score":"5.40460374","decile":"7","lat":40.020621200058436,"lng":-111.74768665571064},{"vid":"6b13bd4a2df336dafabebfd567e72204763510cb678f300cd0eafc3e2fb666fe","name":"Erlinda Altenwerth","party":"Rep","address":"1178 S 780 W, Payson, UT 84651","precinct":"25PA11","hd":"65","v_score":"1.46627566","decile":"4","lat":40.025881051223976,"lng":-111.74543715925485},{"vid":"9e514c909def2c9c7d1f06f81accf0a81da79a3065a519ad23b74b8d00596d6c","name":"Tab Runolfsdottir","party":"","address":"766 W 1550 S, Payson, UT 84651","precinct":"25PA11","hd":"65","v_score":"3.781490609","decile":"6","lat":40.01880157206092,"lng":-111.74466437555566},{"vid":"15af1c6b03eac05d1ca9dbdb065660d750fef5d873df33694dc834c87e8272d4","name":"Author Lubowitz","party":"","address":"803 W Big Leaf Ct, Payson, UT 84651","precinct":"25PA11","hd":"65","v_score":"2.315214949","decile":"5","lat":40.02166688748859,"lng":-111.74562549773162},{"vid":"2180757","name":"Sue Auer","party":"Dem","address":"1153 S 680 W, Payson, UT 84651","precinct":"25PA11","hd":"65","v_score":"5.331806201","decile":"7","lat":40.02626561573754,"lng":-111.74295668761388},{"vid":"2186946","name":"Samson McCullough","party":"","address":"1455 S 910 W, Payson, UT 84651","precinct":"25PA11","hd":"65","v_score":"1.193887297","decile":"3","lat":40.0208735779725,"lng":-111.74717885335187},{"vid":"60d0355bd548a41fe479ebbdc0b49885fac1805a58f487d86a6631ff1794d262","name":"Eliseo Davis","party":"","address":"1162 S 680 W, Payson, UT 84651","precinct":"25PA11","hd":"65","v_score":"20.12498482","decile":"10","lat":40.026039238162674,"lng":-111.74358170286955},{"vid":"2195354","name":"Jaylan White Sr.","party":"","address":"1498 S 910 W, Payson, UT 84651","precinct":"25PA11","hd":"65","v_score":"1.121327652","decile":"3","lat":40.019478011333995,"lng":-111.74765954719042},{"vid":"81ee3e9ffc2d33d447846a198b79d7a81d4c9497a720a5df8e633c4ddf95d063","name":"Cathi Schroeder","party":"","address":"1505 S 780 W, Payson, UT 84651","precinct":"25PA11","hd":"65","v_score":"0","decile":"1","lat":40.019249173572724,"lng":-111.74515835092447},{"vid":"c11d90de36ab71936d3f7b31c45ca53fc80077756e760eef31080db48cab4d2c","name":"Sommer Beatty","party":"Dem","address":"1248 S 780 W, Payson, UT 84651","precinct":"25PA11","hd":"65","v_score":"1.193887297","decile":"3","lat":40.02481498157687,"lng":-111.74535435796375},{"vid":"2218186","name":"Austen Zemlak","party":"","address":"1182 S 730 W, Payson, UT 84651","precinct":"25PA11","hd":"65","v_score":"1.121327652","decile":"3","lat":40.026000171951694,"lng":-111.74445314577059},{"vid":"2219294","name":"Bettye Gleason","party":"Rep","address":"1202 S 830 W, Payson, UT 84651","precinct":"25PA11","hd":"65","v_score":"14.40759057","decile":"9","lat":40.02542856820324,"lng":-111.74648239274605},{"vid":"628110c556a4e79f9988ad3ddf0f48eaa8ee0e029a7169437e8310d4b59f61d9","name":"Mr. Collis Oberbrunner III","party":"Dem","address":"809 W 1570 S, Payson, UT 84651","precinct":"25PA11","hd":"65","v_score":"1.193887297","decile":"3","lat":40.017534454147665,"lng":-111.7454888992905},{"vid":"2223929","name":"Cody Greenfelder","party":"Dem","address":"1559 S 840 W, Payson, UT 84651","precinct":"25PA11","hd":"65","v_score":"8.670935747","decile":"8","lat":40.018213016159265,"lng":-111.74602289408584},{"vid":"2227637","name":"Debrah Tromp-Schroeder","party":"Dem","address":"1579 S 910 W, Payson, UT 84651","precinct":"25PA11","hd":"65","v_score":"0","decile":"1","lat":40.0176112251736,"lng":-111.74716029325977},{"vid":"98701b8431fe81042e154ee08803dfe32b67374a6b8b8ba65dfbe998a947b7be","name":"Mrs. Drew Reichel","party":"Rep","address":"1613 S 840 W, Payson, UT 84651","precinct":"25PA11","hd":"65","v_score":"0","decile":"1","lat":40.016544948060734,"lng":-111.74639453180944},{"vid":"c30562169e377f5384b93323bf7e58697ad679f74fac8604f758e590afb0acd5","name":"Dr. Hedy Ward DDS","party":"","address":"1573 S 740 W, Payson, UT 84651","precinct":"25PA11","hd":"65","v_score":"0","decile":"1","lat":40.01732012517075,"lng":-111.74429281285246},{"vid":"9f01d19c0c549687b9ce6eb941e50eb08e73dbde610b8090afd9ee70ff30c2ac","name":"Ms. Cecile Veum DVM","party":"","address":"1174 S 680 W, Payson, UT 84651","precinct":"25PA11","hd":"65","v_score":"0","decile":"1","lat":40.025836414908674,"lng":-111.74362487672342},{"vid":"2247027","name":"Hallie McDermott","party":"","address":"848 W 1500 S, Payson, UT 84651","precinct":"25PA11","hd":"65","v_score":"5.273794831","decile":"7","lat":40.01954734446865,"lng":-111.74616716908835},{"vid":"d4d4fca460dc951ad8f1c73507d86e658ea1e57a4d4b0baae1bfae1f2d6f8cef","name":"Kingston Cartwright","party":"","address":"848 W 1500 S, Payson, UT 84651","precinct":"25PA11","hd":"65","v_score":"9.839815554","decile":"8","lat":40.01954734446865,"lng":-111.74616716908835},{"vid":"f895b3fb3f0e2859d6e5748b8c465875850fbfd366456c50e22bcfd4c6163f22","name":"Jiles Stoltenberg","party":"Dem","address":"1415 S 780 W, Payson, UT 84651","precinct":"25PA11","hd":"65","v_score":"0","decile":"1","lat":40.02220574677653,"lng":-111.74489313586562},{"vid":"7aedcfdbc96e342c138208c692a774d0339e5c15f604c8bfeaec35c91b2fd537","name":"Belton Ledner-Crist","party":"","address":"1415 S 780 W, Payson, UT 84651","precinct":"25PA11","hd":"65","v_score":"0","decile":"1","lat":40.02220574677653,"lng":-111.74489313586562},{"vid":"95e229d444c9f98832ccb7c711fe2680a0dcc16988db674d162830a939c616f6","name":"Ms. Holli Kuvalis PhD","party":"Rep","address":"1461 S 910 W, Payson, UT 84651","precinct":"25PA11","hd":"65","v_score":"2.876042565","decile":"6","lat":40.020695184969284,"lng":-111.74718003283984},{"vid":"95d545bbf8641452a4f0a868589df402b8ca66527b0807becb0ab0a8044d4e87","name":"Hillard Kulas","party":"Dem","address":"905 W 1620 S, Payson, UT 84651","precinct":"25PA11","hd":"65","v_score":"1.193887297","decile":"3","lat":40.01594572969423,"lng":-111.74719982470185},{"vid":"2279507","name":"Miss Jami Jones","party":"Dem","address":"829 W 1235 S, Payson, UT 84651","precinct":"25PA11","hd":"65","v_score":"5.687348376","decile":"7","lat":40.02476780901566,"lng":-111.74604383522433},{"vid":"2279989","name":"Tamiko O'Hara","party":"","address":"841 W 1350 S, Payson, UT 84651","precinct":"25PA11","hd":"65","v_score":"1.121327652","decile":"3","lat":40.023110043201946,"lng":-111.74638890857122},{"vid":"b1fa1a353e466fa78d03ddaab7e14192d93e33a4e705d106037f51102ffb6175","name":"Kloe Ebert","party":"","address":"1192 S 780 W, Payson, UT 84651","precinct":"25PA11","hd":"65","v_score":"2.817000428","decile":"6","lat":40.02565408684033,"lng":-111.74543802037988},{"vid":"2290381","name":"Jelani Altenwerth","party":"Rep","address":"1483 S Red Maple Ct, Payson, UT 84651","precinct":"25PA11","hd":"65","v_score":"1.121327652","decile":"3","lat":40.020033353360624,"lng":-111.74399844573284},{"vid":"2293611","name":"Bernetta Buckridge-Klocko","party":"","address":"905 W 1620 S, Payson, UT 84651","precinct":"25PA11","hd":"65","v_score":"3.93832808","decile":"6","lat":40.01594572969423,"lng":-111.74719982470185},{"vid":"2297258","name":"Ms. Noelle Bruen MD","party":"","address":"1477 S 700 W, Payson, UT 84651","precinct":"25PA11","hd":"65","v_score":"0","decile":"1","lat":40.02019392261625,"lng":-111.74333424252092},{"vid":"45a80cf33f3c6a2dba195ed52a230d9bb57951608d693afe494e3c08c84631d8","name":"French Koch-Connelly","party":"Dem","address":"1477 S 930 W, Payson, UT 84651","precinct":"25PA11","hd":"65","v_score":"0","decile":"1","lat":40.02016530406064,"lng":-111.74809446196956},{"vid":"2312784","name":"Verla Hartmann","party":"Rep","address":"1423 S 780 W, Payson, UT 84651","precinct":"25PA11","hd":"65","v_score":"1.121327652","decile":"3","lat":40.021902917705155,"lng":-111.74495234667067},{"vid":"2320574","name":"Lora Strosin Sr.","party":"","address":"905 W 1620 S, Payson, UT 84651","precinct":"25PA11","hd":"65","v_score":"1.193887297","decile":"3","lat":40.01594572969423,"lng":-111.74719982470185},{"vid":"2321768","name":"Adalyn Jerde","party":"Dem","address":"1538 S 780 W, Payson, UT 84651","precinct":"25PA11","hd":"65","v_score":"2.315214949","decile":"5","lat":40.018778839110276,"lng":-111.74541753941428},{"vid":"2322149","name":"Anne Herzog DDS","party":"Rep","address":"1512 S 910 W, Payson, UT 84651","precinct":"25PA11","hd":"65","v_score":"0","decile":"1","lat":40.01926245912267,"lng":-111.74760313538606},{"vid":"2331876","name":"Holli Walter","party":"Rep","address":"848 W 1550 S, Payson, UT 84651","precinct":"25PA11","hd":"65","v_score":"2.817000428","decile":"6","lat":40.01886745952005,"lng":-111.74629277261289},{"vid":"2370986","name":"Adela Dooley DVM","party":"Rep","address":"728 W 1550 S, Payson, UT 84651","precinct":"25PA11","hd":"65","v_score":"2.315214949","decile":"5","lat":40.018762150650176,"lng":-111.74388896227},{"vid":"2380489","name":"Dr. Isaac Williamson","party":"Rep","address":"1415 S 780 W, Payson, UT 84651","precinct":"25PA11","hd":"65","v_score":"3.93832808","decile":"6","lat":40.02220574677653,"lng":-111.74489313586562},{"vid":"2387483","name":"Mrs. Vicky Gusikowski DVM","party":"Dem","address":"1434 S 680 W, Payson, UT 84651","precinct":"25PA11","hd":"65","v_score":"2.817000428","decile":"6","lat":40.02154930301928,"lng":-111.7435290095919},{"vid":"2387544","name":"Somer Reynolds","party":"Dem","address":"1489 S 910 W, Payson, UT 84651","precinct":"25PA11","hd":"65","v_score":"10.52632313","decile":"9","lat":40.01979580352801,"lng":-111.74699677727328},{"vid":"2387546","name":"Mell Quitzon","party":"Rep","address":"1489 S 910 W, Payson, UT 84651","precinct":"25PA11","hd":"65","v_score":"10.52632313","decile":"9","lat":40.01979580352801,"lng":-111.74699677727328},{"vid":"2392882","name":"Leticia Lind","party":"Dem","address":"1475 S 910 W, Payson, UT 84651","precinct":"25PA11","hd":"65","v_score":"2.315214949","decile":"5","lat":40.0201403849868,"lng":-111.74717201128962},{"vid":"2418736","name":"Bernetta Nikolaus","party":"","address":"1331 S 650 W, Payson, UT 84651","precinct":"25PA11","hd":"65","v_score":"2.315214949","decile":"5","lat":40.02361987519032,"lng":-111.74234325236087},{"vid":"2424490","name":"Tiffany Schmitt","party":"Rep","address":"925 W 1420 S, Payson, UT 84651","precinct":"25PA11","hd":"65","v_score":"1.193887297","decile":"3","lat":40.02195145373178,"lng":-111.74818366840825},{"vid":"2442085","name":"Loy Bartell","party":"Rep","address":"813 W 1150 S, Payson, UT 84651","precinct":"25PA11","hd":"65","v_score":"1.121327652","decile":"3","lat":40.026162809874705,"lng":-111.74592073180138},{"vid":"2445484","name":"Kamari Murray","party":"Dem","address":"705 W 1340 S, Payson, UT 84651","precinct":"25PA11","hd":"65","v_score":"2.315214949","decile":"5","lat":40.023213046907216,"lng":-111.74377877042566},{"vid":"2449037","name":"Layton Wunsch","party":"Rep","address":"1135 S 880 W, Payson, UT 84651","precinct":"25PA11","hd":"65","v_score":"3.93832808","decile":"6","lat":40.02649259459628,"lng":-111.74696233963729},{"vid":"2452797","name":"Skyler Marks","party":"Rep","address":"1589 S 840 W, Payson, UT 84651","precinct":"25PA11","hd":"65","v_score":"1.121327652","decile":"3","lat":40.017357413304595,"lng":-111.74606566570979},{"vid":"2459412","name":"Severo Murazik","party":"","address":"705 W 1340 S, Payson, UT 84651","precinct":"25PA11","hd":"65","v_score":"0","decile":"1","lat":40.023213046907216,"lng":-111.74377877042566},{"vid":"2460333","name":"Collette Ullrich","party":"Rep","address":"1469 S 910 W, Payson, UT 84651","precinct":"25PA11","hd":"65","v_score":"0","decile":"1","lat":40.02029514909924,"lng":-111.74718677792653},{"vid":"2460672","name":"Edsel Labadie-Mills","party":"Dem","address":"1428 S 730 W, Payson, UT 84651","precinct":"25PA11","hd":"65","v_score":"1.193887297","decile":"3","lat":40.02175845383094,"lng":-111.74466791124146},{"vid":"2464786","name":"Cal Casper","party":"Dem","address":"907 W 1500 S, Payson, UT 84651","precinct":"25PA11","hd":"65","v_score":"1.193887297","decile":"3","lat":40.019231631394035,"lng":-111.74730091743383},{"vid":"2471782","name":"Liam Hane","party":"Rep","address":"818 W 1500 S, Payson, UT 84651","precinct":"25PA11","hd":"65","v_score":"0","decile":"1","lat":40.01943746866134,"lng":-111.7456913310897},{"vid":"2476431","name":"Roberto Mayer","party":"Rep","address":"808 W 1570 S, Payson, UT 84651","precinct":"25PA11","hd":"65","v_score":"0","decile":"1","lat":40.0179217077053,"lng":-111.74558827603781},{"vid":"2480826","name":"Adrienne Huels-Carroll","party":"Rep","address":"1552 S 740 W, Payson, UT 84651","precinct":"25PA11","hd":"65","v_score":"0","decile":"1","lat":40.01846323009459,"lng":-111.74459135212896},{"vid":"2481017","name":"Mykel Bode","party":"Dem","address":"1465 S Red Maple Ct, Payson, UT 84651","precinct":"25PA11","hd":"65","v_score":"1.193887297","decile":"3","lat":40.02046764004566,"lng":-111.74397678443182},{"vid":"2483809","name":"Mr. Mykel O'Keefe Sr.","party":"","address":"1151 S 880 W, Payson, UT 84651","precinct":"25PA11","hd":"65","v_score":"0","decile":"1","lat":40.02613781636182,"lng":-111.74687487201777},{"vid":"2485236","name":"Elyse Klocko","party":"","address":"1137 S 680 W, Payson, UT 84651","precinct":"25PA11","hd":"65","v_score":"0","decile":"1","lat":40.02648604402933,"lng":-111.74303240391423},{"vid":"2486200","name":"Dr. Zena Schultz","party":"Rep","address":"1607 S 840 W, Payson, UT 84651","precinct":"25PA11","hd":"65","v_score":"2.817000428","decile":"6","lat":40.01676151652521,"lng":-111.74621378030642},{"vid":"2498633","name":"Josephus Abbott","party":"Dem","address":"1428 S 730 W, Payson, UT 84651","precinct":"25PA11","hd":"65","v_score":"1.193887297","decile":"3","lat":40.02175845383094,"lng":-111.74466791124146},{"vid":"2518435","name":"Rosia Donnelly","party":"Rep","address":"802 W Big Leaf Ct, Payson, UT 84651","precinct":"25PA11","hd":"65","v_score":"3.61989409","decile":"6","lat":40.02191676192373,"lng":-111.74562789526027},{"vid":"2521278","name":"Dr. Manley Erdman PhD","party":"Rep","address":"818 W 1500 S, Payson, UT 84651","precinct":"25PA11","hd":"65","v_score":"0","decile":"1","lat":40.01943746866134,"lng":-111.7456913310897},{"vid":"2535808","name":"Jabbar Herzog","party":"Rep","address":"708 W 1460 S, Payson, UT 84651","precinct":"25PA11","hd":"65","v_score":"0","decile":"1","lat":40.02079413848027,"lng":-111.74374529963256},{"vid":"2537486","name":"Shaquita Gislason-Lebsack","party":"","address":"1577 S 790 W, Payson, UT 84651","precinct":"25PA11","hd":"65","v_score":"2.817000428","decile":"6","lat":40.01737900882973,"lng":-111.74514090184103},{"vid":"2539968","name":"Atticus Weimann","party":"Dem","address":"1586 S 910 W, Payson, UT 84651","precinct":"25PA11","hd":"65","v_score":"1.193887297","decile":"4","lat":40.01740477425926,"lng":-111.74770778282847},{"vid":"2541581","name":"Tavian Treutel","party":"Rep","address":"1575 S 930 W, Payson, UT 84651","precinct":"25PA11","hd":"65","v_score":"2.876042565","decile":"6","lat":40.01779035328634,"lng":-111.74805152047699},{"vid":"2541860","name":"Mrs. Jesse Bernier DVM","party":"","address":"1491 S 910 W, Payson, UT 84651","precinct":"25PA11","hd":"65","v_score":"1.193887297","decile":"4","lat":40.01957145937842,"lng":-111.74700549666669},{"vid":"2553488","name":"Justin Eichmann-Luettgen","party":"","address":"1201 S 830 W, Payson, UT 84651","precinct":"25PA11","hd":"65","v_score":"1.193887297","decile":"4","lat":40.025429074767686,"lng":-111.74588724898882},{"vid":"2569390","name":"Jeannette Gulgowski DVM","party":"Rep","address":"793 W 1620 S, Payson, UT 84651","precinct":"25PA11","hd":"65","v_score":"0","decile":"1","lat":40.01601120696374,"lng":-111.74570892635691},{"vid":"2573783","name":"Adela Bashirian","party":"","address":"793 W 1620 S, Payson, UT 84651","precinct":"25PA11","hd":"65","v_score":"0","decile":"1","lat":40.01601120696374,"lng":-111.74570892635691},{"vid":"2574478","name":"Makhi Lowe","party":"","address":"895 W 1100 S, Payson, UT 84651","precinct":"25PA11","hd":"65","v_score":"0","decile":"1","lat":40.026828128068146,"lng":-111.74784006406597},{"vid":"2581017","name":"Josiah Sipes","party":"","address":"1467 S Silver Maple Ct, Payson, UT 84651","precinct":"25PA11","hd":"65","v_score":"0","decile":"1","lat":40.02040585011367,"lng":-111.74464942592343},{"vid":"2581258","name":"Dania Ferry","party":"","address":"848 W 1550 S, Payson, UT 84651","precinct":"25PA11","hd":"65","v_score":"1.193887297","decile":"4","lat":40.01886745952005,"lng":-111.74629277261289},{"vid":"2592236","name":"Rayshawn Pfeffer-Langworth","party":"Dem","address":"1607 S 840 W, Payson, UT 84651","precinct":"25PA11","hd":"65","v_score":"1.193887297","decile":"4","lat":40.01676151652521,"lng":-111.74621378030642},{"vid":"2594595","name":"Butch Purdy-Mraz","party":"","address":"1315 S 780 W, Payson, UT 84651","precinct":"25PA11","hd":"65","v_score":"0","decile":"1","lat":40.02362647884069,"lng":-111.74497861960795},{"vid":"2603203","name":"Ms. Jean Nolan DVM","party":"","address":"728 W 1550 S, Payson, UT 84651","precinct":"25PA11","hd":"65","v_score":"0","decile":"1","lat":40.018762150650176,"lng":-111.74388896227},{"vid":"2608517","name":"Corina Maggio","party":"","address":"1438 S 680 W, Payson, UT 84651","precinct":"25PA11","hd":"65","v_score":"9.40499548","decile":"8","lat":40.021331204218505,"lng":-111.74355720501165},{"vid":"2608944","name":"Luana Kulas-Weimann","party":"","address":"753 W 1590 S, Payson, UT 84651","precinct":"25PA11","hd":"65","v_score":"1.193887297","decile":"4","lat":40.01704753861183,"lng":-111.74475907486223},{"vid":"2612715","name":"Alfonso Eichmann","party":"Dem","address":"793 W 1620 S, Payson, UT 84651","precinct":"25PA11","hd":"65","v_score":"0","decile":"1","lat":40.01601120696374,"lng":-111.74570892635691},{"vid":"2622180","name":"Lorin Cremin","party":"Rep","address":"851 W 1150 S, Payson, UT 84651","precinct":"25PA11","hd":"65","v_score":"1.193887297","decile":"4","lat":40.026159464213336,"lng":-111.74632661558876},{"vid":"2629206","name":"Ms. Kasie Hodkiewicz","party":"","address":"1105 S 680 W, Payson, UT 84651","precinct":"25PA11","hd":"65","v_score":"0","decile":"1","lat":40.02696043634342,"lng":-111.74310892471223},{"vid":"2637191","name":"Tiffany Kuvalis-Koelpin","party":"","address":"1250 S 880 W, Payson, UT 84651","precinct":"25PA11","hd":"65","v_score":"2.817000428","decile":"6","lat":40.024698649556825,"lng":-111.7475540120628},{"vid":"2642183","name":"Tammi Parker-Crist","party":"","address":"1552 S 910 W, Payson, UT 84651","precinct":"25PA11","hd":"65","v_score":"2.817000428","decile":"6","lat":40.018448414621126,"lng":-111.74756962063037},{"vid":"2644132","name":"Miss Elena Gerhold DVM","party":"Dem","address":"1111 S 880 W, Payson, UT 84651","precinct":"25PA11","hd":"65","v_score":"2.817000428","decile":"6","lat":40.026887123478964,"lng":-111.7470490094777},{"vid":"2655439","name":"Caesar Homenick","party":"","address":"1438 S 730 W, Payson, UT 84651","precinct":"25PA11","hd":"65","v_score":"0","decile":"1","lat":40.02139034805833,"lng":-111.7446493944824},{"vid":"2658269","name":"Kaylah Walter","party":"Dem","address":"1561 S 910 W, Payson, UT 84651","precinct":"25PA11","hd":"65","v_score":"0","decile":"1","lat":40.0181838724291,"lng":-111.74715645044667},{"vid":"2663727","name":"Dr. Christina Kerluke DDS","party":"","address":"1105 S 680 W, Payson, UT 84651","precinct":"25PA11","hd":"65","v_score":"0","decile":"1","lat":40.02696043634342,"lng":-111.74310892471223},{"vid":"2668844","name":"Darien Wintheiser","party":"","address":"813 W 1150 S, Payson, UT 84651","precinct":"25PA11","hd":"65","v_score":"0","decile":"1","lat":40.026162809874705,"lng":-111.74592073180138},{"vid":"2669570","name":"Kecia Schneider","party":"","address":"672 W 1410 S, Payson, UT 84651","precinct":"25PA11","hd":"65","v_score":"0","decile":"2","lat":40.02232285120164,"lng":-111.74309214366076},{"vid":"2675439","name":"Tyriq Heller-Hartmann","party":"Dem","address":"1573 S 740 W, Payson, UT 84651","precinct":"25PA11","hd":"65","v_score":"0","decile":"2","lat":40.01732012517075,"lng":-111.74429281285246},{"vid":"2679228","name":"Priscila Kiehn","party":"","address":"841 W 1350 S, Payson, UT 84651","precinct":"25PA11","hd":"65","v_score":"0","decile":"2","lat":40.023110043201946,"lng":-111.74638890857122},{"vid":"2686759","name":"Kody Cremin","party":"","address":"1434 S 680 W, Payson, UT 84651","precinct":"25PA11","hd":"65","v_score":"0","decile":"2","lat":40.02154930301928,"lng":-111.7435290095919},{"vid":"2691503","name":"Colie Shanahan-Abshire","party":"Dem","address":"1595 S 840 W, Payson, UT 84651","precinct":"25PA11","hd":"65","v_score":"0","decile":"2","lat":40.01714639589473,"lng":-111.74609507919035},{"vid":"2692713","name":"Hence Treutel","party":"","address":"802 W Brookside Ct, Payson, UT 84651","precinct":"25PA11","hd":"65","v_score":"11.83100227","decile":"9","lat":40.02091779918303,"lng":-111.74562432692738},{"vid":"2695648","name":"Mr. Camryn Cartwright Jr.","party":"Dem","address":"1331 S 650 W, Payson, UT 84651","precinct":"25PA11","hd":"65","v_score":"1.193887297","decile":"4","lat":40.02361987519032,"lng":-111.74234325236087},{"vid":"2698045","name":"Octave Grady","party":"Rep","address":"1438 S 910 W, Payson, UT 84651","precinct":"25PA11","hd":"65","v_score":"0","decile":"2","lat":40.02143173446495,"lng":-111.74768134522999},{"vid":"2711941","name":"Augustin Hodkiewicz V","party":"Dem","address":"1331 S 650 W, Payson, UT 84651","precinct":"25PA11","hd":"65","v_score":"0","decile":"2","lat":40.02361987519032,"lng":-111.74234325236087},{"vid":"2723913","name":"Britany Gulgowski","party":"","address":"1338 S 780 W, Payson, UT 84651","precinct":"25PA11","hd":"65","v_score":"14.42196415","decile":"9","lat":40.02328933150393,"lng":-111.74554634657305},{"vid":"2728437","name":"Doug Schmeler","party":"Dem","address":"1444 S 910 W, Payson, UT 84651","precinct":"25PA11","hd":"65","v_score":"4.069929862","decile":"7","lat":40.021234129851535,"lng":-111.74768265156008},{"vid":"2742331","name":"Dellar Romaguera","party":"Dem","address":"864 W 1550 S, Payson, UT 84651","precinct":"25PA11","hd":"65","v_score":"1.193887297","decile":"4","lat":40.01883571725315,"lng":-111.74654316287669},{"vid":"2743574","name":"Tyriq Mayer","party":"Dem","address":"1286 S 780 W, Payson, UT 84651","precinct":"25PA11","hd":"65","v_score":"10.71001167","decile":"9","lat":40.02410901191137,"lng":-111.74544931616309},{"vid":"2744473","name":"Mrs. Gracie Roberts DVM","party":"","address":"861 W 1235 S, Payson, UT 84651","precinct":"25PA11","hd":"65","v_score":"1.193887297","decile":"4","lat":40.024769189630476,"lng":-111.74661085111303},{"vid":"2755310","name":"Flint Bradtke","party":"Dem","address":"1138 S 680 W, Payson, UT 84651","precinct":"25PA11","hd":"65","v_score":"0","decile":"2","lat":40.02648740933839,"lng":-111.74358807479952},{"vid":"2761788","name":"Miss Leota Bahringer","party":"Rep","address":"1435 S 730 W, Payson, UT 84651","precinct":"25PA11","hd":"65","v_score":"0","decile":"2","lat":40.021482718152924,"lng":-111.74405186078732},{"vid":"2775976","name":"Wilford Kuhlman","party":"","address":"1463 S Silver Maple Ct, Payson, UT 84651","precinct":"25PA11","hd":"65","v_score":"3.61989409","decile":"6","lat":40.02046627596911,"lng":-111.74462643885877},{"vid":"2781694","name":"Nonie Paucek DVM","party":"Rep","address":"1428 S 680 W, Payson, UT 84651","precinct":"25PA11","hd":"65","v_score":"0","decile":"2","lat":40.021731269501046,"lng":-111.743656717945},{"vid":"2785585","name":"Amarion Will","party":"","address":"1438 S 680 W, Payson, UT 84651","precinct":"25PA11","hd":"65","v_score":"0","decile":"2","lat":40.021331204218505,"lng":-111.74355720501165},{"vid":"2789749","name":"Mr. Cain Rath","party":"Rep","address":"1573 S 910 W, Payson, UT 84651","precinct":"25PA11","hd":"65","v_score":"1.193887297","decile":"4","lat":40.01780334092238,"lng":-111.74715901962838},{"vid":"2806186","name":"Hiroshi Gleason","party":"Rep","address":"648 W 1400 S, Payson, UT 84651","precinct":"25PA11","hd":"65","v_score":"0","decile":"2","lat":40.02294925006682,"lng":-111.74256677206817},{"vid":"2810907","name":"Hosteen Hills I","party":"Rep","address":"1586 S 910 W, Payson, UT 84651","precinct":"25PA11","hd":"65","v_score":"0","decile":"2","lat":40.01740477425926,"lng":-111.74770778282847},{"vid":"2811496","name":"Dr. Raymond Towne","party":"","address":"753 W 1590 S, Payson, UT 84651","precinct":"25PA11","hd":"65","v_score":"0","decile":"2","lat":40.01704753861183,"lng":-111.74475907486223},{"vid":"2819085","name":"Milford Greenholt","party":"Dem","address":"905 W 1620 S, Payson, UT 84651","precinct":"25PA11","hd":"65","v_score":"1.193887297","decile":"4","lat":40.01594572969423,"lng":-111.74719982470185},{"vid":"2821683","name":"Greg Rau","party":"","address":"1151 S 880 W, Payson, UT 84651","precinct":"25PA11","hd":"65","v_score":"4.069929862","decile":"7","lat":40.02613781636182,"lng":-111.74687487201777},{"vid":"2829576","name":"Wheeler Douglas DDS","party":"Dem","address":"685 W 1340 S, Payson, UT 84651","precinct":"25PA11","hd":"65","v_score":"2.876042565","decile":"6","lat":40.02321362998433,"lng":-111.74350033185415},{"vid":"2841383","name":"Gisselle Abernathy","party":"Rep","address":"1463 S Silver Maple Ct, Payson, UT 84651","precinct":"25PA11","hd":"65","v_score":"0","decile":"2","lat":40.02046627596911,"lng":-111.74462643885877},{"vid":"2843208","name":"Mr. Belton Hane MD","party":"Rep","address":"1455 S 780 W, Payson, UT 84651","precinct":"25PA11","hd":"65","v_score":"1.193887297","decile":"4","lat":40.02079576843775,"lng":-111.74501521413329},{"vid":"2858305","name":"Mallory Koch","party":"Dem","address":"1492 S 910 W, Payson, UT 84651","precinct":"25PA11","hd":"65","v_score":"1.193887297","decile":"4","lat":40.01970456225849,"lng":-111.74769267082978},{"vid":"2879449","name":"Dayton Ferry","party":"Dem","address":"822 W Sugar Maple Ct, Payson, UT 84651","precinct":"25PA11","hd":"65","v_score":"1.193887297","decile":"4","lat":40.02241840293384,"lng":-111.74611804332817},{"vid":"2887016","name":"Orland Macejkovic","party":"","address":"1552 S 910 W, Payson, UT 84651","precinct":"25PA11","hd":"65","v_score":"1.193887297","decile":"4","lat":40.018448414621126,"lng":-111.74756962063037},{"vid":"2887500","name":"Kirstie Brown","party":"Dem","address":"771 W 1280 S, Payson, UT 84651","precinct":"25PA11","hd":"65","v_score":"0","decile":"2","lat":40.02412880026029,"lng":-111.74506601461377},{"vid":"2904415","name":"Vivienne Sawayn","party":"Dem","address":"1337 S 650 W, Payson, UT 84651","precinct":"25PA11","hd":"65","v_score":"0","decile":"2","lat":40.02342047991183,"lng":-111.74246403362899},{"vid":"2924208","name":"Geo Baumbach-Rogahn","party":"","address":"1431 S 910 W, Payson, UT 84651","precinct":"25PA11","hd":"65","v_score":"0","decile":"2","lat":40.02179030896733,"lng":-111.74712860273274},{"vid":"2940902","name":"Lora Rogahn","party":"Rep","address":"1568 S 740 W, Payson, UT 84651","precinct":"25PA11","hd":"65","v_score":"0","decile":"2","lat":40.017746725097666,"lng":-111.74465480569411},{"vid":"2944501","name":"Gregory Graham-Glover","party":"Dem","address":"809 W 1570 S, Payson, UT 84651","precinct":"25PA11","hd":"65","v_score":"0","decile":"2","lat":40.017534454147665,"lng":-111.7454888992905},{"vid":"2953025","name":"Farris Paucek","party":"","address":"708 W 1460 S, Payson, UT 84651","precinct":"25PA11","hd":"65","v_score":"0","decile":"2","lat":40.02079413848027,"lng":-111.74374529963256},{"vid":"2961362","name":"Carmelita Strosin","party":"","address":"809 W 1570 S, Payson, UT 84651","precinct":"25PA11","hd":"65","v_score":"0","decile":"2","lat":40.017534454147665,"lng":-111.7454888992905},{"vid":"2962950","name":"Bridgette Franecki-Fahey","party":"Rep","address":"662 W 1400 S, Payson, UT 84651","precinct":"25PA11","hd":"65","v_score":"0","decile":"2","lat":40.02296791027827,"lng":-111.74288689318755},{"vid":"2969732","name":"Domenic Ledner","party":"Rep","address":"1586 S 910 W, Payson, UT 84651","precinct":"25PA11","hd":"65","v_score":"2.876042565","decile":"6","lat":40.01740477425926,"lng":-111.74770778282847},{"vid":"2971469","name":"Debra Ritchie","party":"","address":"1602 S 790 W, Payson, UT 84651","precinct":"25PA11","hd":"65","v_score":"0","decile":"2","lat":40.01674630452158,"lng":-111.74585093399462},{"vid":"2981429","name":"Carsen Reinger","party":"Dem","address":"808 W 1570 S, Payson, UT 84651","precinct":"25PA11","hd":"65","v_score":"0","decile":"2","lat":40.0179217077053,"lng":-111.74558827603781},{"vid":"2984846","name":"Carlie Haley","party":"","address":"1437 S 780 W, Payson, UT 84651","precinct":"25PA11","hd":"65","v_score":"0","decile":"2","lat":40.021464397443,"lng":-111.74489055904824},{"vid":"2984871","name":"Janie Feeney-Corkery","party":"","address":"1455 S 780 W, Payson, UT 84651","precinct":"25PA11","hd":"65","v_score":"0","decile":"2","lat":40.02079576843775,"lng":-111.74501521413329},{"vid":"3062879","name":"Desmond Schaefer","party":"","address":"1487 S Red Maple Ct, Payson, UT 84651","precinct":"25PA11","hd":"65","v_score":"1.193887297","decile":"4","lat":40.01997302589967,"lng":-111.74397473200598},{"vid":"3121462","name":"Arabella Rempel DDS","party":"","address":"1325 S 880 W, Payson, UT 84651","precinct":"25PA11","hd":"65","v_score":"2.660162957","decile":"5","lat":40.02343148375622,"lng":-111.74692817054718},{"vid":"3249151","name":"Beau Daniel","party":"Dem","address":"1613 S 840 W, Payson, UT 84651","precinct":"25PA11","hd":"65","v_score":"13.33063124","decile":"9","lat":40.016544948060734,"lng":-111.74639453180944},{"vid":"3311553","name":"Cody Schinner","party":"Dem","address":"824 W 1150 S, Payson, UT 84651","precinct":"25PA11","hd":"65","v_score":"2.315214949","decile":"5","lat":40.02655389836959,"lng":-111.74604462502312},{"vid":"3446912","name":"Magdalene Goldner MD","party":"Dem","address":"1555 S 840 W, Payson, UT 84651","precinct":"25PA11","hd":"65","v_score":"0","decile":"2","lat":40.01846898808519,"lng":-111.74601571460232},{"vid":"4451395","name":"Elizah Harvey","party":"Rep","address":"1562 S 840 W, Payson, UT 84651","precinct":"25PA11","hd":"65","v_score":"24.85936106","decile":"10","lat":40.01818383259583,"lng":-111.74651708673035},{"vid":"53501305ffeae3cf24e00467bb5350a0246169aa4bfc5d047a03c3df6544886d","name":"Tomas Walter-Friesen","party":"","address":"809 W 1570 S, Payson, UT 84651","precinct":"25PA11","hd":"65","v_score":"2.660162957","decile":"5","lat":40.017534454147665,"lng":-111.7454888992905},{"vid":"5315776","name":"Sharen Torp","party":"","address":"1293 S 830 W, Payson, UT 84651","precinct":"25PA11","hd":"65","v_score":"2.315214949","decile":"5","lat":40.02412482566291,"lng":-111.74602681155777},{"vid":"5536846","name":"Fran Harber","party":"","address":"1295 S 880 W, Payson, UT 84651","precinct":"25PA11","hd":"65","v_score":"0","decile":"3","lat":40.02412152705383,"lng":-111.74697365197812},{"vid":"5882140","name":"Dimitri Hirthe","party":"Dem","address":"812 W 1280 S, Payson, UT 84651","precinct":"25PA11","hd":"65","v_score":"0","decile":"3","lat":40.024500611854535,"lng":-111.74578825069194},{"vid":"5904901","name":"Dr. Randell Barton MD","party":"Dem","address":"808 W 1570 S, Payson, UT 84651","precinct":"25PA11","hd":"65","v_score":"6.550708384","decile":"7","lat":40.0179217077053,"lng":-111.74558827603781},{"vid":"6048558","name":"Dr. Lindsay Prohaska","party":"Dem","address":"1427 S 780 W, Payson, UT 84651","precinct":"25PA11","hd":"65","v_score":"8.507303088","decile":"8","lat":40.02176577387853,"lng":-111.74491572244638},{"vid":"6054838","name":"Effie Reilly","party":"","address":"1147 S 730 W, Payson, UT 84651","precinct":"25PA11","hd":"65","v_score":"1.121327652","decile":"3","lat":40.026489059705845,"lng":-111.7439450182217},{"vid":"6056513","name":"Dr. Dane Walker","party":"","address":"1293 S 830 W, Payson, UT 84651","precinct":"25PA11","hd":"65","v_score":"2.315214949","decile":"5","lat":40.02412482566291,"lng":-111.74602681155777},{"vid":"6152250","name":"Earlene Murazik-Huel","party":"","address":"917 W 1620 S, Payson, UT 84651","precinct":"25PA11","hd":"65","v_score":"1.193887297","decile":"4","lat":40.01594627733323,"lng":-111.74761502746347},{"vid":"6153712","name":"Benjamine Sipes","party":"","address":"1445 S 680 W, Payson, UT 84651","precinct":"25PA11","hd":"65","v_score":"5.40460374","decile":"7","lat":40.02119253172033,"lng":-111.74315695639874},{"vid":"6153787","name":"Brisa Hauck","party":"","address":"1445 S 680 W, Payson, UT 84651","precinct":"25PA11","hd":"65","v_score":"5.40460374","decile":"7","lat":40.02119253172033,"lng":-111.74315695639874},{"vid":"6155211","name":"Rossie Denesik","party":"Dem","address":"1247 S 780 W, Payson, UT 84651","precinct":"25PA11","hd":"65","v_score":"2.315214949","decile":"5","lat":40.02467009904501,"lng":-111.7448307608947},{"vid":"6179935","name":"Adonis Leannon","party":"","address":"799 W Sugar Maple Ct, Payson, UT 84651","precinct":"25PA11","hd":"65","v_score":"3.93832808","decile":"6","lat":40.02229325446714,"lng":-111.74559892826048},{"vid":"6201730","name":"Haruko Kuhlman","party":"","address":"1602 S 790 W, Payson, UT 84651","precinct":"25PA11","hd":"65","v_score":"7.445017574","decile":"8","lat":40.01674630452158,"lng":-111.74585093399462},{"vid":"6208673","name":"Gale Emard","party":"Dem","address":"1115 S 730 W, Payson, UT 84651","precinct":"25PA11","hd":"65","v_score":"14.95117867","decile":"9","lat":40.026967280868824,"lng":-111.74402787505183},{"vid":"6211531","name":"Mr. Elex Collier V","party":"Dem","address":"1477 S Silver Maple Ct, Payson, UT 84651","precinct":"25PA11","hd":"65","v_score":"3.93832808","decile":"6","lat":40.02015873798234,"lng":-111.74462534471074},{"vid":"6220593","name":"Marilyn Nikolaus","party":"Dem","address":"1202 S 830 W, Payson, UT 84651","precinct":"25PA11","hd":"65","v_score":"32.05768409","decile":"10","lat":40.02542856820324,"lng":-111.74648239274605},{"vid":"756b2dcd6b67ce51327d4a6c61cd026d912198525fefc3165226c1474f431daa","name":"Nicky Waelchi","party":"Rep","address":"1121 S 780 W, Payson, UT 84651","precinct":"25PA11","hd":"65","v_score":"10.18588758","decile":"9","lat":40.02688696810604,"lng":-111.74503987879993},{"vid":"6237367","name":"Anona Champlin","party":"Rep","address":"834 W 1500 S, Payson, UT 84651","precinct":"25PA11","hd":"65","v_score":"18.71521791","decile":"10","lat":40.01949344949432,"lng":-111.74592311368755},{"vid":"8bcd3d509bf014fbb5aa043e082c94243b9e2c2cdd75b7bdd743a60719ac7a86","name":"Johnnie Daniel","party":"Dem","address":"1229 S 880 W, Payson, UT 84651","precinct":"25PA11","hd":"65","v_score":"6.088298118","decile":"7","lat":40.02512174866214,"lng":-111.74694144497528},{"vid":"6241292","name":"Goebel Olson","party":"Dem","address":"1202 S 830 W, Payson, UT 84651","precinct":"25PA11","hd":"65","v_score":"26.67309741","decile":"10","lat":40.02542856820324,"lng":-111.74648239274605},{"vid":"6242515","name":"Jovany Herman I","party":"Dem","address":"1444 S 910 W, Payson, UT 84651","precinct":"25PA11","hd":"65","v_score":"5.191257514","decile":"7","lat":40.021234129851535,"lng":-111.74768265156008},{"vid":"6250077","name":"Phyllis Kuphal","party":"Dem","address":"1306 S 880 W, Payson, UT 84651","precinct":"25PA11","hd":"65","v_score":"0","decile":"3","lat":40.023982474468454,"lng":-111.74755276415316},{"vid":"6261669","name":"Scarlett Zboncak","party":"Dem","address":"1415 S 780 W, Payson, UT 84651","precinct":"25PA11","hd":"65","v_score":"11.23922619","decile":"9","lat":40.02220574677653,"lng":-111.74489313586562},{"vid":"6263464","name":"Mrs. Taniyah Jerde","party":"","address":"848 W 1550 S, Payson, UT 84651","precinct":"25PA11","hd":"65","v_score":"12.07513611","decile":"9","lat":40.01886745952005,"lng":-111.74629277261289},{"vid":"54e099910d07d44b75f476e5c5fd1943ba14af5211dd826dd065cb2727656cb4","name":"Graves Frami","party":"Rep","address":"672 W 1410 S, Payson, UT 84651","precinct":"25PA11","hd":"65","v_score":"6.027167436","decile":"7","lat":40.02232285120164,"lng":-111.74309214366076},{"vid":"631b399e2cb6439564b59ca55507d5634552c5ea07766d72882ac07900c832fb","name":"Trista Nikolaus","party":"Rep","address":"1553 S 740 W, Payson, UT 84651","precinct":"25PA11","hd":"65","v_score":"16.28921112","decile":"9","lat":40.01834949904388,"lng":-111.74415831112195},{"vid":"6295313","name":"Caroline Jakubowski-Batz","party":"Rep","address":"1492 S 910 W, Payson, UT 84651","precinct":"25PA11","hd":"65","v_score":"2.315214949","decile":"5","lat":40.01970456225849,"lng":-111.74769267082978},{"vid":"930f452fdf9ebde974e050ec898b98d0feafbde9014d0e88b66e1382fa630694","name":"Donte Rogahn","party":"Rep","address":"662 W 1400 S, Payson, UT 84651","precinct":"25PA11","hd":"65","v_score":"4.079907534","decile":"7","lat":40.02296791027827,"lng":-111.74288689318755},{"vid":"6311569","name":"Mrs. Brittnee Hackett","party":"Dem","address":"1553 S 740 W, Payson, UT 84651","precinct":"25PA11","hd":"65","v_score":"19.16525368","decile":"10","lat":40.01834949904388,"lng":-111.74415831112195},{"vid":"6312104","name":"Dr. Micah Gerlach DDS","party":"Rep","address":"1491 S 910 W, Payson, UT 84651","precinct":"25PA11","hd":"65","v_score":"1.46627566","decile":"4","lat":40.01957145937842,"lng":-111.74700549666669},{"vid":"1cfbaf5dc1af0679ca4b1cea84ef13644f9c38b128c5477adcd753e0f55f37bf","name":"Jill Walker","party":"","address":"848 W 1550 S, Payson, UT 84651","precinct":"25PA11","hd":"65","v_score":"12.07513611","decile":"9","lat":40.01886745952005,"lng":-111.74629277261289},{"vid":"6332803","name":"Dr. Phillip Rohan","party":"Dem","address":"1121 S 680 W, Payson, UT 84651","precinct":"25PA11","hd":"65","v_score":"1.193887297","decile":"4","lat":40.02669688255804,"lng":-111.74296423471989},{"vid":"6335506","name":"Delois Kunze","party":"Rep","address":"1268 S 780 W, Payson, UT 84651","precinct":"25PA11","hd":"65","v_score":"3.93832808","decile":"6","lat":40.02441966463888,"lng":-111.7453847676511},{"vid":"6355434","name":"Etta Adams DVM","party":"Rep","address":"905 W 1620 S, Payson, UT 84651","precinct":"25PA11","hd":"65","v_score":"8.347511332","decile":"8","lat":40.01594572969423,"lng":-111.74719982470185},{"vid":"d39a1e235fe639ef3c57c2f97a3b5549457483829ca5a586a287995895cc5bd8","name":"Vernon Schroeder","party":"Rep","address":"824 W 1550 S, Payson, UT 84651","precinct":"25PA11","hd":"65","v_score":"2.587603312","decile":"5","lat":40.01884490996483,"lng":-111.74579306974277},{"vid":"a7a84bf0579641b21872776ce8647917d1f13a6d1d197288e9695f0402f8cd80","name":"Eudora Corkery","party":"Rep","address":"1105 S 680 W, Payson, UT 84651","precinct":"25PA11","hd":"65","v_score":"8.363183621","decile":"8","lat":40.02696043634342,"lng":-111.74310892471223},{"vid":"6365680","name":"Amit Turcotte","party":"Dem","address":"785 W 1550 S, Payson, UT 84651","precinct":"25PA11","hd":"65","v_score":"5.40460374","decile":"7","lat":40.01827606742779,"lng":-111.7453323741107},{"vid":"fa6c631a46b41fe70c6baaa207582ff2452c39cd70c849eccef9295b425ea62c","name":"Mr. Juwan Hamill","party":"Rep","address":"685 W 1340 S, Payson, UT 84651","precinct":"25PA11","hd":"65","v_score":"9.772950527","decile":"8","lat":40.02321362998433,"lng":-111.74350033185415},{"vid":"6380114","name":"Sherwood Emmerich","party":"Dem","address":"1147 S 730 W, Payson, UT 84651","precinct":"25PA11","hd":"65","v_score":"6.74007049","decile":"8","lat":40.026489059705845,"lng":-111.7439450182217},{"vid":"9017485d69feab04570e2c1abb24be08221b1f0d68a96fd5eabe5e901784060c","name":"Kelsie Dooley","party":"","address":"917 W 1620 S, Payson, UT 84651","precinct":"25PA11","hd":"65","v_score":"9.116556227","decile":"8","lat":40.01594627733323,"lng":-111.74761502746347},{"vid":"6384844","name":"Burns Hickle","party":"Dem","address":"817 W 1500 S, Payson, UT 84651","precinct":"25PA11","hd":"65","v_score":"15.0180437","decile":"9","lat":40.01912850739475,"lng":-111.74567265511261},{"vid":"6386847","name":"Annemarie Larson","party":"","address":"818 W 1500 S, Payson, UT 84651","precinct":"25PA11","hd":"65","v_score":"3.93832808","decile":"6","lat":40.01943746866134,"lng":-111.7456913310897},{"vid":"fddb5f5f2d1a545ca8e3984c8f51dcf977ffc71752844a3d3a5e8da009777b5d","name":"Ronald Dibbert I","party":"","address":"1105 S 680 W, Payson, UT 84651","precinct":"25PA11","hd":"65","v_score":"0","decile":"3","lat":40.02696043634342,"lng":-111.74310892471223},{"vid":"1152e30ca1213e78b5e58f03db0ea14087f45e8298be7753a1c470af3146bde7","name":"Dr. Bobbie Schimmel DDS","party":"Rep","address":"1466 S Red Maple Ct, Payson, UT 84651","precinct":"25PA11","hd":"65","v_score":"1.193887297","decile":"4","lat":40.02046674933132,"lng":-111.7443226358162},{"vid":"6fe6292cbc916a0537635a88356507492eab91ddb84165e009b7dd1fe7c1ffdc","name":"Miya Von","party":"Dem","address":"859 W 1500 S, Payson, UT 84651","precinct":"25PA11","hd":"65","v_score":"8.280646305","decile":"8","lat":40.019219258030816,"lng":-111.74635884375135},{"vid":"6399293","name":"Dr. Othel Keebler","party":"","address":"1438 S 910 W, Payson, UT 84651","precinct":"25PA11","hd":"65","v_score":"1.121327652","decile":"3","lat":40.02143173446495,"lng":-111.74768134522999},{"vid":"6399820","name":"Sherwood Hammes","party":"","address":"1473 S 910 W, Payson, UT 84651","precinct":"25PA11","hd":"65","v_score":"21.31378118","decile":"10","lat":40.020135606154824,"lng":-111.74703136988646},{"vid":"6400782","name":"Mr. Ezra Rowe PhD","party":"Rep","address":"809 W 1620 S, Payson, UT 84651","precinct":"25PA11","hd":"65","v_score":"5.40460374","decile":"7","lat":40.015998627308846,"lng":-111.74603096503613},{"vid":"8dc04bed4482e82f0d7738b2b8736342135bdbe772ccf2939f76ca4a845490e0","name":"Sheldon Heidenreich","party":"","address":"1284 S 880 W, Payson, UT 84651","precinct":"25PA11","hd":"65","v_score":"2.587603312","decile":"5","lat":40.024242918225255,"lng":-111.74746067321207},{"vid":"db250b345647e09522ac84432cd018508050c448fa4a5f7af8fedeb641c6c6da","name":"Urijah Crist","party":"Rep","address":"1593 S 790 W, Payson, UT 84651","precinct":"25PA11","hd":"65","v_score":"2.817000428","decile":"6","lat":40.017053345215146,"lng":-111.7451868205932},{"vid":"6408921","name":"Louann O'Hara","party":"Dem","address":"1553 S 910 W, Payson, UT 84651","precinct":"25PA11","hd":"65","v_score":"1.121327652","decile":"3","lat":40.01844959230595,"lng":-111.74722304850415},{"vid":"6415753","name":"Miss Sonji Pagac DVM","party":"","address":"864 W 1550 S, Payson, UT 84651","precinct":"25PA11","hd":"65","v_score":"3.93832808","decile":"6","lat":40.01883571725315,"lng":-111.74654316287669},{"vid":"6417167","name":"Constance Glover","party":"","address":"795 W Big Leaf Ct, Payson, UT 84651","precinct":"25PA11","hd":"65","v_score":"3.781490609","decile":"6","lat":40.02165831873389,"lng":-111.7454593311882},{"vid":"6421128","name":"Mr. Trystan Rempel I","party":"Dem","address":"1445 S 780 W, Payson, UT 84651","precinct":"25PA11","hd":"65","v_score":"5.40460374","decile":"7","lat":40.02115153554516,"lng":-111.74488944498756},{"vid":"6422916","name":"Nathalia Legros-Wolff","party":"","address":"1162 S 680 W, Payson, UT 84651","precinct":"25PA11","hd":"65","v_score":"0","decile":"3","lat":40.026039238162674,"lng":-111.74358170286955},{"vid":"6425287","name":"Garnet Runte V","party":"Dem","address":"728 W 1550 S, Payson, UT 84651","precinct":"25PA11","hd":"65","v_score":"3.781490609","decile":"6","lat":40.018762150650176,"lng":-111.74388896227},{"vid":"6428207","name":"Giancarlo Nicolas","party":"Dem","address":"1567 S 910 W, Payson, UT 84651","precinct":"25PA11","hd":"65","v_score":"1.121327652","decile":"3","lat":40.01799010098688,"lng":-111.74715772174245},{"vid":"6430767","name":"Tori Cronin","party":"","address":"1613 S 840 W, Payson, UT 84651","precinct":"25PA11","hd":"65","v_score":"19.16525368","decile":"10","lat":40.016544948060734,"lng":-111.74639453180944},{"vid":"6432517","name":"Jobe Koss","party":"Rep","address":"1201 S 830 W, Payson, UT 84651","precinct":"25PA11","hd":"65","v_score":"5.407962308","decile":"7","lat":40.025429074767686,"lng":-111.74588724898882},{"vid":"6433153","name":"Leonard Hackett","party":"","address":"1552 S 910 W, Payson, UT 84651","precinct":"25PA11","hd":"65","v_score":"8.347511332","decile":"8","lat":40.018448414621126,"lng":-111.74756962063037},{"vid":"6433225","name":"Mr. Stephanie Smitham PhD","party":"Rep","address":"928 W 1620 S, Payson, UT 84651","precinct":"25PA11","hd":"65","v_score":"14.95117867","decile":"9","lat":40.01628841960232,"lng":-111.74818828205082},{"vid":"3a5d89c34870eec955bd252e571e111d279709a3345adedcc295b092625b089b","name":"Idell D'Amore","party":"Rep","address":"686 W 1400 S, Payson, UT 84651","precinct":"25PA11","hd":"65","v_score":"0","decile":"3","lat":40.02296674632115,"lng":-111.74344376943228},{"vid":"6436251","name":"Ruthie Gleason-Kunze","party":"","address":"1552 S 740 W, Payson, UT 84651","precinct":"25PA11","hd":"65","v_score":"3.781490609","decile":"6","lat":40.01846323009459,"lng":-111.74459135212896},{"vid":"6436480","name":"Gunda O'Hara-Gerlach","party":"","address":"1443 S 910 W, Payson, UT 84651","precinct":"25PA11","hd":"65","v_score":"5.40460374","decile":"7","lat":40.021230363817956,"lng":-111.7471765301289},{"vid":"6436963","name":"Kylee Mitchell PhD","party":"Dem","address":"1581 S 930 W, Payson, UT 84651","precinct":"25PA11","hd":"65","v_score":"2.315214949","decile":"5","lat":40.017598238051335,"lng":-111.74805275476218},{"vid":"6439714","name":"Luster Hirthe DDS","party":"","address":"1439 S 910 W, Payson, UT 84651","precinct":"25PA11","hd":"65","v_score":"1.623113131","decile":"5","lat":40.021408729280424,"lng":-111.7471753502816},{"vid":"42cc98aad5803a3ec2a2a79fd56b10b8ec9440bcc252cc51eb60741dd5309764","name":"Angelica Wyman-Stamm","party":"Dem","address":"913 W 1100 S, Payson, UT 84651","precinct":"25PA11","hd":"65","v_score":"3.781490609","decile":"6","lat":40.026826566307705,"lng":-111.74815164633924},{"vid":"6446071","name":"Jeptha Bernier","party":"","address":"1602 S 790 W, Payson, UT 84651","precinct":"25PA11","hd":"65","v_score":"0","decile":"3","lat":40.01674630452158,"lng":-111.74585093399462},{"vid":"986349553bf6d7dc2dd431b0e4176d226c838cd6ab07d622ebba73da1b4f0d84","name":"Mr. Dock Parisian","party":"Rep","address":"1414 S 730 W, Payson, UT 84651","precinct":"25PA11","hd":"65","v_score":"1.121327652","decile":"3","lat":40.02212519041297,"lng":-111.74459171515518},{"vid":"6449554","name":"Beverly Kassulke","party":"","address":"799 W Sugar Maple Ct, Payson, UT 84651","precinct":"25PA11","hd":"65","v_score":"8.347511332","decile":"8","lat":40.02229325446714,"lng":-111.74559892826048},{"vid":"15501d1ffe1d26a1e21e3b335dc0699d71e28de0f5f0f998bb254c6e4c93e1c6","name":"Joette Labadie-Gorczany","party":"Dem","address":"1105 S 680 W, Payson, UT 84651","precinct":"25PA11","hd":"65","v_score":"0","decile":"3","lat":40.02696043634342,"lng":-111.74310892471223},{"vid":"6452894","name":"Junius Heidenreich-Wunsch","party":"","address":"1434 S 680 W, Payson, UT 84651","precinct":"25PA11","hd":"65","v_score":"5.659072284","decile":"7","lat":40.02154930301928,"lng":-111.7435290095919},{"vid":"6457160","name":"Jamison Lynch II","party":"","address":"1567 S 910 W, Payson, UT 84651","precinct":"25PA11","hd":"65","v_score":"2.315214949","decile":"5","lat":40.01799010098688,"lng":-111.74715772174245},{"vid":"6458354","name":"Ms. Meredith Halvorson","party":"Dem","address":"782 W 1235 S, Payson, UT 84651","precinct":"25PA11","hd":"65","v_score":"2.315214949","decile":"5","lat":40.02511772501203,"lng":-111.7453942288201},{"vid":"c15341e4e996639035a6f7cf3bb03f2b6f52165424a92f99d6a7d5923e485b64","name":"Deonta Green","party":"Rep","address":"1513 S 930 W, Payson, UT 84651","precinct":"25PA11","hd":"65","v_score":"2.315214949","decile":"5","lat":40.01928026521425,"lng":-111.74797245040637},{"vid":"6463142","name":"Dr. Louann Thiel MD","party":"Rep","address":"1619 S 790 W, Payson, UT 84651","precinct":"25PA11","hd":"65","v_score":"3.664562647","decile":"6","lat":40.01619718762978,"lng":-111.74556429737794},{"vid":"6465643","name":"Mrs. Florine Friesen DDS","party":"Dem","address":"722 W 1410 S, Payson, UT 84651","precinct":"25PA11","hd":"65","v_score":"3.781490609","decile":"6","lat":40.02240562945103,"lng":-111.744127249799},{"vid":"6467437","name":"Marchello Kshlerin","party":"","address":"1338 S 730 W, Payson, UT 84651","precinct":"25PA11","hd":"65","v_score":"4.833280139","decile":"7","lat":40.02337829486345,"lng":-111.74453856477434},{"vid":"6467913","name":"Alys Welch","party":"","address":"1575 S 930 W, Payson, UT 84651","precinct":"25PA11","hd":"65","v_score":"2.315214949","decile":"5","lat":40.01779035328634,"lng":-111.74805152047699},{"vid":"6df94ffbb35d3fdcf9918d044bc2679d7e743f0455acebe4f265009b35f2abb8","name":"Ms. Neta Konopelski","party":"","address":"1445 S 780 W, Payson, UT 84651","precinct":"25PA11","hd":"65","v_score":"6.881235673","decile":"8","lat":40.02115153554516,"lng":-111.74488944498756},{"vid":"6471281","name":"Catrina Pfannerstill","party":"Rep","address":"1338 S 730 W, Payson, UT 84651","precinct":"25PA11","hd":"65","v_score":"4.833280139","decile":"7","lat":40.02337829486345,"lng":-111.74453856477434},{"vid":"6473189","name":"Dr. Braydon Orn II","party":"Rep","address":"1483 S 700 W, Payson, UT 84651","precinct":"25PA11","hd":"65","v_score":"9.116556227","decile":"8","lat":40.02005022570651,"lng":-111.74335709781771},{"vid":"6478721","name":"Georgie Heller PhD","party":"Rep","address":"861 W 1235 S, Payson, UT 84651","precinct":"25PA11","hd":"65","v_score":"2.315214949","decile":"5","lat":40.024769189630476,"lng":-111.74661085111303},{"vid":"6478813","name":"Judie Kuhlman","party":"","address":"1566 S 840 W, Payson, UT 84651","precinct":"25PA11","hd":"65","v_score":"0","decile":"3","lat":40.01793274020115,"lng":-111.74655517993969},{"vid":"6479319","name":"Ella Cronin","party":"Dem","address":"1177 S 880 W, Payson, UT 84651","precinct":"25PA11","hd":"65","v_score":"12.55902065","decile":"9","lat":40.025828095755706,"lng":-111.74676846484152},{"vid":"70c0128bd5f1ce181caaa137d3d1e70669c04f6d1264b67ee610f255ff2de928","name":"Adilene DuBuque","party":"","address":"917 W 1620 S, Payson, UT 84651","precinct":"25PA11","hd":"65","v_score":"8.363183621","decile":"8","lat":40.01594627733323,"lng":-111.74761502746347},{"vid":"6483461","name":"Sharlene Hudson","party":"","address":"1415 S 780 W, Payson, UT 84651","precinct":"25PA11","hd":"65","v_score":"8.280646305","decile":"8","lat":40.02220574677653,"lng":-111.74489313586562},{"vid":"9448a0dfaa2eebdbca6fd67065f5b4aa7228b07f273b1a179646b376c2983a06","name":"Leola Ernser","party":"Rep","address":"782 W 1235 S, Payson, UT 84651","precinct":"25PA11","hd":"65","v_score":"5.40460374","decile":"7","lat":40.02511772501203,"lng":-111.7453942288201},{"vid":"1e8a58b53b6c102bb9c1182790c9b57b219e3cc5ab6c9c10dde049af759b28db","name":"Ginny Wehner","party":"Dem","address":"627 W 1100 S, Payson, UT 84651","precinct":"25PA11","hd":"65","v_score":"8.280646305","decile":"8","lat":40.026881080834116,"lng":-111.74225892337289},{"vid":"f47e69d49ff402eb6ea8994d6b6d7f386381b75f4f710f17388c87c03d0e9aac","name":"Mr. Dayton Lesch","party":"Dem","address":"1482 S Red Maple Ct, Payson, UT 84651","precinct":"25PA11","hd":"65","v_score":"9.116556227","decile":"8","lat":40.02003231805695,"lng":-111.74432198468733},{"vid":"c91dae3179c3310dc88c82cae56e30d84ef7cba866315f9c8c71f6b360d66754","name":"Tollie Pollich","party":"","address":"913 W 1100 S, Payson, UT 84651","precinct":"25PA11","hd":"65","v_score":"1.121327652","decile":"3","lat":40.026826566307705,"lng":-111.74815164633924},{"vid":"6495491","name":"Jason Morissette","party":"Dem","address":"705 W 1340 S, Payson, UT 84651","precinct":"25PA11","hd":"65","v_score":"2.587603312","decile":"5","lat":40.023213046907216,"lng":-111.74377877042566},{"vid":"6507082","name":"Toy Cartwright-Considine","party":"Rep","address":"1358 S 730 W, Payson, UT 84651","precinct":"25PA11","hd":"65","v_score":"2.817000428","decile":"6","lat":40.023207660735494,"lng":-111.74456976556982},{"vid":"6507438","name":"Dr. Erasmo Rosenbaum","party":"Dem","address":"1293 S 780 W, Payson, UT 84651","precinct":"25PA11","hd":"65","v_score":"2.315214949","decile":"5","lat":40.02386322914567,"lng":-111.7449804338455},{"vid":"6508110","name":"Mrs. Beatriz Nader DDS","party":"","address":"912 W 1620 S, Payson, UT 84651","precinct":"25PA11","hd":"65","v_score":"2.958579882","decile":"6","lat":40.01636520901525,"lng":-111.74745794356132},{"vid":"6509309","name":"Sharla Marvin","party":"Dem","address":"1431 S 910 W, Payson, UT 84651","precinct":"25PA11","hd":"65","v_score":"6.74007049","decile":"8","lat":40.02179030896733,"lng":-111.74712860273274},{"vid":"6519407","name":"Azzie Emmerich MD","party":"Rep","address":"822 W Sugar Maple Ct, Payson, UT 84651","precinct":"25PA11","hd":"65","v_score":"12.57725863","decile":"9","lat":40.02241840293384,"lng":-111.74611804332817},{"vid":"6531094","name":"Dr. Darren O'Conner","party":"Rep","address":"1553 S 910 W, Payson, UT 84651","precinct":"25PA11","hd":"65","v_score":"1.121327652","decile":"3","lat":40.01844959230595,"lng":-111.74722304850415}]