[{"vid":"506579","name":"Gaither Emard","party":"Rep","address":"641 S 350 E, Apt I101, Pleasant Grove, UT 84062","precinct":"25PG22","hd":"55","v_score":"14.58356067","decile":"9","lat":40.3561976892642,"lng":-111.73406554629801},{"vid":"813950","name":"Ennis Boyer-Kovacek","party":"","address":"406 E 600 S, Pleasant Grove, UT 84062","precinct":"25PG22","hd":"55","v_score":"5.40460374","decile":"7","lat":40.35623700977757,"lng":-111.73338640285905},{"vid":"816172","name":"Siena Roberts","party":"Rep","address":"575 S 400 E, Pleasant Grove, UT 84062","precinct":"25PG22","hd":"55","v_score":"0","decile":"1","lat":40.35684721135402,"lng":-111.73337755399642},{"vid":"e85a8cc7cf8b410db68ecd57fb507dd5bc67ed9a4cb0b311c127726a20a547fe","name":"Cierra Hayes-Moore","party":"","address":"555 S 300 E, Pleasant Grove, UT 84062","precinct":"25PG22","hd":"55","v_score":"8.363183621","decile":"8","lat":40.35723069921459,"lng":-111.73547054665094},{"vid":"1323089","name":"Aiyanna Gottlieb","party":"Rep","address":"641 S 350 E, Apt J201, Pleasant Grove, UT 84062","precinct":"25PG22","hd":"55","v_score":"1.193887297","decile":"3","lat":40.3561976892642,"lng":-111.73406554629801},{"vid":"1382502","name":"Dr. Jamarcus Hickle","party":"","address":"641 S 350 E, Apt F103, Pleasant Grove, UT 84062","precinct":"25PG22","hd":"55","v_score":"9.600440767","decile":"8","lat":40.3561976892642,"lng":-111.73406554629801},{"vid":"1390693","name":"Media Lindgren-Bruen","party":"Dem","address":"415 E Apple Grove Ln, Pleasant Grove, UT 84062","precinct":"25PG22","hd":"55","v_score":"7.153624035","decile":"8","lat":40.356783431235215,"lng":-111.73284244392555},{"vid":"1394478","name":"Haylie Kshlerin","party":"","address":"567 S 430 E, Pleasant Grove, UT 84062","precinct":"25PG22","hd":"55","v_score":"0","decile":"1","lat":40.35708410576742,"lng":-111.7321235519764},{"vid":"74f6ee681b3eba333fe70e7a8e74fc1309e37c5f6c8b85f30b74dc5635780f82","name":"Hanson Johnston MD","party":"Rep","address":"510 S Locust Ave, Pleasant Grove, UT 84062","precinct":"25PG22","hd":"55","v_score":"1.121327652","decile":"3","lat":40.357370460854526,"lng":-111.7296542523653},{"vid":"1416988","name":"Worley Botsford-Harber","party":"Dem","address":"406 E 600 S, Pleasant Grove, UT 84062","precinct":"25PG22","hd":"55","v_score":"16.80774378","decile":"9","lat":40.35623700977757,"lng":-111.73338640285905},{"vid":"1445894","name":"Shiela Hodkiewicz","party":"","address":"423 E 790 S, Pleasant Grove, UT 84062","precinct":"25PG22","hd":"55","v_score":"17.98301199","decile":"10","lat":40.35521192055673,"lng":-111.732892391128},{"vid":"bad22906f57d5e0abb2a54e88581e5670248f4a9605c29e845677abc205f2e3f","name":"Oneal Bashirian MD","party":"Dem","address":"545 S 350 E, Pleasant Grove, UT 84062","precinct":"25PG22","hd":"55","v_score":"36.52229901","decile":"10","lat":40.357252825061565,"lng":-111.73435098865525},{"vid":"1459227","name":"Jerald Considine","party":"","address":"566 S 400 E, Pleasant Grove, UT 84062","precinct":"25PG22","hd":"55","v_score":"3.781490609","decile":"6","lat":40.357045346773745,"lng":-111.73383661558546},{"vid":"f5f2a373287815043f850727c511548684015d8ab9114cbda6590b5850e193e1","name":"Ellsworth Bergnaum","party":"Dem","address":"482 E Apple Grove Ln, Pleasant Grove, UT 84062","precinct":"25PG22","hd":"55","v_score":"6.881235673","decile":"8","lat":40.35670032014941,"lng":-111.73104732843021},{"vid":"1516473","name":"Delma Torp","party":"","address":"641 S 350 E, Apt G102, Pleasant Grove, UT 84062","precinct":"25PG22","hd":"55","v_score":"0","decile":"1","lat":40.3561976892642,"lng":-111.73406554629801},{"vid":"1529075","name":"Assunta Goldner","party":"Dem","address":"641 S 350 E, Apt C102, Pleasant Grove, UT 84062","precinct":"25PG22","hd":"55","v_score":"10.7066531","decile":"9","lat":40.3561976892642,"lng":-111.73406554629801},{"vid":"1535887","name":"Mrs. Cathey Smitham DVM","party":"Dem","address":"506 S 350 E, Pleasant Grove, UT 84062","precinct":"25PG22","hd":"55","v_score":"2.315214949","decile":"5","lat":40.35777337321489,"lng":-111.73466004075036},{"vid":"1564312","name":"Ciji Hegmann-Bahringer","party":"Dem","address":"641 S 350 E, Apt J202, Pleasant Grove, UT 84062","precinct":"25PG22","hd":"55","v_score":"2.315214949","decile":"5","lat":40.3561976892642,"lng":-111.73406554629801},{"vid":"1592701","name":"Averi Stiedemann","party":"Dem","address":"536 S 350 E, Pleasant Grove, UT 84062","precinct":"25PG22","hd":"55","v_score":"2.744440783","decile":"5","lat":40.35746371185437,"lng":-111.7348373529955},{"vid":"1593722","name":"Elgin Bode","party":"Dem","address":"641 S 350 E, Apt F202, Pleasant Grove, UT 84062","precinct":"25PG22","hd":"55","v_score":"2.744440783","decile":"5","lat":40.3561976892642,"lng":-111.73406554629801},{"vid":"1629613","name":"Shoji Quitzon","party":"","address":"641 S 350 E, Apt G201, Pleasant Grove, UT 84062","precinct":"25PG22","hd":"55","v_score":"0","decile":"1","lat":40.3561976892642,"lng":-111.73406554629801},{"vid":"1648245","name":"Dr. Loyal Mayert","party":"Rep","address":"530 S Locust Ave, Pleasant Grove, UT 84062","precinct":"25PG22","hd":"55","v_score":"3.93832808","decile":"6","lat":40.35738753880566,"lng":-111.72872132066502},{"vid":"0157084f13fb33725a9a019b40552555389adfcb34dca567d147ffb9b5502dd3","name":"Sydnie Bernhard","party":"","address":"575 S 350 E, Pleasant Grove, UT 84062","precinct":"25PG22","hd":"55","v_score":"2.587603312","decile":"5","lat":40.356842550216534,"lng":-111.73453010957965},{"vid":"1658910","name":"Lucky Konopelski","party":"Dem","address":"467 E Apple Grove Ln, Pleasant Grove, UT 84062","precinct":"25PG22","hd":"55","v_score":"7.282185415","decile":"8","lat":40.35710835315358,"lng":-111.73147836127809},{"vid":"1704207","name":"Selmer Hickle-Greenholt","party":"Dem","address":"452 E Apple Grove Ln, Pleasant Grove, UT 84062","precinct":"25PG22","hd":"55","v_score":"7.650280567","decile":"8","lat":40.35651425433098,"lng":-111.73187326350028},{"vid":"1709843","name":"Miss Alexandr Bradtke","party":"Dem","address":"641 S 350 E, Apt A102, Pleasant Grove, UT 84062","precinct":"25PG22","hd":"55","v_score":"13.84916389","decile":"9","lat":40.3561976892642,"lng":-111.73406554629801},{"vid":"1731144","name":"Dovie Littel","party":"Dem","address":"641 S 350 E, Apt J102, Pleasant Grove, UT 84062","precinct":"25PG22","hd":"55","v_score":"2.315214949","decile":"5","lat":40.3561976892642,"lng":-111.73406554629801},{"vid":"1757554","name":"Namon Hintz","party":"Dem","address":"641 S 350 E, Apt J202, Pleasant Grove, UT 84062","precinct":"25PG22","hd":"55","v_score":"2.315214949","decile":"5","lat":40.3561976892642,"lng":-111.73406554629801},{"vid":"1778594","name":"Diane McKenzie","party":"","address":"555 S 430 E, Pleasant Grove, UT 84062","precinct":"25PG22","hd":"55","v_score":"1.121327652","decile":"3","lat":40.35721270039649,"lng":-111.73186524257143},{"vid":"1800115","name":"Verner Batz","party":"","address":"510 E 500 S, Apt 1, Pleasant Grove, UT 84062","precinct":"25PG22","hd":"55","v_score":"0","decile":"1","lat":40.35765608806763,"lng":-111.73027859045457},{"vid":"1823491","name":"Coleman Hilpert","party":"","address":"641 S 350 E, Apt J101, Pleasant Grove, UT 84062","precinct":"25PG22","hd":"55","v_score":"2.660162957","decile":"5","lat":40.3561976892642,"lng":-111.73406554629801},{"vid":"1825303","name":"Tiffany Lemke DDS","party":"","address":"641 S 350 E, Apt H203, Pleasant Grove, UT 84062","precinct":"25PG22","hd":"55","v_score":"29.15109729","decile":"10","lat":40.3561976892642,"lng":-111.73406554629801},{"vid":"1828165","name":"Artis Macejkovic","party":"Dem","address":"435 E 790 S, Pleasant Grove, UT 84062","precinct":"25PG22","hd":"55","v_score":"2.744440783","decile":"5","lat":40.35529456303103,"lng":-111.73267919090733},{"vid":"1833222","name":"Ariana Anderson","party":"Rep","address":"641 S 350 E, Apt E202, Pleasant Grove, UT 84062","precinct":"25PG22","hd":"55","v_score":"8.347511332","decile":"8","lat":40.3561976892642,"lng":-111.73406554629801},{"vid":"1842987","name":"Elmo Stanton","party":"","address":"641 S 350 E, Apt A101, Pleasant Grove, UT 84062","precinct":"25PG22","hd":"55","v_score":"3.781490609","decile":"6","lat":40.3561976892642,"lng":-111.73406554629801},{"vid":"1847194","name":"Jettie Donnelly","party":"Rep","address":"416 E Apple Grove Ln, Pleasant Grove, UT 84062","precinct":"25PG22","hd":"55","v_score":"11.02844566","decile":"9","lat":40.356167865676724,"lng":-111.73255079077366},{"vid":"1876701","name":"Argie Dooley DVM","party":"Dem","address":"641 S 350 E, Apt C203, Pleasant Grove, UT 84062","precinct":"25PG22","hd":"55","v_score":"1.193887297","decile":"3","lat":40.3561976892642,"lng":-111.73406554629801},{"vid":"1901636","name":"Cara Hirthe","party":"Dem","address":"416 E Apple Grove Ln, Pleasant Grove, UT 84062","precinct":"25PG22","hd":"55","v_score":"13.45445245","decile":"9","lat":40.356167865676724,"lng":-111.73255079077366},{"vid":"b8a3e65cfe7e57b52ad3638ce3e73f12756e44eb32d47e9e176ae364fa6930d1","name":"Rhys Jaskolski","party":"Rep","address":"641 S 350 E, Apt 1102, Pleasant Grove, UT 84062","precinct":"25PG22","hd":"55","v_score":"2.587603312","decile":"5","lat":40.3561976892642,"lng":-111.73406554629801},{"vid":"1930325","name":"Dr. Chancey Ratke","party":"Rep","address":"567 S 430 E, Pleasant Grove, UT 84062","precinct":"25PG22","hd":"55","v_score":"2.315214949","decile":"5","lat":40.35708410576742,"lng":-111.7321235519764},{"vid":"1965146","name":"Miss Indiana Ryan","party":"Dem","address":"560 S Locust Ave, Pleasant Grove, UT 84062","precinct":"25PG22","hd":"55","v_score":"0","decile":"1","lat":40.35714909591269,"lng":-111.72859389266569},{"vid":"1987923","name":"Ms. Francisquita Howe","party":"","address":"432 E Apple Grove Ln, Pleasant Grove, UT 84062","precinct":"25PG22","hd":"55","v_score":"1.193887297","decile":"3","lat":40.35627865772184,"lng":-111.73205542618352},{"vid":"2014977","name":"Christeen Weimann DDS","party":"Dem","address":"532 S Locust Ave, Pleasant Grove, UT 84062","precinct":"25PG22","hd":"55","v_score":"2.315214949","decile":"5","lat":40.35730486509658,"lng":-111.72907852767474},{"vid":"2017967","name":"Chaim Pagac","party":"Dem","address":"565 S 300 E, Pleasant Grove, UT 84062","precinct":"25PG22","hd":"55","v_score":"1.193887297","decile":"3","lat":40.35701508521929,"lng":-111.73519029676137},{"vid":"fb1e563d0136c50eae646c281fa0355316c705a30c3d02f5817d028ea82f7834","name":"Valencia Pfannerstill","party":"","address":"641 S 350 E, Apt G203, Pleasant Grove, UT 84062","precinct":"25PG22","hd":"55","v_score":"1.121327652","decile":"3","lat":40.3561976892642,"lng":-111.73406554629801},{"vid":"2072975","name":"Nelie Dibbert","party":"","address":"641 S 350 E, Apt H102, Pleasant Grove, UT 84062","precinct":"25PG22","hd":"55","v_score":"0","decile":"1","lat":40.3561976892642,"lng":-111.73406554629801},{"vid":"2088288","name":"Miss Angelic Johnson DDS","party":"","address":"641 S 350 E, Apt G203, Pleasant Grove, UT 84062","precinct":"25PG22","hd":"55","v_score":"4.210716443","decile":"7","lat":40.3561976892642,"lng":-111.73406554629801},{"vid":"2089183","name":"Mr. Raynard Shanahan","party":"Dem","address":"641 S 350 E, Apt E201, Pleasant Grove, UT 84062","precinct":"25PG22","hd":"55","v_score":"4.741221742","decile":"7","lat":40.3561976892642,"lng":-111.73406554629801},{"vid":"2099806","name":"Miss Orelia Gleichner","party":"","address":"543 S 430 E, Pleasant Grove, UT 84062","precinct":"25PG22","hd":"55","v_score":"6.814370645","decile":"8","lat":40.3573236963664,"lng":-111.73214112905491},{"vid":"88aabeb834a44dabcf379775dd2e6353302f023f765832f42cc91049ce621dfb","name":"Annice Schowalter-Breitenberg","party":"Rep","address":"495 E Apple Grove Ln, Pleasant Grove, UT 84062","precinct":"25PG22","hd":"55","v_score":"3.781490609","decile":"6","lat":40.357248193583764,"lng":-111.73085904950314},{"vid":"2129532","name":"Dr. Floy Zboncak","party":"","address":"641 S 350 E, Apt F101, Pleasant Grove, UT 84062","precinct":"25PG22","hd":"55","v_score":"9.07218791","decile":"8","lat":40.3561976892642,"lng":-111.73406554629801},{"vid":"60d14c55435c96bcfcc8f5d145da75c577320b6639f45d290d546cf2d44a1e1b","name":"Aurora Hackett","party":"","address":"428 E Apple Grove Ln, Pleasant Grove, UT 84062","precinct":"25PG22","hd":"55","v_score":"4.210716443","decile":"7","lat":40.35623027852134,"lng":-111.73226117233796},{"vid":"2136689","name":"Louis Schuster","party":"Dem","address":"414 E Apple Grove Ln, Pleasant Grove, UT 84062","precinct":"25PG22","hd":"55","v_score":"6.740427232","decile":"8","lat":40.35612585005713,"lng":-111.73276640333336},{"vid":"2141096","name":"Dr. Alexandria Bernier PhD","party":"Dem","address":"574 S 400 E, Pleasant Grove, UT 84062","precinct":"25PG22","hd":"55","v_score":"3.93832808","decile":"6","lat":40.35684025256292,"lng":-111.73390292950685},{"vid":"eae3ed8e78f0b17085e26d4e7445efdf0ecb4cd57f2b37ce97d5cdb5707fa966","name":"Dixon Champlin V","party":"","address":"641 S 350 E, Apt C103, Pleasant Grove, UT 84062","precinct":"25PG22","hd":"55","v_score":"5.40460374","decile":"7","lat":40.3561976892642,"lng":-111.73406554629801},{"vid":"4d87cec64ee6e16624d6a78853860f50713445f1c44eb05fec42750174193376","name":"Lena Ryan V","party":"Dem","address":"641 S 350 E, Apt C202, Pleasant Grove, UT 84062","precinct":"25PG22","hd":"55","v_score":"4.210716443","decile":"7","lat":40.3561976892642,"lng":-111.73406554629801},{"vid":"2187109","name":"Zaid Bogisich","party":"Rep","address":"411 E 790 S, Pleasant Grove, UT 84062","precinct":"25PG22","hd":"55","v_score":"1.193887297","decile":"3","lat":40.35513255016471,"lng":-111.73309675803479},{"vid":"903a4c4e4fdbf6102d21493ba9b46957173ea8975a260d825cf856f6f8c08589","name":"Renaldo Reinger","party":"Rep","address":"574 S 400 E, Pleasant Grove, UT 84062","precinct":"25PG22","hd":"55","v_score":"0","decile":"1","lat":40.35684025256292,"lng":-111.73390292950685},{"vid":"9a2a8dfa33358338ef345ee19b86c32e11a0517ce8010216744fb4366a72aac7","name":"Furman Sauer","party":"Dem","address":"613 S 300 E, Pleasant Grove, UT 84062","precinct":"25PG22","hd":"55","v_score":"5.258122542","decile":"7","lat":40.356069392986775,"lng":-111.73556483125655},{"vid":"7e97ba3391ca5248ffae437cf4491fe4e94c6fc3358222ea5e37063706b85bd2","name":"Mr. Mat Rippin V","party":"Rep","address":"575 S 300 E, Pleasant Grove, UT 84062","precinct":"25PG22","hd":"55","v_score":"1.121327652","decile":"3","lat":40.3568344336262,"lng":-111.73552450539577},{"vid":"84d228e90ce3c226a42a1f02eea44489ea3aa6ff863e0d19b3f846d16cc469cb","name":"Hershell Glover","party":"","address":"482 E Apple Grove Ln, Pleasant Grove, UT 84062","precinct":"25PG22","hd":"55","v_score":"6.364334873","decile":"7","lat":40.35670032014941,"lng":-111.73104732843021},{"vid":"e326f1863120de76942ea3eae8bdef7ee822ed14f147f948659583622b3db4ee","name":"Brett Cole-Mueller","party":"Dem","address":"641 S 350 E, Apt A203, Pleasant Grove, UT 84062","precinct":"25PG22","hd":"55","v_score":"2.744440783","decile":"5","lat":40.3561976892642,"lng":-111.73406554629801},{"vid":"01c005b9d4171c1c429170e7b13b6bcafeccbd280cbd6261c8bce24b3f39b4bd","name":"Allean D'Amore","party":"","address":"498 E 500 S, Pleasant Grove, UT 84062","precinct":"25PG22","hd":"55","v_score":"0","decile":"1","lat":40.35735152534755,"lng":-111.7305909184322},{"vid":"2300186","name":"Faron Kassulke","party":"Rep","address":"466 E Apple Grove Ln, Pleasant Grove, UT 84062","precinct":"25PG22","hd":"55","v_score":"0","decile":"1","lat":40.356601886571426,"lng":-111.73146035717899},{"vid":"2310952","name":"Mrs. Paloma Fritsch","party":"","address":"588 S 350 E, Pleasant Grove, UT 84062","precinct":"25PG22","hd":"55","v_score":"1.193887297","decile":"3","lat":40.356417388314824,"lng":-111.73500284337054},{"vid":"2339999","name":"Sina Gusikowski","party":"Rep","address":"641 S 350 E, Apt I201, Pleasant Grove, UT 84062","precinct":"25PG22","hd":"55","v_score":"2.315214949","decile":"5","lat":40.3561976892642,"lng":-111.73406554629801},{"vid":"2346293","name":"Dorene Langosh","party":"","address":"536 S 350 E, Pleasant Grove, UT 84062","precinct":"25PG22","hd":"55","v_score":"2.744440783","decile":"5","lat":40.35746371185437,"lng":-111.7348373529955},{"vid":"2352756","name":"Marilynn Marquardt","party":"Dem","address":"566 S 350 E, Pleasant Grove, UT 84062","precinct":"25PG22","hd":"55","v_score":"0","decile":"1","lat":40.35702499178221,"lng":-111.73490532954902},{"vid":"2359999","name":"Mr. Sean Lemke","party":"","address":"596 S 350 E, Apt 103, Pleasant Grove, UT 84062","precinct":"25PG22","hd":"55","v_score":"3.93832808","decile":"6","lat":40.35619281612999,"lng":-111.73496781454243},{"vid":"2372966","name":"Linnea Hoppe PhD","party":"Rep","address":"536 S 350 E, Pleasant Grove, UT 84062","precinct":"25PG22","hd":"55","v_score":"1.121327652","decile":"3","lat":40.35746371185437,"lng":-111.7348373529955},{"vid":"2381043","name":"Monika Kuhlman","party":"Rep","address":"641 S 350 E, Apt B101, Pleasant Grove, UT 84062","precinct":"25PG22","hd":"55","v_score":"0","decile":"1","lat":40.3561976892642,"lng":-111.73406554629801},{"vid":"2387239","name":"Mr. Francesco Wisoky DVM","party":"","address":"641 S 350 E, Apt G203, Pleasant Grove, UT 84062","precinct":"25PG22","hd":"55","v_score":"0","decile":"1","lat":40.3561976892642,"lng":-111.73406554629801},{"vid":"2405378","name":"Cheyanne Bradtke","party":"Dem","address":"575 S 300 E, Pleasant Grove, UT 84062","precinct":"25PG22","hd":"55","v_score":"2.315214949","decile":"5","lat":40.3568344336262,"lng":-111.73552450539577},{"vid":"2407078","name":"Dr. Lige Cremin","party":"Dem","address":"555 S 300 E, Pleasant Grove, UT 84062","precinct":"25PG22","hd":"55","v_score":"8.363183621","decile":"8","lat":40.35723069921459,"lng":-111.73547054665094},{"vid":"2415910","name":"Sheryl Braun","party":"","address":"641 S 350 E, Apt G202, Pleasant Grove, UT 84062","precinct":"25PG22","hd":"55","v_score":"1.623113131","decile":"5","lat":40.3561976892642,"lng":-111.73406554629801},{"vid":"2420206","name":"Dr. Kathern Wolf DDS","party":"Rep","address":"536 S 350 E, Pleasant Grove, UT 84062","precinct":"25PG22","hd":"55","v_score":"2.744440783","decile":"5","lat":40.35746371185437,"lng":-111.7348373529955},{"vid":"2432038","name":"Evette Gottlieb MD","party":"Rep","address":"530 S Locust Ave, Pleasant Grove, UT 84062","precinct":"25PG22","hd":"55","v_score":"3.93832808","decile":"6","lat":40.35738753880566,"lng":-111.72872132066502},{"vid":"2442216","name":"Scottie Heathcote III","party":"","address":"605 S 300 E, Pleasant Grove, UT 84062","precinct":"25PG22","hd":"55","v_score":"1.121327652","decile":"3","lat":40.35637374988606,"lng":-111.7356106189769},{"vid":"2464872","name":"Miss Charley Hessel","party":"","address":"504 S 400 E, Pleasant Grove, UT 84062","precinct":"25PG22","hd":"55","v_score":"0","decile":"1","lat":40.357769495482806,"lng":-111.73356574250917},{"vid":"2472476","name":"Tinnie Pagac","party":"","address":"641 S 350 E, Apt K203, Pleasant Grove, UT 84062","precinct":"25PG22","hd":"55","v_score":"0","decile":"1","lat":40.3561976892642,"lng":-111.73406554629801},{"vid":"2486217","name":"Mozelle Mosciski","party":"Rep","address":"444 E Apple Grove Ln, Pleasant Grove, UT 84062","precinct":"25PG22","hd":"55","v_score":"8.376826675","decile":"8","lat":40.35644850070941,"lng":-111.7320608610338},{"vid":"2491501","name":"Gregoria Lockman-Moore","party":"Rep","address":"452 E Apple Grove Ln, Pleasant Grove, UT 84062","precinct":"25PG22","hd":"55","v_score":"0","decile":"1","lat":40.35651425433098,"lng":-111.73187326350028},{"vid":"2501054","name":"Adolphus Wiegand","party":"Dem","address":"425 E 790 S, Pleasant Grove, UT 84062","precinct":"25PG22","hd":"55","v_score":"1.193887297","decile":"3","lat":40.35523271135315,"lng":-111.73283893058878},{"vid":"2510049","name":"Mrs. Nedra Franecki DVM","party":"Dem","address":"641 S 350 E, Apt A202, Pleasant Grove, UT 84062","precinct":"25PG22","hd":"55","v_score":"0","decile":"1","lat":40.3561976892642,"lng":-111.73406554629801},{"vid":"2542960","name":"Winford Runolfsson","party":"","address":"565 S 350 E, Pleasant Grove, UT 84062","precinct":"25PG22","hd":"55","v_score":"1.193887297","decile":"4","lat":40.35705302210774,"lng":-111.73443160858653},{"vid":"2594360","name":"Eppie Morissette","party":"","address":"498 E 500 S, Pleasant Grove, UT 84062","precinct":"25PG22","hd":"55","v_score":"0","decile":"1","lat":40.35735152534755,"lng":-111.7305909184322},{"vid":"2614751","name":"Archibald Kessler","party":"Rep","address":"641 S 350 E, Apt I103, Pleasant Grove, UT 84062","precinct":"25PG22","hd":"55","v_score":"0","decile":"1","lat":40.3561976892642,"lng":-111.73406554629801},{"vid":"2621088","name":"Corina Collins","party":"Rep","address":"576 S Locust Ave, Pleasant Grove, UT 84062","precinct":"25PG22","hd":"55","v_score":"9.638447451","decile":"8","lat":40.35695734001309,"lng":-111.72846125809086},{"vid":"2627887","name":"Marcelino Koch","party":"Rep","address":"587 S 400 E, Pleasant Grove, UT 84062","precinct":"25PG22","hd":"55","v_score":"5.693042993","decile":"7","lat":40.35663041760387,"lng":-111.73337007531089},{"vid":"2628334","name":"Irva Dicki","party":"Rep","address":"452 E 500 S, Pleasant Grove, UT 84062","precinct":"25PG22","hd":"55","v_score":"2.817000428","decile":"6","lat":40.35757681902758,"lng":-111.73185545260313},{"vid":"2633471","name":"Waino Zemlak","party":"","address":"432 E Apple Grove Ln, Pleasant Grove, UT 84062","precinct":"25PG22","hd":"55","v_score":"0","decile":"1","lat":40.35627865772184,"lng":-111.73205542618352},{"vid":"2652607","name":"Victoriano Runolfsdottir","party":"","address":"340 E 500 S, Pleasant Grove, UT 84062","precinct":"25PG22","hd":"55","v_score":"0","decile":"1","lat":40.357690302043345,"lng":-111.735065860646},{"vid":"2685357","name":"Horacio Bogan","party":"Rep","address":"641 S 350 E, Apt D201, Pleasant Grove, UT 84062","precinct":"25PG22","hd":"55","v_score":"0","decile":"2","lat":40.3561976892642,"lng":-111.73406554629801},{"vid":"2692419","name":"Dr. Thea Ryan MD","party":"Dem","address":"555 S 300 E, Pleasant Grove, UT 84062","precinct":"25PG22","hd":"55","v_score":"0","decile":"2","lat":40.35723069921459,"lng":-111.73547054665094},{"vid":"2701674","name":"Mrs. Frankie Hermiston","party":"Dem","address":"414 E Apple Grove Ln, Pleasant Grove, UT 84062","precinct":"25PG22","hd":"55","v_score":"0","decile":"2","lat":40.35612585005713,"lng":-111.73276640333336},{"vid":"2713536","name":"Juan Kuvalis","party":"","address":"428 E Apple Grove Ln, Pleasant Grove, UT 84062","precinct":"25PG22","hd":"55","v_score":"0","decile":"2","lat":40.35623027852134,"lng":-111.73226117233796},{"vid":"2793259","name":"Michael McDermott","party":"Rep","address":"565 S 300 E, Pleasant Grove, UT 84062","precinct":"25PG22","hd":"55","v_score":"0","decile":"2","lat":40.35701508521929,"lng":-111.73519029676137},{"vid":"2861255","name":"Manilla Wunsch","party":"Rep","address":"545 S 400 E, Pleasant Grove, UT 84062","precinct":"25PG22","hd":"55","v_score":"1.193887297","decile":"4","lat":40.357252742961144,"lng":-111.7332635974431},{"vid":"2862725","name":"Dosha Haley","party":"Dem","address":"586 S 400 E, Pleasant Grove, UT 84062","precinct":"25PG22","hd":"55","v_score":"1.193887297","decile":"4","lat":40.356654583044815,"lng":-111.73419473233496},{"vid":"2862890","name":"Rashida Ondricka","party":"Rep","address":"641 S 350 E, Apt D201, Pleasant Grove, UT 84062","precinct":"25PG22","hd":"55","v_score":"0","decile":"2","lat":40.3561976892642,"lng":-111.73406554629801},{"vid":"2925746","name":"Gretchen Zieme","party":"","address":"340 E 500 S, Pleasant Grove, UT 84062","precinct":"25PG22","hd":"55","v_score":"0","decile":"2","lat":40.357690302043345,"lng":-111.735065860646},{"vid":"2957010","name":"Mrs. Exie Metz","party":"Rep","address":"602 S Apple Grove Ln, Pleasant Grove, UT 84062","precinct":"25PG22","hd":"55","v_score":"0","decile":"2","lat":40.35670553244221,"lng":-111.73064453206995},{"vid":"2976682","name":"Libby O'Reilly","party":"Rep","address":"596 S 350 E, Apt 104, Pleasant Grove, UT 84062","precinct":"25PG22","hd":"55","v_score":"0","decile":"2","lat":40.35619281612999,"lng":-111.73496781454243},{"vid":"2979144","name":"Molly Hodkiewicz","party":"Rep","address":"466 E Apple Grove Ln, Pleasant Grove, UT 84062","precinct":"25PG22","hd":"55","v_score":"0","decile":"2","lat":40.356601886571426,"lng":-111.73146035717899},{"vid":"2982363","name":"Guthrie Cormier","party":"","address":"565 S 300 E, Pleasant Grove, UT 84062","precinct":"25PG22","hd":"55","v_score":"0","decile":"2","lat":40.35701508521929,"lng":-111.73519029676137},{"vid":"2983926","name":"Josefa Collier","party":"Rep","address":"412 E Apple Grove Ln, Pleasant Grove, UT 84062","precinct":"25PG22","hd":"55","v_score":"0","decile":"2","lat":40.35627148175238,"lng":-111.73290353706471},{"vid":"2984391","name":"Brandy Marvin","party":"","address":"414 E Apple Grove Ln, Pleasant Grove, UT 84062","precinct":"25PG22","hd":"55","v_score":"0","decile":"2","lat":40.35612585005713,"lng":-111.73276640333336},{"vid":"b29255461566d4970c351aa4badad76f464fb2703caa630771598ca74e903d28","name":"Deneen Stanton","party":"","address":"510 S Locust Ave, Pleasant Grove, UT 84062","precinct":"25PG22","hd":"55","v_score":"6.881235673","decile":"8","lat":40.357370460854526,"lng":-111.7296542523653},{"vid":"3081710","name":"Dylan Armstrong","party":"Dem","address":"641 S 350 E, Apt J101, Pleasant Grove, UT 84062","precinct":"25PG22","hd":"55","v_score":"3.781490609","decile":"6","lat":40.3561976892642,"lng":-111.73406554629801},{"vid":"3221896","name":"Miss Albertha Reichel DVM","party":"","address":"423 E 790 S, Pleasant Grove, UT 84062","precinct":"25PG22","hd":"55","v_score":"19.60612512","decile":"10","lat":40.35521192055673,"lng":-111.732892391128},{"vid":"3295372","name":"Shannon Hamill","party":"","address":"563 E Harvest Moon Dr, Pleasant Grove, UT 84062","precinct":"25PG22","hd":"55","v_score":"7.282185415","decile":"8","lat":40.356301073065346,"lng":-111.72909792933808},{"vid":"3362680","name":"Dr. Kaelynn Breitenberg MD","party":"","address":"641 S 350 E, Apt E103, Pleasant Grove, UT 84062","precinct":"25PG22","hd":"55","v_score":"0","decile":"2","lat":40.3561976892642,"lng":-111.73406554629801},{"vid":"3423307","name":"Wardell Ortiz PhD","party":"Rep","address":"641 S 350 E, Apt B201, Pleasant Grove, UT 84062","precinct":"25PG22","hd":"55","v_score":"0","decile":"2","lat":40.3561976892642,"lng":-111.73406554629801},{"vid":"6155371","name":"Cam Langworth","party":"Rep","address":"602 S Apple Grove Ln, Pleasant Grove, UT 84062","precinct":"25PG22","hd":"55","v_score":"26.32386814","decile":"10","lat":40.35670553244221,"lng":-111.73064453206995},{"vid":"6160148","name":"Celine Baumbach","party":"","address":"641 S 350 E, Apt C102, Pleasant Grove, UT 84062","precinct":"25PG22","hd":"55","v_score":"10.7066531","decile":"9","lat":40.3561976892642,"lng":-111.73406554629801},{"vid":"6200409","name":"Dr. Cindi Daugherty","party":"Rep","address":"565 S 400 E, Pleasant Grove, UT 84062","precinct":"25PG22","hd":"55","v_score":"15.43762891","decile":"9","lat":40.35704575082319,"lng":-111.73337562680173},{"vid":"6201592","name":"Ms. Verdell Hoeger DVM","party":"Rep","address":"563 E Harvest Moon Dr, Pleasant Grove, UT 84062","precinct":"25PG22","hd":"55","v_score":"23.83661026","decile":"10","lat":40.356301073065346,"lng":-111.72909792933808},{"vid":"6204217","name":"Mrs. Myrl Koelpin PhD","party":"Dem","address":"482 E Apple Grove Ln, Pleasant Grove, UT 84062","precinct":"25PG22","hd":"55","v_score":"1.121327652","decile":"3","lat":40.35670032014941,"lng":-111.73104732843021},{"vid":"6214787","name":"Oneida Reilly","party":"Rep","address":"576 S Locust Ave, Pleasant Grove, UT 84062","precinct":"25PG22","hd":"55","v_score":"33.57939141","decile":"10","lat":40.35695734001309,"lng":-111.72846125809086},{"vid":"6214788","name":"Shepherd Aufderhar","party":"","address":"576 S Locust Ave, Pleasant Grove, UT 84062","precinct":"25PG22","hd":"55","v_score":"33.57939141","decile":"10","lat":40.35695734001309,"lng":-111.72846125809086},{"vid":"6224292","name":"Tal Will","party":"Dem","address":"507 E Harvest Moon Dr, Pleasant Grove, UT 84062","precinct":"25PG22","hd":"55","v_score":"11.2235539","decile":"9","lat":40.35566034750178,"lng":-111.73052986956714},{"vid":"6278391","name":"Mikayla Waters","party":"Rep","address":"546 S 400 E, Pleasant Grove, UT 84062","precinct":"25PG22","hd":"55","v_score":"30.72436542","decile":"10","lat":40.357241771655225,"lng":-111.73370017141494},{"vid":"6303060","name":"Derl Haag","party":"","address":"641 S 350 E, Apt C203, Pleasant Grove, UT 84062","precinct":"25PG22","hd":"55","v_score":"6.207497402","decile":"7","lat":40.3561976892642,"lng":-111.73406554629801},{"vid":"6303248","name":"Alesia Casper","party":"Rep","address":"576 S Locust Ave, Pleasant Grove, UT 84062","precinct":"25PG22","hd":"55","v_score":"36.67865218","decile":"10","lat":40.35695734001309,"lng":-111.72846125809086},{"vid":"c701d564a9db72131655f2299320abdf79a51d930ea973fcc78223958b2bbc4c","name":"Donn Witting","party":"Rep","address":"641 S 350 E, Apt I103, Pleasant Grove, UT 84062","precinct":"25PG22","hd":"55","v_score":"8.805720013","decile":"8","lat":40.3561976892642,"lng":-111.73406554629801},{"vid":"6320953","name":"Hayden Kub","party":"Rep","address":"510 E 500 S, Apt 1, Pleasant Grove, UT 84062","precinct":"25PG22","hd":"55","v_score":"0","decile":"3","lat":40.35765608806763,"lng":-111.73027859045457},{"vid":"6324476","name":"Khalil Rowe-Corkery","party":"Dem","address":"594 S Locust Ave, Pleasant Grove, UT 84062","precinct":"25PG22","hd":"55","v_score":"34.33292633","decile":"10","lat":40.356789048284114,"lng":-111.72792095788415},{"vid":"c8a3ccd5a930fe288a7cef58fc005c8f3e351a375943746cc7adfa2a2f06beff","name":"Nestor Friesen II","party":"Dem","address":"594 S Locust Ave, Pleasant Grove, UT 84062","precinct":"25PG22","hd":"55","v_score":"46.21181957","decile":"10","lat":40.356789048284114,"lng":-111.72792095788415},{"vid":"6350311","name":"Orlena Kiehn","party":"Dem","address":"457 E Apple Blossom Ln, Pleasant Grove, UT 84062","precinct":"25PG22","hd":"55","v_score":"29.3653164","decile":"10","lat":40.35612056442407,"lng":-111.7319164641881},{"vid":"6355492","name":"Antonio Lemke","party":"Rep","address":"641 S 350 E, Apt G103, Pleasant Grove, UT 84062","precinct":"25PG22","hd":"55","v_score":"9.116556227","decile":"8","lat":40.3561976892642,"lng":-111.73406554629801},{"vid":"6360808","name":"Keila Boyer-Bergstrom","party":"Dem","address":"419 E Apple Grove Ln, Pleasant Grove, UT 84062","precinct":"25PG22","hd":"55","v_score":"9.682978083","decile":"8","lat":40.35684494655506,"lng":-111.73264197832505},{"vid":"6423168","name":"Love Wisozk-Kiehn","party":"","address":"641 S 350 E, Apt C203, Pleasant Grove, UT 84062","precinct":"25PG22","hd":"55","v_score":"12.70479765","decile":"9","lat":40.3561976892642,"lng":-111.73406554629801},{"vid":"6436250","name":"Kamron Emard","party":"Dem","address":"563 E Harvest Moon Dr, Pleasant Grove, UT 84062","precinct":"25PG22","hd":"55","v_score":"2.315214949","decile":"5","lat":40.356301073065346,"lng":-111.72909792933808},{"vid":"6437670","name":"Ms. Ashlynn Kirlin","party":"","address":"545 S 350 E, Pleasant Grove, UT 84062","precinct":"25PG22","hd":"55","v_score":"34.18580567","decile":"10","lat":40.357252825061565,"lng":-111.73435098865525},{"vid":"a98bbb2f4e68c828b07cedf3fcdb1ea4ab58070f12a6da7f592a5b0956a3e135","name":"Ramiro Towne-Turner","party":"Dem","address":"412 E Apple Grove Ln, Pleasant Grove, UT 84062","precinct":"25PG22","hd":"55","v_score":"6.364334873","decile":"7","lat":40.35627148175238,"lng":-111.73290353706471},{"vid":"6449461","name":"Guthrie Wyman","party":"Dem","address":"488 E Apple Blossom Ln, Pleasant Grove, UT 84062","precinct":"25PG22","hd":"55","v_score":"16.93288741","decile":"9","lat":40.35593680073342,"lng":-111.73090679969269},{"vid":"6455105","name":"Jade Waelchi III","party":"Dem","address":"433 E 790 S, Pleasant Grove, UT 84062","precinct":"25PG22","hd":"55","v_score":"2.817000428","decile":"6","lat":40.355273699280026,"lng":-111.73273288842209},{"vid":"1ca922fbf529f78008791d2c3e7e9653040a1d9eb2fabc0adde5103e7d0b44ff","name":"Vennie Berge","party":"","address":"641 S 350 E, Apt H202, Pleasant Grove, UT 84062","precinct":"25PG22","hd":"55","v_score":"6.814370645","decile":"8","lat":40.3561976892642,"lng":-111.73406554629801},{"vid":"616e68b1079a239e216d9c75de7cd123b68c3ea0e4a57e05b03ac9b41b70f23d","name":"Allyson Harber PhD","party":"Dem","address":"586 S 350 E, Pleasant Grove, UT 84062","precinct":"25PG22","hd":"55","v_score":"1.121327652","decile":"3","lat":40.356624866738066,"lng":-111.73508701737833},{"vid":"6460944","name":"Marquis Smitham","party":"","address":"510 E 500 S, Apt 4, Pleasant Grove, UT 84062","precinct":"25PG22","hd":"55","v_score":"6.364334873","decile":"7","lat":40.35765608806763,"lng":-111.73027859045457},{"vid":"6468113","name":"Deedee O'Kon","party":"","address":"575 S 350 E, Pleasant Grove, UT 84062","precinct":"25PG22","hd":"55","v_score":"2.587603312","decile":"5","lat":40.356842550216534,"lng":-111.73453010957965},{"vid":"6470936","name":"Mr. Loyal Cummerata DVM","party":"Dem","address":"602 S Apple Grove Ln, Pleasant Grove, UT 84062","precinct":"25PG22","hd":"55","v_score":"26.32386814","decile":"10","lat":40.35670553244221,"lng":-111.73064453206995},{"vid":"94358ffd310c3d37d32fe27e69695eb9a303be65fb0ada059721ebec2d458c5d","name":"Doctor Halvorson","party":"Dem","address":"596 S 350 E, Apt 103, Pleasant Grove, UT 84062","precinct":"25PG22","hd":"55","v_score":"5.40460374","decile":"7","lat":40.35619281612999,"lng":-111.73496781454243},{"vid":"6485362","name":"Newt Kunze","party":"Rep","address":"641 S 350 E, Apt K102, Pleasant Grove, UT 84062","precinct":"25PG22","hd":"55","v_score":"18.56161448","decile":"10","lat":40.3561976892642,"lng":-111.73406554629801},{"vid":"6487433","name":"Layne Hoeger","party":"Rep","address":"587 S 400 E, Pleasant Grove, UT 84062","precinct":"25PG22","hd":"55","v_score":"9.757278238","decile":"8","lat":40.35663041760387,"lng":-111.73337007531089},{"vid":"ca3f74781cffca86e515cb86ad4cb6153a86a9272a8e9c226a42d660b513da7d","name":"Derwin Hansen","party":"","address":"587 S 400 E, Pleasant Grove, UT 84062","precinct":"25PG22","hd":"55","v_score":"11.2235539","decile":"9","lat":40.35663041760387,"lng":-111.73337007531089},{"vid":"abfce4b6366c2fc3a86f49b3a0939c589abb11569f9dbe47622cab6d2c1e7455","name":"Lona Parker","party":"Dem","address":"565 S 350 E, Pleasant Grove, UT 84062","precinct":"25PG22","hd":"55","v_score":"3.781490609","decile":"6","lat":40.35705302210774,"lng":-111.73443160858653},{"vid":"8ee28411642b78ee11124fbe31f28db8f2f63a9c889126d1c939f61fbd0425fc","name":"Adolf Emmerich-Daugherty","party":"Rep","address":"412 E Apple Grove Ln, Pleasant Grove, UT 84062","precinct":"25PG22","hd":"55","v_score":"3.93832808","decile":"6","lat":40.35627148175238,"lng":-111.73290353706471},{"vid":"6526414","name":"Arden Gutmann-Halvorson","party":"","address":"510 S Locust Ave, Pleasant Grove, UT 84062","precinct":"25PG22","hd":"55","v_score":"8.347511332","decile":"8","lat":40.357370460854526,"lng":-111.7296542523653},{"vid":"6526992","name":"Allena Kuhic","party":"Rep","address":"641 S 350 E, Apt C103, Pleasant Grove, UT 84062","precinct":"25PG22","hd":"55","v_score":"1.193887297","decile":"4","lat":40.3561976892642,"lng":-111.73406554629801}]