[{"vid":"1236264","name":"Jeannette Balistreri","party":"","address":"838 E Center St, Pleasant Grove, UT 84062","precinct":"25PG12","hd":"55","v_score":"13.45445245","decile":"9","lat":40.054304321683155,"lng":-111.65663322267953},{"vid":"1236265","name":"Alonza Hodkiewicz","party":"Rep","address":"838 E Center St, Pleasant Grove, UT 84062","precinct":"25PG12","hd":"55","v_score":"13.45445245","decile":"9","lat":40.054304321683155,"lng":-111.65663322267953},{"vid":"e41cdbf68255de0f62a4b61a9b6c5e14e58e430b30608577750e7db1c6766270","name":"Alcide Botsford","party":"Rep","address":"11 N 1300 E, Apt B, Pleasant Grove, UT 84062","precinct":"25PG12","hd":"55","v_score":"4.064235245","decile":"6","lat":40.36429361246218,"lng":-111.71016478501004},{"vid":"fae8148d695f83d17304d5056e83a33ceea8f6fd7289581093adfb6a47796df1","name":"Stetson Streich","party":"Rep","address":"84 S 850 E, Pleasant Grove, UT 84062","precinct":"25PG12","hd":"55","v_score":"0","decile":"1","lat":40.36285168666581,"lng":-111.7222091245093},{"vid":"1259546","name":"Dr. Gia Lubowitz","party":"Rep","address":"93 N 1185 E, Pleasant Grove, UT 84062","precinct":"25PG12","hd":"55","v_score":"5.530510904","decile":"7","lat":40.36469312047398,"lng":-111.71301512209835},{"vid":"1278276","name":"Jerold Raynor","party":"","address":"739 E 200 S, Pleasant Grove, UT 84062","precinct":"25PG12","hd":"55","v_score":"20.77768495","decile":"10","lat":40.361519232620566,"lng":-111.7244644795464},{"vid":"1281592","name":"Evelyn Okuneva","party":"Rep","address":"1183 E 120 N, Pleasant Grove, UT 84062","precinct":"25PG12","hd":"55","v_score":"2.587603312","decile":"5","lat":40.36553361448327,"lng":-111.71288532277542},{"vid":"1297461","name":"Aubrey Ernser","party":"","address":"11 N 1300 E, Apt B, Pleasant Grove, UT 84062","precinct":"25PG12","hd":"55","v_score":"4.13679489","decile":"7","lat":40.36429361246218,"lng":-111.71016478501004},{"vid":"1299306","name":"Mrs. Camille Feest","party":"","address":"215 N 1400 E, Pleasant Grove, UT 84062","precinct":"25PG12","hd":"55","v_score":"8.347511332","decile":"8","lat":40.3664903977452,"lng":-111.70794471362},{"vid":"1317090","name":"Chris King DVM","party":"","address":"1340 E 150 N, Pleasant Grove, UT 84062","precinct":"25PG12","hd":"55","v_score":"2.315214949","decile":"5","lat":40.365031540897675,"lng":-111.70911137008247},{"vid":"1319593","name":"Olympia Weber","party":"Dem","address":"2 S 1300 E, Pleasant Grove, UT 84062","precinct":"25PG12","hd":"55","v_score":"18.62406652","decile":"10","lat":40.36390983404573,"lng":-111.71002874948886},{"vid":"e990c545cf7d36077640ccb0b0ad324360320c87cae9e63de1636725c0238805","name":"Jaunita Larkin-Boehm","party":"Rep","address":"1366 E 250 N, Pleasant Grove, UT 84062","precinct":"25PG12","hd":"55","v_score":"16.72520646","decile":"9","lat":40.36647971376609,"lng":-111.70852283121835},{"vid":"afa4d6a33d92e3de6b6e912c9090ad958b9ecdd45b0bff0e8ac82f1895445c25","name":"Fronia Prohaska","party":"","address":"240 N 1300 E, Pleasant Grove, UT 84062","precinct":"25PG12","hd":"55","v_score":"17.48345516","decile":"9","lat":40.36640811078226,"lng":-111.70989160867963},{"vid":"1343027","name":"Dr. Glenda Heaney","party":"Dem","address":"1065 E 200 S, Pleasant Grove, UT 84062","precinct":"25PG12","hd":"55","v_score":"0","decile":"1","lat":40.36196519890529,"lng":-111.71606549375917},{"vid":"826d4c846c19d9d70d29dc1fedf9ee9e30b14608dc2d7a39fa7046ec1eb93b35","name":"Arra Terry","party":"Dem","address":"175 S 1300 E, Pleasant Grove, UT 84062","precinct":"25PG12","hd":"55","v_score":"1.193887297","decile":"3","lat":40.361863019407025,"lng":-111.70890457263393},{"vid":"1355826","name":"Kyle Volkman","party":"","address":"558 E Center St, Pleasant Grove, UT 84062","precinct":"25PG12","hd":"55","v_score":"0","decile":"1","lat":40.36358689610796,"lng":-111.7290825672484},{"vid":"1360793","name":"Tamara Schmidt-Grimes","party":"","address":"625 E 200 S, Pleasant Grove, UT 84062","precinct":"25PG12","hd":"55","v_score":"2.744440783","decile":"5","lat":40.36138131342687,"lng":-111.72693538471991},{"vid":"1360903","name":"Clarinda Krajcik DDS","party":"Rep","address":"1175 E 100 N, Pleasant Grove, UT 84062","precinct":"25PG12","hd":"55","v_score":"40.94311568","decile":"10","lat":40.364979076155585,"lng":-111.7130015790388},{"vid":"1364585","name":"Arlis Johnson","party":"Dem","address":"1213 E 200 S, Pleasant Grove, UT 84062","precinct":"25PG12","hd":"55","v_score":"8.280646305","decile":"8","lat":40.36145563058607,"lng":-111.7121430103124},{"vid":"1364687","name":"Miss Maryann Yost","party":"","address":"695 E 200 S, Pleasant Grove, UT 84062","precinct":"25PG12","hd":"55","v_score":"14.95117867","decile":"9","lat":40.36140667008325,"lng":-111.72567558646713},{"vid":"1378857","name":"Dan Lakin","party":"Dem","address":"578 E 100 S, Pleasant Grove, UT 84062","precinct":"25PG12","hd":"55","v_score":"0","decile":"1","lat":40.36211165600117,"lng":-111.72866956469123},{"vid":"1382496","name":"Arturo Collier","party":"Dem","address":"195 N 1400 E, Pleasant Grove, UT 84062","precinct":"25PG12","hd":"55","v_score":"22.10816128","decile":"10","lat":40.36600899165194,"lng":-111.7080510671128},{"vid":"1385249","name":"Barrett Hudson","party":"Dem","address":"1320 E 150 N, Pleasant Grove, UT 84062","precinct":"25PG12","hd":"55","v_score":"2.315214949","decile":"5","lat":40.36522215353959,"lng":-111.70944704266384},{"vid":"1388684","name":"Hailey Turner-Emard","party":"","address":"37 N 1185 E, Pleasant Grove, UT 84062","precinct":"25PG12","hd":"55","v_score":"3.93832808","decile":"6","lat":40.36440382286424,"lng":-111.71314102230362},{"vid":"1412558","name":"Adeline Schumm","party":"","address":"1225 E 120 N, Pleasant Grove, UT 84062","precinct":"25PG12","hd":"55","v_score":"2.587603312","decile":"5","lat":40.3656199180099,"lng":-111.71175569074816},{"vid":"1424141","name":"Matias Grimes","party":"","address":"903 E 200 S, Pleasant Grove, UT 84062","precinct":"25PG12","hd":"55","v_score":"14.95117867","decile":"9","lat":40.36166882947946,"lng":-111.72032977870664},{"vid":"1431318","name":"Berniece Marquardt DDS","party":"Dem","address":"1183 E 120 N, Pleasant Grove, UT 84062","precinct":"25PG12","hd":"55","v_score":"10.44299084","decile":"9","lat":40.36553361448327,"lng":-111.71288532277542},{"vid":"1436688","name":"Mr. Almon Boyle","party":"Dem","address":"1212 E 120 N, Pleasant Grove, UT 84062","precinct":"25PG12","hd":"55","v_score":"1.121327652","decile":"3","lat":40.36520803985255,"lng":-111.71218253828098},{"vid":"1445567","name":"Dr. Latonia Bosco","party":"","address":"615 E 200 S, Pleasant Grove, UT 84062","precinct":"25PG12","hd":"55","v_score":"8.347511332","decile":"8","lat":40.361360738909944,"lng":-111.72740342638653},{"vid":"1449146","name":"Dr. Kinley Davis","party":"Dem","address":"11 S 1025 E, Pleasant Grove, UT 84062","precinct":"25PG12","hd":"55","v_score":"2.315214949","decile":"5","lat":40.364568809475905,"lng":-111.71706601584256},{"vid":"1458229","name":"Peyton Auer","party":"Dem","address":"680 E Center St, Pleasant Grove, UT 84062","precinct":"25PG12","hd":"55","v_score":"4.283276088","decile":"7","lat":40.36356658488613,"lng":-111.72605296512475},{"vid":"1499553","name":"Dr. Lilian Crooks","party":"Dem","address":"724 E 100 S, Pleasant Grove, UT 84062","precinct":"25PG12","hd":"55","v_score":"33.92580343","decile":"10","lat":40.36223443460922,"lng":-111.72469523509545},{"vid":"1504152","name":"Chyna Deckow","party":"","address":"24 N 1185 E, Pleasant Grove, UT 84062","precinct":"25PG12","hd":"55","v_score":"13.835802","decile":"9","lat":40.3640275627228,"lng":-111.71254905846857},{"vid":"1535735","name":"Jeana Satterfield MD","party":"","address":"724 E 100 S, Pleasant Grove, UT 84062","precinct":"25PG12","hd":"55","v_score":"33.92580343","decile":"10","lat":40.36223443460922,"lng":-111.72469523509545},{"vid":"1544159","name":"Arietta Fadel","party":"","address":"230 N 1300 E, Pleasant Grove, UT 84062","precinct":"25PG12","hd":"55","v_score":"3.93832808","decile":"6","lat":40.366158341744374,"lng":-111.70984495386685},{"vid":"4b9cc7ce82c72b9164ec2e9e0fadd3cd5653abf4d6c6375239bac43b3f581c72","name":"Mettie Crona","party":"","address":"1121 E 30 S, Pleasant Grove, UT 84062","precinct":"25PG12","hd":"55","v_score":"6.724398202","decile":"8","lat":40.364224799261855,"lng":-111.71455315512428},{"vid":"1555044","name":"Shelvie Wunsch","party":"Rep","address":"1005 E 100 S, Pleasant Grove, UT 84062","precinct":"25PG12","hd":"55","v_score":"13.93704549","decile":"9","lat":40.36286519280102,"lng":-111.71765095489873},{"vid":"1558448","name":"Amanda Aufderhar","party":"Dem","address":"32 N 1300 E, Pleasant Grove, UT 84062","precinct":"25PG12","hd":"55","v_score":"2.660162957","decile":"5","lat":40.36436851805758,"lng":-111.70970406470477},{"vid":"1561093","name":"Mardell Flatley","party":"","address":"651 E 100 S, Pleasant Grove, UT 84062","precinct":"25PG12","hd":"55","v_score":"2.315214949","decile":"5","lat":40.362623112782416,"lng":-111.72676187368549},{"vid":"1571585","name":"Cherrie Schuster-Mraz","party":"Rep","address":"651 E 100 S, Pleasant Grove, UT 84062","precinct":"25PG12","hd":"55","v_score":"1.193887297","decile":"3","lat":40.362623112782416,"lng":-111.72676187368549},{"vid":"1580696","name":"Antonio Luettgen","party":"Rep","address":"37 S 1025 E, Pleasant Grove, UT 84062","precinct":"25PG12","hd":"55","v_score":"1.623113131","decile":"4","lat":40.36405593639579,"lng":-111.71680220853354},{"vid":"1587901","name":"Boston Hackett","party":"Rep","address":"49 N 1300 E, Pleasant Grove, UT 84062","precinct":"25PG12","hd":"55","v_score":"16.03869888","decile":"9","lat":40.36453362543292,"lng":-111.71026614821177},{"vid":"1594369","name":"Dahlia Larson-Johnston","party":"Rep","address":"180 N 1350 E, Pleasant Grove, UT 84062","precinct":"25PG12","hd":"55","v_score":"8.535114849","decile":"8","lat":40.366041559796834,"lng":-111.70885558812547},{"vid":"8aae51f81f77c74de12b3aba7a58f0a06fe719af3cf7e5941db534748f8d78e1","name":"Mr. Sheldon Batz MD","party":"Dem","address":"858 E 100 S, Pleasant Grove, UT 84062","precinct":"25PG12","hd":"55","v_score":"26.8582098","decile":"10","lat":40.36227381894977,"lng":-111.72205773064468},{"vid":"1617935","name":"Guadalupe O'Kon","party":"Dem","address":"140 S 600 E, Pleasant Grove, UT 84062","precinct":"25PG12","hd":"55","v_score":"10.52632313","decile":"9","lat":40.36194726775179,"lng":-111.72832870262764},{"vid":"1631674","name":"Miss Francina Hagenes","party":"Dem","address":"196 N 1350 E, Pleasant Grove, UT 84062","precinct":"25PG12","hd":"55","v_score":"22.03213191","decile":"10","lat":40.36622026371281,"lng":-111.70868953489081},{"vid":"1631972","name":"Maira Stoltenberg-Hand","party":"","address":"515 E 200 S, Pleasant Grove, UT 84062","precinct":"25PG12","hd":"55","v_score":"9.116556227","decile":"8","lat":40.36142416450314,"lng":-111.73011312670812},{"vid":"1632122","name":"Dot Moen-Casper","party":"","address":"1213 E 50 N, Pleasant Grove, UT 84062","precinct":"25PG12","hd":"55","v_score":"2.587603312","decile":"5","lat":40.36487443873514,"lng":-111.71214869257578},{"vid":"1633393","name":"Junior Terry","party":"","address":"835 E 100 S, Pleasant Grove, UT 84062","precinct":"25PG12","hd":"55","v_score":"7.583918848","decile":"8","lat":40.36262538323285,"lng":-111.72233923761608},{"vid":"1635195","name":"Kimball Block","party":"Rep","address":"49 N 1300 E, Pleasant Grove, UT 84062","precinct":"25PG12","hd":"55","v_score":"13.09579129","decile":"9","lat":40.36453362543292,"lng":-111.71026614821177},{"vid":"1647713","name":"Ms. Janyce Hermiston","party":"","address":"11 S 1025 E, Pleasant Grove, UT 84062","precinct":"25PG12","hd":"55","v_score":"2.315214949","decile":"5","lat":40.364568809475905,"lng":-111.71706601584256},{"vid":"1660412","name":"Santana Cormier","party":"","address":"26 S 760 E, Pleasant Grove, UT 84062","precinct":"25PG12","hd":"55","v_score":"4.210716443","decile":"7","lat":40.363435172730966,"lng":-111.72425032765679},{"vid":"1662677","name":"Steve Larson","party":"","address":"570 E 100 S, Pleasant Grove, UT 84062","precinct":"25PG12","hd":"55","v_score":"30.47669206","decile":"10","lat":40.362133876041725,"lng":-111.72895253066982},{"vid":"1662679","name":"Malakai Hills","party":"Dem","address":"570 E 100 S, Pleasant Grove, UT 84062","precinct":"25PG12","hd":"55","v_score":"26.32386814","decile":"10","lat":40.362133876041725,"lng":-111.72895253066982},{"vid":"335e7e45f01b46982a3122827c2035b6ed940bd71b01e42edd7c23aecc23e46d","name":"Christena Leffler","party":"","address":"144 N 1300 E, Pleasant Grove, UT 84062","precinct":"25PG12","hd":"55","v_score":"22.84391672","decile":"10","lat":40.36525694505119,"lng":-111.70972188054068},{"vid":"1699394","name":"Earnestine Homenick","party":"","address":"845 E 200 S, Pleasant Grove, UT 84062","precinct":"25PG12","hd":"55","v_score":"3.781490609","decile":"6","lat":40.36147504725448,"lng":-111.72159746917822},{"vid":"1701254","name":"Diya Daniel","party":"Rep","address":"1234 E 50 N, Pleasant Grove, UT 84062","precinct":"25PG12","hd":"55","v_score":"1.121327652","decile":"3","lat":40.364480067471945,"lng":-111.71142611473059},{"vid":"1704285","name":"Simeon Gleichner","party":"Dem","address":"64 S 1025 E, # B, Pleasant Grove, UT 84062","precinct":"25PG12","hd":"55","v_score":"5.620483348","decile":"7","lat":40.363394885971005,"lng":-111.71747688008247},{"vid":"1708335","name":"Merrily Reichert","party":"Rep","address":"1113 E 30 S, Pleasant Grove, UT 84062","precinct":"25PG12","hd":"55","v_score":"1.46627566","decile":"4","lat":40.36376058840159,"lng":-111.71453324738118},{"vid":"1718112","name":"Charolette Morissette","party":"Dem","address":"102 N 1185 E, Pleasant Grove, UT 84062","precinct":"25PG12","hd":"55","v_score":"3.93832808","decile":"6","lat":40.364762809398655,"lng":-111.71260020538249},{"vid":"1722430","name":"Ms. Nanette Howe","party":"Rep","address":"28 S 1050 E, Pleasant Grove, UT 84062","precinct":"25PG12","hd":"55","v_score":"23.27293592","decile":"10","lat":40.36331812480245,"lng":-111.71589935489939},{"vid":"53303a5d1f378c4a9e60585aba647e76ebae4f96b2a4ba3c8baf0293f1b2f24c","name":"Jered Hartmann DVM","party":"","address":"11 S 700 E, Pleasant Grove, UT 84062","precinct":"25PG12","hd":"55","v_score":"21.92029883","decile":"10","lat":40.363785956236676,"lng":-111.7251809312012},{"vid":"1744142","name":"Cyndi Zieme","party":"","address":"120 N 1400 E, Pleasant Grove, UT 84062","precinct":"25PG12","hd":"55","v_score":"16.93850135","decile":"9","lat":40.36541573972691,"lng":-111.70562601775194},{"vid":"1779006","name":"Dr. Keira Bailey","party":"","address":"35 S 1400 E, Pleasant Grove, UT 84062","precinct":"25PG12","hd":"55","v_score":"0","decile":"1","lat":40.36314316258967,"lng":-111.7073293122842},{"vid":"1785252","name":"Ham Goodwin","party":"Rep","address":"1140 E 100 N, Pleasant Grove, UT 84062","precinct":"25PG12","hd":"55","v_score":"13.81451578","decile":"9","lat":40.36461940210715,"lng":-111.71393769500996},{"vid":"1787595","name":"Benedict Legros DDS","party":"","address":"24 S 800 E, Pleasant Grove, UT 84062","precinct":"25PG12","hd":"55","v_score":"1.46627566","decile":"4","lat":40.36377488423267,"lng":-111.72324554057543},{"vid":"1797076","name":"Naoma Wisoky","party":"Rep","address":"1155 E 30 S, Pleasant Grove, UT 84062","precinct":"25PG12","hd":"55","v_score":"7.830610533","decile":"8","lat":40.364159234041466,"lng":-111.71353541118195},{"vid":"1821879","name":"Darl Shields","party":"Dem","address":"1120 E 100 N, Pleasant Grove, UT 84062","precinct":"25PG12","hd":"55","v_score":"3.781490609","decile":"6","lat":40.364618122575955,"lng":-111.71427672764237},{"vid":"1824481","name":"Dr. Clemente Mills PhD","party":"Rep","address":"879 E 200 S, Pleasant Grove, UT 84062","precinct":"25PG12","hd":"55","v_score":"8.347511332","decile":"8","lat":40.36158331639169,"lng":-111.72096572166708},{"vid":"1834451","name":"Jarred Hudson Jr.","party":"Rep","address":"903 E 200 S, Pleasant Grove, UT 84062","precinct":"25PG12","hd":"55","v_score":"14.95117867","decile":"9","lat":40.36166882947946,"lng":-111.72032977870664},{"vid":"1841750","name":"Thedore Leannon","party":"Dem","address":"180 S 700 E, Pleasant Grove, UT 84062","precinct":"25PG12","hd":"55","v_score":"12.51449002","decile":"9","lat":40.36172495731061,"lng":-111.72570246711471},{"vid":"1853715","name":"Leitha Osinski-Keebler","party":"Rep","address":"162 N 1400 E, Pleasant Grove, UT 84062","precinct":"25PG12","hd":"55","v_score":"8.347511332","decile":"8","lat":40.36606494748036,"lng":-111.70736026876786},{"vid":"1858629","name":"Ossie Fay V","party":"","address":"55 S 500 E, Pleasant Grove, UT 84062","precinct":"25PG12","hd":"55","v_score":"1.121327652","decile":"3","lat":40.36312071807414,"lng":-111.7300414657623},{"vid":"1863876","name":"Jerrod Nader","party":"","address":"825 E 50 S, Pleasant Grove, UT 84062","precinct":"25PG12","hd":"55","v_score":"5.40460374","decile":"7","lat":40.36331340124466,"lng":-111.72250946021445},{"vid":"1880815","name":"Mr. Silvio Hoeger","party":"Rep","address":"235 N 1300 E, Pleasant Grove, UT 84062","precinct":"25PG12","hd":"55","v_score":"2.587603312","decile":"5","lat":40.36612842614091,"lng":-111.71035311609072},{"vid":"1881365","name":"Estefani Hackett PhD","party":"Rep","address":"152 N 1400 E, Pleasant Grove, UT 84062","precinct":"25PG12","hd":"55","v_score":"1.121327652","decile":"3","lat":40.36554992939114,"lng":-111.70595773345937},{"vid":"1890485","name":"Dr. Wesley Heathcote","party":"","address":"34 S 760 E, Pleasant Grove, UT 84062","precinct":"25PG12","hd":"55","v_score":"10.51648655","decile":"9","lat":40.36337256864092,"lng":-111.72403866138674},{"vid":"1913971","name":"Dr. Anie Terry","party":"","address":"879 E 200 S, Pleasant Grove, UT 84062","precinct":"25PG12","hd":"55","v_score":"3.781490609","decile":"6","lat":40.36158331639169,"lng":-111.72096572166708},{"vid":"97a18b8ddd99bbca8c82258fd6ffa175fa4f91d28cbbd06aba3e267feff450ed","name":"Lawrence Schiller V","party":"","address":"1183 E 120 N, Pleasant Grove, UT 84062","precinct":"25PG12","hd":"55","v_score":"11.99259879","decile":"9","lat":40.36553361448327,"lng":-111.71288532277542},{"vid":"1917213","name":"Anastacio Hauck","party":"","address":"1023 E 100 S, Pleasant Grove, UT 84062","precinct":"25PG12","hd":"55","v_score":"11.02844566","decile":"9","lat":40.36286742748705,"lng":-111.717280053274},{"vid":"893d44b99e75cfea307d9df7e549646ec85da19cc24a3df4cb698ee05aa655f8","name":"Dominick Heller","party":"Rep","address":"641 E 100 S, Pleasant Grove, UT 84062","precinct":"25PG12","hd":"55","v_score":"29.86743893","decile":"10","lat":40.36262265308484,"lng":-111.72699865216707},{"vid":"1922127","name":"Norris Olson","party":"Rep","address":"605 E 200 S, Pleasant Grove, UT 84062","precinct":"25PG12","hd":"55","v_score":"0","decile":"1","lat":40.36136024853843,"lng":-111.72765527015444},{"vid":"1923446","name":"Glenda Ullrich","party":"","address":"180 S 700 E, Pleasant Grove, UT 84062","precinct":"25PG12","hd":"55","v_score":"16.53571215","decile":"9","lat":40.36172495731061,"lng":-111.72570246711471},{"vid":"1926128","name":"Alize Rath","party":"Rep","address":"515 E 200 S, Pleasant Grove, UT 84062","precinct":"25PG12","hd":"55","v_score":"7.650280567","decile":"8","lat":40.36142416450314,"lng":-111.73011312670812},{"vid":"a4577fa7a9af0cb0ec9262bd4b9afc397408634afdc24de1ffa8fd1aba883a5c","name":"Royal Willms Jr.","party":"Dem","address":"1080 E 100 N, Pleasant Grove, UT 84062","precinct":"25PG12","hd":"55","v_score":"7.801357537","decile":"8","lat":40.36461558801717,"lng":-111.71495482740245},{"vid":"1944649","name":"Andres Conn-Hegmann","party":"Rep","address":"835 E 100 S, Pleasant Grove, UT 84062","precinct":"25PG12","hd":"55","v_score":"12.38288823","decile":"9","lat":40.36262538323285,"lng":-111.72233923761608},{"vid":"1954720","name":"Keaton Mraz","party":"Dem","address":"198 S 1300 E, Pleasant Grove, UT 84062","precinct":"25PG12","hd":"55","v_score":"5.40460374","decile":"7","lat":40.36131113460571,"lng":-111.70970898202026},{"vid":"1964697","name":"Lillis Hilll","party":"","address":"198 S 1300 E, Pleasant Grove, UT 84062","precinct":"25PG12","hd":"55","v_score":"3.781490609","decile":"6","lat":40.36131113460571,"lng":-111.70970898202026},{"vid":"4e43ebb40eb00894e7ae551980743844ec68e8010f240ecd85187ad94991700f","name":"Lucile Senger","party":"Rep","address":"162 N 1400 E, Pleasant Grove, UT 84062","precinct":"25PG12","hd":"55","v_score":"17.75180262","decile":"10","lat":40.36606494748036,"lng":-111.70736026876786},{"vid":"1994878","name":"Grace Orn","party":"","address":"1360 E 150 N, Pleasant Grove, UT 84062","precinct":"25PG12","hd":"55","v_score":"5.40460374","decile":"7","lat":40.36523974621521,"lng":-111.7087951976277},{"vid":"1995607","name":"Dr. Orin Balistreri III","party":"","address":"987 E 200 S, Pleasant Grove, UT 84062","precinct":"25PG12","hd":"55","v_score":"1.121327652","decile":"3","lat":40.361420069550945,"lng":-111.7182469790819},{"vid":"6d4857c02ddc1d4df3781520f844466dbd217ac42c5b2ca9165e23fb3a854211","name":"Adaline Ankunding","party":"Dem","address":"115 S 700 E, Pleasant Grove, UT 84062","precinct":"25PG12","hd":"55","v_score":"7.153624035","decile":"8","lat":40.3621230733438,"lng":-111.7251573893429},{"vid":"2004009","name":"Deegan Macejkovic","party":"","address":"185 S 1300 E, Pleasant Grove, UT 84062","precinct":"25PG12","hd":"55","v_score":"4.409183253","decile":"7","lat":40.361553590571056,"lng":-111.70929073638038},{"vid":"2015528","name":"Ms. Monserrat Paucek DVM","party":"Dem","address":"1341 E 150 N, Pleasant Grove, UT 84062","precinct":"25PG12","hd":"55","v_score":"11.29723756","decile":"9","lat":40.365716694323375,"lng":-111.7091147985327},{"vid":"2024018","name":"Gwendolyn Greenfelder-Flatley","party":"","address":"85 S 1400 E, Pleasant Grove, UT 84062","precinct":"25PG12","hd":"55","v_score":"5.40460374","decile":"7","lat":40.36245439250474,"lng":-111.707509250495},{"vid":"e6c8b094a9a7f04c42a15eb08b021cb2c8b5b32ea8929920697bb005c618dd43","name":"Leonardo Tromp","party":"Rep","address":"987 E 200 S, Pleasant Grove, UT 84062","precinct":"25PG12","hd":"55","v_score":"6.814370645","decile":"8","lat":40.361420069550945,"lng":-111.7182469790819},{"vid":"2027975","name":"Gifford Kreiger","party":"Rep","address":"1160 E 100 N, Pleasant Grove, UT 84062","precinct":"25PG12","hd":"55","v_score":"0","decile":"1","lat":40.36457700193173,"lng":-111.71351630537131},{"vid":"2029431","name":"Linwood Ziemann","party":"","address":"615 E 200 S, Pleasant Grove, UT 84062","precinct":"25PG12","hd":"55","v_score":"5.40460374","decile":"7","lat":40.361360738909944,"lng":-111.72740342638653},{"vid":"2041136","name":"Sandra Cartwright","party":"Dem","address":"14 S 760 E, Pleasant Grove, UT 84062","precinct":"25PG12","hd":"55","v_score":"4.15282392","decile":"7","lat":40.36372470457833,"lng":-111.72423805226626},{"vid":"8a9e73596dc1080d4ac9738f968497ca4d299432e75f51ca356ba76c450fc7af","name":"Leandro Herman","party":"Rep","address":"587 E 100 S, Pleasant Grove, UT 84062","precinct":"25PG12","hd":"55","v_score":"1.46627566","decile":"4","lat":40.362636946692916,"lng":-111.72858567829104},{"vid":"2055608","name":"Mr. Orris Labadie MD","party":"Dem","address":"858 E 100 S, Pleasant Grove, UT 84062","precinct":"25PG12","hd":"55","v_score":"13.13857124","decile":"9","lat":40.36227381894977,"lng":-111.72205773064468},{"vid":"2064326","name":"Jammie Heaney-Hermiston","party":"","address":"1155 E 30 S, Pleasant Grove, UT 84062","precinct":"25PG12","hd":"55","v_score":"1.623113131","decile":"5","lat":40.364159234041466,"lng":-111.71353541118195},{"vid":"2069060","name":"Mr. Seamus Wiza V","party":"","address":"825 E 50 S, Pleasant Grove, UT 84062","precinct":"25PG12","hd":"55","v_score":"1.193887297","decile":"3","lat":40.36331340124466,"lng":-111.72250946021445},{"vid":"ad6c329fbea58cb5a25d1fee76f671accfbd2c2a6ed2742a26b51cf910be021d","name":"Shan Morar","party":"Rep","address":"577 E 200 S, Unit B, Pleasant Grove, UT 84062","precinct":"25PG12","hd":"55","v_score":"3.93832808","decile":"6","lat":40.36160128290503,"lng":-111.72942204538812},{"vid":"6adb4705ec960ee6b7898b7d68cc932ec5626e4636fd4ee13810fb8c4b3a3a17","name":"Levie Johnston","party":"Rep","address":"1153 E 100 N, Pleasant Grove, UT 84062","precinct":"25PG12","hd":"55","v_score":"0","decile":"1","lat":40.365274774089094,"lng":-111.7135844873247},{"vid":"fac881598361a76be4cd105d7b3f5b8cf14003f5119d4fae7b33ef0c4fa1b4d8","name":"Mrs. Fairy Mraz","party":"Dem","address":"109 N 1240 E, Pleasant Grove, UT 84062","precinct":"25PG12","hd":"55","v_score":"6.724398202","decile":"8","lat":40.36523672575004,"lng":-111.71163275211146},{"vid":"b67d20b62c8c40b2ce9d2af117e8be60a07fdd86c2306632af9170d441268d3b","name":"Dannie Kerluke","party":"","address":"109 N 1240 E, Pleasant Grove, UT 84062","precinct":"25PG12","hd":"55","v_score":"14.74039814","decile":"9","lat":40.36523672575004,"lng":-111.71163275211146},{"vid":"2099407","name":"Eileen Skiles","party":"","address":"162 S 825 E, Pleasant Grove, UT 84062","precinct":"25PG12","hd":"55","v_score":"4.424855541","decile":"7","lat":40.36171759997355,"lng":-111.72293023244951},{"vid":"64797c26208755d8351bc318a56c58698ec3117386f569d57e695ec170e1d20f","name":"Lilyanna Schinner","party":"Dem","address":"577 E 200 S, # B, Pleasant Grove, UT 84062","precinct":"25PG12","hd":"55","v_score":"13.70847796","decile":"9","lat":40.36160128290503,"lng":-111.72942204538812},{"vid":"8df6de7ba945fe533f9e54188a643153c7f7111aec253df176c092fe4e93aa89","name":"Coty King-Kovacek","party":"Rep","address":"1225 E 120 N, Pleasant Grove, UT 84062","precinct":"25PG12","hd":"55","v_score":"0","decile":"1","lat":40.3656199180099,"lng":-111.71175569074816},{"vid":"2112359","name":"Ms. Leann Lakin DDS","party":"","address":"185 N 1300 E, Pleasant Grove, UT 84062","precinct":"25PG12","hd":"55","v_score":"9.207031979","decile":"8","lat":40.36560757706543,"lng":-111.71032063893892},{"vid":"2118558","name":"Hollie Glover","party":"","address":"624 E 150 S, Pleasant Grove, UT 84062","precinct":"25PG12","hd":"55","v_score":"7.830610533","decile":"8","lat":40.3616645137797,"lng":-111.72736063262272},{"vid":"2da0a779af22451af5c05d25379621d6e72579aabaf235274f52b3a945ef3024","name":"Grady Lynch","party":"","address":"175 S 1300 E, Pleasant Grove, UT 84062","precinct":"25PG12","hd":"55","v_score":"5.61909958","decile":"7","lat":40.361863019407025,"lng":-111.70890457263393},{"vid":"2120108","name":"Gray Wolff","party":"","address":"1448 E 50 S, Pleasant Grove, UT 84062","precinct":"25PG12","hd":"55","v_score":"9.55742766","decile":"8","lat":40.3627418830873,"lng":-111.70700679328611},{"vid":"2136798","name":"Alejandra Abernathy DVM","party":"","address":"1145 E 100 N, Pleasant Grove, UT 84062","precinct":"25PG12","hd":"55","v_score":"4.064235245","decile":"6","lat":40.365533357532364,"lng":-111.71379301053702},{"vid":"2139641","name":"Dwyane Casper","party":"Dem","address":"1121 E 30 S, Pleasant Grove, UT 84062","precinct":"25PG12","hd":"55","v_score":"5.258122542","decile":"7","lat":40.364224799261855,"lng":-111.71455315512428},{"vid":"2153319","name":"Elex Lynch","party":"","address":"825 E 50 S, Pleasant Grove, UT 84062","precinct":"25PG12","hd":"55","v_score":"4.283276088","decile":"7","lat":40.36331340124466,"lng":-111.72250946021445},{"vid":"2160048","name":"Wayne Mosciski III","party":"","address":"27 S 1185 E, Pleasant Grove, UT 84062","precinct":"25PG12","hd":"55","v_score":"1.46627566","decile":"4","lat":40.363423981788564,"lng":-111.71251565688465},{"vid":"db87523c95ebab3893e12490360534e4cf40e27449ac7628bf39a5a6344b8376","name":"Donita McGlynn DVM","party":"Dem","address":"164 S 980 E, Pleasant Grove, UT 84062","precinct":"25PG12","hd":"55","v_score":"16.14542271","decile":"9","lat":40.361875157694975,"lng":-111.71813550140828},{"vid":"ee92fe653591bf71a5d6aedf5de59ce5951069446f6abf9c8ad1ad77a36e1717","name":"Edw Leannon Sr.","party":"","address":"35 S 700 E, Pleasant Grove, UT 84062","precinct":"25PG12","hd":"55","v_score":"5.258122542","decile":"7","lat":40.363379117265154,"lng":-111.72492481351388},{"vid":"2178806","name":"Dione D'Amore","party":"","address":"1093 E 30 S, Pleasant Grove, UT 84062","precinct":"25PG12","hd":"55","v_score":"8.284004873","decile":"8","lat":40.36350642676225,"lng":-111.71482113404541},{"vid":"e2764249b25f3dc64a020df6681c3ee12b96bdc2a52decc53646af4ee8813eed","name":"Dr. Merlin O'Hara","party":"","address":"185 N 1300 E, Pleasant Grove, UT 84062","precinct":"25PG12","hd":"55","v_score":"1.121327652","decile":"3","lat":40.36560757706543,"lng":-111.71032063893892},{"vid":"03f92bdcb93145e52e173613ea6c1810a8b54b6622a5d36653cde3d2a983725e","name":"Stephanie Graham","party":"","address":"40 S 1400 E, Pleasant Grove, UT 84062","precinct":"25PG12","hd":"55","v_score":"2.426006793","decile":"5","lat":40.362982823421326,"lng":-111.70797905561442},{"vid":"894f0139b2dd0e5fd42deb5356136f72a0c8ec95e41173b7f063458d6d72d001","name":"Miss Dominga Ziemann","party":"Dem","address":"699 E 100 S, Pleasant Grove, UT 84062","precinct":"25PG12","hd":"55","v_score":"15.5432918","decile":"9","lat":40.362634229303175,"lng":-111.72571854875494},{"vid":"228ea7440cf5ce14e2ff65326a13952bd383fc4633d571ec331a0925c338504d","name":"Hasel Mitchell","party":"Dem","address":"1213 E 50 N, Pleasant Grove, UT 84062","precinct":"25PG12","hd":"55","v_score":"6.528952915","decile":"7","lat":40.36487443873514,"lng":-111.71214869257578},{"vid":"71afbd86bfc9bcb4ae15126a948f06b21c7e8e31f1396135bfd8a295a5d37b0e","name":"Cherryl Witting-Hackett","party":"","address":"95 S 1050 E, Pleasant Grove, UT 84062","precinct":"25PG12","hd":"55","v_score":"0","decile":"1","lat":40.362304438278485,"lng":-111.71524142407746},{"vid":"a4399f2b8ac38a3a1cbddf56990a6c046af058e6da3025d7ac28e147edc59aae","name":"Aidan Bechtelar","party":"Dem","address":"66 S 600 E, Pleasant Grove, UT 84062","precinct":"25PG12","hd":"55","v_score":"0","decile":"1","lat":40.36309176459152,"lng":-111.72861904872758},{"vid":"2186833","name":"Spurgeon Bosco","party":"Dem","address":"788 E 100 S, Pleasant Grove, UT 84062","precinct":"25PG12","hd":"55","v_score":"4.741221742","decile":"7","lat":40.362209386729795,"lng":-111.72335634373471},{"vid":"2192140","name":"Aryan Hoppe Sr.","party":"","address":"671 E 100 S, Pleasant Grove, UT 84062","precinct":"25PG12","hd":"55","v_score":"3.997370217","decile":"6","lat":40.362633220925694,"lng":-111.7262401795995},{"vid":"2198433","name":"Earle Kshlerin","party":"Dem","address":"35 S 700 E, Pleasant Grove, UT 84062","precinct":"25PG12","hd":"55","v_score":"4.192796624","decile":"7","lat":40.363379117265154,"lng":-111.72492481351388},{"vid":"2200047","name":"Miss Teagan West","party":"","address":"28 S 1050 E, Pleasant Grove, UT 84062","precinct":"25PG12","hd":"55","v_score":"2.587603312","decile":"5","lat":40.36331812480245,"lng":-111.71589935489939},{"vid":"11c4d44fadee775a1f3be1b87393f5a53b1f563e2913bdc89c3c64cc79872d42","name":"Nealie Lebsack DDS","party":"","address":"140 S 1400 E, Pleasant Grove, UT 84062","precinct":"25PG12","hd":"55","v_score":"2.315214949","decile":"5","lat":40.36219842377174,"lng":-111.70832359126635},{"vid":"a367a88d3480fdb0abd5e5717962d26a3f79ea70010b8e0671e6f0e9d4e3eded","name":"Nanie Hackett","party":"","address":"1381 E 150 N, Pleasant Grove, UT 84062","precinct":"25PG12","hd":"55","v_score":"9.772950527","decile":"8","lat":40.365718215718246,"lng":-111.70844745627778},{"vid":"7b4f68b54040a140dec8f086c63bc6b29c29b925b5b95d6642c4fbd740f8874f","name":"Marylyn Bruen-Bashirian","party":"","address":"1381 E 150 N, Pleasant Grove, UT 84062","precinct":"25PG12","hd":"55","v_score":"6.896907962","decile":"8","lat":40.365718215718246,"lng":-111.70844745627778},{"vid":"2225715","name":"Kathlene Batz","party":"","address":"835 E 100 S, Pleasant Grove, UT 84062","precinct":"25PG12","hd":"55","v_score":"11.04973188","decile":"9","lat":40.36262538323285,"lng":-111.72233923761608},{"vid":"9b38d935433f13e47668ed6b4b6df50dc567f08a830aac169e81ab3442730c60","name":"Heather Bayer DDS","party":"Dem","address":"1155 E 30 S, Pleasant Grove, UT 84062","precinct":"25PG12","hd":"55","v_score":"1.623113131","decile":"5","lat":40.364159234041466,"lng":-111.71353541118195},{"vid":"2231167","name":"Clayton Bailey","party":"Rep","address":"1125 E 100 N, Pleasant Grove, UT 84062","precinct":"25PG12","hd":"55","v_score":"2.315214949","decile":"5","lat":40.364979802101416,"lng":-111.7145724620336},{"vid":"2236788","name":"Glendora Orn","party":"","address":"52 S 1025 E, Pleasant Grove, UT 84062","precinct":"25PG12","hd":"55","v_score":"1.193887297","decile":"3","lat":40.36365925765167,"lng":-111.71750709673447},{"vid":"1d2f5813693242cba768803000d30d3422115c8d02f13a76ce5c33dc305ecb77","name":"Dr. Julia Cronin","party":"Rep","address":"759 E 200 S, Pleasant Grove, UT 84062","precinct":"25PG12","hd":"55","v_score":"1.193887297","decile":"3","lat":40.361653518025776,"lng":-111.72373407243582},{"vid":"dcb8f6861262ddf36e0bf2543303dac3138b6d5b3bf0aba14550637343d3e5f3","name":"Claus Blanda-Gaylord","party":"Dem","address":"879 E 200 S, Pleasant Grove, UT 84062","precinct":"25PG12","hd":"55","v_score":"3.93832808","decile":"6","lat":40.36158331639169,"lng":-111.72096572166708},{"vid":"2244203","name":"Clovis Schultz","party":"Dem","address":"1285 E Center St, Pleasant Grove, UT 84062","precinct":"25PG12","hd":"55","v_score":"1.121327652","decile":"3","lat":40.3641639933496,"lng":-111.71058008577788},{"vid":"c55b3ee9c5a668cbe30e85d2a528001783a4a0576b755053a5c6e81423555866","name":"Estrella Cummings","party":"Dem","address":"535 E 200 S, Pleasant Grove, UT 84062","precinct":"25PG12","hd":"55","v_score":"4.069929862","decile":"6","lat":40.36141889499943,"lng":-111.72979202121486},{"vid":"8de460a28cca7863745a2427aa89182e4413826106e4c8cc48e063bb92d03605","name":"Ms. Tommie Adams PhD","party":"","address":"825 E 50 S, Pleasant Grove, UT 84062","precinct":"25PG12","hd":"55","v_score":"3.93832808","decile":"6","lat":40.36331340124466,"lng":-111.72250946021445},{"vid":"ce109a09309d6f18946bebea9ed6eab944d9f0815692402d0045e571487d7ce7","name":"Stacy Pacocha","party":"Rep","address":"195 N 1400 E, Pleasant Grove, UT 84062","precinct":"25PG12","hd":"55","v_score":"6.814370645","decile":"8","lat":40.36600899165194,"lng":-111.7080510671128},{"vid":"b9cb810de4f6b447a3b528717803a59e6343db96081dfe87b2789c0b8e2cda1a","name":"Mr. Hillard Becker","party":"Rep","address":"140 S 1400 E, Pleasant Grove, UT 84062","precinct":"25PG12","hd":"55","v_score":"0","decile":"1","lat":40.36219842377174,"lng":-111.70832359126635},{"vid":"dd9e288d9c1a27b14f26600129ddbe5e44ac158c7c9db93063e1f58321e076ad","name":"Demetri Kirlin","party":"","address":"198 S 1300 E, Pleasant Grove, UT 84062","precinct":"25PG12","hd":"55","v_score":"2.817000428","decile":"6","lat":40.36131113460571,"lng":-111.70970898202026},{"vid":"c37012be5f58302e2edcfa153ac3a821b6cc3ff67b6efa662f6fae9362831cc6","name":"Reilly Kessler","party":"Dem","address":"515 E 200 S, Pleasant Grove, UT 84062","precinct":"25PG12","hd":"55","v_score":"10.24124245","decile":"9","lat":40.36142416450314,"lng":-111.73011312670812},{"vid":"02f6d403f341588096cb48d637826eccc8647b099f47f3ce045f26a9f2d4ccee","name":"Dr. Holland Lemke","party":"","address":"58 S 600 E, Pleasant Grove, UT 84062","precinct":"25PG12","hd":"55","v_score":"3.93832808","decile":"6","lat":40.36321278757749,"lng":-111.72834388235931},{"vid":"f2b455fee89adb2fee66c5f3033bc5315c654eea2c518359cb417f609a7b7970","name":"Ruben Greenholt","party":"Dem","address":"28 S 1050 E, Pleasant Grove, UT 84062","precinct":"25PG12","hd":"55","v_score":"8.15240309","decile":"8","lat":40.36331812480245,"lng":-111.71589935489939},{"vid":"5042bf7e25b445771319b6ebfac460f351bef3cac7c5e96033cb4667980d3c73","name":"Miss Giuliana Powlowski DVM","party":"Rep","address":"185 S 1300 E, Pleasant Grove, UT 84062","precinct":"25PG12","hd":"55","v_score":"2.817000428","decile":"6","lat":40.361553590571056,"lng":-111.70929073638038},{"vid":"2273065","name":"Eugenia Zieme-Thompson","party":"Dem","address":"65 S 700 E, Pleasant Grove, UT 84062","precinct":"25PG12","hd":"55","v_score":"5.926494964","decile":"7","lat":40.363026917128785,"lng":-111.72499214819896},{"vid":"2278046","name":"Mrs. Sommer Adams","party":"","address":"90 N 1300 E, Pleasant Grove, UT 84062","precinct":"25PG12","hd":"55","v_score":"0","decile":"1","lat":40.364886516883026,"lng":-111.70956491781128},{"vid":"2280189","name":"Jerrica Pagac-Daniel","party":"","address":"152 N 1400 E, Pleasant Grove, UT 84062","precinct":"25PG12","hd":"55","v_score":"1.193887297","decile":"3","lat":40.36554992939114,"lng":-111.70595773345937},{"vid":"c19bc38499c1169ad4b520b73fe44372745df1eedfded5148fc90c06130a45bb","name":"Gust Krajcik","party":"Rep","address":"35 S 500 E, Pleasant Grove, UT 84062","precinct":"25PG12","hd":"55","v_score":"13.97298511","decile":"9","lat":40.363384219506344,"lng":-111.7300362303808},{"vid":"2292851","name":"Marvin Kiehn MD","party":"","address":"156 N 1300 E, Pleasant Grove, UT 84062","precinct":"25PG12","hd":"55","v_score":"6.881235673","decile":"8","lat":40.365697322498974,"lng":-111.70985150608871},{"vid":"2296585","name":"Mr. Joe Aufderhar I","party":"Dem","address":"220 N 1300 E, Pleasant Grove, UT 84062","precinct":"25PG12","hd":"55","v_score":"16.39736004","decile":"9","lat":40.3658977649881,"lng":-111.7098317782766},{"vid":"d28ebc3d526b6e3b876dcbbe1f6b8876be3850e96405437eed30305f5f3b4e87","name":"Zeke Toy","party":"","address":"211 N 1300 E, Pleasant Grove, UT 84062","precinct":"25PG12","hd":"55","v_score":"8.635950586","decile":"8","lat":40.365868003954276,"lng":-111.71033537023159},{"vid":"4be360d135bc2e112e436152c6732136721aa4576edcfeb0d575b6461f8c6d30","name":"Dr. Jerrel O'Connell Sr.","party":"Rep","address":"1140 E 100 N, Pleasant Grove, UT 84062","precinct":"25PG12","hd":"55","v_score":"12.34824012","decile":"9","lat":40.36461940210715,"lng":-111.71393769500996},{"vid":"3217eb3e8c44c035f705f8ccc36bb4ecbb23b138bdce97de29086df117e9f4a7","name":"Dr. Connie Casper","party":"","address":"152 N 1400 E, Pleasant Grove, UT 84062","precinct":"25PG12","hd":"55","v_score":"1.193887297","decile":"3","lat":40.36554992939114,"lng":-111.70595773345937},{"vid":"72d35b3ec398cd75f0a4167f2676238cd73299639f81a8d2bacf61c268cb65f3","name":"Dr. Codi Prohaska IV","party":"Rep","address":"164 S 980 E, Pleasant Grove, UT 84062","precinct":"25PG12","hd":"55","v_score":"5.693042993","decile":"7","lat":40.361875157694975,"lng":-111.71813550140828},{"vid":"2314959","name":"Zana Rice-Gutkowski","party":"Rep","address":"1120 E 100 N, Pleasant Grove, UT 84062","precinct":"25PG12","hd":"55","v_score":"2.315214949","decile":"5","lat":40.364618122575955,"lng":-111.71427672764237},{"vid":"2318035","name":"Letha O'Conner","party":"Dem","address":"163 S 500 E, Pleasant Grove, UT 84062","precinct":"25PG12","hd":"55","v_score":"0","decile":"1","lat":40.361688707106126,"lng":-111.73040420906729},{"vid":"2323871","name":"Nelly Effertz","party":"Dem","address":"1133 E 100 N, Pleasant Grove, UT 84062","precinct":"25PG12","hd":"55","v_score":"1.193887297","decile":"3","lat":40.364983105786436,"lng":-111.71400806367316},{"vid":"2328220","name":"Mrs. Beulah Sawayn DVM","party":"Rep","address":"987 E 200 S, Pleasant Grove, UT 84062","precinct":"25PG12","hd":"55","v_score":"6.814370645","decile":"8","lat":40.361420069550945,"lng":-111.7182469790819},{"vid":"2328657","name":"Dr. Eduardo Hodkiewicz I","party":"Rep","address":"973 E 200 S, Pleasant Grove, UT 84062","precinct":"25PG12","hd":"55","v_score":"1.121327652","decile":"3","lat":40.36134378217862,"lng":-111.71865239833953},{"vid":"2330938","name":"Foster Schroeder-Pouros","party":"","address":"183 N 1350 E, Pleasant Grove, UT 84062","precinct":"25PG12","hd":"55","v_score":"5.926494964","decile":"7","lat":40.36605030255929,"lng":-111.7091755035874},{"vid":"2333181","name":"Camila Haag","party":"Dem","address":"1060 E 100 N, Pleasant Grove, UT 84062","precinct":"25PG12","hd":"55","v_score":"0","decile":"1","lat":40.36466640514339,"lng":-111.7153838240124},{"vid":"2333576","name":"Oral Sporer","party":"Rep","address":"1212 E 120 N, Pleasant Grove, UT 84062","precinct":"25PG12","hd":"55","v_score":"5.191257514","decile":"7","lat":40.36520803985255,"lng":-111.71218253828098},{"vid":"2344668","name":"Stevie Lesch","party":"","address":"1160 E 100 N, Bsmt, Pleasant Grove, UT 84062","precinct":"25PG12","hd":"55","v_score":"1.121327652","decile":"3","lat":40.36457700193173,"lng":-111.71351630537131},{"vid":"2344988","name":"Tori Vandervort","party":"","address":"245 N 1300 E, Pleasant Grove, UT 84062","precinct":"25PG12","hd":"55","v_score":"21.8990126","decile":"10","lat":40.36653854083333,"lng":-111.71031022452753},{"vid":"2349216","name":"Deonte Kling","party":"Rep","address":"1026 E 100 S, Pleasant Grove, UT 84062","precinct":"25PG12","hd":"55","v_score":"5.191257514","decile":"7","lat":40.3624382459396,"lng":-111.71727241921106},{"vid":"2361046","name":"Mr. Lyndon Ryan IV","party":"","address":"112 N 1185 E, Pleasant Grove, UT 84062","precinct":"25PG12","hd":"55","v_score":"14.80889503","decile":"9","lat":40.365244954386355,"lng":-111.71260203745724},{"vid":"2366817","name":"Debby Ondricka","party":"Rep","address":"819 E 50 S, Pleasant Grove, UT 84062","precinct":"25PG12","hd":"55","v_score":"1.121327652","decile":"3","lat":40.36331642096918,"lng":-111.7228563731535},{"vid":"2369234","name":"Alia Dickens MD","party":"","address":"1119 E 30 S, Pleasant Grove, UT 84062","precinct":"25PG12","hd":"55","v_score":"1.121327652","decile":"3","lat":40.364181637741446,"lng":-111.71484354700947},{"vid":"2370068","name":"Mr. Lawrence Blanda PhD","party":"","address":"625 E 100 S, Pleasant Grove, UT 84062","precinct":"25PG12","hd":"55","v_score":"2.315214949","decile":"5","lat":40.362654607122366,"lng":-111.7273595880617},{"vid":"2385815","name":"Antwan Crist","party":"Dem","address":"1093 E 30 S, Pleasant Grove, UT 84062","precinct":"25PG12","hd":"55","v_score":"9.830961897","decile":"8","lat":40.36350642676225,"lng":-111.71482113404541},{"vid":"2387316","name":"Coby Hills-Sipes","party":"Rep","address":"836 E 100 S, Pleasant Grove, UT 84062","precinct":"25PG12","hd":"55","v_score":"2.744440783","decile":"5","lat":40.36229438066086,"lng":-111.72245241583701},{"vid":"2391541","name":"Deshaun Heathcote","party":"","address":"665 E 200 S, Pleasant Grove, UT 84062","precinct":"25PG12","hd":"55","v_score":"1.121327652","decile":"3","lat":40.36141124195219,"lng":-111.72635564132064},{"vid":"2419397","name":"Milissa Grant","party":"Rep","address":"1225 E 120 N, Pleasant Grove, UT 84062","precinct":"25PG12","hd":"55","v_score":"1.121327652","decile":"3","lat":40.3656199180099,"lng":-111.71175569074816},{"vid":"2428205","name":"Jesus Barton","party":"","address":"29 S 760 E, Pleasant Grove, UT 84062","precinct":"25PG12","hd":"55","v_score":"6.657533174","decile":"7","lat":40.36343467275357,"lng":-111.72378706507125},{"vid":"2430347","name":"Vonetta Pouros DVM","party":"Dem","address":"634 E 100 S, Pleasant Grove, UT 84062","precinct":"25PG12","hd":"55","v_score":"2.315214949","decile":"5","lat":40.36226182157388,"lng":-111.72704925462635},{"vid":"2430966","name":"Shawnte Gutmann","party":"","address":"155 N 1400 E, Pleasant Grove, UT 84062","precinct":"25PG12","hd":"55","v_score":"1.121327652","decile":"3","lat":40.365667780182356,"lng":-111.70800253011139},{"vid":"2431547","name":"Mr. Otis Pfannerstill II","party":"","address":"151 N 1300 E, Pleasant Grove, UT 84062","precinct":"25PG12","hd":"55","v_score":"2.817000428","decile":"6","lat":40.365347152045096,"lng":-111.71030440009353},{"vid":"2433345","name":"Mr. Garett Runolfsdottir","party":"","address":"11 N 1300 E, Pleasant Grove, UT 84062","precinct":"25PG12","hd":"55","v_score":"1.193887297","decile":"3","lat":40.36429361246218,"lng":-111.71016478501004},{"vid":"2435510","name":"Dr. Bess Schmitt PhD","party":"","address":"180 N 1050 E, Pleasant Grove, UT 84062","precinct":"25PG12","hd":"55","v_score":"2.315214949","decile":"5","lat":40.365977217434555,"lng":-111.71555456047278},{"vid":"2452709","name":"Ms. Gale Bernier","party":"Dem","address":"578 E 100 S, Pleasant Grove, UT 84062","precinct":"25PG12","hd":"55","v_score":"2.315214949","decile":"5","lat":40.36211165600117,"lng":-111.72866956469123},{"vid":"2453914","name":"Lue Runolfsson","party":"Rep","address":"1108 E 200 N, Pleasant Grove, UT 84062","precinct":"25PG12","hd":"55","v_score":"2.315214949","decile":"5","lat":40.16925396560105,"lng":-111.59041639714906},{"vid":"2454537","name":"Kyree Bayer-Lockman","party":"Dem","address":"1108 E 200 N, Pleasant Grove, UT 84062","precinct":"25PG12","hd":"55","v_score":"3.93832808","decile":"6","lat":40.16925396560105,"lng":-111.59041639714906},{"vid":"2459959","name":"Justina Medhurst","party":"Dem","address":"129 S 950 E, Pleasant Grove, UT 84062","precinct":"25PG12","hd":"55","v_score":"0","decile":"1","lat":40.3622999656997,"lng":-111.71934188772879},{"vid":"2460862","name":"Darryl Schroeder I","party":"Dem","address":"28 S 850 E, Pleasant Grove, UT 84062","precinct":"25PG12","hd":"55","v_score":"5.693042993","decile":"7","lat":40.363715475472205,"lng":-111.72162872230497},{"vid":"2462693","name":"Mr. Loring Wolf II","party":"Dem","address":"525 E 100 S, Pleasant Grove, UT 84062","precinct":"25PG12","hd":"55","v_score":"4.905839784","decile":"7","lat":40.36264422902302,"lng":-111.73008697405525},{"vid":"2464779","name":"Ashly Schiller MD","party":"Dem","address":"1285 E Center St, Pleasant Grove, UT 84062","precinct":"25PG12","hd":"55","v_score":"0","decile":"1","lat":40.3641639933496,"lng":-111.71058008577788},{"vid":"2464848","name":"Mohammad Fisher","party":"","address":"1175 E 100 N, Pleasant Grove, UT 84062","precinct":"25PG12","hd":"55","v_score":"15.44261933","decile":"9","lat":40.364979076155585,"lng":-111.7130015790388},{"vid":"2467292","name":"Darryn Kerluke","party":"Dem","address":"14 S 760 E, Pleasant Grove, UT 84062","precinct":"25PG12","hd":"55","v_score":"0","decile":"1","lat":40.36372470457833,"lng":-111.72423805226626},{"vid":"2471969","name":"Heaven Gottlieb","party":"","address":"581 E 200 S, Pleasant Grove, UT 84062","precinct":"25PG12","hd":"55","v_score":"0","decile":"1","lat":40.361659104775946,"lng":-111.72905793390336},{"vid":"2479146","name":"Eliot Wunsch Jr.","party":"","address":"90 S 1300 E, Pleasant Grove, UT 84062","precinct":"25PG12","hd":"55","v_score":"1.193887297","decile":"3","lat":40.36267758175221,"lng":-111.71006159003117},{"vid":"2479328","name":"Reynolds Schaden","party":"Dem","address":"1448 E 50 S, Pleasant Grove, UT 84062","precinct":"25PG12","hd":"55","v_score":"0","decile":"1","lat":40.3627418830873,"lng":-111.70700679328611},{"vid":"2496246","name":"Cordero Franecki","party":"","address":"34 S 760 E, Pleasant Grove, UT 84062","precinct":"25PG12","hd":"55","v_score":"4.499155696","decile":"7","lat":40.36337256864092,"lng":-111.72403866138674},{"vid":"2501712","name":"Dr. Jarvis Sipes DVM","party":"","address":"145 S 500 E, Pleasant Grove, UT 84062","precinct":"25PG12","hd":"55","v_score":"0","decile":"1","lat":40.36192595616996,"lng":-111.73002725665383},{"vid":"2502307","name":"Inga McKenzie","party":"Dem","address":"163 S 500 E, Pleasant Grove, UT 84062","precinct":"25PG12","hd":"55","v_score":"0","decile":"1","lat":40.361688707106126,"lng":-111.73040420906729},{"vid":"2503400","name":"Ms. Clotilda Weber DDS","party":"","address":"109 N 1240 E, Pleasant Grove, UT 84062","precinct":"25PG12","hd":"55","v_score":"5.693042993","decile":"7","lat":40.36523672575004,"lng":-111.71163275211146},{"vid":"2506301","name":"Brandy Gusikowski-Cremin","party":"Rep","address":"535 E 200 S, Pleasant Grove, UT 84062","precinct":"25PG12","hd":"55","v_score":"0","decile":"1","lat":40.36141889499943,"lng":-111.72979202121486},{"vid":"2509138","name":"Cortez Wisoky","party":"Rep","address":"145 S 500 E, Pleasant Grove, UT 84062","precinct":"25PG12","hd":"55","v_score":"5.693042993","decile":"7","lat":40.36192595616996,"lng":-111.73002725665383},{"vid":"2529112","name":"Mr. Xzavier Heathcote V","party":"Dem","address":"1213 E 50 N, Pleasant Grove, UT 84062","precinct":"25PG12","hd":"55","v_score":"0","decile":"1","lat":40.36487443873514,"lng":-111.71214869257578},{"vid":"2546596","name":"Amanda Legros-Gerhold","party":"Dem","address":"198 S 1300 E, Pleasant Grove, UT 84062","precinct":"25PG12","hd":"55","v_score":"2.817000428","decile":"6","lat":40.36131113460571,"lng":-111.70970898202026},{"vid":"2546927","name":"Marty Hyatt","party":"","address":"1360 E 150 N, Pleasant Grove, UT 84062","precinct":"25PG12","hd":"55","v_score":"0","decile":"1","lat":40.36523974621521,"lng":-111.7087951976277},{"vid":"2547724","name":"Burton Strosin V","party":"","address":"633 E 150 S, Pleasant Grove, UT 84062","precinct":"25PG12","hd":"55","v_score":"0","decile":"1","lat":40.36204206462227,"lng":-111.7269777726249},{"vid":"2548646","name":"Sherron Rosenbaum-Prohaska","party":"Rep","address":"11 S 700 E, Pleasant Grove, UT 84062","precinct":"25PG12","hd":"55","v_score":"4.069929862","decile":"6","lat":40.363785956236676,"lng":-111.7251809312012},{"vid":"2555057","name":"Johan D'Amore","party":"Dem","address":"183 N 1350 E, Pleasant Grove, UT 84062","precinct":"25PG12","hd":"55","v_score":"0","decile":"1","lat":40.36605030255929,"lng":-111.7091755035874},{"vid":"2557743","name":"Shanice Rice DDS","party":"","address":"544 E Center St, Pleasant Grove, UT 84062","precinct":"25PG12","hd":"55","v_score":"0","decile":"1","lat":40.36368659783653,"lng":-111.72974126604197},{"vid":"2560143","name":"Mr. Myrtle Bogan V","party":"","address":"185 N 1300 E, Pleasant Grove, UT 84062","precinct":"25PG12","hd":"55","v_score":"1.193887297","decile":"4","lat":40.36560757706543,"lng":-111.71032063893892},{"vid":"2563229","name":"Dax Farrell","party":"","address":"162 N 1400 E, Pleasant Grove, UT 84062","precinct":"25PG12","hd":"55","v_score":"1.193887297","decile":"4","lat":40.36606494748036,"lng":-111.70736026876786},{"vid":"2563230","name":"Ronaldo Wiza","party":"Dem","address":"215 N 1400 E, Pleasant Grove, UT 84062","precinct":"25PG12","hd":"55","v_score":"2.817000428","decile":"6","lat":40.3664903977452,"lng":-111.70794471362},{"vid":"2578940","name":"Rosendo Johns","party":"Rep","address":"14 S 760 E, Pleasant Grove, UT 84062","precinct":"25PG12","hd":"55","v_score":"1.193887297","decile":"4","lat":40.36372470457833,"lng":-111.72423805226626},{"vid":"2590938","name":"Dr. Gilda Stiedemann DVM","party":"","address":"140 S 600 E, Pleasant Grove, UT 84062","precinct":"25PG12","hd":"55","v_score":"5.693042993","decile":"7","lat":40.36194726775179,"lng":-111.72832870262764},{"vid":"2610221","name":"Sena Leannon MD","party":"Dem","address":"129 S 950 E, Pleasant Grove, UT 84062","precinct":"25PG12","hd":"55","v_score":"1.193887297","decile":"4","lat":40.3622999656997,"lng":-111.71934188772879},{"vid":"2615879","name":"Kolton Harris","party":"","address":"151 S 500 E, Pleasant Grove, UT 84062","precinct":"25PG12","hd":"55","v_score":"1.193887297","decile":"4","lat":40.36191714910828,"lng":-111.72985291865926},{"vid":"2621371","name":"Junious Marvin","party":"","address":"788 E 100 S, Pleasant Grove, UT 84062","precinct":"25PG12","hd":"55","v_score":"4.069929862","decile":"6","lat":40.362209386729795,"lng":-111.72335634373471},{"vid":"2626589","name":"Mr. Governor Durgan MD","party":"Rep","address":"1143 E 30 S, Pleasant Grove, UT 84062","precinct":"25PG12","hd":"55","v_score":"5.693042993","decile":"7","lat":40.3640817079038,"lng":-111.71373897328105},{"vid":"2627343","name":"Iverson Fahey","party":"","address":"28 S 1050 E, Pleasant Grove, UT 84062","precinct":"25PG12","hd":"55","v_score":"2.817000428","decile":"6","lat":40.36331812480245,"lng":-111.71589935489939},{"vid":"2630614","name":"Raphael Keeling","party":"","address":"43 S 850 E, Pleasant Grove, UT 84062","precinct":"25PG12","hd":"55","v_score":"4.069929862","decile":"6","lat":40.36331369392765,"lng":-111.721259040573},{"vid":"2634522","name":"Napoleon Hills-Goyette","party":"Dem","address":"35 S 500 E, Pleasant Grove, UT 84062","precinct":"25PG12","hd":"55","v_score":"12.85165745","decile":"9","lat":40.363384219506344,"lng":-111.7300362303808},{"vid":"2644702","name":"Hideo Klocko","party":"Dem","address":"34 S 760 E, Pleasant Grove, UT 84062","precinct":"25PG12","hd":"55","v_score":"5.693042993","decile":"7","lat":40.36337256864092,"lng":-111.72403866138674},{"vid":"2653081","name":"Eathel Kunze MD","party":"Rep","address":"873 E 200 S, Pleasant Grove, UT 84062","precinct":"25PG12","hd":"55","v_score":"0","decile":"1","lat":40.361322127506014,"lng":-111.72103058210791},{"vid":"2661168","name":"Ferman Nienow","party":"Rep","address":"1237 E 200 S, Pleasant Grove, UT 84062","precinct":"25PG12","hd":"55","v_score":"1.193887297","decile":"4","lat":40.3613286889775,"lng":-111.71062470069629},{"vid":"2681165","name":"Linden Walsh-Larson","party":"","address":"1221 E 200 S, Pleasant Grove, UT 84062","precinct":"25PG12","hd":"55","v_score":"0","decile":"2","lat":40.36144350417513,"lng":-111.71092406570202},{"vid":"2682391","name":"Duwayne Volkman Sr.","party":"","address":"841 E 200 S, Pleasant Grove, UT 84062","precinct":"25PG12","hd":"55","v_score":"0","decile":"2","lat":40.36159197822508,"lng":-111.72159355440004},{"vid":"2690198","name":"Dr. Lavern Pfannerstill PhD","party":"Rep","address":"640 E 100 S, Pleasant Grove, UT 84062","precinct":"25PG12","hd":"55","v_score":"0","decile":"2","lat":40.10820295641484,"lng":-111.6433964046749},{"vid":"2694373","name":"Evelina Mueller","party":"Rep","address":"30 S 700 E, Pleasant Grove, UT 84062","precinct":"25PG12","hd":"55","v_score":"1.193887297","decile":"4","lat":40.3635168018805,"lng":-111.72568399308123},{"vid":"2701584","name":"Corey Hintz","party":"Rep","address":"1108 E 200 N, Pleasant Grove, UT 84062","precinct":"25PG12","hd":"55","v_score":"4.905839784","decile":"7","lat":40.16925396560105,"lng":-111.59041639714906},{"vid":"2708064","name":"Nicholaus Brekke","party":"","address":"163 S 500 E, Pleasant Grove, UT 84062","precinct":"25PG12","hd":"55","v_score":"0","decile":"2","lat":40.361688707106126,"lng":-111.73040420906729},{"vid":"2710522","name":"Dr. Milissa Considine MD","party":"Dem","address":"180 N 1050 E, Pleasant Grove, UT 84062","precinct":"25PG12","hd":"55","v_score":"4.905839784","decile":"7","lat":40.365977217434555,"lng":-111.71555456047278},{"vid":"2735114","name":"Zaniyah Zboncak-Romaguera","party":"Rep","address":"152 N 1400 E, Pleasant Grove, UT 84062","precinct":"25PG12","hd":"55","v_score":"2.876042565","decile":"6","lat":40.36554992939114,"lng":-111.70595773345937},{"vid":"2736046","name":"Charle Cole","party":"Dem","address":"64 S 1025 E, Pleasant Grove, UT 84062","precinct":"25PG12","hd":"55","v_score":"0","decile":"2","lat":40.363394885971005,"lng":-111.71747688008247},{"vid":"2741404","name":"Buell Eichmann II","party":"","address":"621 E 200 S, Pleasant Grove, UT 84062","precinct":"25PG12","hd":"55","v_score":"0","decile":"2","lat":40.361359067649396,"lng":-111.72717455667272},{"vid":"2742064","name":"Carolee Maggio","party":"Rep","address":"27 S 1185 E, Pleasant Grove, UT 84062","precinct":"25PG12","hd":"55","v_score":"0","decile":"2","lat":40.363423981788564,"lng":-111.71251565688465},{"vid":"2751214","name":"Amanda McGlynn-Reichel","party":"","address":"1093 E 30 S, Pleasant Grove, UT 84062","precinct":"25PG12","hd":"55","v_score":"0","decile":"2","lat":40.36350642676225,"lng":-111.71482113404541},{"vid":"2751384","name":"Asberry Legros","party":"Rep","address":"1113 E 30 S, Pleasant Grove, UT 84062","precinct":"25PG12","hd":"55","v_score":"1.193887297","decile":"4","lat":40.36376058840159,"lng":-111.71453324738118},{"vid":"2753820","name":"Hilda Wilkinson","party":"","address":"1381 E 150 N, Pleasant Grove, UT 84062","precinct":"25PG12","hd":"55","v_score":"4.069929862","decile":"7","lat":40.365718215718246,"lng":-111.70844745627778},{"vid":"2759100","name":"Mrs. Mya Watsica DVM","party":"","address":"125 S 1300 E, Pleasant Grove, UT 84062","precinct":"25PG12","hd":"55","v_score":"33.64625644","decile":"10","lat":40.3621369413759,"lng":-111.70937628888169},{"vid":"2760904","name":"Thurman Mann MD","party":"","address":"220 N 1300 E, Pleasant Grove, UT 84062","precinct":"25PG12","hd":"55","v_score":"37.23116319","decile":"10","lat":40.3658977649881,"lng":-111.7098317782766},{"vid":"2775354","name":"Moshe Durgan","party":"Rep","address":"26 S 760 E, Pleasant Grove, UT 84062","precinct":"25PG12","hd":"55","v_score":"1.193887297","decile":"4","lat":40.363435172730966,"lng":-111.72425032765679},{"vid":"2780005","name":"Savon Vandervort-Schmidt","party":"","address":"145 S 500 E, Pleasant Grove, UT 84062","precinct":"25PG12","hd":"55","v_score":"2.876042565","decile":"6","lat":40.36192595616996,"lng":-111.73002725665383},{"vid":"2787020","name":"Mr. Harm Williamson DVM","party":"","address":"163 S 500 E, Pleasant Grove, UT 84062","precinct":"25PG12","hd":"55","v_score":"1.193887297","decile":"4","lat":40.361688707106126,"lng":-111.73040420906729},{"vid":"2790327","name":"Osie Walker","party":"Dem","address":"1235 E 120 N, Pleasant Grove, UT 84062","precinct":"25PG12","hd":"55","v_score":"0","decile":"2","lat":40.36551260539265,"lng":-111.71137738339792},{"vid":"2792648","name":"Justice Wyman","party":"Dem","address":"113 N 1400 E, Pleasant Grove, UT 84062","precinct":"25PG12","hd":"55","v_score":"0","decile":"2","lat":40.36490881167486,"lng":-111.70873419630064},{"vid":"2797894","name":"Lacie Krajcik DDS","party":"","address":"89 S 800 E, Pleasant Grove, UT 84062","precinct":"25PG12","hd":"55","v_score":"1.193887297","decile":"4","lat":40.362596017765455,"lng":-111.72290639910912},{"vid":"2801641","name":"Dr. Sherrill Conroy Sr.","party":"","address":"180 N 1050 E, Pleasant Grove, UT 84062","precinct":"25PG12","hd":"55","v_score":"4.069929862","decile":"7","lat":40.365977217434555,"lng":-111.71555456047278},{"vid":"2810788","name":"Miss Vicki Bayer MD","party":"","address":"1235 E 120 N, Pleasant Grove, UT 84062","precinct":"25PG12","hd":"55","v_score":"0","decile":"2","lat":40.36551260539265,"lng":-111.71137738339792},{"vid":"2827380","name":"Miss Jonna Oberbrunner MD","party":"Dem","address":"589 E 200 S, Pleasant Grove, UT 84062","precinct":"25PG12","hd":"55","v_score":"1.193887297","decile":"4","lat":40.36142366040313,"lng":-111.72864283601363},{"vid":"2828829","name":"Alan Ratke","party":"Rep","address":"621 E 200 S, Pleasant Grove, UT 84062","precinct":"25PG12","hd":"55","v_score":"0","decile":"2","lat":40.361359067649396,"lng":-111.72717455667272},{"vid":"2860719","name":"Samson Lubowitz","party":"Dem","address":"195 N 1400 E, Pleasant Grove, UT 84062","precinct":"25PG12","hd":"55","v_score":"4.069929862","decile":"7","lat":40.36600899165194,"lng":-111.7080510671128},{"vid":"2868950","name":"Kelvin O'Reilly III","party":"Dem","address":"30 S 1300 E, Pleasant Grove, UT 84062","precinct":"25PG12","hd":"55","v_score":"1.193887297","decile":"4","lat":40.363667779714845,"lng":-111.71001849707068},{"vid":"2874233","name":"Sheron McKenzie","party":"Rep","address":"1285 E Center St, Pleasant Grove, UT 84062","precinct":"25PG12","hd":"55","v_score":"0","decile":"2","lat":40.3641639933496,"lng":-111.71058008577788},{"vid":"2882148","name":"Santos Wisozk","party":"","address":"1098 E 110 S, Pleasant Grove, UT 84062","precinct":"25PG12","hd":"55","v_score":"1.193887297","decile":"4","lat":40.361915953050485,"lng":-111.71455419726854},{"vid":"2886454","name":"Louella Corkery MD","party":"Dem","address":"20 S 700 E, Pleasant Grove, UT 84062","precinct":"25PG12","hd":"55","v_score":"1.193887297","decile":"4","lat":40.36367487217367,"lng":-111.7256845141041},{"vid":"2895298","name":"Ms. Marnie Schmidt","party":"Dem","address":"164 S 980 E, Pleasant Grove, UT 84062","precinct":"25PG12","hd":"55","v_score":"0","decile":"2","lat":40.361875157694975,"lng":-111.71813550140828},{"vid":"2898521","name":"Rory Kling","party":"Rep","address":"30 S 700 E, Pleasant Grove, UT 84062","precinct":"25PG12","hd":"55","v_score":"0","decile":"2","lat":40.3635168018805,"lng":-111.72568399308123},{"vid":"2904514","name":"Mr. Gregory Barrows DVM","party":"","address":"163 S 500 E, Pleasant Grove, UT 84062","precinct":"25PG12","hd":"55","v_score":"0","decile":"2","lat":40.361688707106126,"lng":-111.73040420906729},{"vid":"2906741","name":"Elmer Vandervort II","party":"","address":"80 S 1300 E, Pleasant Grove, UT 84062","precinct":"25PG12","hd":"55","v_score":"0","decile":"2","lat":40.36289622705841,"lng":-111.7099385134037},{"vid":"2916925","name":"Napoleon Hagenes","party":"","address":"28 S 1050 E, Pleasant Grove, UT 84062","precinct":"25PG12","hd":"55","v_score":"0","decile":"2","lat":40.36331812480245,"lng":-111.71589935489939},{"vid":"2920312","name":"Cristian Parker","party":"","address":"715 E 200 S, Pleasant Grove, UT 84062","precinct":"25PG12","hd":"55","v_score":"0","decile":"2","lat":40.361474120724985,"lng":-111.72513916809535},{"vid":"2920617","name":"Jerimiah Dooley","party":"Rep","address":"590 E 100 S, Pleasant Grove, UT 84062","precinct":"25PG12","hd":"55","v_score":"0","decile":"2","lat":40.36218364763779,"lng":-111.72861713997794},{"vid":"2921615","name":"Stevie Bogisich III","party":"Rep","address":"20 S 700 E, Pleasant Grove, UT 84062","precinct":"25PG12","hd":"55","v_score":"0","decile":"2","lat":40.36367487217367,"lng":-111.7256845141041},{"vid":"2925149","name":"Alla Gusikowski","party":"","address":"715 E 200 S, Pleasant Grove, UT 84062","precinct":"25PG12","hd":"55","v_score":"0","decile":"2","lat":40.361474120724985,"lng":-111.72513916809535},{"vid":"2927679","name":"Hasel Hoeger DDS","party":"Dem","address":"1171 E 30 S, Pleasant Grove, UT 84062","precinct":"25PG12","hd":"55","v_score":"0","decile":"2","lat":40.36402705909972,"lng":-111.7130449490191},{"vid":"2927816","name":"Manuelita Steuber","party":"","address":"113 N 1400 E, Pleasant Grove, UT 84062","precinct":"25PG12","hd":"55","v_score":"0","decile":"2","lat":40.36490881167486,"lng":-111.70873419630064},{"vid":"2946414","name":"Mr. Gauge Hagenes","party":"","address":"1026 E 100 S, Pleasant Grove, UT 84062","precinct":"25PG12","hd":"55","v_score":"2.876042565","decile":"6","lat":40.3624382459396,"lng":-111.71727241921106},{"vid":"2946811","name":"Mr. Omar Veum","party":"Rep","address":"45 N 1400 E, Pleasant Grove, UT 84062","precinct":"25PG12","hd":"55","v_score":"2.876042565","decile":"6","lat":40.36459701299123,"lng":-111.70824324905996},{"vid":"2948100","name":"Dr. Dora Ledner MD","party":"","address":"1381 E 150 N, Pleasant Grove, UT 84062","precinct":"25PG12","hd":"55","v_score":"2.876042565","decile":"6","lat":40.365718215718246,"lng":-111.70844745627778},{"vid":"2948949","name":"Chin McClure","party":"","address":"535 E 200 S, Pleasant Grove, UT 84062","precinct":"25PG12","hd":"55","v_score":"0","decile":"2","lat":40.36141889499943,"lng":-111.72979202121486},{"vid":"2960768","name":"Mr. Orrie Gottlieb","party":"","address":"151 S 500 E, Pleasant Grove, UT 84062","precinct":"25PG12","hd":"55","v_score":"0","decile":"2","lat":40.36191714910828,"lng":-111.72985291865926},{"vid":"2964651","name":"Dr. Kyara Dare PhD","party":"","address":"45 N 1400 E, Pleasant Grove, UT 84062","precinct":"25PG12","hd":"55","v_score":"0","decile":"2","lat":40.36459701299123,"lng":-111.70824324905996},{"vid":"2970705","name":"Nealy Kerluke-Torphy","party":"","address":"1143 E 30 S, Pleasant Grove, UT 84062","precinct":"25PG12","hd":"55","v_score":"0","decile":"2","lat":40.3640817079038,"lng":-111.71373897328105},{"vid":"2974328","name":"Chaz Bartell","party":"","address":"35 S 500 E, Pleasant Grove, UT 84062","precinct":"25PG12","hd":"55","v_score":"0","decile":"2","lat":40.363384219506344,"lng":-111.7300362303808},{"vid":"2974589","name":"Mr. Isidro O'Keefe","party":"Rep","address":"73 S 850 E, Pleasant Grove, UT 84062","precinct":"25PG12","hd":"55","v_score":"1.121327652","decile":"3","lat":40.36283774328278,"lng":-111.72160302022769},{"vid":"2981782","name":"Miss Rachel Flatley","party":"Rep","address":"118 S 980 E, Pleasant Grove, UT 84062","precinct":"25PG12","hd":"55","v_score":"0","decile":"2","lat":40.362421296529384,"lng":-111.71838871198128},{"vid":"2982557","name":"Zayne Hegmann","party":"Rep","address":"616 E 100 S, Pleasant Grove, UT 84062","precinct":"25PG12","hd":"55","v_score":"0","decile":"2","lat":40.362263939780604,"lng":-111.72776677803064},{"vid":"3090941","name":"Darcie Christiansen","party":"Dem","address":"211 N 1300 E, Pleasant Grove, UT 84062","precinct":"25PG12","hd":"55","v_score":"19.1624148","decile":"10","lat":40.365868003954276,"lng":-111.71033537023159},{"vid":"3119192","name":"Cherrelle Denesik","party":"Dem","address":"1095 E 100 N, Pleasant Grove, UT 84062","precinct":"25PG12","hd":"55","v_score":"5.40460374","decile":"7","lat":40.365481601149845,"lng":-111.71501202236048},{"vid":"3513962","name":"Lyda Funk","party":"Rep","address":"1155 E 100 N, Pleasant Grove, UT 84062","precinct":"25PG12","hd":"55","v_score":"0","decile":"2","lat":40.364983982321554,"lng":-111.71352397857531},{"vid":"3544953","name":"Brock Emmerich","party":"Rep","address":"65 N 1400 E, Pleasant Grove, UT 84062","precinct":"25PG12","hd":"55","v_score":"14.95117867","decile":"9","lat":40.36465402222349,"lng":-111.70862884872425},{"vid":"3554448","name":"Cassius Nitzsche","party":"","address":"113 N 1400 E, Pleasant Grove, UT 84062","precinct":"25PG12","hd":"55","v_score":"4.069929862","decile":"7","lat":40.36490881167486,"lng":-111.70873419630064},{"vid":"85c9c0833d43b76ab61b3a7709c2447da2e12213fff32c23e023d4953a6d2ad7","name":"Lakendra Legros","party":"Rep","address":"185 N 1300 E, Pleasant Grove, UT 84062","precinct":"25PG12","hd":"55","v_score":"14.53583379","decile":"9","lat":40.36560757706543,"lng":-111.71032063893892},{"vid":"3586900","name":"Arlie Bashirian-Beier","party":"Rep","address":"45 N 1400 E, Pleasant Grove, UT 84062","precinct":"25PG12","hd":"55","v_score":"4.214075011","decile":"7","lat":40.36459701299123,"lng":-111.70824324905996},{"vid":"5220785","name":"Hadley Fay DDS","party":"Rep","address":"15 S Monson Cir, Pleasant Grove, UT 84062","precinct":"25PG12","hd":"55","v_score":"1.121327652","decile":"3","lat":40.363574731521034,"lng":-111.71816170761574},{"vid":"5517966","name":"Mr. Loring Durgan IV","party":"Rep","address":"1460 E 140 S, Pleasant Grove, UT 84062","precinct":"25PG12","hd":"55","v_score":"14.74039814","decile":"9","lat":40.36174380940942,"lng":-111.70674364350097},{"vid":"5528201","name":"Luanne Runolfsson PhD","party":"Rep","address":"1460 E 140 S, Pleasant Grove, UT 84062","precinct":"25PG12","hd":"55","v_score":"14.74039814","decile":"9","lat":40.36174380940942,"lng":-111.70674364350097},{"vid":"5538455","name":"Wally Howell","party":"","address":"220 N 1300 E, Pleasant Grove, UT 84062","precinct":"25PG12","hd":"55","v_score":"32.39500163","decile":"10","lat":40.3658977649881,"lng":-111.7098317782766},{"vid":"5550062","name":"Brett Kutch","party":"Rep","address":"788 E 100 S, Pleasant Grove, UT 84062","precinct":"25PG12","hd":"55","v_score":"20.37233113","decile":"10","lat":40.362209386729795,"lng":-111.72335634373471},{"vid":"5557561","name":"Hattie Bogisich PhD","party":"","address":"151 S 500 E, Pleasant Grove, UT 84062","precinct":"25PG12","hd":"55","v_score":"15.12746977","decile":"9","lat":40.36191714910828,"lng":-111.72985291865926},{"vid":"17ac99175d50edd7d9cc92492065d2fe6d13cf0f4604dc97569b0f29cb4610d7","name":"Ramsey Boyle MD","party":"Dem","address":"695 E 200 S, Pleasant Grove, UT 84062","precinct":"25PG12","hd":"55","v_score":"17.89408627","decile":"10","lat":40.36140667008325,"lng":-111.72567558646713},{"vid":"8b3b3a1e42621d98524e2ceb8133fa522f879fecef3594eb076781d1462e18ee","name":"Cass Herman","party":"Rep","address":"790 E 100 S, Pleasant Grove, UT 84062","precinct":"25PG12","hd":"55","v_score":"22.19657077","decile":"10","lat":40.36204119338758,"lng":-111.7232851445486},{"vid":"6081490","name":"Mr. Alvia Sporer DDS","party":"","address":"29 S 1025 E, Pleasant Grove, UT 84062","precinct":"25PG12","hd":"55","v_score":"14.13794019","decile":"9","lat":40.364316190205365,"lng":-111.71640293585824},{"vid":"36d2a31f5d1248f04f05a85d53ba10ddefe736dc6c30cf40e02f7dfd2491353f","name":"Wenzel Kub","party":"","address":"32 N 1300 E, Pleasant Grove, UT 84062","precinct":"25PG12","hd":"55","v_score":"7.934314529","decile":"8","lat":40.36436851805758,"lng":-111.70970406470477},{"vid":"7e5fbb66d0b71bef5bd7e04f5629bffced553686a97e527a85dc2cd9deb33a6a","name":"Yoshio Walter","party":"Rep","address":"183 N 1350 E, Pleasant Grove, UT 84062","precinct":"25PG12","hd":"55","v_score":"28.05068527","decile":"10","lat":40.36605030255929,"lng":-111.7091755035874},{"vid":"6094419","name":"Mr. Ignatz Hoeger I","party":"","address":"1213 E 200 S, Pleasant Grove, UT 84062","precinct":"25PG12","hd":"55","v_score":"8.280646305","decile":"8","lat":40.36145563058607,"lng":-111.7121430103124},{"vid":"6103741","name":"Mekhi Rice","party":"Dem","address":"739 E 200 S, Pleasant Grove, UT 84062","precinct":"25PG12","hd":"55","v_score":"20.77768495","decile":"10","lat":40.361519232620566,"lng":-111.7244644795464},{"vid":"960ad4d6b491496146b4e5bf5c0573b0950503c32d0a0a9427b8e9d313d79dcb","name":"Minnie Konopelski","party":"Rep","address":"29 S 760 E, Pleasant Grove, UT 84062","precinct":"25PG12","hd":"55","v_score":"5.191257514","decile":"7","lat":40.36343467275357,"lng":-111.72378706507125},{"vid":"6148834","name":"Dr. Rufus Ferry","party":"Rep","address":"1117 E 30 S, Pleasant Grove, UT 84062","precinct":"25PG12","hd":"55","v_score":"6.468038869","decile":"7","lat":40.36393162531632,"lng":-111.71480121151852},{"vid":"6170989","name":"Kellie Spencer","party":"","address":"1084 E 30 S, Pleasant Grove, UT 84062","precinct":"25PG12","hd":"55","v_score":"38.39988068","decile":"10","lat":40.36321015082318,"lng":-111.71490577443981},{"vid":"6179722","name":"Severo Gleichner","party":"Rep","address":"595 E 200 S, Pleasant Grove, UT 84062","precinct":"25PG12","hd":"55","v_score":"0","decile":"3","lat":40.36142307310781,"lng":-111.7284165375605},{"vid":"6201218","name":"Daquan Steuber","party":"Rep","address":"1113 E 100 N, Pleasant Grove, UT 84062","precinct":"25PG12","hd":"55","v_score":"21.8990126","decile":"10","lat":40.36548274886392,"lng":-111.7145709858834},{"vid":"6201546","name":"Hal Grant","party":"Dem","address":"125 S 1300 E, Pleasant Grove, UT 84062","precinct":"25PG12","hd":"55","v_score":"30.70334885","decile":"10","lat":40.3621369413759,"lng":-111.70937628888169},{"vid":"6202547","name":"Audie Mills DDS","party":"Rep","address":"80 S 600 E, Pleasant Grove, UT 84062","precinct":"25PG12","hd":"55","v_score":"30.47669206","decile":"10","lat":40.362862202176565,"lng":-111.72838361801088},{"vid":"6204207","name":"Maxie Orn","party":"Rep","address":"1555 E 200 S, Pleasant Grove, UT 84062","precinct":"25PG12","hd":"55","v_score":"11.86178988","decile":"9","lat":40.361459142377406,"lng":-111.705094120258},{"vid":"6208493","name":"Mr. Aaden Adams I","party":"Dem","address":"2 S 1300 E, Pleasant Grove, UT 84062","precinct":"25PG12","hd":"55","v_score":"18.00198781","decile":"10","lat":40.36390983404573,"lng":-111.71002874948886},{"vid":"6210026","name":"Muriel Cole DDS","party":"Dem","address":"93 N 1185 E, Pleasant Grove, UT 84062","precinct":"25PG12","hd":"55","v_score":"30.47669206","decile":"10","lat":40.36469312047398,"lng":-111.71301512209835},{"vid":"6214207","name":"Rona Brown","party":"Rep","address":"85 S 1400 E, Pleasant Grove, UT 84062","precinct":"25PG12","hd":"55","v_score":"19.15121325","decile":"10","lat":40.36245439250474,"lng":-111.707509250495},{"vid":"6217969","name":"Wirt Crist-Bernier","party":"","address":"1361 E 150 N, Pleasant Grove, UT 84062","precinct":"25PG12","hd":"55","v_score":"10.13721141","decile":"9","lat":40.365717454883914,"lng":-111.70878110979825},{"vid":"6223465","name":"Eduardo McLaughlin II","party":"Rep","address":"832 E 50 S, Pleasant Grove, UT 84062","precinct":"25PG12","hd":"55","v_score":"38.00020808","decile":"10","lat":40.36311093701776,"lng":-111.72249936434915},{"vid":"6226393","name":"Coolidge Denesik","party":"Rep","address":"67 S 600 E, Pleasant Grove, UT 84062","precinct":"25PG12","hd":"55","v_score":"2.315214949","decile":"5","lat":40.36298572569719,"lng":-111.72770186433091},{"vid":"6226800","name":"Kerry O'Keefe","party":"Dem","address":"67 S 600 E, Pleasant Grove, UT 84062","precinct":"25PG12","hd":"55","v_score":"2.744440783","decile":"6","lat":40.36298572569719,"lng":-111.72770186433091},{"vid":"923a04b71e77bf454e96ec73c9ddade3b229bfe4104ad4157421269cde18f14a","name":"Ocie Stoltenberg-Mills","party":"","address":"570 E 100 S, Pleasant Grove, UT 84062","precinct":"25PG12","hd":"55","v_score":"30.47669206","decile":"10","lat":40.362133876041725,"lng":-111.72895253066982},{"vid":"6227685","name":"Milan Ullrich","party":"Rep","address":"1017 E 200 S, Pleasant Grove, UT 84062","precinct":"25PG12","hd":"55","v_score":"4.833280139","decile":"7","lat":40.361521543847054,"lng":-111.71683947538133},{"vid":"6229206","name":"Mr. Zigmund Grady","party":"Dem","address":"93 N 1185 E, Pleasant Grove, UT 84062","precinct":"25PG12","hd":"55","v_score":"33.57939141","decile":"10","lat":40.36469312047398,"lng":-111.71301512209835},{"vid":"6236625","name":"Gino Frami DVM","party":"","address":"17 S 1185 E, Pleasant Grove, UT 84062","precinct":"25PG12","hd":"55","v_score":"36.52229901","decile":"10","lat":40.36374814799202,"lng":-111.7125093780357},{"vid":"375d6984cbbd4d2b25136e95787d59471bd5696800d3f7ed51f2d8119c9defd0","name":"Ms. Frieda Bogan","party":"Rep","address":"65 S 700 E, Pleasant Grove, UT 84062","precinct":"25PG12","hd":"55","v_score":"0","decile":"3","lat":40.363026917128785,"lng":-111.72499214819896},{"vid":"6238760","name":"Lahoma Jacobs","party":"","address":"164 S 980 E, Pleasant Grove, UT 84062","precinct":"25PG12","hd":"55","v_score":"16.14542271","decile":"9","lat":40.361875157694975,"lng":-111.71813550140828},{"vid":"6239326","name":"Banks Kilback-Davis","party":"Dem","address":"140 S 950 E, Pleasant Grove, UT 84062","precinct":"25PG12","hd":"55","v_score":"29.3653164","decile":"10","lat":40.36215786889954,"lng":-111.72009498019463},{"vid":"6244614","name":"Rylee Krajcik","party":"","address":"1252 E 200 N, Pleasant Grove, UT 84062","precinct":"25PG12","hd":"55","v_score":"1.121327652","decile":"3","lat":40.36620726621652,"lng":-111.71120322858516},{"vid":"6248106","name":"Mr. Jadyn Reynolds III","party":"Rep","address":"1183 E 120 N, Pleasant Grove, UT 84062","precinct":"25PG12","hd":"55","v_score":"17.36151318","decile":"9","lat":40.36553361448327,"lng":-111.71288532277542},{"vid":"6252385","name":"Starling Zulauf","party":"Rep","address":"151 N 1300 E, Pleasant Grove, UT 84062","precinct":"25PG12","hd":"55","v_score":"2.744440783","decile":"6","lat":40.365347152045096,"lng":-111.71030440009353},{"vid":"08ff4504e4f9eb679ceb112be941d3b681731caf0628e9d0db689302e3d833cc","name":"Ason Hoppe","party":"","address":"650 E 150 S, Pleasant Grove, UT 84062","precinct":"25PG12","hd":"55","v_score":"26.77951785","decile":"10","lat":40.36162886074426,"lng":-111.7267193737381},{"vid":"6255627","name":"Houston Hintz","party":"","address":"515 E 200 S, Pleasant Grove, UT 84062","precinct":"25PG12","hd":"55","v_score":"9.116556227","decile":"8","lat":40.36142416450314,"lng":-111.73011312670812},{"vid":"6258630","name":"Griselda Auer-Vandervort","party":"Rep","address":"651 E 100 S, Pleasant Grove, UT 84062","precinct":"25PG12","hd":"55","v_score":"5.536205522","decile":"7","lat":40.362623112782416,"lng":-111.72676187368549},{"vid":"6265767","name":"Corinna O'Conner","party":"Rep","address":"180 S 700 E, Pleasant Grove, UT 84062","precinct":"25PG12","hd":"55","v_score":"28.05068527","decile":"10","lat":40.36172495731061,"lng":-111.72570246711471},{"vid":"6266079","name":"Vernie Swift","party":"","address":"1212 E 120 N, Pleasant Grove, UT 84062","precinct":"25PG12","hd":"55","v_score":"6.814370645","decile":"8","lat":40.36520803985255,"lng":-111.71218253828098},{"vid":"6266744","name":"Joi Klein","party":"","address":"570 E 100 S, Pleasant Grove, UT 84062","precinct":"25PG12","hd":"55","v_score":"10.71001167","decile":"9","lat":40.362133876041725,"lng":-111.72895253066982},{"vid":"6285480","name":"Gil Waelchi","party":"Rep","address":"1121 E 30 S, Pleasant Grove, UT 84062","precinct":"25PG12","hd":"55","v_score":"5.40460374","decile":"7","lat":40.364224799261855,"lng":-111.71455315512428},{"vid":"6286093","name":"Mr. Elliot Hettinger","party":"Rep","address":"64 S 1025 E, Pleasant Grove, UT 84062","precinct":"25PG12","hd":"55","v_score":"15.39205011","decile":"9","lat":40.363394885971005,"lng":-111.71747688008247},{"vid":"6287162","name":"Albin Hyatt","party":"Rep","address":"1026 E 100 S, Pleasant Grove, UT 84062","precinct":"25PG12","hd":"55","v_score":"8.149837396","decile":"8","lat":40.3624382459396,"lng":-111.71727241921106},{"vid":"6287729","name":"Hill Osinski","party":"Rep","address":"65 S 700 E, Pleasant Grove, UT 84062","precinct":"25PG12","hd":"55","v_score":"24.33873278","decile":"10","lat":40.363026917128785,"lng":-111.72499214819896},{"vid":"04dc62bab23814cfa8aa391c15224b0382cc48cdeaf04690076fd3367c8d08a5","name":"Maximo Hagenes DVM","party":"Dem","address":"587 E 100 S, Pleasant Grove, UT 84062","precinct":"25PG12","hd":"55","v_score":"8.347511332","decile":"8","lat":40.362636946692916,"lng":-111.72858567829104},{"vid":"6296272","name":"Mr. Marlin Fahey DVM","party":"","address":"215 N 1400 E, Pleasant Grove, UT 84062","precinct":"25PG12","hd":"55","v_score":"6.027167436","decile":"7","lat":40.3664903977452,"lng":-111.70794471362},{"vid":"6300844","name":"Vernell Harris PhD","party":"","address":"825 E 50 S, Pleasant Grove, UT 84062","precinct":"25PG12","hd":"55","v_score":"7.549608095","decile":"8","lat":40.36331340124466,"lng":-111.72250946021445},{"vid":"6302266","name":"Brian Mueller","party":"Rep","address":"151 N 1300 E, Pleasant Grove, UT 84062","precinct":"25PG12","hd":"55","v_score":"2.744440783","decile":"6","lat":40.365347152045096,"lng":-111.71030440009353},{"vid":"6304932","name":"Miss Delfina Leffler","party":"Rep","address":"1455 E 140 S, Pleasant Grove, UT 84062","precinct":"25PG12","hd":"55","v_score":"27.78610493","decile":"10","lat":40.36203188438888,"lng":-111.70674764522334},{"vid":"6306537","name":"Carolann Nolan","party":"Rep","address":"183 N 1350 E, Pleasant Grove, UT 84062","precinct":"25PG12","hd":"55","v_score":"6.468038869","decile":"7","lat":40.36605030255929,"lng":-111.7091755035874},{"vid":"6310221","name":"Shamika Quitzon","party":"Rep","address":"97 S 700 E, Pleasant Grove, UT 84062","precinct":"25PG12","hd":"55","v_score":"14.95117867","decile":"9","lat":40.36287489802391,"lng":-111.72499461012185},{"vid":"6310238","name":"Ms. Willie Watsica MD","party":"Rep","address":"97 S 700 E, Pleasant Grove, UT 84062","precinct":"25PG12","hd":"55","v_score":"14.95117867","decile":"9","lat":40.36287489802391,"lng":-111.72499461012185},{"vid":"6311955","name":"Dr. Gottlieb Larson PhD","party":"Dem","address":"1321 E 150 N, Pleasant Grove, UT 84062","precinct":"25PG12","hd":"55","v_score":"36.52229901","decile":"10","lat":40.36575610217933,"lng":-111.70951193482647},{"vid":"6312106","name":"Broderick Waelchi","party":"","address":"1008 E 100 S, Pleasant Grove, UT 84062","precinct":"25PG12","hd":"55","v_score":"25.7440844","decile":"10","lat":40.36233993781255,"lng":-111.71755176382338},{"vid":"6312801","name":"Mr. David Collins Sr.","party":"","address":"73 S 850 E, Pleasant Grove, UT 84062","precinct":"25PG12","hd":"55","v_score":"31.93892885","decile":"10","lat":40.36283774328278,"lng":-111.72160302022769},{"vid":"6314313","name":"Olivia Hahn-Emard","party":"Rep","address":"24 N 1185 E, Pleasant Grove, UT 84062","precinct":"25PG12","hd":"55","v_score":"5.258122542","decile":"7","lat":40.3640275627228,"lng":-111.71254905846857},{"vid":"6316861","name":"Waylon Heaney","party":"","address":"91 S 500 E, Pleasant Grove, UT 84062","precinct":"25PG12","hd":"55","v_score":"19.60612512","decile":"10","lat":40.36267546913701,"lng":-111.7303884335729},{"vid":"9d881d0aed1b3f53dfdfd8ac811262730e2e1d4f5625bd7fbb5a95cc66ae165d","name":"Arline Parker DDS","party":"Dem","address":"52 S 1025 E, Pleasant Grove, UT 84062","precinct":"25PG12","hd":"55","v_score":"2.315214949","decile":"5","lat":40.36365925765167,"lng":-111.71750709673447},{"vid":"6328666","name":"Dr. Luda West DDS","party":"","address":"855 E 200 S, Pleasant Grove, UT 84062","precinct":"25PG12","hd":"55","v_score":"1.121327652","decile":"3","lat":40.36150921165151,"lng":-111.7213392918983},{"vid":"6329174","name":"Dr. Noe Boyle","party":"Rep","address":"2 S 1300 E, Pleasant Grove, UT 84062","precinct":"25PG12","hd":"55","v_score":"6.897264703","decile":"8","lat":40.36390983404573,"lng":-111.71002874948886},{"vid":"6330247","name":"Edmond Sawayn","party":"","address":"47 S 1185 E, Pleasant Grove, UT 84062","precinct":"25PG12","hd":"55","v_score":"38.00020808","decile":"10","lat":40.363152407139886,"lng":-111.71229752101183},{"vid":"6332514","name":"Jaren Kutch","party":"Dem","address":"50 S 700 E, Pleasant Grove, UT 84062","precinct":"25PG12","hd":"55","v_score":"33.57939141","decile":"10","lat":40.36310843378024,"lng":-111.72569499995876},{"vid":"6332733","name":"Caylee Ferry DDS","party":"Rep","address":"879 E 200 S, Pleasant Grove, UT 84062","precinct":"25PG12","hd":"55","v_score":"8.347511332","decile":"8","lat":40.36158331639169,"lng":-111.72096572166708},{"vid":"10c2a32712cda8ae4874532129a93bf5f56f06b45aa6d4732a7b35c32bf303ec","name":"Marie Bechtelar","party":"","address":"1340 E 150 N, Pleasant Grove, UT 84062","precinct":"25PG12","hd":"55","v_score":"30.47669206","decile":"10","lat":40.365031540897675,"lng":-111.70911137008247},{"vid":"6338335","name":"Mr. Carl Wolf","party":"Rep","address":"1340 E 150 N, Pleasant Grove, UT 84062","precinct":"25PG12","hd":"55","v_score":"30.47669206","decile":"10","lat":40.365031540897675,"lng":-111.70911137008247},{"vid":"10c26e84de8223098835d5668cade63b780a95dcb60744e5c0900f2253178a78","name":"Chase Kulas","party":"Dem","address":"166 S 1300 E, Pleasant Grove, UT 84062","precinct":"25PG12","hd":"55","v_score":"25.7440844","decile":"10","lat":40.361974557918835,"lng":-111.71025358407476},{"vid":"6353625","name":"Armin Dickinson","party":"Dem","address":"1147 E 100 N, Pleasant Grove, UT 84062","precinct":"25PG12","hd":"55","v_score":"5.191257514","decile":"7","lat":40.36550570700043,"lng":-111.71352936840276},{"vid":"6361319","name":"Madalynn Davis","party":"Dem","address":"90 S 1300 E, Pleasant Grove, UT 84062","precinct":"25PG12","hd":"55","v_score":"9.907118004","decile":"8","lat":40.36267758175221,"lng":-111.71006159003117},{"vid":"d489bd4f06f781b535ecfe8da3cdec98afaae13876a69bb990df2fec4a711289","name":"Delos Rogahn","party":"","address":"1321 E 150 N, Pleasant Grove, UT 84062","precinct":"25PG12","hd":"55","v_score":"40.94311568","decile":"10","lat":40.36575610217933,"lng":-111.70951193482647},{"vid":"e1b85b61fde24b452f64b7fa1560351a2570a73e6d447e09013485ecbd03c69f","name":"Toshio Ritchie","party":"Dem","address":"1140 E 30 S, Pleasant Grove, UT 84062","precinct":"25PG12","hd":"55","v_score":"3.997370217","decile":"6","lat":40.36357039171992,"lng":-111.7138484157255},{"vid":"6372739","name":"Joanna Braun","party":"Dem","address":"65 N 1400 E, Pleasant Grove, UT 84062","precinct":"25PG12","hd":"55","v_score":"6.657533174","decile":"7","lat":40.36465402222349,"lng":-111.70862884872425},{"vid":"cd78de8c90fa6348851c21b179ca731214709bef87b4d3724d9e6e68a1eaa04b","name":"Trace Funk DVM","party":"","address":"1155 E 30 S, Pleasant Grove, UT 84062","precinct":"25PG12","hd":"55","v_score":"5.40460374","decile":"7","lat":40.364159234041466,"lng":-111.71353541118195},{"vid":"6381078","name":"Jermaine Marquardt-Ritchie","party":"Rep","address":"1198 E 200 N, Pleasant Grove, UT 84062","precinct":"25PG12","hd":"55","v_score":"17.52130493","decile":"9","lat":40.365964791569986,"lng":-111.71252633228383},{"vid":"6382646","name":"Minnie Ratke","party":"Dem","address":"75 S 500 E, Pleasant Grove, UT 84062","precinct":"25PG12","hd":"55","v_score":"1.121327652","decile":"3","lat":40.36289121067253,"lng":-111.73008780425258},{"vid":"6384421","name":"Dr. Shyla Hodkiewicz","party":"","address":"1211 E 120 N, Pleasant Grove, UT 84062","precinct":"25PG12","hd":"55","v_score":"9.116556227","decile":"8","lat":40.36566395863576,"lng":-111.71215714799837},{"vid":"6384667","name":"Miss Ada Bailey","party":"Rep","address":"175 S 700 E, Pleasant Grove, UT 84062","precinct":"25PG12","hd":"55","v_score":"0","decile":"3","lat":40.361800286949645,"lng":-111.72496988956321},{"vid":"6392251","name":"Dr. Lakeisha Parker PhD","party":"","address":"35 S 500 E, Pleasant Grove, UT 84062","precinct":"25PG12","hd":"55","v_score":"29.3653164","decile":"10","lat":40.363384219506344,"lng":-111.7300362303808},{"vid":"6392675","name":"Dr. Gustave VonRueden","party":"","address":"979 E 100 S, Pleasant Grove, UT 84062","precinct":"25PG12","hd":"55","v_score":"20.63538469","decile":"10","lat":40.36295612915814,"lng":-111.71845890038391},{"vid":"6398253","name":"Bobbye Veum-Schroeder","party":"Rep","address":"11 S 700 E, Pleasant Grove, UT 84062","precinct":"25PG12","hd":"55","v_score":"30.47669206","decile":"10","lat":40.363785956236676,"lng":-111.7251809312012},{"vid":"6399961","name":"Laurance Kunze","party":"Dem","address":"1555 E 200 S, Pleasant Grove, UT 84062","precinct":"25PG12","hd":"55","v_score":"7.781882349","decile":"8","lat":40.361459142377406,"lng":-111.705094120258},{"vid":"6404115","name":"Carroll Schinner","party":"Rep","address":"35 S 1400 E, Pleasant Grove, UT 84062","precinct":"25PG12","hd":"55","v_score":"2.998909327","decile":"6","lat":40.36314316258967,"lng":-111.7073293122842},{"vid":"6405255","name":"Tavaris Runolfsdottir","party":"Rep","address":"586 E Center St, Pleasant Grove, UT 84062","precinct":"25PG12","hd":"55","v_score":"0","decile":"3","lat":40.36369384541905,"lng":-111.72854162580786},{"vid":"6414823","name":"Carleen O'Keefe","party":"Dem","address":"163 S 500 E, Pleasant Grove, UT 84062","precinct":"25PG12","hd":"55","v_score":"16.35938263","decile":"9","lat":40.361688707106126,"lng":-111.73040420906729},{"vid":"6414824","name":"Shelba Feest","party":"Dem","address":"163 S 500 E, Pleasant Grove, UT 84062","precinct":"25PG12","hd":"55","v_score":"5.130838307","decile":"7","lat":40.361688707106126,"lng":-111.73040420906729},{"vid":"6414838","name":"Lonny Walsh","party":"","address":"140 S 1400 E, Pleasant Grove, UT 84062","precinct":"25PG12","hd":"55","v_score":"1.121327652","decile":"3","lat":40.36219842377174,"lng":-111.70832359126635},{"vid":"6416046","name":"Aloys Fahey","party":"Rep","address":"1422 E 50 S, Pleasant Grove, UT 84062","precinct":"25PG12","hd":"55","v_score":"7.031075439","decile":"8","lat":40.3627428432678,"lng":-111.70740357863632},{"vid":"6431361","name":"Lavon Farrell","party":"Rep","address":"44 S 1025 E, Pleasant Grove, UT 84062","precinct":"25PG12","hd":"55","v_score":"13.84916389","decile":"9","lat":40.363964917718526,"lng":-111.71751100683558},{"vid":"6434212","name":"Mr. Fernand Howell Sr.","party":"","address":"20 S 700 E, Pleasant Grove, UT 84062","precinct":"25PG12","hd":"55","v_score":"1.193887297","decile":"4","lat":40.36367487217367,"lng":-111.7256845141041},{"vid":"6438410","name":"Mr. Tyreek Satterfield IV","party":"Rep","address":"558 E Center St, Pleasant Grove, UT 84062","precinct":"25PG12","hd":"55","v_score":"0","decile":"3","lat":40.36358689610796,"lng":-111.7290825672484},{"vid":"6447521","name":"Mr. Jaydan Moen","party":"Rep","address":"1133 E 30 S, Pleasant Grove, UT 84062","precinct":"25PG12","hd":"55","v_score":"6.657533174","decile":"7","lat":40.36390078771694,"lng":-111.71424046929752},{"vid":"6451133","name":"Charley Wolf I","party":"Rep","address":"1065 E 200 S, Pleasant Grove, UT 84062","precinct":"25PG12","hd":"55","v_score":"1.193887297","decile":"4","lat":40.36196519890529,"lng":-111.71606549375917},{"vid":"6460340","name":"Mrs. Jacalyn Morissette","party":"Dem","address":"115 S 700 E, Pleasant Grove, UT 84062","precinct":"25PG12","hd":"55","v_score":"1.46627566","decile":"4","lat":40.3621230733438,"lng":-111.7251573893429},{"vid":"6467700","name":"Miss Kellie Powlowski PhD","party":"Rep","address":"29 S 760 E, Pleasant Grove, UT 84062","precinct":"25PG12","hd":"55","v_score":"38.39988068","decile":"10","lat":40.36343467275357,"lng":-111.72378706507125},{"vid":"6471645","name":"Linsey Schaefer","party":"Rep","address":"845 E 200 S, Pleasant Grove, UT 84062","precinct":"25PG12","hd":"55","v_score":"3.781490609","decile":"6","lat":40.36147504725448,"lng":-111.72159746917822},{"vid":"cd6c173f2d17c31ca5caaafe9d0185484d689f03bcb2c94ea31a0b0976929db4","name":"Janie Lemke-Erdman","party":"Rep","address":"215 N 1400 E, Pleasant Grove, UT 84062","precinct":"25PG12","hd":"55","v_score":"6.027167436","decile":"7","lat":40.3664903977452,"lng":-111.70794471362},{"vid":"6475541","name":"Dr. Pershing Corkery","party":"Rep","address":"959 E 100 S, Pleasant Grove, UT 84062","precinct":"25PG12","hd":"55","v_score":"33.57939141","decile":"10","lat":40.36294196580549,"lng":-111.71907768061288},{"vid":"6476503","name":"Elliana Boyle","party":"","address":"85 S 1400 E, Pleasant Grove, UT 84062","precinct":"25PG12","hd":"55","v_score":"19.15121325","decile":"10","lat":40.36245439250474,"lng":-111.707509250495},{"vid":"4cc483c261d8339824c92a976ba4e3f0f1abaadd2d72be1c935dd4d970cf8e5d","name":"Magen Greenfelder","party":"Dem","address":"685 E 200 S, Pleasant Grove, UT 84062","precinct":"25PG12","hd":"55","v_score":"5.40460374","decile":"7","lat":40.361406293338,"lng":-111.72587074779824},{"vid":"6484890","name":"Giada Wiegand","party":"","address":"120 N 1050 E, Pleasant Grove, UT 84062","precinct":"25PG12","hd":"55","v_score":"0","decile":"3","lat":40.36498768436143,"lng":-111.71555907163932},{"vid":"3e1da3f008a6d7bdf7c778544545f3df5ea86d5e1e4f91f35ee16608da60b69f","name":"Tamera Gerhold","party":"Rep","address":"1119 E 30 S, Pleasant Grove, UT 84062","precinct":"25PG12","hd":"55","v_score":"1.121327652","decile":"3","lat":40.364181637741446,"lng":-111.71484354700947},{"vid":"6491762","name":"Ambers Veum","party":"Dem","address":"1119 E 30 S, Pleasant Grove, UT 84062","precinct":"25PG12","hd":"55","v_score":"2.315214949","decile":"5","lat":40.364181637741446,"lng":-111.71484354700947},{"vid":"6497768","name":"Ms. Dawna Cronin","party":"Rep","address":"671 E 100 S, Pleasant Grove, UT 84062","precinct":"25PG12","hd":"55","v_score":"36.21050801","decile":"10","lat":40.362633220925694,"lng":-111.7262401795995},{"vid":"6501884","name":"Tea Hickle","party":"","address":"80 S 600 E, Pleasant Grove, UT 84062","precinct":"25PG12","hd":"55","v_score":"30.47669206","decile":"10","lat":40.362862202176565,"lng":-111.72838361801088},{"vid":"6509534","name":"Ms. Pallie Wintheiser PhD","party":"","address":"1147 E 100 N, Pleasant Grove, UT 84062","precinct":"25PG12","hd":"55","v_score":"2.315214949","decile":"5","lat":40.36550570700043,"lng":-111.71352936840276},{"vid":"6510425","name":"Shanon Langosh","party":"Dem","address":"235 N 1300 E, Pleasant Grove, UT 84062","precinct":"25PG12","hd":"55","v_score":"10.13721141","decile":"9","lat":40.36612842614091,"lng":-111.71035311609072},{"vid":"6511643","name":"Asher Kassulke MD","party":"","address":"97 S 600 E, Pleasant Grove, UT 84062","precinct":"25PG12","hd":"55","v_score":"31.75979888","decile":"10","lat":40.362758417050024,"lng":-111.72774272492028},{"vid":"6517524","name":"Vashti Morissette DDS","party":"Rep","address":"28 S 850 E, Pleasant Grove, UT 84062","precinct":"25PG12","hd":"55","v_score":"15.39205011","decile":"9","lat":40.363715475472205,"lng":-111.72162872230497},{"vid":"2b715d8df7548ebb4c387815e33e77a98abad6e03c2ac5a5863ed509ed14398d","name":"Lisa Cole","party":"","address":"182 S 825 E, Pleasant Grove, UT 84062","precinct":"25PG12","hd":"55","v_score":"0","decile":"3","lat":40.36133143099262,"lng":-111.72286602118987},{"vid":"6527960","name":"Wirt Wehner","party":"Rep","address":"671 E 100 S, Pleasant Grove, UT 84062","precinct":"25PG12","hd":"55","v_score":"21.0484493","decile":"10","lat":40.362633220925694,"lng":-111.7262401795995},{"vid":"6530162","name":"Sidney Bednar","party":"Rep","address":"29 S 1025 E, Pleasant Grove, UT 84062","precinct":"25PG12","hd":"55","v_score":"15.76105332","decile":"9","lat":40.364316190205365,"lng":-111.71640293585824},{"vid":"6533593","name":"Dr. Estela Mosciski","party":"Dem","address":"879 E 200 S, Pleasant Grove, UT 84062","precinct":"25PG12","hd":"55","v_score":"8.347511332","decile":"8","lat":40.36158331639169,"lng":-111.72096572166708}]