[{"id":"199","name":"Syreeta Brekke","party":"","address":"317 S 1000 W, Apt 102, Pleasant Grove, UT 84062","precinct":"25PG20","hd":"56","v_score":"3.93832808","decile":"6","lat":40.359611096839,"lng":-111.754956153866},{"id":"429","name":"Shade Breitenberg","party":"Dem","address":"604 S 810 W, # 2-302, Pleasant Grove, UT 84062","precinct":"25PG20","hd":"56","v_score":"0","decile":"1","lat":40.356616752285,"lng":-111.752656529934},{"id":"1028","name":"Unknown Price","party":"","address":"582 S 980 W, Unit 80, Pleasant Grove, UT 84062","precinct":"25PG20","hd":"56","v_score":"36.06006655","decile":"10","lat":40.357119734127,"lng":-111.754688034641},{"id":"1409","name":"Mr. Gilman Ferry","party":"Rep","address":"522 S 810 W, Apt 207, Pleasant Grove, UT 84062","precinct":"25PG20","hd":"56","v_score":"1.121327652","decile":"3","lat":40.357401293123,"lng":-111.75181053646},{"id":"1571","name":"Olie Prosacco","party":"","address":"345 S 930 W, Pleasant Grove, UT 84062","precinct":"25PG20","hd":"56","v_score":"0","decile":"1","lat":40.359696671902,"lng":-111.753988268599},{"id":"2115","name":"Lisandro Douglas-Dickens","party":"Dem","address":"638 S 810 W, Apt 203, Pleasant Grove, UT 84062","precinct":"25PG20","hd":"56","v_score":"9.116556227","decile":"8","lat":40.356223269831,"lng":-111.752655292619},{"id":"2529","name":"Ms. Zhane Mertz","party":"","address":"495 S 900 W, Apt 102, Pleasant Grove, UT 84062","precinct":"25PG20","hd":"56","v_score":"0","decile":"1","lat":40.357750918706,"lng":-111.753486419506},{"id":"2909","name":"Ahmed Jacobi","party":"Dem","address":"192 S 840 W, Unit C, Pleasant Grove, UT 84062","precinct":"25PG20","hd":"56","v_score":"1.46627566","decile":"4","lat":40.361021299774,"lng":-111.752934674385},{"id":"3251","name":"Maebelle Waelchi","party":"Dem","address":"343 S 1000 W, Apt 104, Pleasant Grove, UT 84062","precinct":"25PG20","hd":"56","v_score":"2.315214949","decile":"5","lat":40.359458323349,"lng":-111.754956153886},{"id":"5208","name":"Edsel Bernhard","party":"Rep","address":"384 S 790 W, Pleasant Grove, UT 84062","precinct":"25PG20","hd":"56","v_score":"9.55742766","decile":"8","lat":40.354530433204,"lng":-111.733849378246},{"id":"5829","name":"Miss Leanna Nolan MD","party":"Rep","address":"591 S 1050 W, Unit A, Pleasant Grove, UT 84062","precinct":"25PG20","hd":"56","v_score":"21.8990126","decile":"10","lat":40.374763300975,"lng":-111.748307909989},{"id":"6155","name":"Nathan Altenwerth","party":"Dem","address":"961 W 630 S, Unit 40, Pleasant Grove, UT 84062","precinct":"25PG20","hd":"56","v_score":"1.193887297","decile":"3","lat":40.356242022619,"lng":-111.754433055474},{"id":"6827","name":"Leda Spinka","party":"Rep","address":"587 S 910 W, Unit 71, Pleasant Grove, UT 84062","precinct":"25PG20","hd":"56","v_score":"13.61907049","decile":"9","lat":40.360014109407,"lng":-111.753493653307},{"id":"7041","name":"Winter Buckridge","party":"","address":"963 W 670 S, Unit 18, Pleasant Grove, UT 84062","precinct":"25PG20","hd":"56","v_score":"3.93832808","decile":"6","lat":40.355688191897,"lng":-111.754433437416},{"id":"7176","name":"Aja Ledner","party":"Dem","address":"868 W 130 S, Unit C, Pleasant Grove, UT 84062","precinct":"25PG20","hd":"56","v_score":"10.52682644","decile":"9","lat":40.362180728655,"lng":-111.752544834029},{"id":"7539","name":"Mira Kulas-Williamson","party":"","address":"587 S 910 W, Unit 71, Pleasant Grove, UT 84062","precinct":"25PG20","hd":"56","v_score":"9.40499548","decile":"8","lat":40.360014109407,"lng":-111.753493653307},{"id":"8459","name":"Shirlee Pollich-Gibson","party":"Rep","address":"927 W 630 S, Unit 31, Pleasant Grove, UT 84062","precinct":"25PG20","hd":"56","v_score":"25.81612328","decile":"10","lat":40.356229616744,"lng":-111.754150822332},{"id":"8859","name":"Melinda Nolan","party":"","address":"305 S 810 W, Pleasant Grove, UT 84062","precinct":"25PG20","hd":"56","v_score":"4.283276088","decile":"7","lat":40.359991267254,"lng":-111.752332451424},{"id":"9758","name":"Audie Ryan","party":"","address":"641 S 900 W, Apt 12-104, Pleasant Grove, UT 84062","precinct":"25PG20","hd":"56","v_score":"19.22326505","decile":"10","lat":40.355922154995,"lng":-111.753460183487},{"id":"9943","name":"Glen Ernser","party":"Dem","address":"738 W 260 S, Pleasant Grove, UT 84062","precinct":"25PG20","hd":"56","v_score":"2.315214949","decile":"5","lat":40.360545668436,"lng":-111.751911196318},{"id":"9959","name":"Dr. Owen Gleason I","party":"","address":"165 S Pleasant Grove Blvd, Unit 43, Pleasant Grove, UT 84062","precinct":"25PG20","hd":"56","v_score":"1.121327652","decile":"3","lat":40.363338513281,"lng":-111.753498035833},{"id":"10306","name":"Manuelita Shields","party":"Dem","address":"587 S 910 W, Unit 70, Pleasant Grove, UT 84062","precinct":"25PG20","hd":"56","v_score":"19.98728549","decile":"10","lat":40.360014109407,"lng":-111.753493653307},{"id":"10352","name":"Dayse Dicki-Barrows","party":"","address":"289 S 1000 W, Apt 201, Pleasant Grove, UT 84062","precinct":"25PG20","hd":"56","v_score":"12.81089156","decile":"9","lat":40.359775622135,"lng":-111.754956153845},{"id":"10893","name":"Christeen Pfannerstill-Will","party":"","address":"376 S 740 W, Unit 302, Pleasant Grove, UT 84062","precinct":"25PG20","hd":"56","v_score":"2.587603312","decile":"5","lat":40.359210928155,"lng":-111.751520877526},{"id":"11044","name":"Mr. Abdullah Hauck","party":"Dem","address":"638 S 810 W, Apt 102, Pleasant Grove, UT 84062","precinct":"25PG20","hd":"56","v_score":"1.193887297","decile":"3","lat":40.356223269831,"lng":-111.752655292619},{"id":"11144","name":"Mr. Hilbert Simonis","party":"Dem","address":"1016 W 700 S, Pleasant Grove, UT 84062","precinct":"25PG20","hd":"56","v_score":"8.347511332","decile":"8","lat":40.355259293649,"lng":-111.755502024301},{"id":"11199","name":"Adda Mills DDS","party":"","address":"165 S Pleasant Grove Blvd, Unit 44, Pleasant Grove, UT 84062","precinct":"25PG20","hd":"56","v_score":"0","decile":"1","lat":40.363338513281,"lng":-111.753498035833},{"id":"11372","name":"Hill Gleason Jr.","party":"Rep","address":"312 S 910 W, Pleasant Grove, UT 84062","precinct":"25PG20","hd":"56","v_score":"2.315214949","decile":"5","lat":40.360161106095,"lng":-111.753644038168},{"id":"11649","name":"Pierce Howe","party":"Dem","address":"151 S Pleasant Grove Blvd, Unit 12, Pleasant Grove, UT 84062","precinct":"25PG20","hd":"56","v_score":"45.25229277","decile":"10","lat":40.364281057062,"lng":-111.752679345803},{"id":"11740","name":"Lasonya Swaniawski","party":"Rep","address":"656 S 910 W, Unit 25, Pleasant Grove, UT 84062","precinct":"25PG20","hd":"56","v_score":"0","decile":"1","lat":40.360158385734,"lng":-111.753644038168},{"id":"11976","name":"Olie Johns","party":"Rep","address":"317 S 1000 W, Apt 201, Pleasant Grove, UT 84062","precinct":"25PG20","hd":"56","v_score":"1.193887297","decile":"3","lat":40.359611096839,"lng":-111.754956153866},{"id":"12434","name":"Tillie Kilback-Mante","party":"","address":"1199 W 700 S, Pleasant Grove, UT 84062","precinct":"25PG20","hd":"56","v_score":"2.817000428","decile":"6","lat":40.355135872184,"lng":-111.759734936238},{"id":"12678","name":"Loria Wintheiser","party":"","address":"482 S 810 W, Apt 6-205, Pleasant Grove, UT 84062","precinct":"25PG20","hd":"56","v_score":"4.064235245","decile":"6","lat":40.35728670174,"lng":-111.751824752627},{"id":"12803","name":"Evelyn O'Keefe-Ziemann","party":"","address":"927 W 630 S, Unit 33, Pleasant Grove, UT 84062","precinct":"25PG20","hd":"56","v_score":"13.080119","decile":"9","lat":40.356229616744,"lng":-111.754150822332},{"id":"13060","name":"Loraine Schowalter","party":"Rep","address":"376 S 740 W, Unit 302, Pleasant Grove, UT 84062","precinct":"25PG20","hd":"56","v_score":"0","decile":"1","lat":40.359210928155,"lng":-111.751520877526},{"id":"13118","name":"Kermit Maggio","party":"","address":"159 S Pleasant Grove Blvd, Unit 16, Pleasant Grove, UT 84062","precinct":"25PG20","hd":"56","v_score":"9.03120571","decile":"8","lat":40.363725867102,"lng":-111.753112051542},{"id":"13148","name":"Mona Wyman","party":"","address":"308 S 740 W, Apt 102, Pleasant Grove, UT 84062","precinct":"25PG20","hd":"56","v_score":"0","decile":"1","lat":40.35968924063,"lng":-111.75153295606},{"id":"13294","name":"Ms. Charolette Balistreri MD","party":"","address":"912 W 260 S, Pleasant Grove, UT 84062","precinct":"25PG20","hd":"56","v_score":"2.315214949","decile":"5","lat":40.360542292874,"lng":-111.753204416227},{"id":"13812","name":"Ramona Frami","party":"Rep","address":"159 S Pleasant Grove Blvd, Unit 24, Pleasant Grove, UT 84062","precinct":"25PG20","hd":"56","v_score":"15.24264201","decile":"9","lat":40.363725867102,"lng":-111.753112051542},{"id":"15009","name":"Darell Larson","party":"Rep","address":"963 W 670 S, Unit 21, Pleasant Grove, UT 84062","precinct":"25PG20","hd":"56","v_score":"2.660162957","decile":"5","lat":40.355688191897,"lng":-111.754433437416},{"id":"15030","name":"Daisye Orn","party":"","address":"286 S 810 W, Pleasant Grove, UT 84062","precinct":"25PG20","hd":"56","v_score":"2.315214949","decile":"5","lat":40.360358162439,"lng":-111.752466983341},{"id":"15703","name":"Myrtle Koss","party":"","address":"488 S 910 W, Unit 103, Pleasant Grove, UT 84062","precinct":"25PG20","hd":"56","v_score":"19.47300581","decile":"10","lat":40.357782399287,"lng":-111.7539385371},{"id":"16652","name":"Birtha Murazik","party":"Rep","address":"721 W 180 S, Unit A, Pleasant Grove, UT 84062","precinct":"25PG20","hd":"56","v_score":"3.93832808","decile":"6","lat":40.361443949883,"lng":-111.751210039928},{"id":"16832","name":"Elsworth Medhurst-Green","party":"Dem","address":"317 S 810 W, Pleasant Grove, UT 84062","precinct":"25PG20","hd":"56","v_score":"1.121327652","decile":"3","lat":40.35996526972,"lng":-111.752334308394},{"id":"16993","name":"Koen Gulgowski","party":"","address":"581 S 910 W, Unit 86, Pleasant Grove, UT 84062","precinct":"25PG20","hd":"56","v_score":"0","decile":"1","lat":40.36004296467,"lng":-111.753493653303},{"id":"17011","name":"Tristian O'Kon","party":"Rep","address":"308 S 740 W, Apt 204, Pleasant Grove, UT 84062","precinct":"25PG20","hd":"56","v_score":"0","decile":"1","lat":40.35968924063,"lng":-111.75153295606},{"id":"17180","name":"Ms. Dee Denesik","party":"Dem","address":"868 W 130 S, Unit C, Pleasant Grove, UT 84062","precinct":"25PG20","hd":"56","v_score":"7.583918848","decile":"8","lat":40.362180728655,"lng":-111.752544834029},{"id":"17361","name":"Tennie Waters","party":"Dem","address":"946 W 630 S, Unit 44, Pleasant Grove, UT 84062","precinct":"25PG20","hd":"56","v_score":"1.46627566","decile":"4","lat":40.356351315551,"lng":-111.754308182125},{"id":"18060","name":"Romie Considine I","party":"","address":"376 S 740 W, Unit 302, Pleasant Grove, UT 84062","precinct":"25PG20","hd":"56","v_score":"2.587603312","decile":"5","lat":40.359210928155,"lng":-111.751520877526},{"id":"18721","name":"Whitney Purdy","party":"","address":"343 S 1000 W, Apt 204, Pleasant Grove, UT 84062","precinct":"25PG20","hd":"56","v_score":"1.193887297","decile":"3","lat":40.359458323349,"lng":-111.754956153886},{"id":"19330","name":"Nickolas Ebert","party":"","address":"151 S Pleasant Grove Blvd, Unit 12, Pleasant Grove, UT 84062","precinct":"25PG20","hd":"56","v_score":"23.36528826","decile":"10","lat":40.364281057062,"lng":-111.752679345803},{"id":"19706","name":"Dr. Ilene Heaney","party":"Rep","address":"379 S 790 W, Pleasant Grove, UT 84062","precinct":"25PG20","hd":"56","v_score":"3.93832808","decile":"6","lat":40.359057292949,"lng":-111.751997661386},{"id":"19739","name":"Mrs. Emelia Cummerata","party":"","address":"539 S 900 W, Apt 208, Pleasant Grove, UT 84062","precinct":"25PG20","hd":"56","v_score":"1.121327652","decile":"3","lat":40.357135998877,"lng":-111.75349666825},{"id":"19888","name":"Mr. Mickey Swaniawski","party":"Dem","address":"566 S 810 W, Apt 3-203, Pleasant Grove, UT 84062","precinct":"25PG20","hd":"56","v_score":"2.315214949","decile":"5","lat":40.357056526793,"lng":-111.752657912815},{"id":"19892","name":"Margarite Ward","party":"Rep","address":"566 S 810 W, Apt 203, Pleasant Grove, UT 84062","precinct":"25PG20","hd":"56","v_score":"3.781490609","decile":"6","lat":40.357056526793,"lng":-111.752657912815},{"id":"20003","name":"Mrs. Jasmin Bashirian PhD","party":"Rep","address":"566 S 810 W, Apt 3-302, Pleasant Grove, UT 84062","precinct":"25PG20","hd":"56","v_score":"1.46627566","decile":"4","lat":40.357056526793,"lng":-111.752657912815},{"id":"20238","name":"Mr. Burney Stark PhD","party":"","address":"816 W Via Papiano, Pleasant Grove, UT 84062","precinct":"25PG20","hd":"56","v_score":"8.347511332","decile":"8","lat":40.360548856691,"lng":-111.752523519711},{"id":"20384","name":"Tyreek Gutmann-Deckow","party":"Rep","address":"482 S 810 W, Apt 6-302, Pleasant Grove, UT 84062","precinct":"25PG20","hd":"56","v_score":"0","decile":"1","lat":40.35728670174,"lng":-111.751824752627},{"id":"20717","name":"Alto Conroy","party":"","address":"289 S 1000 W, Apt 202, Pleasant Grove, UT 84062","precinct":"25PG20","hd":"56","v_score":"0","decile":"1","lat":40.359775622135,"lng":-111.754956153845},{"id":"20820","name":"Buna Howell","party":"Dem","address":"566 S 810 W, Apt 3-202, Pleasant Grove, UT 84062","precinct":"25PG20","hd":"56","v_score":"8.633210253","decile":"8","lat":40.357056526793,"lng":-111.752657912815},{"id":"21443","name":"Magdalena Bednar-Yost","party":"","address":"343 S 1000 W, Apt 302, Pleasant Grove, UT 84062","precinct":"25PG20","hd":"56","v_score":"2.660162957","decile":"5","lat":40.359458323349,"lng":-111.754956153886},{"id":"21476","name":"Hilton Auer-Howe","party":"","address":"385 S 640 W, Pleasant Grove, UT 84062","precinct":"25PG20","hd":"56","v_score":"0","decile":"1","lat":40.359631137196,"lng":-111.749817675786},{"id":"21778","name":"Mrs. Antonia Leannon","party":"Dem","address":"946 W 630 S, Unit 44, Pleasant Grove, UT 84062","precinct":"25PG20","hd":"56","v_score":"2.587603312","decile":"5","lat":40.356351315551,"lng":-111.754308182125},{"id":"22344","name":"Mrs. Tania Krajcik DVM","party":"Rep","address":"583 S 900 W, Apt 11-303, Pleasant Grove, UT 84062","precinct":"25PG20","hd":"56","v_score":"1.46627566","decile":"4","lat":40.356521079048,"lng":-111.753506916993},{"id":"22522","name":"Jair Yost","party":"","address":"641 S 900 W, Apt 208, Pleasant Grove, UT 84062","precinct":"25PG20","hd":"56","v_score":"1.121327652","decile":"3","lat":40.355922154995,"lng":-111.753460183487},{"id":"22847","name":"Ms. Tennessee Russel DVM","party":"Rep","address":"522 S 810 W, Apt 304, Pleasant Grove, UT 84062","precinct":"25PG20","hd":"56","v_score":"6.884189957","decile":"8","lat":40.357401293123,"lng":-111.75181053646},{"id":"22852","name":"Kyle Muller","party":"Dem","address":"488 S 910 W, Unit 103, Pleasant Grove, UT 84062","precinct":"25PG20","hd":"56","v_score":"0","decile":"1","lat":40.357782399287,"lng":-111.7539385371},{"id":"23135","name":"Mr. Refugio Kling MD","party":"Dem","address":"956 W 580 S, Unit 118, Pleasant Grove, UT 84062","precinct":"25PG20","hd":"56","v_score":"6.724398202","decile":"8","lat":40.357761293283,"lng":-111.75442333222},{"id":"23357","name":"Miss Hollie Walsh","party":"Rep","address":"308 S 740 W, Apt 102, Pleasant Grove, UT 84062","precinct":"25PG20","hd":"56","v_score":"0","decile":"1","lat":40.35968924063,"lng":-111.75153295606},{"id":"23488","name":"Tad Funk","party":"","address":"376 S 740 W, Unit 103, Pleasant Grove, UT 84062","precinct":"25PG20","hd":"56","v_score":"2.587603312","decile":"5","lat":40.359210928155,"lng":-111.751520877526},{"id":"23685","name":"Esmeralda Metz","party":"","address":"488 S 910 W, Unit 113, Pleasant Grove, UT 84062","precinct":"25PG20","hd":"56","v_score":"2.315214949","decile":"5","lat":40.357782399287,"lng":-111.7539385371},{"id":"24075","name":"Ines Cummings","party":"Dem","address":"289 S 1000 W, Apt 101, Pleasant Grove, UT 84062","precinct":"25PG20","hd":"56","v_score":"6.74007049","decile":"8","lat":40.359775622135,"lng":-111.754956153845},{"id":"24228","name":"Alferd Abbott Sr.","party":"Dem","address":"956 W 580 S, Unit 126, Pleasant Grove, UT 84062","precinct":"25PG20","hd":"56","v_score":"2.315214949","decile":"5","lat":40.357761293283,"lng":-111.75442333222},{"id":"24898","name":"Johnathan Glover","party":"","address":"587 S 910 W, Unit 70, Pleasant Grove, UT 84062","precinct":"25PG20","hd":"56","v_score":"19.98728549","decile":"10","lat":40.360014109407,"lng":-111.753493653307},{"id":"25169","name":"Davina Gutmann PhD","party":"","address":"587 S 910 W, Unit 70, Pleasant Grove, UT 84062","precinct":"25PG20","hd":"56","v_score":"29.42874285","decile":"10","lat":40.360014109407,"lng":-111.753493653307},{"id":"25495","name":"Jadon Hegmann","party":"Dem","address":"522 S 810 W, Apt 308, Pleasant Grove, UT 84062","precinct":"25PG20","hd":"56","v_score":"6.724398202","decile":"8","lat":40.357401293123,"lng":-111.75181053646},{"id":"25628","name":"Orvel McCullough","party":"","address":"488 S 910 W, Unit 104, Pleasant Grove, UT 84062","precinct":"25PG20","hd":"56","v_score":"19.09820228","decile":"10","lat":40.357782399287,"lng":-111.7539385371},{"id":"25680","name":"Dr. Benji Bergstrom","party":"Dem","address":"467 S 900 W, Apt 306, Pleasant Grove, UT 84062","precinct":"25PG20","hd":"56","v_score":"2.315214949","decile":"5","lat":40.35795461719,"lng":-111.753244945466},{"id":"25872","name":"Mrs. Elfie Nitzsche MD","party":"","address":"467 S 900 W, Apt 101, Pleasant Grove, UT 84062","precinct":"25PG20","hd":"56","v_score":"5.40460374","decile":"7","lat":40.35795461719,"lng":-111.753244945466},{"id":"25958","name":"Niles Sporer","party":"Dem","address":"641 S 900 W, Apt 205, Pleasant Grove, UT 84062","precinct":"25PG20","hd":"56","v_score":"1.193887297","decile":"3","lat":40.355922154995,"lng":-111.753460183487},{"id":"25995","name":"Darby Stoltenberg","party":"","address":"495 S 900 W, Apt 102, Pleasant Grove, UT 84062","precinct":"25PG20","hd":"56","v_score":"0","decile":"1","lat":40.357750918706,"lng":-111.753486419506},{"id":"26253","name":"Vaughn Johns","party":"Dem","address":"929 W 670 S, Unit 10, Pleasant Grove, UT 84062","precinct":"25PG20","hd":"56","v_score":"0","decile":"1","lat":40.355686662039,"lng":-111.754152856009},{"id":"26285","name":"Dion Trantow Sr.","party":"Rep","address":"534 S 810 W, Apt 4-304, Pleasant Grove, UT 84062","precinct":"25PG20","hd":"56","v_score":"1.46627566","decile":"4","lat":40.357401293148,"lng":-111.752139538842},{"id":"26435","name":"Paris Halvorson","party":"Dem","address":"539 S 900 W, Apt 104, Pleasant Grove, UT 84062","precinct":"25PG20","hd":"56","v_score":"3.781490609","decile":"6","lat":40.357135998877,"lng":-111.75349666825},{"id":"26440","name":"Adolphus Hamill","party":"Dem","address":"566 S 810 W, Apt 3-204, Pleasant Grove, UT 84062","precinct":"25PG20","hd":"56","v_score":"3.93832808","decile":"6","lat":40.357056526793,"lng":-111.752657912815},{"id":"26705","name":"Mervin Carter","party":"","address":"582 S 980 W, Unit 74, Pleasant Grove, UT 84062","precinct":"25PG20","hd":"56","v_score":"2.587603312","decile":"5","lat":40.357119734127,"lng":-111.754688034641},{"id":"26896","name":"Antione White","party":"","address":"946 W 630 S, Unit 42, Pleasant Grove, UT 84062","precinct":"25PG20","hd":"56","v_score":"3.781490609","decile":"6","lat":40.356351315551,"lng":-111.754308182125},{"id":"26935","name":"Miguel Mayer","party":"","address":"343 S 1000 W, Apt 202, Pleasant Grove, UT 84062","precinct":"25PG20","hd":"56","v_score":"10.52632313","decile":"9","lat":40.359458323349,"lng":-111.754956153886},{"id":"27013","name":"Elida Cruickshank","party":"Dem","address":"638 S 810 W, Apt 207, Pleasant Grove, UT 84062","precinct":"25PG20","hd":"56","v_score":"0","decile":"1","lat":40.356223269831,"lng":-111.752655292619},{"id":"27073","name":"Dr. Gage Gutkowski DVM","party":"Rep","address":"159 S Pleasant Grove Blvd, Unit 18, Pleasant Grove, UT 84062","precinct":"25PG20","hd":"56","v_score":"21.8990126","decile":"10","lat":40.363725867102,"lng":-111.753112051542},{"id":"27252","name":"Lela Friesen","party":"Rep","address":"641 S 900 W, Apt 203, Pleasant Grove, UT 84062","precinct":"25PG20","hd":"56","v_score":"2.315214949","decile":"5","lat":40.355922154995,"lng":-111.753460183487},{"id":"27819","name":"Brittani Frami","party":"","address":"766 W 260 S, Pleasant Grove, UT 84062","precinct":"25PG20","hd":"56","v_score":"11.99259879","decile":"9","lat":40.360547509059,"lng":-111.752067648208},{"id":"27924","name":"Essa Stokes-Graham","party":"Dem","address":"367 S 1000 W, Apt 102, Pleasant Grove, UT 84062","precinct":"25PG20","hd":"56","v_score":"0","decile":"1","lat":40.359316622563,"lng":-111.754956826629},{"id":"28127","name":"Ryley Homenick","party":"Dem","address":"566 S 810 W, Apt 106, Pleasant Grove, UT 84062","precinct":"25PG20","hd":"56","v_score":"3.93832808","decile":"6","lat":40.357056526793,"lng":-111.752657912815},{"id":"28302","name":"Mr. Elwyn Cruickshank","party":"Dem","address":"467 S 900 W, Apt 206, Pleasant Grove, UT 84062","precinct":"25PG20","hd":"56","v_score":"0","decile":"1","lat":40.35795461719,"lng":-111.753244945466},{"id":"28418","name":"Vere Larson","party":"Dem","address":"159 S Pleasant Grove Blvd, Unit 21, Pleasant Grove, UT 84062","precinct":"25PG20","hd":"56","v_score":"2.315214949","decile":"5","lat":40.363725867102,"lng":-111.753112051542},{"id":"28688","name":"Dr. Marget Ankunding DDS","party":"Rep","address":"344 S 740 W, Unit 204, Pleasant Grove, UT 84062","precinct":"25PG20","hd":"56","v_score":"6.814370645","decile":"8","lat":40.359436016378,"lng":-111.751526561542},{"id":"29291","name":"Kaycee Collins MD","party":"","address":"343 S 790 W, Unit 201, Pleasant Grove, UT 84062","precinct":"25PG20","hd":"56","v_score":"4.214075011","decile":"7","lat":40.359599329025,"lng":-111.752318718721},{"id":"29531","name":"Dr. Rochelle White MD","party":"","address":"641 S 900 W, Apt 205, Pleasant Grove, UT 84062","precinct":"25PG20","hd":"56","v_score":"0","decile":"1","lat":40.355922154995,"lng":-111.753460183487},{"id":"29660","name":"Mora VonRueden","party":"Rep","address":"159 S Pleasant Grove Blvd, Unit 24, Pleasant Grove, UT 84062","precinct":"25PG20","hd":"56","v_score":"10.7597751","decile":"9","lat":40.363725867102,"lng":-111.753112051542},{"id":"30049","name":"Hernan Baumbach","party":"Rep","address":"1069 W 70 N, Pleasant Grove, UT 84062","precinct":"25PG20","hd":"56","v_score":"1.121327652","decile":"3","lat":40.364525354481,"lng":-111.755478895418},{"id":"30630","name":"Joe Stokes-Wolf","party":"Dem","address":"155 S Pleasant Grove Blvd, Unit 27, Pleasant Grove, UT 84062","precinct":"25PG20","hd":"56","v_score":"1.121327652","decile":"3","lat":40.363966616057,"lng":-111.752889440251},{"id":"30835","name":"Amiyah Bartoletti-Marvin","party":"","address":"927 W 630 S, Unit 33, Pleasant Grove, UT 84062","precinct":"25PG20","hd":"56","v_score":"10.13721141","decile":"9","lat":40.356229616744,"lng":-111.754150822332},{"id":"31066","name":"Gustavus Halvorson","party":"","address":"641 S 900 W, Apt 12-108, Pleasant Grove, UT 84062","precinct":"25PG20","hd":"56","v_score":"2.315214949","decile":"5","lat":40.355922154995,"lng":-111.753460183487},{"id":"31307","name":"Dr. Hillard Bauch MD","party":"Dem","address":"495 S 900 W, Apt 201, Pleasant Grove, UT 84062","precinct":"25PG20","hd":"56","v_score":"6.088298118","decile":"7","lat":40.357750918706,"lng":-111.753486419506},{"id":"31411","name":"Ms. Shameka Harber","party":"Rep","address":"317 S 1000 W, Apt 304, Pleasant Grove, UT 84062","precinct":"25PG20","hd":"56","v_score":"11.02844566","decile":"9","lat":40.359611096839,"lng":-111.754956153866},{"id":"31453","name":"Miss Noma Schamberger DDS","party":"Rep","address":"267 S 740 W, Pleasant Grove, UT 84062","precinct":"25PG20","hd":"56","v_score":"1.121327652","decile":"3","lat":40.359513154687,"lng":-111.751378099611},{"id":"31498","name":"Miss Marylyn Wuckert DVM","party":"Rep","address":"522 S 810 W, Apt 5-101, Pleasant Grove, UT 84062","precinct":"25PG20","hd":"56","v_score":"10.11220392","decile":"9","lat":40.357401293123,"lng":-111.75181053646},{"id":"31555","name":"Isai Ankunding I","party":"Rep","address":"367 S 1000 W, Apt 304, Pleasant Grove, UT 84062","precinct":"25PG20","hd":"56","v_score":"1.121327652","decile":"3","lat":40.359316622563,"lng":-111.754956826629},{"id":"31688","name":"Levar Simonis","party":"","address":"308 S 740 W, Apt 104, Pleasant Grove, UT 84062","precinct":"25PG20","hd":"56","v_score":"1.121327652","decile":"3","lat":40.35968924063,"lng":-111.75153295606},{"id":"32356","name":"Erna O'Reilly","party":"Dem","address":"604 S 810 W, Apt 2-303, Pleasant Grove, UT 84062","precinct":"25PG20","hd":"56","v_score":"0","decile":"1","lat":40.356616752285,"lng":-111.752656529934},{"id":"32407","name":"Mr. Stephanie Flatley","party":"","address":"641 S 900 W, Apt 102, Pleasant Grove, UT 84062","precinct":"25PG20","hd":"56","v_score":"2.744440783","decile":"5","lat":40.355922154995,"lng":-111.753460183487},{"id":"32524","name":"Dorathea Nikolaus-Lubowitz","party":"Dem","address":"495 S 900 W, Apt 304, Pleasant Grove, UT 84062","precinct":"25PG20","hd":"56","v_score":"1.193887297","decile":"3","lat":40.357750918706,"lng":-111.753486419506},{"id":"33207","name":"Emory Williamson","party":"Dem","address":"766 W 260 S, Pleasant Grove, UT 84062","precinct":"25PG20","hd":"56","v_score":"20.43732126","decile":"10","lat":40.360547509059,"lng":-111.752067648208},{"id":"33349","name":"Lue Pfannerstill","party":"","address":"566 S 810 W, Apt 106, Pleasant Grove, UT 84062","precinct":"25PG20","hd":"56","v_score":"2.660162957","decile":"5","lat":40.357056526793,"lng":-111.752657912815},{"id":"34367","name":"Dr. Debbra Marvin","party":"Dem","address":"317 S 810 W, Pleasant Grove, UT 84062","precinct":"25PG20","hd":"56","v_score":"1.121327652","decile":"3","lat":40.35996526972,"lng":-111.752334308394},{"id":"34695","name":"Dr. Garnett Kuphal DVM","party":"","address":"522 S 810 W, Apt 105, Pleasant Grove, UT 84062","precinct":"25PG20","hd":"56","v_score":"2.587603312","decile":"5","lat":40.357401293123,"lng":-111.75181053646},{"id":"35008","name":"Beth Runolfsson","party":"Dem","address":"317 S 1000 W, Apt 104, Pleasant Grove, UT 84062","precinct":"25PG20","hd":"56","v_score":"6.724398202","decile":"8","lat":40.359611096839,"lng":-111.754956153866},{"id":"35146","name":"Mr. Chadrick Schmeler","party":"","address":"573 S 1050 W, Unit B, Pleasant Grove, UT 84062","precinct":"25PG20","hd":"56","v_score":"3.93832808","decile":"6","lat":40.374761941786,"lng":-111.748180147242},{"id":"35247","name":"Franklyn Halvorson","party":"Rep","address":"927 W 630 S, Unit 35, Pleasant Grove, UT 84062","precinct":"25PG20","hd":"56","v_score":"2.660162957","decile":"5","lat":40.356229616744,"lng":-111.754150822332},{"id":"35583","name":"Toni Fay","party":"","address":"467 S 900 W, Apt 101, Pleasant Grove, UT 84062","precinct":"25PG20","hd":"56","v_score":"3.93832808","decile":"6","lat":40.35795461719,"lng":-111.753244945466},{"id":"35774","name":"Lea Boyer PhD","party":"","address":"785 W 180 S, Unit B, Pleasant Grove, UT 84062","precinct":"25PG20","hd":"56","v_score":"10.45237972","decile":"9","lat":40.361485352258,"lng":-111.751012334459},{"id":"35799","name":"Walton Cruickshank","party":"Rep","address":"956 W 580 S, Unit 115, Pleasant Grove, UT 84062","precinct":"25PG20","hd":"56","v_score":"7.153624035","decile":"8","lat":40.357761293283,"lng":-111.75442333222},{"id":"35936","name":"Amparo Breitenberg DDS","party":"Rep","address":"963 W 670 S, Unit 22, Pleasant Grove, UT 84062","precinct":"25PG20","hd":"56","v_score":"22.78550452","decile":"10","lat":40.355688191897,"lng":-111.754433437416},{"id":"36046","name":"Mrs. Tisha Howe","party":"Rep","address":"573 S 1050 W, Unit A, Pleasant Grove, UT 84062","precinct":"25PG20","hd":"56","v_score":"2.315214949","decile":"5","lat":40.374761941786,"lng":-111.748180147242},{"id":"36291","name":"Debby Stark-Morar","party":"","address":"495 S 900 W, Pleasant Grove, UT 84062","precinct":"25PG20","hd":"56","v_score":"1.121327652","decile":"3","lat":40.357750918706,"lng":-111.753486419506},{"id":"38269","name":"Isaiah Lueilwitz","party":"Rep","address":"343 S 1000 W, Apt 204, Pleasant Grove, UT 84062","precinct":"25PG20","hd":"56","v_score":"1.193887297","decile":"3","lat":40.359458323349,"lng":-111.754956153886},{"id":"38582","name":"Ms. Edrie Grant","party":"Dem","address":"467 S 900 W, Apt 201, Pleasant Grove, UT 84062","precinct":"25PG20","hd":"56","v_score":"1.877581675","decile":"5","lat":40.35795461719,"lng":-111.753244945466},{"id":"38697","name":"Sara Wilderman","party":"Rep","address":"159 S Pleasant Grove Blvd, Unit 21, Pleasant Grove, UT 84062","precinct":"25PG20","hd":"56","v_score":"2.315214949","decile":"5","lat":40.363725867102,"lng":-111.753112051542},{"id":"38898","name":"Garry Bogisich","party":"Dem","address":"641 S 900 W, Apt 12-308, Pleasant Grove, UT 84062","precinct":"25PG20","hd":"56","v_score":"15.87022115","decile":"9","lat":40.355922154995,"lng":-111.753460183487},{"id":"39089","name":"Krish Raynor","party":"Rep","address":"488 S 910 W, Unit 112, Pleasant Grove, UT 84062","precinct":"25PG20","hd":"56","v_score":"10.78919041","decile":"9","lat":40.357782399287,"lng":-111.7539385371},{"id":"39718","name":"Mrs. Emeline Davis","party":"Rep","address":"534 S 810 W, Apt 202, Pleasant Grove, UT 84062","precinct":"25PG20","hd":"56","v_score":"6.364334873","decile":"7","lat":40.357401293148,"lng":-111.752139538842},{"id":"39746","name":"Darrell Wuckert","party":"Rep","address":"963 W 670 S, Unit 24, Pleasant Grove, UT 84062","precinct":"25PG20","hd":"56","v_score":"1.121327652","decile":"3","lat":40.355688191897,"lng":-111.754433437416},{"id":"40340","name":"Yurem Franecki","party":"","address":"584 S 980 W, Unit 60, Pleasant Grove, UT 84062","precinct":"25PG20","hd":"56","v_score":"3.781490609","decile":"6","lat":40.357105999583,"lng":-111.754688034643},{"id":"40357","name":"Erastus Schneider Sr.","party":"Rep","address":"317 S 1000 W, Apt 104, Pleasant Grove, UT 84062","precinct":"25PG20","hd":"56","v_score":"6.724398202","decile":"8","lat":40.359611096839,"lng":-111.754956153866},{"id":"40677","name":"Malachi Barrows I","party":"","address":"467 S 900 W, Pleasant Grove, UT 84062","precinct":"25PG20","hd":"56","v_score":"0","decile":"1","lat":40.35795461719,"lng":-111.753244945466},{"id":"40926","name":"Darrion Emmerich","party":"","address":"956 W 580 S, Unit 118, Pleasant Grove, UT 84062","precinct":"25PG20","hd":"56","v_score":"3.781490609","decile":"6","lat":40.357761293283,"lng":-111.75442333222},{"id":"40956","name":"Miss Sanai Gleichner","party":"Dem","address":"495 S 900 W, Apt 208, Pleasant Grove, UT 84062","precinct":"25PG20","hd":"56","v_score":"5.40460374","decile":"7","lat":40.357750918706,"lng":-111.753486419506},{"id":"41130","name":"Elena Abernathy","party":"Dem","address":"467 S 900 W, Apt 203, Pleasant Grove, UT 84062","precinct":"25PG20","hd":"56","v_score":"1.623113131","decile":"4","lat":40.35795461719,"lng":-111.753244945466},{"id":"41570","name":"Petra Haley","party":"Dem","address":"956 W 580 S, Unit 119, Pleasant Grove, UT 84062","precinct":"25PG20","hd":"56","v_score":"0","decile":"1","lat":40.357761293283,"lng":-111.75442333222},{"id":"41981","name":"Knute Hudson","party":"Rep","address":"522 S 810 W, Apt 5-104, Pleasant Grove, UT 84062","precinct":"25PG20","hd":"56","v_score":"2.315214949","decile":"5","lat":40.357401293123,"lng":-111.75181053646},{"id":"41995","name":"Anaya Cruickshank-Balistreri","party":"Rep","address":"929 W 670 S, Unit 4, Pleasant Grove, UT 84062","precinct":"25PG20","hd":"56","v_score":"3.93832808","decile":"6","lat":40.355686662039,"lng":-111.754152856009},{"id":"42008","name":"Rutherford Collier","party":"Rep","address":"467 S 900 W, Apt 307, Pleasant Grove, UT 84062","precinct":"25PG20","hd":"56","v_score":"0","decile":"1","lat":40.35795461719,"lng":-111.753244945466},{"id":"42178","name":"Clytie Schaden-Mueller","party":"","address":"429 S 980 W, Unit 135, Pleasant Grove, UT 84062","precinct":"25PG20","hd":"56","v_score":"2.744440783","decile":"5","lat":40.358475107558,"lng":-111.754777379653},{"id":"42856","name":"Lena Gleason PhD","party":"Dem","address":"383 S 790 W, Pleasant Grove, UT 84062","precinct":"25PG20","hd":"56","v_score":"5.536205522","decile":"7","lat":40.359057292942,"lng":-111.751901236526},{"id":"42906","name":"Mr. Vic Block MD","party":"","address":"151 S Pleasant Grove Blvd, Unit 5, Pleasant Grove, UT 84062","precinct":"25PG20","hd":"56","v_score":"8.347511332","decile":"8","lat":40.364281057062,"lng":-111.752679345803},{"id":"43066","name":"Miss Evelina Monahan","party":"","address":"308 S 740 W, Apt 104, Pleasant Grove, UT 84062","precinct":"25PG20","hd":"56","v_score":"1.193887297","decile":"3","lat":40.35968924063,"lng":-111.75153295606},{"id":"43328","name":"Kathy Schuppe-Beer","party":"","address":"583 S 900 W, Apt 203, Pleasant Grove, UT 84062","precinct":"25PG20","hd":"56","v_score":"2.315214949","decile":"5","lat":40.356521079048,"lng":-111.753506916993},{"id":"44004","name":"Mr. Rylee Orn I","party":"","address":"495 S 900 W, Apt 104, Pleasant Grove, UT 84062","precinct":"25PG20","hd":"56","v_score":"0","decile":"1","lat":40.357750918706,"lng":-111.753486419506},{"id":"44005","name":"Keshia Krajcik","party":"Dem","address":"583 S 900 W, Apt 301, Pleasant Grove, UT 84062","precinct":"25PG20","hd":"56","v_score":"0","decile":"1","lat":40.356521079048,"lng":-111.753506916993},{"id":"44654","name":"Stevie Legros DVM","party":"Rep","address":"289 S 1000 W, Apt 303, Pleasant Grove, UT 84062","precinct":"25PG20","hd":"56","v_score":"12.51600754","decile":"9","lat":40.359775622135,"lng":-111.754956153845},{"id":"44698","name":"Haiden Rutherford","party":"Rep","address":"495 S 900 W, Apt 207, Pleasant Grove, UT 84062","precinct":"25PG20","hd":"56","v_score":"2.315214949","decile":"5","lat":40.357750918706,"lng":-111.753486419506},{"id":"44790","name":"Tiny Kuhic","party":"Dem","address":"539 S 900 W, Apt 101, Pleasant Grove, UT 84062","precinct":"25PG20","hd":"56","v_score":"1.193887297","decile":"3","lat":40.357135998877,"lng":-111.75349666825},{"id":"44880","name":"Dr. Octavio Christiansen","party":"Rep","address":"963 W 670 S, Unit 22, Pleasant Grove, UT 84062","precinct":"25PG20","hd":"56","v_score":"17.80238461","decile":"10","lat":40.355688191897,"lng":-111.754433437416},{"id":"45693","name":"Hall Lowe","party":"","address":"292 S 930 W, Pleasant Grove, UT 84062","precinct":"25PG20","hd":"56","v_score":"3.93832808","decile":"6","lat":40.360049708564,"lng":-111.754259848019},{"id":"46767","name":"Newman Roberts","party":"Rep","address":"271 S 740 W, Pleasant Grove, UT 84062","precinct":"25PG20","hd":"56","v_score":"2.315214949","decile":"5","lat":40.359456308427,"lng":-111.751376664107},{"id":"47199","name":"Savannah Graham MD","party":"","address":"367 S 1000 W, Apt 202, Pleasant Grove, UT 84062","precinct":"25PG20","hd":"56","v_score":"18.84038455","decile":"10","lat":40.359316622563,"lng":-111.754956826629},{"id":"47282","name":"Ms. Nilda Barrows MD","party":"Rep","address":"343 S 790 W, Unit 201, Pleasant Grove, UT 84062","precinct":"25PG20","hd":"56","v_score":"4.283276088","decile":"7","lat":40.359599329025,"lng":-111.752318718721},{"id":"47305","name":"Dr. Ronnie Cummings I","party":"Rep","address":"566 S 810 W, Apt 306, Pleasant Grove, UT 84062","precinct":"25PG20","hd":"56","v_score":"0","decile":"1","lat":40.357056526793,"lng":-111.752657912815},{"id":"47351","name":"Ms. Jayne Ondricka","party":"","address":"534 S 810 W, Apt 4-203, Pleasant Grove, UT 84062","precinct":"25PG20","hd":"56","v_score":"2.315214949","decile":"5","lat":40.357401293148,"lng":-111.752139538842},{"id":"47474","name":"Sister McCullough","party":"","address":"812 W 260 S, Pleasant Grove, UT 84062","precinct":"25PG20","hd":"56","v_score":"1.121327652","decile":"3","lat":40.360549896925,"lng":-111.752466826688},{"id":"47659","name":"Janiah Schmitt DDS","party":"Dem","address":"376 S 740 W, Unit 304, Pleasant Grove, UT 84062","precinct":"25PG20","hd":"56","v_score":"11.49369473","decile":"9","lat":40.359210928155,"lng":-111.751520877526},{"id":"47816","name":"Kristoffer Hansen","party":"","address":"929 W 670 S, Unit 12, Pleasant Grove, UT 84062","precinct":"25PG20","hd":"56","v_score":"20.12465777","decile":"10","lat":40.355686662039,"lng":-111.754152856009},{"id":"48069","name":"Vern Hartmann","party":"Rep","address":"929 W 670 S, Unit 7, Pleasant Grove, UT 84062","precinct":"25PG20","hd":"56","v_score":"1.121327652","decile":"3","lat":40.355686662039,"lng":-111.754152856009},{"id":"48261","name":"Kit Schmeler","party":"","address":"943 W 580 S, Unit 94, Pleasant Grove, UT 84062","precinct":"25PG20","hd":"56","v_score":"1.121327652","decile":"3","lat":40.357645080335,"lng":-111.754308964406},{"id":"48284","name":"Lenon Hammes","party":"Rep","address":"884 W 700 S, Apt 10-308, Pleasant Grove, UT 84062","precinct":"25PG20","hd":"56","v_score":"0","decile":"1","lat":40.355258956824,"lng":-111.752301459529},{"id":"48675","name":"Mr. Hilton Stiedemann III","party":"Rep","address":"584 S 980 W, Unit 61, Pleasant Grove, UT 84062","precinct":"25PG20","hd":"56","v_score":"8.280646305","decile":"8","lat":40.357105999583,"lng":-111.754688034643},{"id":"48688","name":"Cristobal Gleichner","party":"Rep","address":"584 S 980 W, Unit 61, Pleasant Grove, UT 84062","precinct":"25PG20","hd":"56","v_score":"8.280646305","decile":"8","lat":40.357105999583,"lng":-111.754688034643},{"id":"49092","name":"Haylie Schamberger-Brekke","party":"Rep","address":"597 S 910 W, Unit 57, Pleasant Grove, UT 84062","precinct":"25PG20","hd":"56","v_score":"1.121327652","decile":"3","lat":40.359974342443,"lng":-111.753488829593},{"id":"49204","name":"Lilburn Feeney","party":"","address":"812 W 260 S, Pleasant Grove, UT 84062","precinct":"25PG20","hd":"56","v_score":"1.121327652","decile":"3","lat":40.360549896925,"lng":-111.752466826688},{"id":"49631","name":"Assunta Swaniawski","party":"Dem","address":"522 S 810 W, Apt 205, Pleasant Grove, UT 84062","precinct":"25PG20","hd":"56","v_score":"0","decile":"1","lat":40.357401293123,"lng":-111.75181053646},{"id":"49970","name":"Julio Homenick","party":"Rep","address":"495 S 900 W, Apt 104, Pleasant Grove, UT 84062","precinct":"25PG20","hd":"56","v_score":"0","decile":"1","lat":40.357750918706,"lng":-111.753486419506},{"id":"50313","name":"Dr. Tavaris Bernhard","party":"Rep","address":"467 S 900 W, Apt 204, Pleasant Grove, UT 84062","precinct":"25PG20","hd":"56","v_score":"9.897826925","decile":"8","lat":40.35795461719,"lng":-111.753244945466},{"id":"50435","name":"Leontine Wisozk","party":"Rep","address":"539 S 900 W, Apt 108, Pleasant Grove, UT 84062","precinct":"25PG20","hd":"56","v_score":"0","decile":"1","lat":40.357135998877,"lng":-111.75349666825},{"id":"50522","name":"Champ Koelpin","party":"","address":"274 S 840 W, Pleasant Grove, UT 84062","precinct":"25PG20","hd":"56","v_score":"1.121327652","decile":"3","lat":40.360100852873,"lng":-111.753003907045},{"id":"50535","name":"Long Schmidt","party":"Rep","address":"308 S 740 W, Apt 202, Pleasant Grove, UT 84062","precinct":"25PG20","hd":"56","v_score":"3.93832808","decile":"6","lat":40.35968924063,"lng":-111.75153295606},{"id":"50633","name":"Skip Zemlak","party":"Dem","address":"155 S Pleasant Grove Blvd, Unit 33, Pleasant Grove, UT 84062","precinct":"25PG20","hd":"56","v_score":"0","decile":"1","lat":40.363966616057,"lng":-111.752889440251},{"id":"50681","name":"London Schmitt-Schneider","party":"Dem","address":"784 W 260 S, Pleasant Grove, UT 84062","precinct":"25PG20","hd":"56","v_score":"1.193887297","decile":"3","lat":40.360548692316,"lng":-111.752168224423},{"id":"51555","name":"Mr. Philo Terry PhD","party":"","address":"583 S 900 W, # 11-101, Pleasant Grove, UT 84062","precinct":"25PG20","hd":"56","v_score":"0","decile":"1","lat":40.356521079048,"lng":-111.753506916993},{"id":"51580","name":"Dr. Travon McCullough","party":"","address":"943 W 580 S, Unit 91, Pleasant Grove, UT 84062","precinct":"25PG20","hd":"56","v_score":"1.46627566","decile":"4","lat":40.357645080335,"lng":-111.754308964406},{"id":"52488","name":"Ms. Hettie Kuhn","party":"","address":"371 S 790 W, Pleasant Grove, UT 84062","precinct":"25PG20","hd":"56","v_score":"2.315214949","decile":"5","lat":40.359124852552,"lng":-111.752021807922},{"id":"52906","name":"Dr. Hermann Emard","party":"","address":"289 S 930 W, Pleasant Grove, UT 84062","precinct":"25PG20","hd":"56","v_score":"9.527862242","decile":"8","lat":40.360157913558,"lng":-111.754113348194},{"id":"53178","name":"Rodrick Toy-Sauer","party":"Rep","address":"582 S 980 W, Unit 84, Pleasant Grove, UT 84062","precinct":"25PG20","hd":"56","v_score":"0","decile":"1","lat":40.357119734127,"lng":-111.754688034641},{"id":"53467","name":"Kahlil Rowe","party":"","address":"344 S 740 W, Unit 101, Pleasant Grove, UT 84062","precinct":"25PG20","hd":"56","v_score":"10.13721141","decile":"9","lat":40.359436016378,"lng":-111.751526561542},{"id":"53574","name":"Spurgeon Reilly","party":"","address":"159 S Pleasant Grove Blvd, Unit 22, Pleasant Grove, UT 84062","precinct":"25PG20","hd":"56","v_score":"11.36410258","decile":"9","lat":40.363725867102,"lng":-111.753112051542},{"id":"53639","name":"Ebony Waelchi","party":"","address":"488 S 910 W, Unit 109, Pleasant Grove, UT 84062","precinct":"25PG20","hd":"56","v_score":"3.781490609","decile":"6","lat":40.357782399287,"lng":-111.7539385371},{"id":"53856","name":"Babe Becker","party":"Rep","address":"308 S 740 W, Apt 204, Pleasant Grove, UT 84062","precinct":"25PG20","hd":"56","v_score":"2.660162957","decile":"5","lat":40.35968924063,"lng":-111.75153295606},{"id":"54081","name":"Abbigail Batz","party":"Rep","address":"943 W 580 S, Unit 97, Pleasant Grove, UT 84062","precinct":"25PG20","hd":"56","v_score":"5.530510904","decile":"7","lat":40.357645080335,"lng":-111.754308964406},{"id":"54280","name":"Franz Pouros","party":"Rep","address":"584 S 980 W, Unit 58, Pleasant Grove, UT 84062","precinct":"25PG20","hd":"56","v_score":"2.587603312","decile":"5","lat":40.357105999583,"lng":-111.754688034643},{"id":"54634","name":"Mr. Refugio Lebsack","party":"Rep","address":"946 W 630 S, Unit 46, Pleasant Grove, UT 84062","precinct":"25PG20","hd":"56","v_score":"2.315214949","decile":"5","lat":40.356351315551,"lng":-111.754308182125},{"id":"54781","name":"Erie Donnelly","party":"Rep","address":"581 S 910 W, Unit 90, Pleasant Grove, UT 84062","precinct":"25PG20","hd":"56","v_score":"8.970075029","decile":"8","lat":40.36004296467,"lng":-111.753493653303},{"id":"54838","name":"Miss Glinda Boyle MD","party":"Dem","address":"522 S 810 W, Unit 5-101, Pleasant Grove, UT 84062","precinct":"25PG20","hd":"56","v_score":"1.121327652","decile":"3","lat":40.357401293123,"lng":-111.75181053646},{"id":"55291","name":"Rheta Graham","party":"","address":"317 S 1000 W, Apt 104, Pleasant Grove, UT 84062","precinct":"25PG20","hd":"56","v_score":"1.121327652","decile":"3","lat":40.359611096839,"lng":-111.754956153866},{"id":"55655","name":"Ednah Effertz","party":"Dem","address":"467 S 900 W, # 8-203, Pleasant Grove, UT 84062","precinct":"25PG20","hd":"56","v_score":"2.315214949","decile":"5","lat":40.35795461719,"lng":-111.753244945466},{"id":"56038","name":"Aleen Farrell","party":"Dem","address":"566 S 810 W, Apt 205, Pleasant Grove, UT 84062","precinct":"25PG20","hd":"56","v_score":"1.121327652","decile":"3","lat":40.357056526793,"lng":-111.752657912815},{"id":"56093","name":"Franz Harber","party":"","address":"309 S 810 W, Pleasant Grove, UT 84062","precinct":"25PG20","hd":"56","v_score":"3.93832808","decile":"6","lat":40.359982601409,"lng":-111.752333070414},{"id":"56231","name":"Shay Baumbach","party":"Dem","address":"582 W 220 S, Pleasant Grove, UT 84062","precinct":"25PG20","hd":"56","v_score":"3.93832808","decile":"6","lat":40.360903152344,"lng":-111.7496094323},{"id":"56718","name":"Joseph Larson","party":"Dem","address":"155 S Pleasant Grove Blvd, Unit 34, Pleasant Grove, UT 84062","precinct":"25PG20","hd":"56","v_score":"1.193887297","decile":"3","lat":40.363966616057,"lng":-111.752889440251},{"id":"56734","name":"Ivor Macejkovic DDS","party":"Rep","address":"584 S 980 W, Unit 61, Pleasant Grove, UT 84062","precinct":"25PG20","hd":"56","v_score":"3.016591252","decile":"6","lat":40.357105999583,"lng":-111.754688034643},{"id":"57309","name":"Weldon Leuschke","party":"Rep","address":"461 S 980 W, Unit 129, Pleasant Grove, UT 84062","precinct":"25PG20","hd":"56","v_score":"0","decile":"1","lat":40.358147893359,"lng":-111.754787098929},{"id":"57461","name":"Brianda Greenfelder","party":"Dem","address":"927 W 630 S, Unit 31, Pleasant Grove, UT 84062","precinct":"25PG20","hd":"56","v_score":"13.12164488","decile":"9","lat":40.356229616744,"lng":-111.754150822332},{"id":"57576","name":"Cathrine Wiza MD","party":"Rep","address":"758 W 260 S, Pleasant Grove, UT 84062","precinct":"25PG20","hd":"56","v_score":"0","decile":"1","lat":40.360546983166,"lng":-111.752022947668},{"id":"57801","name":"Estes Kohler","party":"","address":"963 W 670 S, Unit 14, Pleasant Grove, UT 84062","precinct":"25PG20","hd":"56","v_score":"1.193887297","decile":"3","lat":40.355688191897,"lng":-111.754433437416},{"id":"57950","name":"Eloy Gislason","party":"","address":"488 S 910 W, Unit 114, Pleasant Grove, UT 84062","precinct":"25PG20","hd":"56","v_score":"0","decile":"1","lat":40.357782399287,"lng":-111.7539385371},{"id":"58425","name":"Arno Block","party":"","address":"597 S 910 W, Unit 53, Pleasant Grove, UT 84062","precinct":"25PG20","hd":"56","v_score":"2.315214949","decile":"5","lat":40.359974342443,"lng":-111.753488829593},{"id":"58568","name":"Russell Upton","party":"Rep","address":"522 S 810 W, Bldg 5 #307, Pleasant Grove, UT 84062","precinct":"25PG20","hd":"56","v_score":"0","decile":"1","lat":40.357401293123,"lng":-111.75181053646},{"id":"58731","name":"Irvin Roob DDS","party":"Dem","address":"943 W 580 S, Unit 92, Pleasant Grove, UT 84062","precinct":"25PG20","hd":"56","v_score":"1.121327652","decile":"3","lat":40.357645080335,"lng":-111.754308964406},{"id":"59081","name":"Khari Morissette I","party":"Dem","address":"343 S 790 W, Unit 304, Pleasant Grove, UT 84062","precinct":"25PG20","hd":"56","v_score":"1.121327652","decile":"3","lat":40.359599329025,"lng":-111.752318718721},{"id":"59248","name":"Lorelei Schaden","party":"Rep","address":"566 S 810 W, Apt 3-303, Pleasant Grove, UT 84062","precinct":"25PG20","hd":"56","v_score":"1.121327652","decile":"3","lat":40.357056526793,"lng":-111.752657912815},{"id":"60754","name":"Dr. Lawerence Heidenreich","party":"Rep","address":"539 S 900 W, # 10207, Pleasant Grove, UT 84062","precinct":"25PG20","hd":"56","v_score":"2.817000428","decile":"6","lat":40.357135998877,"lng":-111.75349666825},{"id":"61760","name":"Campbell Kirlin V","party":"Dem","address":"482 S 810 W, Apt 6-202, Pleasant Grove, UT 84062","precinct":"25PG20","hd":"56","v_score":"0","decile":"1","lat":40.35728670174,"lng":-111.751824752627},{"id":"62108","name":"Miss Esperanza Kautzer","party":"","address":"583 S 900 W, Apt 306, Pleasant Grove, UT 84062","precinct":"25PG20","hd":"56","v_score":"9.567299636","decile":"8","lat":40.356521079048,"lng":-111.753506916993},{"id":"62229","name":"Dania Murazik MD","party":"","address":"273 S 840 W, Pleasant Grove, UT 84062","precinct":"25PG20","hd":"56","v_score":"12.47076983","decile":"9","lat":40.360305451659,"lng":-111.752811713873},{"id":"62232","name":"Florida Aufderhar","party":"Rep","address":"582 S 980 W, Unit 80, Pleasant Grove, UT 84062","precinct":"25PG20","hd":"56","v_score":"9.307242465","decile":"8","lat":40.357119734127,"lng":-111.754688034641},{"id":"62373","name":"Orene Hirthe","party":"Rep","address":"961 W 630 S, Pleasant Grove, UT 84062","precinct":"25PG20","hd":"56","v_score":"2.315214949","decile":"5","lat":40.356242022619,"lng":-111.754433055474},{"id":"62487","name":"Taurean Kub","party":"Rep","address":"165 S Pleasant Grove Blvd, Unit 41, Pleasant Grove, UT 84062","precinct":"25PG20","hd":"56","v_score":"0","decile":"1","lat":40.363338513281,"lng":-111.753498035833},{"id":"62602","name":"Dr. Weston Purdy","party":"","address":"956 W 580 S, Unit 126, Pleasant Grove, UT 84062","precinct":"25PG20","hd":"56","v_score":"2.315214949","decile":"5","lat":40.357761293283,"lng":-111.75442333222},{"id":"62895","name":"Ms. Isamar Murazik DVM","party":"Dem","address":"591 S 1050 W, Unit A, Pleasant Grove, UT 84062","precinct":"25PG20","hd":"56","v_score":"24.8419202","decile":"10","lat":40.374763300975,"lng":-111.748307909989},{"id":"63115","name":"Dr. Leah Stokes","party":"Rep","address":"566 S 810 W, Apt 106, Pleasant Grove, UT 84062","precinct":"25PG20","hd":"56","v_score":"5.258122542","decile":"7","lat":40.357056526793,"lng":-111.752657912815},{"id":"63215","name":"Torry Williamson","party":"Dem","address":"343 S 1000 W, Apt 302, Pleasant Grove, UT 84062","precinct":"25PG20","hd":"56","v_score":"2.315214949","decile":"5","lat":40.359458323349,"lng":-111.754956153886},{"id":"63242","name":"Janis Batz","party":"Rep","address":"587 S 910 W, Unit 72, Pleasant Grove, UT 84062","precinct":"25PG20","hd":"56","v_score":"0","decile":"1","lat":40.360014109407,"lng":-111.753493653307},{"id":"63620","name":"Alby Nicolas-Macejkovic","party":"","address":"963 W 670 S, Unit 23, Pleasant Grove, UT 84062","precinct":"25PG20","hd":"56","v_score":"1.121327652","decile":"3","lat":40.355688191897,"lng":-111.754433437416},{"id":"63654","name":"Blaise Mills","party":"","address":"638 S 810 W, 1-204, Pleasant Grove, UT 84062","precinct":"25PG20","hd":"56","v_score":"8.376826675","decile":"8","lat":40.356223269831,"lng":-111.752655292619},{"id":"63666","name":"Halley Roob","party":"Rep","address":"583 S 900 W, # 11-201, Pleasant Grove, UT 84062","precinct":"25PG20","hd":"56","v_score":"5.258122542","decile":"7","lat":40.356521079048,"lng":-111.753506916993},{"id":"64116","name":"Robt Hilpert","party":"","address":"655 S 980 W, Unit 29, Pleasant Grove, UT 84062","precinct":"25PG20","hd":"56","v_score":"17.07745796","decile":"9","lat":40.355963027551,"lng":-111.754749536841},{"id":"64117","name":"Dr. Branch Wisozk Sr.","party":"","address":"655 S 980 W, Pleasant Grove, UT 84062","precinct":"25PG20","hd":"56","v_score":"8.241916548","decile":"8","lat":40.355963027551,"lng":-111.754749536841},{"id":"64541","name":"Mr. Delphin Fadel","party":"Rep","address":"785 W 180 S, Unit B, Pleasant Grove, UT 84062","precinct":"25PG20","hd":"56","v_score":"1.193887297","decile":"3","lat":40.361485352258,"lng":-111.751012334459},{"id":"65251","name":"Gaye Corwin","party":"Dem","address":"566 S 810 W, Apt 301, Pleasant Grove, UT 84062","precinct":"25PG20","hd":"56","v_score":"8.758817347","decile":"8","lat":40.357056526793,"lng":-111.752657912815},{"id":"65253","name":"Moses Ortiz","party":"","address":"298 S 910 W, Pleasant Grove, UT 84062","precinct":"25PG20","hd":"56","v_score":"1.193887297","decile":"3","lat":40.360194430524,"lng":-111.753644038164},{"id":"66097","name":"Ms. Roxanna Streich DDS","party":"Dem","address":"371 S 790 W, Pleasant Grove, UT 84062","precinct":"25PG20","hd":"56","v_score":"4.064235245","decile":"6","lat":40.359124852552,"lng":-111.752021807922},{"id":"66400","name":"Mrs. Sibyl Wyman","party":"Dem","address":"467 S 900 W, Apt 102, Pleasant Grove, UT 84062","precinct":"25PG20","hd":"56","v_score":"3.93832808","decile":"6","lat":40.35795461719,"lng":-111.753244945466},{"id":"67001","name":"Fremont Hahn II","party":"","address":"289 S 1000 W, Apt 204, Pleasant Grove, UT 84062","precinct":"25PG20","hd":"56","v_score":"2.315214949","decile":"5","lat":40.359775622135,"lng":-111.754956153845},{"id":"67389","name":"Dr. Zackary Eichmann","party":"Dem","address":"165 S Pleasant Grove Blvd, Unit 40, Pleasant Grove, UT 84062","precinct":"25PG20","hd":"56","v_score":"0","decile":"1","lat":40.363338513281,"lng":-111.753498035833},{"id":"67504","name":"Mrs. Cari Bartoletti","party":"","address":"641 S 900 W, Apt 207, Pleasant Grove, UT 84062","precinct":"25PG20","hd":"56","v_score":"0","decile":"1","lat":40.355922154995,"lng":-111.753460183487},{"id":"68036","name":"Dr. Reinhold Nicolas DDS","party":"","address":"467 S 900 W, Apt 202, Pleasant Grove, UT 84062","precinct":"25PG20","hd":"56","v_score":"1.121327652","decile":"3","lat":40.35795461719,"lng":-111.753244945466},{"id":"68057","name":"Darl Glover","party":"","address":"345 S 930 W, Pleasant Grove, UT 84062","precinct":"25PG20","hd":"56","v_score":"1.121327652","decile":"3","lat":40.359696671902,"lng":-111.753988268599},{"id":"69284","name":"Gerhardt Blanda","party":"","address":"289 S 1000 W, Apt 204, Pleasant Grove, UT 84062","precinct":"25PG20","hd":"56","v_score":"1.193887297","decile":"3","lat":40.359775622135,"lng":-111.754956153845},{"id":"69726","name":"Gemma Bogan","party":"","address":"597 S 910 W, Unit 56, Pleasant Grove, UT 84062","precinct":"25PG20","hd":"56","v_score":"6.954919332","decile":"8","lat":40.359974342443,"lng":-111.753488829593},{"id":"69975","name":"Armstead Waelchi","party":"Dem","address":"583 S 900 W, Apt 107, Pleasant Grove, UT 84062","precinct":"25PG20","hd":"56","v_score":"1.121327652","decile":"3","lat":40.356521079048,"lng":-111.753506916993},{"id":"70605","name":"Berkley Gaylord","party":"Dem","address":"467 S 900 W, Apt 208, Pleasant Grove, UT 84062","precinct":"25PG20","hd":"56","v_score":"8.670935747","decile":"8","lat":40.35795461719,"lng":-111.753244945466},{"id":"70685","name":"Ms. Tamela Rippin PhD","party":"Dem","address":"467 S 900 W, Apt 103, Pleasant Grove, UT 84062","precinct":"25PG20","hd":"56","v_score":"0","decile":"1","lat":40.35795461719,"lng":-111.753244945466},{"id":"70787","name":"Taniyah Murphy PhD","party":"Rep","address":"384 S 790 W, Pleasant Grove, UT 84062","precinct":"25PG20","hd":"56","v_score":"3.93832808","decile":"6","lat":40.354530433204,"lng":-111.733849378246},{"id":"71345","name":"Delle Hirthe","party":"","address":"961 W 630 S, Unit 40, Pleasant Grove, UT 84062","precinct":"25PG20","hd":"56","v_score":"3.93832808","decile":"6","lat":40.356242022619,"lng":-111.754433055474},{"id":"71350","name":"Ina Kris","party":"Rep","address":"277 S 840 W, Pleasant Grove, UT 84062","precinct":"25PG20","hd":"56","v_score":"2.315214949","decile":"5","lat":40.360323677024,"lng":-111.75281019509},{"id":"72258","name":"Finis Harris","party":"","address":"566 S 810 W, Apt 3-202, Pleasant Grove, UT 84062","precinct":"25PG20","hd":"56","v_score":"2.744440783","decile":"5","lat":40.357056526793,"lng":-111.752657912815},{"id":"72308","name":"Jan Heidenreich","party":"","address":"808 W 260 S, Pleasant Grove, UT 84062","precinct":"25PG20","hd":"56","v_score":"6.027167436","decile":"7","lat":40.360550269993,"lng":-111.752302326042},{"id":"72321","name":"Alphonsine Keebler","party":"","address":"963 W 670 S, Unit 23, Pleasant Grove, UT 84062","precinct":"25PG20","hd":"56","v_score":"0","decile":"1","lat":40.355688191897,"lng":-111.754433437416},{"id":"72419","name":"Marco Legros-Tromp","party":"Rep","address":"495 S 900 W, Apt 207, Pleasant Grove, UT 84062","precinct":"25PG20","hd":"56","v_score":"1.121327652","decile":"3","lat":40.357750918706,"lng":-111.753486419506},{"id":"72908","name":"Jeffie Effertz","party":"","address":"808 W 260 S, Pleasant Grove, UT 84062","precinct":"25PG20","hd":"56","v_score":"14.80889503","decile":"9","lat":40.360550269993,"lng":-111.752302326042},{"id":"73909","name":"Alethea Corkery","party":"Dem","address":"582 S 980 W, Unit 80, Pleasant Grove, UT 84062","precinct":"25PG20","hd":"56","v_score":"6.364334873","decile":"7","lat":40.357119734127,"lng":-111.754688034641},{"id":"74168","name":"Finn Jast DDS","party":"Dem","address":"583 S 900 W, Apt 11-302, Pleasant Grove, UT 84062","precinct":"25PG20","hd":"56","v_score":"2.315214949","decile":"5","lat":40.356521079048,"lng":-111.753506916993},{"id":"74482","name":"Dr. Dawson Botsford III","party":"Dem","address":"522 S 810 W, Apt 305, Pleasant Grove, UT 84062","precinct":"25PG20","hd":"56","v_score":"2.315214949","decile":"5","lat":40.357401293123,"lng":-111.75181053646},{"id":"75248","name":"Dr. Carrie O'Conner","party":"","address":"584 S 980 W, Unit 66, Pleasant Grove, UT 84062","precinct":"25PG20","hd":"56","v_score":"1.121327652","decile":"3","lat":40.357105999583,"lng":-111.754688034643},{"id":"76238","name":"Armin DuBuque","party":"Dem","address":"808 W 260 S, Pleasant Grove, UT 84062","precinct":"25PG20","hd":"56","v_score":"14.80889503","decile":"9","lat":40.360550269993,"lng":-111.752302326042},{"id":"76323","name":"Sharron Rowe","party":"Rep","address":"272 S 810 W, Pleasant Grove, UT 84062","precinct":"25PG20","hd":"56","v_score":"2.315214949","decile":"5","lat":40.360265802057,"lng":-111.752468302788},{"id":"76366","name":"Elmyra Blick","party":"Dem","address":"272 S 810 W, Pleasant Grove, UT 84062","precinct":"25PG20","hd":"56","v_score":"2.315214949","decile":"5","lat":40.360265802057,"lng":-111.752468302788},{"id":"76486","name":"Katelynn Goodwin","party":"Dem","address":"772 W 130 S, Unit D, Pleasant Grove, UT 84062","precinct":"25PG20","hd":"56","v_score":"1.121327652","decile":"3","lat":40.362184222717,"lng":-111.752017224563},{"id":"77112","name":"Lenora White","party":"Rep","address":"522 S 810 W, Pleasant Grove, UT 84062","precinct":"25PG20","hd":"56","v_score":"3.93832808","decile":"6","lat":40.357401293123,"lng":-111.75181053646},{"id":"77115","name":"Mrs. Breann Schowalter","party":"","address":"584 S 980 W, Unit 69, Pleasant Grove, UT 84062","precinct":"25PG20","hd":"56","v_score":"2.744440783","decile":"5","lat":40.357105999583,"lng":-111.754688034643},{"id":"77287","name":"Jennie Jaskolski","party":"Rep","address":"641 S 900 W, Apt 207, Pleasant Grove, UT 84062","precinct":"25PG20","hd":"56","v_score":"2.744440783","decile":"5","lat":40.355922154995,"lng":-111.753460183487},{"id":"77294","name":"Dr. Nicolas Sawayn","party":"Dem","address":"641 S 900 W, Apt 306, Pleasant Grove, UT 84062","precinct":"25PG20","hd":"56","v_score":"2.315214949","decile":"5","lat":40.355922154995,"lng":-111.753460183487},{"id":"77849","name":"Buel Connelly","party":"Dem","address":"367 S 1000 W, Apt 203, Pleasant Grove, UT 84062","precinct":"25PG20","hd":"56","v_score":"2.315214949","decile":"5","lat":40.359316622563,"lng":-111.754956826629},{"id":"78072","name":"Ms. Emely Larson PhD","party":"Rep","address":"376 S 740 W, Unit 104, Pleasant Grove, UT 84062","precinct":"25PG20","hd":"56","v_score":"11.19041277","decile":"9","lat":40.359210928155,"lng":-111.751520877526},{"id":"78195","name":"Jacquelin Fay","party":"","address":"582 W 220 S, Pleasant Grove, UT 84062","precinct":"25PG20","hd":"56","v_score":"3.93832808","decile":"6","lat":40.360903152344,"lng":-111.7496094323},{"id":"79460","name":"Rosabelle Waelchi DDS","party":"Dem","address":"597 S 910 W, Unit 54, Pleasant Grove, UT 84062","precinct":"25PG20","hd":"56","v_score":"1.121327652","decile":"3","lat":40.359974342443,"lng":-111.753488829593},{"id":"79772","name":"Dorris Swaniawski","party":"","address":"641 S 900 W, Apt 203, Pleasant Grove, UT 84062","precinct":"25PG20","hd":"56","v_score":"2.315214949","decile":"5","lat":40.355922154995,"lng":-111.753460183487},{"id":"79906","name":"Hughie Corkery","party":"Dem","address":"429 S 980 W, Unit 134, Pleasant Grove, UT 84062","precinct":"25PG20","hd":"56","v_score":"4.741221742","decile":"7","lat":40.358475107558,"lng":-111.754777379653},{"id":"80949","name":"Vickie Littel","party":"","address":"367 S 1000 W, Apt 304, Pleasant Grove, UT 84062","precinct":"25PG20","hd":"56","v_score":"0","decile":"1","lat":40.359316622563,"lng":-111.754956826629},{"id":"80952","name":"Theresia Murazik","party":"Dem","address":"956 W 580 S, Unit 117, Pleasant Grove, UT 84062","precinct":"25PG20","hd":"56","v_score":"0","decile":"1","lat":40.357761293283,"lng":-111.75442333222},{"id":"81089","name":"Garnett Wiegand","party":"","address":"362 S 790 W, Pleasant Grove, UT 84062","precinct":"25PG20","hd":"56","v_score":"0","decile":"1","lat":40.359032064832,"lng":-111.752138114645},{"id":"82331","name":"Mr. Lamarcus Cartwright","party":"","address":"482 S 810 W, Apt 6-103, Pleasant Grove, UT 84062","precinct":"25PG20","hd":"56","v_score":"1.193887297","decile":"3","lat":40.35728670174,"lng":-111.751824752627},{"id":"82334","name":"Dr. Zena Beahan","party":"","address":"482 S 810 W, Apt 301, Pleasant Grove, UT 84062","precinct":"25PG20","hd":"56","v_score":"0","decile":"1","lat":40.35728670174,"lng":-111.751824752627},{"id":"83203","name":"Keila Runte","party":"","address":"852 W 260 S, Pleasant Grove, UT 84062","precinct":"25PG20","hd":"56","v_score":"0","decile":"1","lat":40.360542292858,"lng":-111.753002623279},{"id":"83204","name":"Flossie Parker","party":"Dem","address":"584 S 980 W, Unit 61, Pleasant Grove, UT 84062","precinct":"25PG20","hd":"56","v_score":"0","decile":"1","lat":40.357105999583,"lng":-111.754688034643},{"id":"83206","name":"Cruz Schowalter","party":"Rep","address":"482 S 810 W, Unit 6, Pleasant Grove, UT 84062","precinct":"25PG20","hd":"56","v_score":"0","decile":"1","lat":40.35728670174,"lng":-111.751824752627},{"id":"83377","name":"Julien Sporer","party":"","address":"906 W 260 S, Pleasant Grove, UT 84062","precinct":"25PG20","hd":"56","v_score":"0","decile":"1","lat":40.360542292872,"lng":-111.753184236932},{"id":"83537","name":"Kanisha Crist DVM","party":"Dem","address":"641 S 900 W, Apt 207, Pleasant Grove, UT 84062","precinct":"25PG20","hd":"56","v_score":"0","decile":"1","lat":40.355922154995,"lng":-111.753460183487},{"id":"83677","name":"Teresa Fritsch","party":"","address":"539 S 900 W, Apt 105, Pleasant Grove, UT 84062","precinct":"25PG20","hd":"56","v_score":"0","decile":"1","lat":40.357135998877,"lng":-111.75349666825},{"id":"83939","name":"Gilberto Hegmann MD","party":"","address":"488 S 910 W, Unit 107, Pleasant Grove, UT 84062","precinct":"25PG20","hd":"56","v_score":"0","decile":"1","lat":40.357782399287,"lng":-111.7539385371},{"id":"83963","name":"Ezell Mayer","party":"Rep","address":"151 S Pleasant Grove Blvd, Unit 10, Pleasant Grove, UT 84062","precinct":"25PG20","hd":"56","v_score":"0","decile":"1","lat":40.364281057062,"lng":-111.752679345803},{"id":"85046","name":"Dr. Donny Stracke IV","party":"Dem","address":"568 S 1050 W, Unit C, Pleasant Grove, UT 84062","precinct":"25PG20","hd":"56","v_score":"2.315214949","decile":"5","lat":40.374876219965,"lng":-111.748149655244},{"id":"85203","name":"Dr. Timmie Von","party":"Dem","address":"467 S 900 W, Apt 107, Pleasant Grove, UT 84062","precinct":"25PG20","hd":"56","v_score":"1.623113131","decile":"5","lat":40.35795461719,"lng":-111.753244945466},{"id":"86171","name":"Perry Anderson","party":"","address":"308 S 740 W, Apt 302, Pleasant Grove, UT 84062","precinct":"25PG20","hd":"56","v_score":"0","decile":"1","lat":40.35968924063,"lng":-111.75153295606},{"id":"86700","name":"Mikala Ondricka","party":"Rep","address":"482 S 810 W, Apt 6-302, Pleasant Grove, UT 84062","precinct":"25PG20","hd":"56","v_score":"0","decile":"1","lat":40.35728670174,"lng":-111.751824752627},{"id":"86729","name":"Ena Schamberger-Bauch","party":"","address":"356 S 790 W, Pleasant Grove, UT 84062","precinct":"25PG20","hd":"56","v_score":"7.549608095","decile":"8","lat":40.359247169613,"lng":-111.752238496836},{"id":"88529","name":"Elvie Heathcote","party":"","address":"323 S 810 W, Pleasant Grove, UT 84062","precinct":"25PG20","hd":"56","v_score":"0","decile":"1","lat":40.359952270954,"lng":-111.752335236879},{"id":"88623","name":"Rosella Anderson","party":"Rep","address":"946 W 630 S, Unit 41, Pleasant Grove, UT 84062","precinct":"25PG20","hd":"56","v_score":"2.876042565","decile":"6","lat":40.356351315551,"lng":-111.754308182125},{"id":"89515","name":"Dr. Donell Mante Jr.","party":"","address":"482 S 810 W, Apt 6-102, Pleasant Grove, UT 84062","precinct":"25PG20","hd":"56","v_score":"0","decile":"1","lat":40.35728670174,"lng":-111.751824752627},{"id":"89523","name":"Troy Abernathy","party":"Rep","address":"345 S 930 W, Pleasant Grove, UT 84062","precinct":"25PG20","hd":"56","v_score":"0","decile":"1","lat":40.359696671902,"lng":-111.753988268599},{"id":"90339","name":"Mr. Kamari Parker II","party":"","address":"583 S 900 W, Apt 307, Pleasant Grove, UT 84062","precinct":"25PG20","hd":"56","v_score":"9.907118004","decile":"8","lat":40.356521079048,"lng":-111.753506916993},{"id":"90407","name":"Elliana Kulas","party":"Rep","address":"929 W 670 S, Unit 1, Pleasant Grove, UT 84062","precinct":"25PG20","hd":"56","v_score":"1.193887297","decile":"4","lat":40.355686662039,"lng":-111.754152856009},{"id":"91697","name":"Adison Ullrich PhD","party":"Dem","address":"317 S 1000 W, Apt 102, Pleasant Grove, UT 84062","precinct":"25PG20","hd":"56","v_score":"7.549608095","decile":"8","lat":40.359611096839,"lng":-111.754956153866},{"id":"92066","name":"Eliseo Von","party":"Rep","address":"816 W 260 S, Pleasant Grove, UT 84062","precinct":"25PG20","hd":"56","v_score":"0","decile":"1","lat":40.360548856691,"lng":-111.752523519711},{"id":"92645","name":"Miesha Erdman","party":"Dem","address":"482 S 810 W, Apt B6-106, Pleasant Grove, UT 84062","precinct":"25PG20","hd":"56","v_score":"1.193887297","decile":"4","lat":40.35728670174,"lng":-111.751824752627},{"id":"92794","name":"Mr. Guss Reichel I","party":"","address":"568 S 1050 W, Unit C, Pleasant Grove, UT 84062","precinct":"25PG20","hd":"56","v_score":"0","decile":"1","lat":40.374876219965,"lng":-111.748149655244},{"id":"93593","name":"Mandy Jakubowski","party":"Rep","address":"337 S 930 W, Pleasant Grove, UT 84062","precinct":"25PG20","hd":"56","v_score":"1.193887297","decile":"4","lat":40.359766695806,"lng":-111.753956509067},{"id":"94552","name":"Dr. Kinte Bartoletti MD","party":"Rep","address":"566 S 810 W, Apt 3-106, Pleasant Grove, UT 84062","precinct":"25PG20","hd":"56","v_score":"0","decile":"1","lat":40.357056526793,"lng":-111.752657912815},{"id":"95446","name":"Kiersten Dibbert-Simonis","party":"","address":"808 W 260 S, Pleasant Grove, UT 84062","precinct":"25PG20","hd":"56","v_score":"13.68756737","decile":"9","lat":40.360550269993,"lng":-111.752302326042},{"id":"95728","name":"Mr. Burley Price Sr.","party":"","address":"566 S 810 W, Apt 204, Pleasant Grove, UT 84062","precinct":"25PG20","hd":"56","v_score":"7.549608095","decile":"8","lat":40.357056526793,"lng":-111.752657912815},{"id":"95965","name":"Dr. Urijah Shields II","party":"","address":"946 W 630 S, Unit 44, Pleasant Grove, UT 84062","precinct":"25PG20","hd":"56","v_score":"1.121327652","decile":"3","lat":40.356351315551,"lng":-111.754308182125},{"id":"96017","name":"Dr. Javion Ruecker","party":"Dem","address":"482 S 810 W, Apt 302, Pleasant Grove, UT 84062","precinct":"25PG20","hd":"56","v_score":"0","decile":"1","lat":40.35728670174,"lng":-111.751824752627},{"id":"96153","name":"Rylan Larkin","party":"","address":"946 W 630 S, Unit 50, Pleasant Grove, UT 84062","precinct":"25PG20","hd":"56","v_score":"2.817000428","decile":"6","lat":40.356351315551,"lng":-111.754308182125},{"id":"96315","name":"Dr. Sol Trantow III","party":"Dem","address":"317 S 1000 W, Apt 101, Pleasant Grove, UT 84062","precinct":"25PG20","hd":"56","v_score":"2.817000428","decile":"6","lat":40.359611096839,"lng":-111.754956153866},{"id":"96431","name":"Shawnte Lebsack-Reilly","party":"Rep","address":"604 S 810 W, Apt 102, Pleasant Grove, UT 84062","precinct":"25PG20","hd":"56","v_score":"1.193887297","decile":"4","lat":40.356616752285,"lng":-111.752656529934},{"id":"96681","name":"Dr. Parley Reichel","party":"Dem","address":"289 S 1000 W, Apt 302, Pleasant Grove, UT 84062","precinct":"25PG20","hd":"56","v_score":"0","decile":"1","lat":40.359775622135,"lng":-111.754956153845},{"id":"97876","name":"Clem Marvin","party":"Dem","address":"584 S 980 W, Unit 69, Pleasant Grove, UT 84062","precinct":"25PG20","hd":"56","v_score":"1.193887297","decile":"4","lat":40.357105999583,"lng":-111.754688034643},{"id":"98032","name":"Celina Blick","party":"Dem","address":"956 W 580 S, Unit 115, Pleasant Grove, UT 84062","precinct":"25PG20","hd":"56","v_score":"1.623113131","decile":"5","lat":40.357761293283,"lng":-111.75442333222},{"id":"98327","name":"Arthor Pouros","party":"Rep","address":"273 S 840 W, Pleasant Grove, UT 84062","precinct":"25PG20","hd":"56","v_score":"9.638447451","decile":"8","lat":40.360305451659,"lng":-111.752811713873},{"id":"99078","name":"Robt McCullough","party":"","address":"343 S 1000 W, Apt 101, Pleasant Grove, UT 84062","precinct":"25PG20","hd":"56","v_score":"1.193887297","decile":"4","lat":40.359458323349,"lng":-111.754956153886},{"id":"100241","name":"Ritchie Botsford Jr.","party":"Dem","address":"367 S 1000 W, Apt 203, Pleasant Grove, UT 84062","precinct":"25PG20","hd":"56","v_score":"1.193887297","decile":"4","lat":40.359316622563,"lng":-111.754956826629},{"id":"100265","name":"Valarie Hayes","party":"Dem","address":"337 S 930 W, Pleasant Grove, UT 84062","precinct":"25PG20","hd":"56","v_score":"4.069929862","decile":"6","lat":40.359766695806,"lng":-111.753956509067},{"id":"100335","name":"Rosena Bauch","party":"Dem","address":"467 S 900 W, Apt 305, Pleasant Grove, UT 84062","precinct":"25PG20","hd":"56","v_score":"1.193887297","decile":"4","lat":40.35795461719,"lng":-111.753244945466},{"id":"101004","name":"Hilliard Stamm","party":"Rep","address":"638 S 810 W, Bldg 1-204, Pleasant Grove, UT 84062","precinct":"25PG20","hd":"56","v_score":"0","decile":"2","lat":40.356223269831,"lng":-111.752655292619},{"id":"101287","name":"Dr. Tyreek Ratke Sr.","party":"","address":"367 S 1000 W, Apt 301, Pleasant Grove, UT 84062","precinct":"25PG20","hd":"56","v_score":"1.193887297","decile":"4","lat":40.359316622563,"lng":-111.754956826629},{"id":"101542","name":"Roma Zulauf","party":"","address":"495 S 900 W, Apt 107, Pleasant Grove, UT 84062","precinct":"25PG20","hd":"56","v_score":"0","decile":"2","lat":40.357750918706,"lng":-111.753486419506},{"id":"101779","name":"Justen Reynolds","party":"Dem","address":"641 S 900 W, # 12-303, Pleasant Grove, UT 84062","precinct":"25PG20","hd":"56","v_score":"0","decile":"2","lat":40.355922154995,"lng":-111.753460183487},{"id":"101805","name":"Gaines Rice","party":"Rep","address":"534 S 810 W, Apt 302, Pleasant Grove, UT 84062","precinct":"25PG20","hd":"56","v_score":"0","decile":"2","lat":40.357401293148,"lng":-111.752139538842},{"id":"101881","name":"Mr. Kaleb Rempel MD","party":"Dem","address":"522 S 810 W, Apt 304, Pleasant Grove, UT 84062","precinct":"25PG20","hd":"56","v_score":"0","decile":"2","lat":40.357401293123,"lng":-111.75181053646},{"id":"102966","name":"Gurney Homenick","party":"","address":"137 S 700 W, Unit A, Pleasant Grove, UT 84062","precinct":"25PG20","hd":"56","v_score":"19.15457182","decile":"10","lat":40.361883506721,"lng":-111.750861575271},{"id":"103149","name":"Mr. Early Schuppe","party":"Rep","address":"583 S 900 W, Apt 104, Pleasant Grove, UT 84062","precinct":"25PG20","hd":"56","v_score":"0","decile":"2","lat":40.356521079048,"lng":-111.753506916993},{"id":"103415","name":"Rhoda Dooley","party":"","address":"151 S Pleasant Grove Blvd, Unit 8, Pleasant Grove, UT 84062","precinct":"25PG20","hd":"56","v_score":"1.193887297","decile":"4","lat":40.364281057062,"lng":-111.752679345803},{"id":"104754","name":"Hosteen Gulgowski-Jerde","party":"Rep","address":"566 S 810 W, Apt 205, Pleasant Grove, UT 84062","precinct":"25PG20","hd":"56","v_score":"0","decile":"2","lat":40.357056526793,"lng":-111.752657912815},{"id":"105010","name":"Dr. Preston Borer","party":"","address":"597 S 910 W, Unit 56, Pleasant Grove, UT 84062","precinct":"25PG20","hd":"56","v_score":"1.193887297","decile":"4","lat":40.359974342443,"lng":-111.753488829593},{"id":"105106","name":"Cindy Lemke","party":"","address":"317 S 1000 W, Apt 202, Pleasant Grove, UT 84062","precinct":"25PG20","hd":"56","v_score":"5.926494964","decile":"7","lat":40.359611096839,"lng":-111.754956153866},{"id":"105131","name":"Nat Dibbert","party":"","address":"429 S 980 W, Unit 133, Pleasant Grove, UT 84062","precinct":"25PG20","hd":"56","v_score":"5.926494964","decile":"7","lat":40.358475107558,"lng":-111.754777379653},{"id":"105512","name":"Dr. Mirna Murray MD","party":"","address":"566 S 810 W, Apt 207, Pleasant Grove, UT 84062","precinct":"25PG20","hd":"56","v_score":"1.193887297","decile":"4","lat":40.357056526793,"lng":-111.752657912815},{"id":"105631","name":"Darrien Rice","party":"","address":"641 S 900 W, Apt 206, Pleasant Grove, UT 84062","precinct":"25PG20","hd":"56","v_score":"0","decile":"2","lat":40.355922154995,"lng":-111.753460183487},{"id":"106069","name":"Ansel Hackett","party":"Rep","address":"337 S 930 W, Pleasant Grove, UT 84062","precinct":"25PG20","hd":"56","v_score":"9.338633761","decile":"8","lat":40.359766695806,"lng":-111.753956509067},{"id":"106778","name":"Karyme Jones","party":"Rep","address":"351 S 930 W, Pleasant Grove, UT 84062","precinct":"25PG20","hd":"56","v_score":"10.71001167","decile":"9","lat":40.359645348244,"lng":-111.753994136901},{"id":"106780","name":"Harman Sauer","party":"","address":"351 S 930 W, Pleasant Grove, UT 84062","precinct":"25PG20","hd":"56","v_score":"9.516124369","decile":"8","lat":40.359645348244,"lng":-111.753994136901},{"id":"107088","name":"Ashlynn Botsford","party":"Dem","address":"785 W 180 S, Unit A, Pleasant Grove, UT 84062","precinct":"25PG20","hd":"56","v_score":"9.338633761","decile":"8","lat":40.361485352258,"lng":-111.751012334459},{"id":"107114","name":"Dr. Harve Torphy","party":"","address":"343 S 790 W, Unit 202, Pleasant Grove, UT 84062","precinct":"25PG20","hd":"56","v_score":"11.99595736","decile":"9","lat":40.359599329025,"lng":-111.752318718721},{"id":"107490","name":"Danika McKenzie","party":"","address":"296 S 930 W, Pleasant Grove, UT 84062","precinct":"25PG20","hd":"56","v_score":"0","decile":"2","lat":40.359879234376,"lng":-111.754189613517},{"id":"107519","name":"Tenika Kozey","party":"Rep","address":"482 S 810 W, Pleasant Grove, UT 84062","precinct":"25PG20","hd":"56","v_score":"0","decile":"2","lat":40.35728670174,"lng":-111.751824752627},{"id":"109301","name":"Lawrence Halvorson","party":"","address":"367 S 1000 W, Pleasant Grove, UT 84062","precinct":"25PG20","hd":"56","v_score":"0","decile":"2","lat":40.359316622563,"lng":-111.754956826629},{"id":"110168","name":"Dr. Idella Mueller","party":"","address":"155 S Pleasant Grove Blvd, Unit 31, Pleasant Grove, UT 84062","precinct":"25PG20","hd":"56","v_score":"3.61989409","decile":"6","lat":40.363966616057,"lng":-111.752889440251},{"id":"110177","name":"Bruno Carroll-Bosco","party":"","address":"641 S 900 W, # 12-102, Pleasant Grove, UT 84062","precinct":"25PG20","hd":"56","v_score":"1.193887297","decile":"4","lat":40.355922154995,"lng":-111.753460183487},{"id":"110307","name":"Evertt Conn","party":"","address":"584 S 980 W, Unit 69, Pleasant Grove, UT 84062","precinct":"25PG20","hd":"56","v_score":"0","decile":"2","lat":40.357105999583,"lng":-111.754688034643},{"id":"110886","name":"Dr. Pam Stanton DVM","party":"Dem","address":"638 S 810 W, Apt 107, Pleasant Grove, UT 84062","precinct":"25PG20","hd":"56","v_score":"1.193887297","decile":"4","lat":40.356223269831,"lng":-111.752655292619},{"id":"111766","name":"Shyheim Dickens","party":"Dem","address":"638 S 810 W, Apt 106, Pleasant Grove, UT 84062","precinct":"25PG20","hd":"56","v_score":"1.193887297","decile":"4","lat":40.356223269831,"lng":-111.752655292619},{"id":"112577","name":"Magdalena Moore DVM","party":"","address":"584 S 980 W, Unit 65, Pleasant Grove, UT 84062","precinct":"25PG20","hd":"56","v_score":"0","decile":"2","lat":40.357105999583,"lng":-111.754688034643},{"id":"112939","name":"Aileen Crooks","party":"Dem","address":"308 S 740 W, Apt 104, Pleasant Grove, UT 84062","precinct":"25PG20","hd":"56","v_score":"1.193887297","decile":"4","lat":40.35968924063,"lng":-111.75153295606},{"id":"113118","name":"Earley Stoltenberg","party":"Dem","address":"522 S 810 W, Apt 208, Pleasant Grove, UT 84062","precinct":"25PG20","hd":"56","v_score":"1.193887297","decile":"4","lat":40.357401293123,"lng":-111.75181053646},{"id":"113139","name":"Kiera Jerde","party":"Dem","address":"277 S 840 W, Pleasant Grove, UT 84062","precinct":"25PG20","hd":"56","v_score":"0","decile":"2","lat":40.360323677024,"lng":-111.75281019509},{"id":"113192","name":"Ms. Rosie Rogahn DDS","party":"Rep","address":"151 S Pleasant Grove Blvd, Unit 8, Pleasant Grove, UT 84062","precinct":"25PG20","hd":"56","v_score":"0","decile":"2","lat":40.364281057062,"lng":-111.752679345803},{"id":"113362","name":"Griffith Hand","party":"Rep","address":"155 S Pleasant Grove Blvd, Unit 34, Pleasant Grove, UT 84062","precinct":"25PG20","hd":"56","v_score":"1.193887297","decile":"4","lat":40.363966616057,"lng":-111.752889440251},{"id":"113443","name":"Karol Wunsch","party":"Dem","address":"467 S 900 W, Apt 305, Pleasant Grove, UT 84062","precinct":"25PG20","hd":"56","v_score":"1.193887297","decile":"4","lat":40.35795461719,"lng":-111.753244945466},{"id":"114076","name":"Nile Huels","party":"","address":"522 S 810 W, Apt 108, Pleasant Grove, UT 84062","precinct":"25PG20","hd":"56","v_score":"0","decile":"2","lat":40.357401293123,"lng":-111.75181053646},{"id":"114151","name":"Dr. Laverne Mann","party":"","address":"343 S 790 W, Unit 301, Pleasant Grove, UT 84062","precinct":"25PG20","hd":"56","v_score":"1.193887297","decile":"4","lat":40.359599329025,"lng":-111.752318718721},{"id":"114308","name":"Deontae Ruecker Sr.","party":"","address":"482 S 810 W, Apt 301, Pleasant Grove, UT 84062","precinct":"25PG20","hd":"56","v_score":"0","decile":"2","lat":40.35728670174,"lng":-111.751824752627},{"id":"114655","name":"Deanna Cummerata","party":"","address":"495 S 900 W, Apt 304, Pleasant Grove, UT 84062","precinct":"25PG20","hd":"56","v_score":"1.193887297","decile":"4","lat":40.357750918706,"lng":-111.753486419506},{"id":"115078","name":"Mr. Fitzgerald Botsford","party":"Dem","address":"584 S 980 W, Unit 59, Pleasant Grove, UT 84062","precinct":"25PG20","hd":"56","v_score":"1.193887297","decile":"4","lat":40.357105999583,"lng":-111.754688034643},{"id":"115774","name":"Mr. Darin Wintheiser","party":"","address":"929 W 670 S, Unit 9, Pleasant Grove, UT 84062","precinct":"25PG20","hd":"56","v_score":"1.193887297","decile":"4","lat":40.355686662039,"lng":-111.754152856009},{"id":"116507","name":"Brielle Nolan","party":"Rep","address":"276 S 810 W, Pleasant Grove, UT 84062","precinct":"25PG20","hd":"56","v_score":"1.193887297","decile":"4","lat":40.360292190738,"lng":-111.752467925803},{"id":"116569","name":"Wayne Waelchi II","party":"Rep","address":"534 S 810 W, Apt 203, Pleasant Grove, UT 84062","precinct":"25PG20","hd":"56","v_score":"1.193887297","decile":"4","lat":40.357401293148,"lng":-111.752139538842},{"id":"116793","name":"Jayda Cremin","party":"Rep","address":"604 S 810 W, 2-204, Pleasant Grove, UT 84062","precinct":"25PG20","hd":"56","v_score":"1.193887297","decile":"4","lat":40.356616752285,"lng":-111.752656529934},{"id":"117017","name":"Mrs. Siddie King","party":"","address":"467 S 900 W, Apt 305, Pleasant Grove, UT 84062","precinct":"25PG20","hd":"56","v_score":"1.193887297","decile":"4","lat":40.35795461719,"lng":-111.753244945466},{"id":"118080","name":"Gilda Braun-Rogahn","party":"","address":"482 S 810 W, Apt 701, Pleasant Grove, UT 84062","precinct":"25PG20","hd":"56","v_score":"0","decile":"2","lat":40.35728670174,"lng":-111.751824752627},{"id":"118479","name":"Prentice Ferry","party":"","address":"308 S 740 W, Apt 104, Pleasant Grove, UT 84062","precinct":"25PG20","hd":"56","v_score":"0","decile":"2","lat":40.35968924063,"lng":-111.75153295606},{"id":"119431","name":"Breanna Tremblay-Abbott","party":"Dem","address":"534 S 810 W, Apt 202, Pleasant Grove, UT 84062","precinct":"25PG20","hd":"56","v_score":"1.193887297","decile":"4","lat":40.357401293148,"lng":-111.752139538842},{"id":"120055","name":"Miss Mariana Abshire MD","party":"Dem","address":"289 S 1000 W, Apt 303, Pleasant Grove, UT 84062","precinct":"25PG20","hd":"56","v_score":"1.193887297","decile":"4","lat":40.359775622135,"lng":-111.754956153845},{"id":"120068","name":"Bernetta Krajcik","party":"","address":"963 W 670 S, Unit 19, Pleasant Grove, UT 84062","precinct":"25PG20","hd":"56","v_score":"1.193887297","decile":"4","lat":40.355688191897,"lng":-111.754433437416},{"id":"120081","name":"Virgle O'Reilly","party":"","address":"429 S 980 W, Unit 136, Pleasant Grove, UT 84062","precinct":"25PG20","hd":"56","v_score":"1.193887297","decile":"4","lat":40.358475107558,"lng":-111.754777379653},{"id":"120548","name":"Bernice Emard","party":"Rep","address":"566 S 810 W, Apt 303, Pleasant Grove, UT 84062","precinct":"25PG20","hd":"56","v_score":"1.193887297","decile":"4","lat":40.357056526793,"lng":-111.752657912815},{"id":"120691","name":"Mr. Trinity Daugherty I","party":"Dem","address":"429 S 980 W, Unit 132, Pleasant Grove, UT 84062","precinct":"25PG20","hd":"56","v_score":"1.193887297","decile":"4","lat":40.358475107558,"lng":-111.754777379653},{"id":"121402","name":"Shayne Toy","party":"","address":"308 S 740 W, Apt 302, Pleasant Grove, UT 84062","precinct":"25PG20","hd":"56","v_score":"1.193887297","decile":"4","lat":40.35968924063,"lng":-111.75153295606},{"id":"121694","name":"Neta Wuckert","party":"Dem","address":"376 S 740 W, Unit 203, Pleasant Grove, UT 84062","precinct":"25PG20","hd":"56","v_score":"1.193887297","decile":"4","lat":40.359210928155,"lng":-111.751520877526},{"id":"122285","name":"Christion Tremblay I","party":"","address":"573 S 1050 W, Unit B, Pleasant Grove, UT 84062","precinct":"25PG20","hd":"56","v_score":"1.193887297","decile":"4","lat":40.374761941786,"lng":-111.748180147242},{"id":"122395","name":"Tanya Cormier-Reilly","party":"Dem","address":"495 S 900 W, Apt 306, Pleasant Grove, UT 84062","precinct":"25PG20","hd":"56","v_score":"1.193887297","decile":"4","lat":40.357750918706,"lng":-111.753486419506},{"id":"122738","name":"Rafe Kling","party":"Rep","address":"963 670 S, Pleasant Grove, UT 84062","precinct":"25PG20","hd":"56","v_score":"1.193887297","decile":"4","lat":40.355688191897,"lng":-111.754433437416},{"id":"122888","name":"Melva Deckow","party":"","address":"961 W 630 S, Unit 38, Pleasant Grove, UT 84062","precinct":"25PG20","hd":"56","v_score":"0","decile":"2","lat":40.356242022619,"lng":-111.754433055474},{"id":"122931","name":"Hall McCullough","party":"Dem","address":"583 S 900 W, Apt 203, Pleasant Grove, UT 84062","precinct":"25PG20","hd":"56","v_score":"1.193887297","decile":"4","lat":40.356521079048,"lng":-111.753506916993},{"id":"123908","name":"Delaney McCullough-Balistreri","party":"Dem","address":"344 S 740 W, Unit 103, Pleasant Grove, UT 84062","precinct":"25PG20","hd":"56","v_score":"1.193887297","decile":"4","lat":40.359436016378,"lng":-111.751526561542},{"id":"124103","name":"Page Casper-Schiller","party":"","address":"282 S 910 W, Cedar Hills, UT 84062","precinct":"25PG20","hd":"56","v_score":"1.193887297","decile":"4","lat":40.360232515585,"lng":-111.753644038159},{"id":"124315","name":"Dr. Kourtney Nienow DVM","party":"Dem","address":"308 S 740 W, Apt 302, Pleasant Grove, UT 84062","precinct":"25PG20","hd":"56","v_score":"0","decile":"2","lat":40.35968924063,"lng":-111.75153295606},{"id":"124345","name":"Anahi Runolfsdottir","party":"","address":"641 S 900 W, Apt 12-308, Pleasant Grove, UT 84062","precinct":"25PG20","hd":"56","v_score":"0","decile":"2","lat":40.355922154995,"lng":-111.753460183487},{"id":"124534","name":"Aryanna Jenkins","party":"","address":"295 S 930 W, Pleasant Grove, UT 84062","precinct":"25PG20","hd":"56","v_score":"0","decile":"2","lat":40.360090881032,"lng":-111.754114465411},{"id":"124635","name":"Faye Sanford","party":"","address":"522 S 810 W, Apt 201, Pleasant Grove, UT 84062","precinct":"25PG20","hd":"56","v_score":"0","decile":"2","lat":40.357401293123,"lng":-111.75181053646},{"id":"124717","name":"Dr. Coty Walsh","party":"Dem","address":"159 S Pleasant Grove Blvd, Unit 14, Pleasant Grove, UT 84062","precinct":"25PG20","hd":"56","v_score":"0","decile":"2","lat":40.363725867102,"lng":-111.753112051542},{"id":"124718","name":"Mr. Dudley Hansen DDS","party":"","address":"816 W 260 S, Pleasant Grove, UT 84062","precinct":"25PG20","hd":"56","v_score":"0","decile":"2","lat":40.360548856691,"lng":-111.752523519711},{"id":"124861","name":"Augustine Cronin","party":"Dem","address":"283 S 840 W, Pleasant Grove, UT 84062","precinct":"25PG20","hd":"56","v_score":"0","decile":"2","lat":40.36035340214,"lng":-111.752809004681},{"id":"125472","name":"Kizzie Pouros-Stamm","party":"Rep","address":"522 S 810 W, Apt 101, Pleasant Grove, UT 84062","precinct":"25PG20","hd":"56","v_score":"0","decile":"2","lat":40.357401293123,"lng":-111.75181053646},{"id":"125966","name":"Kristal Streich","party":"Rep","address":"604 S 810 W, 2 303, Pleasant Grove, UT 84062","precinct":"25PG20","hd":"56","v_score":"0","decile":"2","lat":40.356616752285,"lng":-111.752656529934},{"id":"126062","name":"Cedric Crona-Ratke","party":"","address":"344 S 740 W, Pleasant Grove, UT 84062","precinct":"25PG20","hd":"56","v_score":"0","decile":"2","lat":40.359436016378,"lng":-111.751526561542},{"id":"127113","name":"Kori Larkin","party":"Rep","address":"343 S 790 W, Unit 303, Pleasant Grove, UT 84062","precinct":"25PG20","hd":"56","v_score":"0","decile":"2","lat":40.359599329025,"lng":-111.752318718721},{"id":"127870","name":"Mr. Jerrod Smith","party":"Rep","address":"956 W 580 S, Bldg O-116, Pleasant Grove, UT 84062","precinct":"25PG20","hd":"56","v_score":"0","decile":"2","lat":40.357761293283,"lng":-111.75442333222},{"id":"128169","name":"Amalia Franecki","party":"Dem","address":"367 S 1000 W, Apt 204, Pleasant Grove, UT 84062","precinct":"25PG20","hd":"56","v_score":"0","decile":"2","lat":40.359316622563,"lng":-111.754956826629},{"id":"128326","name":"Skylar Macejkovic","party":"Rep","address":"856 W 260 S, Pleasant Grove, UT 84062","precinct":"25PG20","hd":"56","v_score":"0","decile":"2","lat":40.360542292859,"lng":-111.753016076142},{"id":"128925","name":"Kevon Champlin","party":"","address":"159 S Pleasant Grove Blvd, Unit 22, Pleasant Grove, UT 84062","precinct":"25PG20","hd":"56","v_score":"0","decile":"2","lat":40.363725867102,"lng":-111.753112051542},{"id":"129732","name":"Leigh Daniel","party":"Rep","address":"856 W 260 S, Pleasant Grove, UT 84062","precinct":"25PG20","hd":"56","v_score":"0","decile":"2","lat":40.360542292859,"lng":-111.753016076142},{"id":"130470","name":"Odell Anderson","party":"","address":"376 S 740 W, Unit 204, Pleasant Grove, UT 84062","precinct":"25PG20","hd":"56","v_score":"0","decile":"2","lat":40.359210928155,"lng":-111.751520877526},{"id":"130472","name":"Liller Kuhlman","party":"","address":"376 S 740 W, Unit 204, Pleasant Grove, UT 84062","precinct":"25PG20","hd":"56","v_score":"0","decile":"2","lat":40.359210928155,"lng":-111.751520877526},{"id":"131131","name":"Lota Simonis DDS","party":"","address":"165 S Pleasant Grove Blvd, Unit 41, Pleasant Grove, UT 84062","precinct":"25PG20","hd":"56","v_score":"0","decile":"2","lat":40.363338513281,"lng":-111.753498035833},{"id":"131442","name":"Adalberto Wolf","party":"Dem","address":"298 S 910 W, Pleasant Grove, UT 84062","precinct":"25PG20","hd":"56","v_score":"0","decile":"2","lat":40.360194430524,"lng":-111.753644038164},{"id":"133124","name":"Dr. Skyler Sauer","party":"","address":"165 S Pleasant Grove Blvd, Pleasant Grove, UT 84062","precinct":"25PG20","hd":"56","v_score":"0","decile":"2","lat":40.363338513281,"lng":-111.753498035833},{"id":"133636","name":"Sharleen Larson","party":"Rep","address":"142 S 840 W, Unit B, Pleasant Grove, UT 84062","precinct":"25PG20","hd":"56","v_score":"0","decile":"2","lat":40.361725173235,"lng":-111.752833312949},{"id":"133814","name":"Preston Kessler","party":"Dem","address":"362 S 790 W, Pleasant Grove, UT 84062","precinct":"25PG20","hd":"56","v_score":"0","decile":"2","lat":40.359032064832,"lng":-111.752138114645},{"id":"134575","name":"Alvah Rosenbaum","party":"","address":"956 W 580 S, Unit 120, Pleasant Grove, UT 84062","precinct":"25PG20","hd":"56","v_score":"0","decile":"2","lat":40.357761293283,"lng":-111.75442333222},{"id":"134629","name":"Elzie Veum","party":"","address":"142 S 840 W, Unit D, Pleasant Grove, UT 84062","precinct":"25PG20","hd":"56","v_score":"2.587603312","decile":"5","lat":40.361725173235,"lng":-111.752833312949},{"id":"135265","name":"Ebbie Powlowski I","party":"","address":"793 W 130 S, Unit D, Pleasant Grove, UT 84062","precinct":"25PG20","hd":"56","v_score":"16.72520646","decile":"9","lat":40.362065713747,"lng":-111.752608132251},{"id":"136387","name":"Hughie Kuhlman","party":"Dem","address":"539 S 900 W, Bldg 10-303, Pleasant Grove, UT 84062","precinct":"25PG20","hd":"56","v_score":"3.781490609","decile":"6","lat":40.357135998877,"lng":-111.75349666825},{"id":"136492","name":"Royce Parisian","party":"","address":"597 S 910 W, Unit 57, Pleasant Grove, UT 84062","precinct":"25PG20","hd":"56","v_score":"2.315214949","decile":"5","lat":40.359974342443,"lng":-111.753488829593},{"id":"136933","name":"Toshiko Steuber","party":"","address":"929 W 670 S, Unit 3, Pleasant Grove, UT 84062","precinct":"25PG20","hd":"56","v_score":"3.93832808","decile":"6","lat":40.355686662039,"lng":-111.754152856009},{"id":"137501","name":"Carmela Rath-Murphy","party":"Dem","address":"495 S 900 W, Apt 107, Pleasant Grove, UT 84062","precinct":"25PG20","hd":"56","v_score":"2.817000428","decile":"6","lat":40.357750918706,"lng":-111.753486419506},{"id":"137897","name":"Kayleen Orn","party":"","address":"597 S 910 W, Unit 55, Pleasant Grove, UT 84062","precinct":"25PG20","hd":"56","v_score":"3.93832808","decile":"6","lat":40.359974342443,"lng":-111.753488829593},{"id":"138269","name":"Verlon Kreiger IV","party":"Dem","address":"943 W 580 S, Unit 97, Pleasant Grove, UT 84062","precinct":"25PG20","hd":"56","v_score":"0","decile":"2","lat":40.357645080335,"lng":-111.754308964406},{"id":"138285","name":"Mrs. Karley Jast","party":"Rep","address":"284 S 840 W, Pleasant Grove, UT 84062","precinct":"25PG20","hd":"56","v_score":"1.121327652","decile":"3","lat":40.360055680114,"lng":-111.75301259412},{"id":"138530","name":"Laraine Hessel","party":"Rep","address":"495 S 900 W, Apt 308, Pleasant Grove, UT 84062","precinct":"25PG20","hd":"56","v_score":"0","decile":"2","lat":40.357750918706,"lng":-111.753486419506},{"id":"139663","name":"Park Langosh","party":"","address":"852 W 260 S, Pleasant Grove, UT 84062","precinct":"25PG20","hd":"56","v_score":"1.623113131","decile":"5","lat":40.360542292858,"lng":-111.753002623279},{"id":"139785","name":"Elgie Bednar-Barrows","party":"","address":"638 S 810 W, Apt 1-105, Pleasant Grove, UT 84062","precinct":"25PG20","hd":"56","v_score":"2.587603312","decile":"5","lat":40.356223269831,"lng":-111.752655292619},{"id":"140438","name":"Jeanette Tremblay","party":"","address":"482 S 810 W, Apt 6-202, Pleasant Grove, UT 84062","precinct":"25PG20","hd":"56","v_score":"1.193887297","decile":"4","lat":40.35728670174,"lng":-111.751824752627},{"id":"140661","name":"Celina Pagac DVM","party":"","address":"502 W 700 S, Apt 2, Pleasant Grove, UT 84062","precinct":"25PG20","hd":"56","v_score":"16.22796003","decile":"9","lat":40.355250293004,"lng":-111.747069498141},{"id":"140662","name":"Dr. Marcos Purdy III","party":"Dem","address":"502 W 700 S, Apt 2, Pleasant Grove, UT 84062","precinct":"25PG20","hd":"56","v_score":"16.22796003","decile":"9","lat":40.355250293004,"lng":-111.747069498141},{"id":"140726","name":"Jajuan McGlynn","party":"","address":"522 S 810 W, Pleasant Grove, UT 84062","precinct":"25PG20","hd":"56","v_score":"2.587603312","decile":"5","lat":40.357401293123,"lng":-111.75181053646},{"id":"140885","name":"Octa Lehner","party":"Rep","address":"963 W 670 S, Unit 18, Pleasant Grove, UT 84062","precinct":"25PG20","hd":"56","v_score":"13.77150267","decile":"9","lat":40.355688191897,"lng":-111.754433437416},{"id":"142049","name":"Dr. Jair Kozey","party":"","address":"638 S 810 W, Apt 107, Pleasant Grove, UT 84062","precinct":"25PG20","hd":"56","v_score":"1.193887297","decile":"4","lat":40.356223269831,"lng":-111.752655292619},{"id":"142760","name":"Miss Kamora Upton","party":"Rep","address":"495 S 900 W, Apt 305, Pleasant Grove, UT 84062","precinct":"25PG20","hd":"56","v_score":"0","decile":"3","lat":40.357750918706,"lng":-111.753486419506},{"id":"143052","name":"Cathrine Romaguera-Kreiger","party":"","address":"539 S 900 W, Apt 307, Pleasant Grove, UT 84062","precinct":"25PG20","hd":"56","v_score":"0","decile":"3","lat":40.357135998877,"lng":-111.75349666825},{"id":"143545","name":"Campbell Funk","party":"","address":"142 S 840 W, Unit C, Pleasant Grove, UT 84062","precinct":"25PG20","hd":"56","v_score":"32.99311139","decile":"10","lat":40.361725173235,"lng":-111.752833312949},{"id":"144604","name":"Miss Cammie Turner PhD","party":"Rep","address":"762 W 180 S, Unit C, Pleasant Grove, UT 84062","precinct":"25PG20","hd":"56","v_score":"5.40460374","decile":"7","lat":40.361544277045,"lng":-111.752487797666},{"id":"145938","name":"Essence Armstrong","party":"Dem","address":"482 S 810 W, Apt 101, Pleasant Grove, UT 84062","precinct":"25PG20","hd":"56","v_score":"1.121327652","decile":"3","lat":40.35728670174,"lng":-111.751824752627},{"id":"146266","name":"Parrish Raynor","party":"Rep","address":"388 S 790 W, Pleasant Grove, UT 84062","precinct":"25PG20","hd":"56","v_score":"15.2589308","decile":"9","lat":40.354541207617,"lng":-111.733821818429},{"id":"146966","name":"Gerhardt Hilll","party":"Rep","address":"963 W 670 S, Unit 16, Pleasant Grove, UT 84062","precinct":"25PG20","hd":"56","v_score":"0","decile":"3","lat":40.355688191897,"lng":-111.754433437416},{"id":"147065","name":"Jeramy Effertz","party":"Dem","address":"912 W 260 S, Pleasant Grove, UT 84062","precinct":"25PG20","hd":"56","v_score":"5.40460374","decile":"7","lat":40.360542292874,"lng":-111.753204416227},{"id":"147554","name":"Ms. Berenice Swift","party":"Rep","address":"566 S 810 W, # 3-101, Pleasant Grove, UT 84062","precinct":"25PG20","hd":"56","v_score":"0","decile":"3","lat":40.357056526793,"lng":-111.752657912815},{"id":"148133","name":"Eligah Kreiger","party":"","address":"166 S 840 W, Unit A, Pleasant Grove, UT 84062","precinct":"25PG20","hd":"56","v_score":"40.56588523","decile":"10","lat":40.361566973233,"lng":-111.752830841095},{"id":"148673","name":"Rocco Durgan DVM","party":"Dem","address":"772 W 130 S, Apt 13-B, Pleasant Grove, UT 84062","precinct":"25PG20","hd":"56","v_score":"19.21807828","decile":"10","lat":40.362184222717,"lng":-111.752017224563},{"id":"150520","name":"Mr. Rosario Reinger","party":"","address":"793 W 130 S, Unit A, Pleasant Grove, UT 84062","precinct":"25PG20","hd":"56","v_score":"17.98301199","decile":"10","lat":40.362065713747,"lng":-111.752608132251},{"id":"154757","name":"Henry Aufderhar DDS","party":"","address":"868 W 130 S, Unit D, Pleasant Grove, UT 84062","precinct":"25PG20","hd":"56","v_score":"37.65509309","decile":"10","lat":40.362180728655,"lng":-111.752544834029},{"id":"154827","name":"Seamus Hettinger","party":"","address":"482 S 810 W, Apt 203, Pleasant Grove, UT 84062","precinct":"25PG20","hd":"56","v_score":"14.131145","decile":"9","lat":40.35728670174,"lng":-111.751824752627},{"id":"154919","name":"Mrs. Annmarie Kunze","party":"Dem","address":"163 S 700 W, Unit D, Pleasant Grove, UT 84062","precinct":"25PG20","hd":"56","v_score":"29.42656749","decile":"10","lat":40.361777497406,"lng":-111.750862970144},{"id":"154920","name":"Mr. Ivey Runolfsdottir MD","party":"","address":"163 S 700 W, Unit D, Pleasant Grove, UT 84062","precinct":"25PG20","hd":"56","v_score":"32.36947509","decile":"10","lat":40.361777497406,"lng":-111.750862970144},{"id":"155559","name":"Kinsey Hansen","party":"","address":"467 S 900 W, Apt 103, Pleasant Grove, UT 84062","precinct":"25PG20","hd":"56","v_score":"1.46627566","decile":"4","lat":40.35795461719,"lng":-111.753244945466},{"id":"156395","name":"Janay Lemke","party":"Dem","address":"343 S 790 W, Unit 304, Pleasant Grove, UT 84062","precinct":"25PG20","hd":"56","v_score":"3.93832808","decile":"6","lat":40.359599329025,"lng":-111.752318718721},{"id":"157660","name":"Evita Johnston","party":"Rep","address":"308 S 740 W, Apt 104, Pleasant Grove, UT 84062","precinct":"25PG20","hd":"56","v_score":"1.193887297","decile":"4","lat":40.35968924063,"lng":-111.75153295606},{"id":"157766","name":"Mr. Rudolfo Huels PhD","party":"Dem","address":"946 W 630 S, Unit 52, Pleasant Grove, UT 84062","precinct":"25PG20","hd":"56","v_score":"0","decile":"3","lat":40.356351315551,"lng":-111.754308182125},{"id":"159361","name":"Ms. Yareli Jenkins","party":"","address":"762 W 180 S, Unit C, Pleasant Grove, UT 84062","precinct":"25PG20","hd":"56","v_score":"24.41991715","decile":"10","lat":40.361544277045,"lng":-111.752487797666},{"id":"159732","name":"Clotilde Cremin DVM","party":"","address":"137 S 700 W, Unit B, Pleasant Grove, UT 84062","precinct":"25PG20","hd":"56","v_score":"19.15121325","decile":"10","lat":40.361883506721,"lng":-111.750861575271},{"id":"159733","name":"Samson Schuster","party":"Rep","address":"137 S 700 W, Unit B, Pleasant Grove, UT 84062","precinct":"25PG20","hd":"56","v_score":"19.15121325","decile":"10","lat":40.361883506721,"lng":-111.750861575271},{"id":"160837","name":"Virgel Murazik","party":"","address":"343 S 790 W, Unit 304, Pleasant Grove, UT 84062","precinct":"25PG20","hd":"56","v_score":"3.93832808","decile":"6","lat":40.359599329025,"lng":-111.752318718721},{"id":"160892","name":"Deborah Reilly-Prosacco","party":"Dem","address":"301 S 930 W, Pleasant Grove, UT 84062","precinct":"25PG20","hd":"56","v_score":"1.121327652","decile":"3","lat":40.360035988057,"lng":-111.754104548742},{"id":"161401","name":"Dereck Corkery","party":"Rep","address":"534 S 810 W, Apt 204, Pleasant Grove, UT 84062","precinct":"25PG20","hd":"56","v_score":"0","decile":"3","lat":40.357401293148,"lng":-111.752139538842},{"id":"162579","name":"Harrie Kessler","party":"Rep","address":"151 S Pleasant Grove Blvd, Unit 5, Pleasant Grove, UT 84062","precinct":"25PG20","hd":"56","v_score":"10.89074633","decile":"9","lat":40.364281057062,"lng":-111.752679345803},{"id":"162591","name":"Dollie Hudson","party":"Dem","address":"785 W 180 S, Unit C, Pleasant Grove, UT 84062","precinct":"25PG20","hd":"56","v_score":"15.66172","decile":"9","lat":40.361485352258,"lng":-111.751012334459},{"id":"162671","name":"Levon Hickle","party":"Dem","address":"308 S 740 W, Apt 104, Pleasant Grove, UT 84062","precinct":"25PG20","hd":"56","v_score":"1.193887297","decile":"4","lat":40.35968924063,"lng":-111.75153295606},{"id":"163150","name":"Dr. Marget Satterfield","party":"Rep","address":"868 W 260 S, Pleasant Grove, UT 84062","precinct":"25PG20","hd":"56","v_score":"3.93832808","decile":"6","lat":40.360542292862,"lng":-111.753056434732},{"id":"163226","name":"Sybil Lebsack","party":"","address":"482 S 810 W, Apt 6-104, Pleasant Grove, UT 84062","precinct":"25PG20","hd":"56","v_score":"1.46627566","decile":"4","lat":40.35728670174,"lng":-111.751824752627},{"id":"165384","name":"Michaele Kemmer-Bradtke","party":"","address":"163 S 700 W, Unit A, Pleasant Grove, UT 84062","precinct":"25PG20","hd":"56","v_score":"19.1624148","decile":"10","lat":40.361777497406,"lng":-111.750862970144},{"id":"165939","name":"Danny Schaefer V","party":"Rep","address":"163 S 700 W, Unit A, Pleasant Grove, UT 84062","precinct":"25PG20","hd":"56","v_score":"17.49642076","decile":"9","lat":40.361777497406,"lng":-111.750862970144},