[{"id":"931","name":"Jeannette Balistreri","party":"","address":"838 E Center St, Pleasant Grove, UT 84062","precinct":"25PG12","hd":"55","v_score":"13.45445245","decile":"9","lat":40.363847698731,"lng":-111.722316470037},{"id":"932","name":"Alonza Hodkiewicz","party":"Rep","address":"838 E Center St, Pleasant Grove, UT 84062","precinct":"25PG12","hd":"55","v_score":"13.45445245","decile":"9","lat":40.363847698731,"lng":-111.722316470037},{"id":"1069","name":"Alcide Botsford","party":"Rep","address":"11 N 1300 E, Apt B, Pleasant Grove, UT 84062","precinct":"25PG12","hd":"55","v_score":"4.064235245","decile":"6","lat":40.364288103792,"lng":-111.710021799578},{"id":"1148","name":"Stetson Streich","party":"Rep","address":"84 S 850 E, Pleasant Grove, UT 84062","precinct":"25PG12","hd":"55","v_score":"0","decile":"1","lat":40.362641368419,"lng":-111.722040788522},{"id":"1724","name":"Dr. Gia Lubowitz","party":"Rep","address":"93 N 1185 E, Pleasant Grove, UT 84062","precinct":"25PG12","hd":"55","v_score":"5.530510904","decile":"7","lat":40.364636409642,"lng":-111.712807687486},{"id":"2182","name":"May White","party":"Dem","address":"728 E Center St, Pleasant Grove, UT 84062","precinct":"25PG12","hd":"55","v_score":"2.315214949","decile":"5","lat":40.36384491556,"lng":-111.724930780709},{"id":"2211","name":"Jerold Raynor","party":"","address":"739 E 200 S, Pleasant Grove, UT 84062","precinct":"25PG12","hd":"55","v_score":"20.77768495","decile":"10","lat":40.361217290589,"lng":-111.724434836711},{"id":"2355","name":"Evelyn Okuneva","party":"Rep","address":"1183 E 120 N, Pleasant Grove, UT 84062","precinct":"25PG12","hd":"55","v_score":"2.587603312","decile":"5","lat":40.365415103444,"lng":-111.712185033003},{"id":"2996","name":"Aubrey Ernser","party":"","address":"11 N 1300 E, Apt B, Pleasant Grove, UT 84062","precinct":"25PG12","hd":"55","v_score":"4.13679489","decile":"7","lat":40.364288103792,"lng":-111.710021799578},{"id":"3029","name":"Mrs. Camille Feest","party":"","address":"215 N 1400 E, Pleasant Grove, UT 84062","precinct":"25PG12","hd":"55","v_score":"8.347511332","decile":"8","lat":40.365984040243,"lng":-111.707818071273},{"id":"3462","name":"Chris King DVM","party":"","address":"1340 E 150 N, Pleasant Grove, UT 84062","precinct":"25PG12","hd":"55","v_score":"2.315214949","decile":"5","lat":40.365386697543,"lng":-111.709122643644},{"id":"3719","name":"Olympia Weber","party":"Dem","address":"2 S 1300 E, Pleasant Grove, UT 84062","precinct":"25PG12","hd":"55","v_score":"18.62406652","decile":"10","lat":40.364095550868,"lng":-111.709971407492},{"id":"3961","name":"Jaunita Larkin-Boehm","party":"Rep","address":"1366 E 250 N, Pleasant Grove, UT 84062","precinct":"25PG12","hd":"55","v_score":"16.72520646","decile":"9","lat":40.366610697368,"lng":-111.708651787245},{"id":"4177","name":"Fronia Prohaska","party":"","address":"240 N 1300 E, Pleasant Grove, UT 84062","precinct":"25PG12","hd":"55","v_score":"17.48345516","decile":"9","lat":40.36653085075,"lng":-111.71008478534},{"id":"4643","name":"Dr. Glenda Heaney","party":"Dem","address":"1065 E 200 S, Pleasant Grove, UT 84062","precinct":"25PG12","hd":"55","v_score":"0","decile":"1","lat":40.36119028994,"lng":-111.715931854141},{"id":"5221","name":"Arra Terry","party":"Dem","address":"175 S 1300 E, Pleasant Grove, UT 84062","precinct":"25PG12","hd":"55","v_score":"1.193887297","decile":"3","lat":40.361568428243,"lng":-111.70955849632},{"id":"5303","name":"Kyle Volkman","party":"","address":"558 E Center St, Pleasant Grove, UT 84062","precinct":"25PG12","hd":"55","v_score":"0","decile":"1","lat":40.363851421533,"lng":-111.729102454883},{"id":"5516","name":"Tamara Schmidt-Grimes","party":"","address":"625 E 200 S, Pleasant Grove, UT 84062","precinct":"25PG12","hd":"55","v_score":"2.744440783","decile":"5","lat":40.361222238688,"lng":-111.72732690167},{"id":"5524","name":"Clarinda Krajcik DDS","party":"Rep","address":"1175 E 100 N, Pleasant Grove, UT 84062","precinct":"25PG12","hd":"55","v_score":"40.94311568","decile":"10","lat":40.364853862636,"lng":-111.713208628564},{"id":"5630","name":"Arlis Johnson","party":"Dem","address":"1213 E 200 S, Pleasant Grove, UT 84062","precinct":"25PG12","hd":"55","v_score":"8.280646305","decile":"8","lat":40.361181289638,"lng":-111.711988066729},{"id":"5634","name":"Miss Maryann Yost","party":"","address":"695 E 200 S, Pleasant Grove, UT 84062","precinct":"25PG12","hd":"55","v_score":"14.95117867","decile":"9","lat":40.361217290677,"lng":-111.725573293347},{"id":"6050","name":"Dan Lakin","party":"Dem","address":"578 E 100 S, Pleasant Grove, UT 84062","precinct":"25PG12","hd":"55","v_score":"0","decile":"1","lat":40.362360710815,"lng":-111.728593841466},{"id":"6228","name":"Arturo Collier","party":"Dem","address":"195 N 1400 E, Pleasant Grove, UT 84062","precinct":"25PG12","hd":"55","v_score":"22.10816128","decile":"10","lat":40.365837443393,"lng":-111.707823292262},{"id":"6379","name":"Barrett Hudson","party":"Dem","address":"1320 E 150 N, Pleasant Grove, UT 84062","precinct":"25PG12","hd":"55","v_score":"2.315214949","decile":"5","lat":40.365386697576,"lng":-111.709546813074},{"id":"6563","name":"Hailey Turner-Emard","party":"","address":"37 N 1185 E, Pleasant Grove, UT 84062","precinct":"25PG12","hd":"55","v_score":"3.93832808","decile":"6","lat":40.364164576368,"lng":-111.712803921355},{"id":"7848","name":"Adeline Schumm","party":"","address":"1225 E 120 N, Pleasant Grove, UT 84062","precinct":"25PG12","hd":"55","v_score":"2.587603312","decile":"5","lat":40.365416791748,"lng":-111.711941070332},{"id":"8487","name":"Matias Grimes","party":"","address":"903 E 200 S, Pleasant Grove, UT 84062","precinct":"25PG12","hd":"55","v_score":"14.95117867","decile":"9","lat":40.361208290142,"lng":-111.718590836434},{"id":"8870","name":"Berniece Marquardt DDS","party":"Dem","address":"1183 E 120 N, Pleasant Grove, UT 84062","precinct":"25PG12","hd":"55","v_score":"10.44299084","decile":"9","lat":40.365415103444,"lng":-111.712185033003},{"id":"9036","name":"Mr. Almon Boyle","party":"Dem","address":"1212 E 120 N, Pleasant Grove, UT 84062","precinct":"25PG12","hd":"55","v_score":"1.121327652","decile":"3","lat":40.36530172271,"lng":-111.712009408013},{"id":"9351","name":"Dr. Latonia Bosco","party":"","address":"615 E 200 S, Pleasant Grove, UT 84062","precinct":"25PG12","hd":"55","v_score":"8.347511332","decile":"8","lat":40.361223737611,"lng":-111.727575719734},{"id":"9855","name":"Peyton Auer","party":"Dem","address":"680 E Center St, Pleasant Grove, UT 84062","precinct":"25PG12","hd":"55","v_score":"4.283276088","decile":"7","lat":40.363852202803,"lng":-111.725863216284},{"id":"11881","name":"Dr. Lilian Crooks","party":"Dem","address":"724 E 100 S, Pleasant Grove, UT 84062","precinct":"25PG12","hd":"55","v_score":"33.92580343","decile":"10","lat":40.362383051735,"lng":-111.724770147347},{"id":"12119","name":"Chyna Deckow","party":"","address":"24 N 1185 E, Pleasant Grove, UT 84062","precinct":"25PG12","hd":"55","v_score":"13.835802","decile":"9","lat":40.364063242275,"lng":-111.712652885384},{"id":"13536","name":"Jeana Satterfield MD","party":"","address":"724 E 100 S, Pleasant Grove, UT 84062","precinct":"25PG12","hd":"55","v_score":"33.92580343","decile":"10","lat":40.362383051735,"lng":-111.724770147347},{"id":"13986","name":"Arietta Fadel","party":"","address":"230 N 1300 E, Pleasant Grove, UT 84062","precinct":"25PG12","hd":"55","v_score":"3.93832808","decile":"6","lat":40.366413936094,"lng":-111.710072676338},{"id":"14469","name":"Mettie Crona","party":"","address":"1121 E 30 S, Pleasant Grove, UT 84062","precinct":"25PG12","hd":"55","v_score":"6.724398202","decile":"8","lat":40.363591806077,"lng":-111.71430325701},{"id":"14590","name":"Shelvie Wunsch","party":"Rep","address":"1005 E 100 S, Pleasant Grove, UT 84062","precinct":"25PG12","hd":"55","v_score":"13.93704549","decile":"9","lat":40.374402928832,"lng":-111.739918212241},{"id":"14731","name":"Amanda Aufderhar","party":"Dem","address":"32 N 1300 E, Pleasant Grove, UT 84062","precinct":"25PG12","hd":"55","v_score":"2.660162957","decile":"5","lat":40.364459111695,"lng":-111.709887727562},{"id":"14877","name":"Mardell Flatley","party":"","address":"651 E 100 S, Pleasant Grove, UT 84062","precinct":"25PG12","hd":"55","v_score":"2.315214949","decile":"5","lat":40.362483713982,"lng":-111.726834935073},{"id":"15446","name":"Cherrie Schuster-Mraz","party":"Rep","address":"651 E 100 S, Pleasant Grove, UT 84062","precinct":"25PG12","hd":"55","v_score":"1.193887297","decile":"3","lat":40.362483713982,"lng":-111.726834935073},{"id":"16018","name":"Josefa Waters DVM","party":"Dem","address":"610 E 100 S, Pleasant Grove, UT 84062","precinct":"25PG12","hd":"55","v_score":"1.193887297","decile":"3","lat":40.362363945292,"lng":-111.727784444826},{"id":"16353","name":"Boston Hackett","party":"Rep","address":"49 N 1300 E, Pleasant Grove, UT 84062","precinct":"25PG12","hd":"55","v_score":"16.03869888","decile":"9","lat":40.364582035997,"lng":-111.710048932752},{"id":"16717","name":"Dahlia Larson-Johnston","party":"Rep","address":"180 N 1350 E, Pleasant Grove, UT 84062","precinct":"25PG12","hd":"55","v_score":"8.535114849","decile":"8","lat":40.366481472846,"lng":-111.709045404287},{"id":"17665","name":"Mr. Sheldon Batz MD","party":"Dem","address":"858 E 100 S, Pleasant Grove, UT 84062","precinct":"25PG12","hd":"55","v_score":"26.8582098","decile":"10","lat":40.362394903428,"lng":-111.722475005552},{"id":"17702","name":"Guadalupe O'Kon","party":"Dem","address":"140 S 600 E, Pleasant Grove, UT 84062","precinct":"25PG12","hd":"55","v_score":"10.52632313","decile":"9","lat":40.362031741664,"lng":-111.728085605205},{"id":"18268","name":"Carri Hickle","party":"Rep","address":"621 E 150 S, Pleasant Grove, UT 84062","precinct":"25PG12","hd":"55","v_score":"0","decile":"1","lat":40.361883290758,"lng":-111.727621089518},{"id":"18589","name":"Miss Francina Hagenes","party":"Dem","address":"196 N 1350 E, Pleasant Grove, UT 84062","precinct":"25PG12","hd":"55","v_score":"22.03213191","decile":"10","lat":40.366523791949,"lng":-111.70905401671},{"id":"18616","name":"Maira Stoltenberg-Hand","party":"","address":"515 E 200 S, Pleasant Grove, UT 84062","precinct":"25PG12","hd":"55","v_score":"9.116556227","decile":"8","lat":40.36122629103,"lng":-111.730190997645},{"id":"18622","name":"Dot Moen-Casper","party":"","address":"1213 E 50 N, Pleasant Grove, UT 84062","precinct":"25PG12","hd":"55","v_score":"2.587603312","decile":"5","lat":40.364634529911,"lng":-111.712326770612},{"id":"18694","name":"Junior Terry","party":"","address":"835 E 100 S, Pleasant Grove, UT 84062","precinct":"25PG12","hd":"55","v_score":"7.583918848","decile":"8","lat":40.362507618849,"lng":-111.722681327287},{"id":"18796","name":"Kimball Block","party":"Rep","address":"49 N 1300 E, Pleasant Grove, UT 84062","precinct":"25PG12","hd":"55","v_score":"13.09579129","decile":"9","lat":40.364582035997,"lng":-111.710048932752},{"id":"20382","name":"Santana Cormier","party":"","address":"26 S 760 E, Pleasant Grove, UT 84062","precinct":"25PG12","hd":"55","v_score":"4.210716443","decile":"7","lat":40.363778994852,"lng":-111.724074465676},{"id":"20527","name":"Steve Larson","party":"","address":"570 E 100 S, Pleasant Grove, UT 84062","precinct":"25PG12","hd":"55","v_score":"30.47669206","decile":"10","lat":40.36236001818,"lng":-111.728796095453},{"id":"20528","name":"Malakai Hills","party":"Dem","address":"570 E 100 S, Pleasant Grove, UT 84062","precinct":"25PG12","hd":"55","v_score":"26.32386814","decile":"10","lat":40.36236001818,"lng":-111.728796095453},{"id":"20550","name":"Christena Leffler","party":"","address":"144 N 1300 E, Pleasant Grove, UT 84062","precinct":"25PG12","hd":"55","v_score":"22.84391672","decile":"10","lat":40.365332350209,"lng":-111.709962272191},{"id":"22352","name":"Earnestine Homenick","party":"","address":"845 E 200 S, Pleasant Grove, UT 84062","precinct":"25PG12","hd":"55","v_score":"3.781490609","decile":"6","lat":40.361217290397,"lng":-111.721930388807},{"id":"22413","name":"Diya Daniel","party":"Rep","address":"1234 E 50 N, Pleasant Grove, UT 84062","precinct":"25PG12","hd":"55","v_score":"1.121327652","decile":"3","lat":40.364519502384,"lng":-111.712263548936},{"id":"22867","name":"Merrily Reichert","party":"Rep","address":"1113 E 30 S, Pleasant Grove, UT 84062","precinct":"25PG12","hd":"55","v_score":"1.46627566","decile":"4","lat":40.363556018939,"lng":-111.71437363839},{"id":"23321","name":"Charolette Morissette","party":"Dem","address":"102 N 1185 E, Pleasant Grove, UT 84062","precinct":"25PG12","hd":"55","v_score":"3.93832808","decile":"6","lat":40.364871154752,"lng":-111.712660655685},{"id":"23538","name":"Ms. Nanette Howe","party":"Rep","address":"28 S 1050 E, Pleasant Grove, UT 84062","precinct":"25PG12","hd":"55","v_score":"23.27293592","decile":"10","lat":40.363148875074,"lng":-111.715599715268},{"id":"23821","name":"Jered Hartmann DVM","party":"","address":"11 S 700 E, Pleasant Grove, UT 84062","precinct":"25PG12","hd":"55","v_score":"21.92029883","decile":"10","lat":40.36370876692,"lng":-111.725278357697},{"id":"24545","name":"Sheryll Herman","party":"","address":"1485 E 200 S, Pleasant Grove, UT 84062","precinct":"25PG12","hd":"55","v_score":"2.587603312","decile":"5","lat":40.361169145491,"lng":-111.706369743603},{"id":"24590","name":"Cyndi Zieme","party":"","address":"120 N 1400 E, Pleasant Grove, UT 84062","precinct":"25PG12","hd":"55","v_score":"16.93850135","decile":"9","lat":40.365249432421,"lng":-111.707746657286},{"id":"24907","name":"Vinnie Crona","party":"Rep","address":"1255 E Center St, Pleasant Grove, UT 84062","precinct":"25PG12","hd":"55","v_score":"7.086759008","decile":"8","lat":40.364013214514,"lng":-111.710605460673},{"id":"26578","name":"Dr. Keira Bailey","party":"","address":"35 S 1400 E, Pleasant Grove, UT 84062","precinct":"25PG12","hd":"55","v_score":"0","decile":"1","lat":40.363109010122,"lng":-111.707683244404},{"id":"26975","name":"Ham Goodwin","party":"Rep","address":"1140 E 100 N, Pleasant Grove, UT 84062","precinct":"25PG12","hd":"55","v_score":"13.81451578","decile":"9","lat":40.364731651542,"lng":-111.713962116197},{"id":"27100","name":"Benedict Legros DDS","party":"","address":"24 S 800 E, Pleasant Grove, UT 84062","precinct":"25PG12","hd":"55","v_score":"1.46627566","decile":"4","lat":40.363540938192,"lng":-111.723125046888},{"id":"27546","name":"Naoma Wisoky","party":"Rep","address":"1155 E 30 S, Pleasant Grove, UT 84062","precinct":"25PG12","hd":"55","v_score":"7.830610533","decile":"8","lat":40.363736756148,"lng":-111.714001809591},{"id":"29109","name":"Darl Shields","party":"Dem","address":"1120 E 100 N, Pleasant Grove, UT 84062","precinct":"25PG12","hd":"55","v_score":"3.781490609","decile":"6","lat":40.364734839594,"lng":-111.714317580895},{"id":"29225","name":"Dr. Clemente Mills PhD","party":"Rep","address":"879 E 200 S, Pleasant Grove, UT 84062","precinct":"25PG12","hd":"55","v_score":"8.347511332","decile":"8","lat":40.361217290335,"lng":-111.721127075329},{"id":"29728","name":"Jarred Hudson Jr.","party":"Rep","address":"903 E 200 S, Pleasant Grove, UT 84062","precinct":"25PG12","hd":"55","v_score":"14.95117867","decile":"9","lat":40.361208290142,"lng":-111.718590836434},{"id":"29995","name":"Trista Gleason","party":"Rep","address":"906 E Center St, Apt B, Pleasant Grove, UT 84062","precinct":"25PG12","hd":"55","v_score":"2.587603312","decile":"5","lat":40.363840737884,"lng":-111.720166641509},{"id":"30392","name":"Thedore Leannon","party":"Dem","address":"180 S 700 E, Pleasant Grove, UT 84062","precinct":"25PG12","hd":"55","v_score":"12.51449002","decile":"9","lat":40.361431895459,"lng":-111.725477311259},{"id":"31265","name":"Leitha Osinski-Keebler","party":"Rep","address":"162 N 1400 E, Pleasant Grove, UT 84062","precinct":"25PG12","hd":"55","v_score":"8.347511332","decile":"8","lat":40.365682007407,"lng":-111.707699155489},{"id":"31587","name":"Ossie Fay V","party":"","address":"55 S 500 E, Pleasant Grove, UT 84062","precinct":"25PG12","hd":"55","v_score":"1.121327652","decile":"3","lat":40.363090873256,"lng":-111.730553932858},{"id":"31802","name":"Jerrod Nader","party":"","address":"825 E 50 S, Pleasant Grove, UT 84062","precinct":"25PG12","hd":"55","v_score":"5.40460374","decile":"7","lat":40.363209411063,"lng":-111.722924676467},{"id":"33162","name":"Mr. Silvio Hoeger","party":"Rep","address":"235 N 1300 E, Pleasant Grove, UT 84062","precinct":"25PG12","hd":"55","v_score":"2.587603312","decile":"5","lat":40.366448277106,"lng":-111.710227096989},{"id":"33224","name":"Estefani Hackett PhD","party":"Rep","address":"152 N 1400 E, Pleasant Grove, UT 84062","precinct":"25PG12","hd":"55","v_score":"1.121327652","decile":"3","lat":40.365614533198,"lng":-111.707711150912},{"id":"33780","name":"Dr. Wesley Heathcote","party":"","address":"34 S 760 E, Pleasant Grove, UT 84062","precinct":"25PG12","hd":"55","v_score":"10.51648655","decile":"9","lat":40.363758540241,"lng":-111.724075232727},{"id":"35553","name":"Dr. Anie Terry","party":"","address":"879 E 200 S, Pleasant Grove, UT 84062","precinct":"25PG12","hd":"55","v_score":"3.781490609","decile":"6","lat":40.361217290335,"lng":-111.721127075329},{"id":"35755","name":"Lawrence Schiller V","party":"","address":"1183 E 120 N, Pleasant Grove, UT 84062","precinct":"25PG12","hd":"55","v_score":"11.99259879","decile":"9","lat":40.365415103444,"lng":-111.712185033003},{"id":"35830","name":"Anastacio Hauck","party":"","address":"1023 E 100 S, Pleasant Grove, UT 84062","precinct":"25PG12","hd":"55","v_score":"11.02844566","decile":"9","lat":40.374606697328,"lng":-111.73991654198},{"id":"35840","name":"Dominick Heller","party":"Rep","address":"641 E 100 S, Pleasant Grove, UT 84062","precinct":"25PG12","hd":"55","v_score":"29.86743893","decile":"10","lat":40.36248251099,"lng":-111.72705568711},{"id":"36166","name":"Norris Olson","party":"Rep","address":"605 E 200 S, Pleasant Grove, UT 84062","precinct":"25PG12","hd":"55","v_score":"0","decile":"1","lat":40.361225236534,"lng":-111.727824537799},{"id":"36234","name":"Glenda Ullrich","party":"","address":"180 S 700 E, Pleasant Grove, UT 84062","precinct":"25PG12","hd":"55","v_score":"16.53571215","decile":"9","lat":40.361431895459,"lng":-111.725477311259},{"id":"36492","name":"Alize Rath","party":"Rep","address":"515 E 200 S, Pleasant Grove, UT 84062","precinct":"25PG12","hd":"55","v_score":"7.650280567","decile":"8","lat":40.36122629103,"lng":-111.730190997645},{"id":"36551","name":"Royal Willms Jr.","party":"Dem","address":"1080 E 100 N, Pleasant Grove, UT 84062","precinct":"25PG12","hd":"55","v_score":"7.801357537","decile":"8","lat":40.364738698075,"lng":-111.715095214581},{"id":"37531","name":"Andres Conn-Hegmann","party":"Rep","address":"835 E 100 S, Pleasant Grove, UT 84062","precinct":"25PG12","hd":"55","v_score":"12.38288823","decile":"9","lat":40.362507618849,"lng":-111.722681327287},{"id":"38292","name":"Keaton Mraz","party":"Dem","address":"198 S 1300 E, Pleasant Grove, UT 84062","precinct":"25PG12","hd":"55","v_score":"5.40460374","decile":"7","lat":40.361159376065,"lng":-111.709611854712},{"id":"38731","name":"Lillis Hilll","party":"","address":"198 S 1300 E, Pleasant Grove, UT 84062","precinct":"25PG12","hd":"55","v_score":"3.781490609","decile":"6","lat":40.361159376065,"lng":-111.709611854712},{"id":"41031","name":"Lucile Senger","party":"Rep","address":"162 N 1400 E, Pleasant Grove, UT 84062","precinct":"25PG12","hd":"55","v_score":"17.75180262","decile":"10","lat":40.365682007407,"lng":-111.707699155489},{"id":"41476","name":"Grace Orn","party":"","address":"1360 E 150 N, Pleasant Grove, UT 84062","precinct":"25PG12","hd":"55","v_score":"5.40460374","decile":"7","lat":40.365386697511,"lng":-111.708698474215},{"id":"41562","name":"Dr. Orin Balistreri III","party":"","address":"987 E 200 S, Pleasant Grove, UT 84062","precinct":"25PG12","hd":"55","v_score":"1.121327652","decile":"3","lat":40.361196391482,"lng":-111.717232740779},{"id":"41809","name":"Adaline Ankunding","party":"Dem","address":"115 S 700 E, Pleasant Grove, UT 84062","precinct":"25PG12","hd":"55","v_score":"7.153624035","decile":"8","lat":40.362213581003,"lng":-111.725310387502},{"id":"42149","name":"Deegan Macejkovic","party":"","address":"185 S 1300 E, Pleasant Grove, UT 84062","precinct":"25PG12","hd":"55","v_score":"4.409183253","decile":"7","lat":40.36140987718,"lng":-111.709507447652},{"id":"42908","name":"Ms. Monserrat Paucek DVM","party":"Dem","address":"1341 E 150 N, Pleasant Grove, UT 84062","precinct":"25PG12","hd":"55","v_score":"11.29723756","decile":"9","lat":40.365501288928,"lng":-111.709122643629},{"id":"43533","name":"Gwendolyn Greenfelder-Flatley","party":"","address":"85 S 1400 E, Pleasant Grove, UT 84062","precinct":"25PG12","hd":"55","v_score":"5.40460374","decile":"7","lat":40.36238063258,"lng":-111.707681078961},{"id":"43804","name":"Leonardo Tromp","party":"Rep","address":"987 E 200 S, Pleasant Grove, UT 84062","precinct":"25PG12","hd":"55","v_score":"6.814370645","decile":"8","lat":40.361196391482,"lng":-111.717232740779},{"id":"43807","name":"Gifford Kreiger","party":"Rep","address":"1160 E 100 N, Pleasant Grove, UT 84062","precinct":"25PG12","hd":"55","v_score":"0","decile":"1","lat":40.364734246766,"lng":-111.71348823799},{"id":"43989","name":"Linwood Ziemann","party":"","address":"615 E 200 S, Pleasant Grove, UT 84062","precinct":"25PG12","hd":"55","v_score":"5.40460374","decile":"7","lat":40.361223737611,"lng":-111.727575719734},{"id":"44576","name":"Vanessa Steuber","party":"","address":"656 E 100 S, Pleasant Grove, UT 84062","precinct":"25PG12","hd":"55","v_score":"1.121327652","decile":"3","lat":40.362367785044,"lng":-111.727079840364},{"id":"44697","name":"Sandra Cartwright","party":"Dem","address":"14 S 760 E, Pleasant Grove, UT 84062","precinct":"25PG12","hd":"55","v_score":"4.15282392","decile":"7","lat":40.363809676767,"lng":-111.724073315101},{"id":"44718","name":"Leandro Herman","party":"Rep","address":"587 E 100 S, Pleasant Grove, UT 84062","precinct":"25PG12","hd":"55","v_score":"1.46627566","decile":"4","lat":40.362475993685,"lng":-111.728392263385},{"id":"45333","name":"Mr. Orris Labadie MD","party":"Dem","address":"858 E 100 S, Pleasant Grove, UT 84062","precinct":"25PG12","hd":"55","v_score":"13.13857124","decile":"9","lat":40.362394903428,"lng":-111.722475005552},{"id":"46411","name":"Jammie Heaney-Hermiston","party":"","address":"1155 E 30 S, Pleasant Grove, UT 84062","precinct":"25PG12","hd":"55","v_score":"1.623113131","decile":"5","lat":40.363736756148,"lng":-111.714001809591},{"id":"46675","name":"Mr. Seamus Wiza V","party":"","address":"825 E 50 S, Pleasant Grove, UT 84062","precinct":"25PG12","hd":"55","v_score":"1.193887297","decile":"3","lat":40.363209411063,"lng":-111.722924676467},{"id":"46886","name":"Shan Morar","party":"Rep","address":"577 E 200 S, Unit B, Pleasant Grove, UT 84062","precinct":"25PG12","hd":"55","v_score":"3.93832808","decile":"6","lat":40.36122629091,"lng":-111.72862922232},{"id":"47052","name":"Ricki Morar","party":"","address":"1415 E 200 S, Pleasant Grove, UT 84062","precinct":"25PG12","hd":"55","v_score":"10.52632313","decile":"9","lat":40.361157422037,"lng":-111.707480548862},{"id":"47353","name":"Levie Johnston","party":"Rep","address":"1153 E 100 N, Pleasant Grove, UT 84062","precinct":"25PG12","hd":"55","v_score":"0","decile":"1","lat":40.364847383194,"lng":-111.713571478852},{"id":"48161","name":"Mrs. Fairy Mraz","party":"Dem","address":"109 N 1240 E, Pleasant Grove, UT 84062","precinct":"25PG12","hd":"55","v_score":"6.724398202","decile":"8","lat":40.364934961024,"lng":-111.711498408254},{"id":"48327","name":"Dannie Kerluke","party":"","address":"109 N 1240 E, Pleasant Grove, UT 84062","precinct":"25PG12","hd":"55","v_score":"14.74039814","decile":"9","lat":40.364934961024,"lng":-111.711498408254},{"id":"49363","name":"Lilyanna Schinner","party":"Dem","address":"577 E 200 S, # B, Pleasant Grove, UT 84062","precinct":"25PG12","hd":"55","v_score":"13.70847796","decile":"9","lat":40.36122629091,"lng":-111.72862922232},{"id":"49500","name":"Coty King-Kovacek","party":"Rep","address":"1225 E 120 N, Pleasant Grove, UT 84062","precinct":"25PG12","hd":"55","v_score":"0","decile":"1","lat":40.365416791748,"lng":-111.711941070332},{"id":"49982","name":"Ms. Leann Lakin DDS","party":"","address":"185 N 1300 E, Pleasant Grove, UT 84062","precinct":"25PG12","hd":"55","v_score":"9.207031979","decile":"8","lat":40.365851525219,"lng":-111.710165290628},{"id":"50412","name":"Hollie Glover","party":"","address":"624 E 150 S, Pleasant Grove, UT 84062","precinct":"25PG12","hd":"55","v_score":"7.830610533","decile":"8","lat":40.361768699369,"lng":-111.727558576176},{"id":"50463","name":"Grady Lynch","party":"","address":"175 S 1300 E, Pleasant Grove, UT 84062","precinct":"25PG12","hd":"55","v_score":"5.61909958","decile":"7","lat":40.361568428243,"lng":-111.70955849632},{"id":"50614","name":"Gray Wolff","party":"","address":"1448 E 50 S, Pleasant Grove, UT 84062","precinct":"25PG12","hd":"55","v_score":"9.55742766","decile":"8","lat":40.362899809664,"lng":-111.707187915465},{"id":"51936","name":"Alejandra Abernathy DVM","party":"","address":"1145 E 100 N, Pleasant Grove, UT 84062","precinct":"25PG12","hd":"55","v_score":"4.064235245","decile":"6","lat":40.36484495976,"lng":-111.713818160155},{"id":"52032","name":"Presley Harris-Kulas","party":"Dem","address":"1255 E Center St, Pleasant Grove, UT 84062","precinct":"25PG12","hd":"55","v_score":"2.817000428","decile":"6","lat":40.364013214514,"lng":-111.710605460673},{"id":"52110","name":"Dwyane Casper","party":"Dem","address":"1121 E 30 S, Pleasant Grove, UT 84062","precinct":"25PG12","hd":"55","v_score":"5.258122542","decile":"7","lat":40.363591806077,"lng":-111.71430325701},{"id":"53064","name":"Twyla Dickens","party":"Rep","address":"1440 E 140 S, Pleasant Grove, UT 84062","precinct":"25PG12","hd":"55","v_score":"11.2235539","decile":"9","lat":40.361795697806,"lng":-111.707222400654},{"id":"53106","name":"Nereida DuBuque","party":"","address":"1440 E 140 S, Pleasant Grove, UT 84062","precinct":"25PG12","hd":"55","v_score":"13.76678889","decile":"9","lat":40.361795697806,"lng":-111.707222400654},{"id":"53144","name":"Elex Lynch","party":"","address":"825 E 50 S, Pleasant Grove, UT 84062","precinct":"25PG12","hd":"55","v_score":"4.283276088","decile":"7","lat":40.363209411063,"lng":-111.722924676467},{"id":"53409","name":"Wayne Mosciski III","party":"","address":"27 S 1185 E, Pleasant Grove, UT 84062","precinct":"25PG12","hd":"55","v_score":"1.46627566","decile":"4","lat":40.363637516627,"lng":-111.712647612862},{"id":"54133","name":"Donita McGlynn DVM","party":"Dem","address":"164 S 980 E, Pleasant Grove, UT 84062","precinct":"25PG12","hd":"55","v_score":"16.14542271","decile":"9","lat":40.362227679534,"lng":-111.718229592199},{"id":"54267","name":"Mrs. Annabell Reinger","party":"Dem","address":"145 N 1400 E, Pleasant Grove, UT 84062","precinct":"25PG12","hd":"55","v_score":"3.781490609","decile":"6","lat":40.365346558539,"lng":-111.707897050937},{"id":"54424","name":"Edw Leannon Sr.","party":"","address":"35 S 700 E, Pleasant Grove, UT 84062","precinct":"25PG12","hd":"55","v_score":"5.258122542","decile":"7","lat":40.363377561096,"lng":-111.725285469521},{"id":"55237","name":"Dione D'Amore","party":"","address":"1093 E 30 S, Pleasant Grove, UT 84062","precinct":"25PG12","hd":"55","v_score":"8.284004873","decile":"8","lat":40.363478690724,"lng":-111.714546273583},{"id":"55684","name":"Dr. Merlin O'Hara","party":"","address":"185 N 1300 E, Pleasant Grove, UT 84062","precinct":"25PG12","hd":"55","v_score":"1.121327652","decile":"3","lat":40.365851525219,"lng":-111.710165290628},{"id":"55689","name":"Stephanie Graham","party":"","address":"40 S 1400 E, Pleasant Grove, UT 84062","precinct":"25PG12","hd":"55","v_score":"2.426006793","decile":"5","lat":40.363282653551,"lng":-111.707831417257},{"id":"55692","name":"Miss Dominga Ziemann","party":"Dem","address":"699 E 100 S, Pleasant Grove, UT 84062","precinct":"25PG12","hd":"55","v_score":"15.5432918","decile":"9","lat":40.362494596563,"lng":-111.725456945612},{"id":"55724","name":"Hasel Mitchell","party":"Dem","address":"1213 E 50 N, Pleasant Grove, UT 84062","precinct":"25PG12","hd":"55","v_score":"6.528952915","decile":"7","lat":40.364634529911,"lng":-111.712326770612},{"id":"55793","name":"Cherryl Witting-Hackett","party":"","address":"95 S 1050 E, Pleasant Grove, UT 84062","precinct":"25PG12","hd":"55","v_score":"0","decile":"1","lat":40.361986972765,"lng":-111.715482158573},{"id":"55800","name":"Aidan Bechtelar","party":"Dem","address":"66 S 600 E, Pleasant Grove, UT 84062","precinct":"25PG12","hd":"55","v_score":"0","decile":"1","lat":40.362933430856,"lng":-111.728096331144},{"id":"55883","name":"Spurgeon Bosco","party":"Dem","address":"788 E 100 S, Pleasant Grove, UT 84062","precinct":"25PG12","hd":"55","v_score":"4.741221742","decile":"7","lat":40.362388550708,"lng":-111.72334313559},{"id":"56060","name":"Donie Baumbach","party":"Rep","address":"954 E Center St, Pleasant Grove, UT 84062","precinct":"25PG12","hd":"55","v_score":"0","decile":"1","lat":40.3638444109,"lng":-111.718842749147},{"id":"56479","name":"Aryan Hoppe Sr.","party":"","address":"671 E 100 S, Pleasant Grove, UT 84062","precinct":"25PG12","hd":"55","v_score":"3.997370217","decile":"6","lat":40.362486976249,"lng":-111.726287566635},{"id":"56940","name":"Earle Kshlerin","party":"Dem","address":"35 S 700 E, Pleasant Grove, UT 84062","precinct":"25PG12","hd":"55","v_score":"4.192796624","decile":"7","lat":40.363377561096,"lng":-111.725285469521},{"id":"57131","name":"Miss Teagan West","party":"","address":"28 S 1050 E, Pleasant Grove, UT 84062","precinct":"25PG12","hd":"55","v_score":"2.587603312","decile":"5","lat":40.363148875074,"lng":-111.715599715268},{"id":"57531","name":"Roxana Stokes","party":"Dem","address":"954 E Center St, Pleasant Grove, UT 84062","precinct":"25PG12","hd":"55","v_score":"0","decile":"1","lat":40.3638444109,"lng":-111.718842749147},{"id":"58113","name":"Nealie Lebsack DDS","party":"","address":"140 S 1400 E, Pleasant Grove, UT 84062","precinct":"25PG12","hd":"55","v_score":"2.315214949","decile":"5","lat":40.362216794572,"lng":-111.707833380771},{"id":"59312","name":"Nanie Hackett","party":"","address":"1381 E 150 N, Pleasant Grove, UT 84062","precinct":"25PG12","hd":"55","v_score":"9.772950527","decile":"8","lat":40.365501288862,"lng":-111.70827430477},{"id":"59315","name":"Marylyn Bruen-Bashirian","party":"","address":"1381 E 150 N, Pleasant Grove, UT 84062","precinct":"25PG12","hd":"55","v_score":"6.896907962","decile":"8","lat":40.365501288862,"lng":-111.70827430477},{"id":"59426","name":"Kathlene Batz","party":"","address":"835 E 100 S, Pleasant Grove, UT 84062","precinct":"25PG12","hd":"55","v_score":"11.04973188","decile":"9","lat":40.362507618849,"lng":-111.722681327287},{"id":"59890","name":"Heather Bayer DDS","party":"Dem","address":"1155 E 30 S, Pleasant Grove, UT 84062","precinct":"25PG12","hd":"55","v_score":"1.623113131","decile":"5","lat":40.363736756148,"lng":-111.714001809591},{"id":"59943","name":"Clayton Bailey","party":"Rep","address":"1125 E 100 N, Pleasant Grove, UT 84062","precinct":"25PG12","hd":"55","v_score":"2.315214949","decile":"5","lat":40.364848437635,"lng":-111.714205939825},{"id":"60599","name":"Dr. Julia Cronin","party":"Rep","address":"759 E 200 S, Pleasant Grove, UT 84062","precinct":"25PG12","hd":"55","v_score":"1.193887297","decile":"3","lat":40.361217290553,"lng":-111.723962299371},{"id":"60756","name":"Claus Blanda-Gaylord","party":"Dem","address":"879 E 200 S, Pleasant Grove, UT 84062","precinct":"25PG12","hd":"55","v_score":"3.93832808","decile":"6","lat":40.361217290335,"lng":-111.721127075329},{"id":"61111","name":"Clovis Schultz","party":"Dem","address":"1285 E Center St, Pleasant Grove, UT 84062","precinct":"25PG12","hd":"55","v_score":"1.121327652","decile":"3","lat":40.364140738895,"lng":-111.710198075985},{"id":"61331","name":"Estrella Cummings","party":"Dem","address":"535 E 200 S, Pleasant Grove, UT 84062","precinct":"25PG12","hd":"55","v_score":"4.069929862","decile":"6","lat":40.361226290991,"lng":-111.729687199153},{"id":"61511","name":"Ms. Tommie Adams PhD","party":"","address":"825 E 50 S, Pleasant Grove, UT 84062","precinct":"25PG12","hd":"55","v_score":"3.93832808","decile":"6","lat":40.363209411063,"lng":-111.722924676467},{"id":"61869","name":"Stacy Pacocha","party":"Rep","address":"195 N 1400 E, Pleasant Grove, UT 84062","precinct":"25PG12","hd":"55","v_score":"6.814370645","decile":"8","lat":40.365837443393,"lng":-111.707823292262},{"id":"61990","name":"Mr. Hillard Becker","party":"Rep","address":"140 S 1400 E, Pleasant Grove, UT 84062","precinct":"25PG12","hd":"55","v_score":"0","decile":"1","lat":40.362216794572,"lng":-111.707833380771},{"id":"62092","name":"Demetri Kirlin","party":"","address":"198 S 1300 E, Pleasant Grove, UT 84062","precinct":"25PG12","hd":"55","v_score":"2.817000428","decile":"6","lat":40.361159376065,"lng":-111.709611854712},{"id":"62105","name":"Reilly Kessler","party":"Dem","address":"515 E 200 S, Pleasant Grove, UT 84062","precinct":"25PG12","hd":"55","v_score":"10.24124245","decile":"9","lat":40.36122629103,"lng":-111.730190997645},{"id":"62189","name":"Dr. Holland Lemke","party":"","address":"58 S 600 E, Pleasant Grove, UT 84062","precinct":"25PG12","hd":"55","v_score":"3.93832808","decile":"6","lat":40.363047632196,"lng":-111.728098061453},{"id":"62858","name":"Ruben Greenholt","party":"Dem","address":"28 S 1050 E, Pleasant Grove, UT 84062","precinct":"25PG12","hd":"55","v_score":"8.15240309","decile":"8","lat":40.363148875074,"lng":-111.715599715268},{"id":"62992","name":"Miss Giuliana Powlowski DVM","party":"Rep","address":"185 S 1300 E, Pleasant Grove, UT 84062","precinct":"25PG12","hd":"55","v_score":"2.817000428","decile":"6","lat":40.36140987718,"lng":-111.709507447652},{"id":"63579","name":"Kymani Hegmann-Koch","party":"Rep","address":"636 E Center St, Pleasant Grove, UT 84062","precinct":"25PG12","hd":"55","v_score":"24.69395983","decile":"10","lat":40.363853019028,"lng":-111.727054054425},{"id":"63662","name":"Eugenia Zieme-Thompson","party":"Dem","address":"65 S 700 E, Pleasant Grove, UT 84062","precinct":"25PG12","hd":"55","v_score":"5.926494964","decile":"7","lat":40.362963553816,"lng":-111.725294359301},{"id":"64083","name":"Mrs. Sommer Adams","party":"","address":"90 N 1300 E, Pleasant Grove, UT 84062","precinct":"25PG12","hd":"55","v_score":"0","decile":"1","lat":40.364911324496,"lng":-111.709926331031},{"id":"64266","name":"Audley Oberbrunner II","party":"Dem","address":"627 E 150 S, Pleasant Grove, UT 84062","precinct":"25PG12","hd":"55","v_score":"3.93832808","decile":"6","lat":40.361883290751,"lng":-111.727527319483},{"id":"64318","name":"Jerrica Pagac-Daniel","party":"","address":"152 N 1400 E, Pleasant Grove, UT 84062","precinct":"25PG12","hd":"55","v_score":"1.193887297","decile":"3","lat":40.365614533198,"lng":-111.707711150912},{"id":"64569","name":"Janey Grant","party":"Dem","address":"1385 E 200 S, Pleasant Grove, UT 84062","precinct":"25PG12","hd":"55","v_score":"14.22745365","decile":"9","lat":40.361155878617,"lng":-111.708056287701},{"id":"65355","name":"Gust Krajcik","party":"Rep","address":"35 S 500 E, Pleasant Grove, UT 84062","precinct":"25PG12","hd":"55","v_score":"13.97298511","decile":"9","lat":40.363374224108,"lng":-111.730548842686},{"id":"65371","name":"Marvin Kiehn MD","party":"","address":"156 N 1300 E, Pleasant Grove, UT 84062","precinct":"25PG12","hd":"55","v_score":"6.881235673","decile":"8","lat":40.365548767644,"lng":-111.709983069728},{"id":"65771","name":"Mr. Joe Aufderhar I","party":"Dem","address":"220 N 1300 E, Pleasant Grove, UT 84062","precinct":"25PG12","hd":"55","v_score":"16.39736004","decile":"9","lat":40.366297021439,"lng":-111.710060567337},{"id":"65778","name":"Zeke Toy","party":"","address":"211 N 1300 E, Pleasant Grove, UT 84062","precinct":"25PG12","hd":"55","v_score":"8.635950586","decile":"8","lat":40.3661618362,"lng":-111.710197429935},{"id":"65791","name":"Dr. Jerrel O'Connell Sr.","party":"Rep","address":"1140 E 100 N, Pleasant Grove, UT 84062","precinct":"25PG12","hd":"55","v_score":"12.34824012","decile":"9","lat":40.364731651542,"lng":-111.713962116197},{"id":"66663","name":"Dr. Connie Casper","party":"","address":"152 N 1400 E, Pleasant Grove, UT 84062","precinct":"25PG12","hd":"55","v_score":"1.193887297","decile":"3","lat":40.365614533198,"lng":-111.707711150912},{"id":"66674","name":"Dr. Codi Prohaska IV","party":"Rep","address":"164 S 980 E, Pleasant Grove, UT 84062","precinct":"25PG12","hd":"55","v_score":"5.693042993","decile":"7","lat":40.362227679534,"lng":-111.718229592199},{"id":"67449","name":"Zana Rice-Gutkowski","party":"Rep","address":"1120 E 100 N, Pleasant Grove, UT 84062","precinct":"25PG12","hd":"55","v_score":"2.315214949","decile":"5","lat":40.364734839594,"lng":-111.714317580895},{"id":"67728","name":"Letha O'Conner","party":"Dem","address":"163 S 500 E, Pleasant Grove, UT 84062","precinct":"25PG12","hd":"55","v_score":"0","decile":"1","lat":40.361641230478,"lng":-111.730552202969},{"id":"68235","name":"Nelly Effertz","party":"Dem","address":"1133 E 100 N, Pleasant Grove, UT 84062","precinct":"25PG12","hd":"55","v_score":"1.193887297","decile":"3","lat":40.364847046485,"lng":-111.714050827957},{"id":"68523","name":"Mrs. Beulah Sawayn DVM","party":"Rep","address":"987 E 200 S, Pleasant Grove, UT 84062","precinct":"25PG12","hd":"55","v_score":"6.814370645","decile":"8","lat":40.361196391482,"lng":-111.717232740779},{"id":"68565","name":"Dr. Eduardo Hodkiewicz I","party":"Rep","address":"973 E 200 S, Pleasant Grove, UT 84062","precinct":"25PG12","hd":"55","v_score":"1.121327652","decile":"3","lat":40.361197899829,"lng":-111.717458990254},{"id":"68749","name":"Foster Schroeder-Pouros","party":"","address":"183 N 1350 E, Pleasant Grove, UT 84062","precinct":"25PG12","hd":"55","v_score":"5.926494964","decile":"7","lat":40.366472088941,"lng":-111.709195783575},{"id":"69156","name":"Camila Haag","party":"Dem","address":"1060 E 100 N, Pleasant Grove, UT 84062","precinct":"25PG12","hd":"55","v_score":"0","decile":"1","lat":40.364738698099,"lng":-111.715398174944},{"id":"69214","name":"Oral Sporer","party":"Rep","address":"1212 E 120 N, Pleasant Grove, UT 84062","precinct":"25PG12","hd":"55","v_score":"5.191257514","decile":"7","lat":40.36530172271,"lng":-111.712009408013},{"id":"70089","name":"Stevie Lesch","party":"","address":"1160 E 100 N, Bsmt, Pleasant Grove, UT 84062","precinct":"25PG12","hd":"55","v_score":"1.121327652","decile":"3","lat":40.364734246766,"lng":-111.71348823799},{"id":"70121","name":"Tori Vandervort","party":"","address":"245 N 1300 E, Pleasant Grove, UT 84062","precinct":"25PG12","hd":"55","v_score":"21.8990126","decile":"10","lat":40.366567627483,"lng":-111.710239458261},{"id":"70507","name":"Deonte Kling","party":"Rep","address":"1026 E 100 S, Pleasant Grove, UT 84062","precinct":"25PG12","hd":"55","v_score":"5.191257514","decile":"7","lat":40.362560749396,"lng":-111.717882890844},{"id":"71066","name":"Frankie Schumm","party":"Rep","address":"1385 E 200 S, Pleasant Grove, UT 84062","precinct":"25PG12","hd":"55","v_score":"10.7597751","decile":"9","lat":40.361155878617,"lng":-111.708056287701},{"id":"71488","name":"Mr. Lyndon Ryan IV","party":"","address":"112 N 1185 E, Pleasant Grove, UT 84062","precinct":"25PG12","hd":"55","v_score":"14.80889503","decile":"9","lat":40.364915482156,"lng":-111.712660655679},{"id":"72021","name":"Debby Ondricka","party":"Rep","address":"819 E 50 S, Pleasant Grove, UT 84062","precinct":"25PG12","hd":"55","v_score":"1.121327652","decile":"3","lat":40.363209087274,"lng":-111.72293778999},{"id":"72231","name":"Alia Dickens MD","party":"","address":"1119 E 30 S, Pleasant Grove, UT 84062","precinct":"25PG12","hd":"55","v_score":"1.121327652","decile":"3","lat":40.363582859293,"lng":-111.714320852355},{"id":"72325","name":"Mr. Lawrence Blanda PhD","party":"","address":"625 E 100 S, Pleasant Grove, UT 84062","precinct":"25PG12","hd":"55","v_score":"2.315214949","decile":"5","lat":40.362480586204,"lng":-111.72740889037},{"id":"72501","name":"Dr. Aliza Daniel","party":"","address":"938 E Center St, Pleasant Grove, UT 84062","precinct":"25PG12","hd":"55","v_score":"19.47300581","decile":"10","lat":40.363832002346,"lng":-111.719289073982},{"id":"73363","name":"Antwan Crist","party":"Dem","address":"1093 E 30 S, Pleasant Grove, UT 84062","precinct":"25PG12","hd":"55","v_score":"9.830961897","decile":"8","lat":40.363478690724,"lng":-111.714546273583},{"id":"73552","name":"Coby Hills-Sipes","party":"Rep","address":"836 E 100 S, Pleasant Grove, UT 84062","precinct":"25PG12","hd":"55","v_score":"2.744440783","decile":"5","lat":40.362393191331,"lng":-111.722662481669},{"id":"73942","name":"Deshaun Heathcote","party":"","address":"665 E 200 S, Pleasant Grove, UT 84062","precinct":"25PG12","hd":"55","v_score":"1.121327652","decile":"3","lat":40.361217290728,"lng":-111.726250159732},{"id":"76385","name":"Milissa Grant","party":"Rep","address":"1225 E 120 N, Pleasant Grove, UT 84062","precinct":"25PG12","hd":"55","v_score":"1.121327652","decile":"3","lat":40.365416791748,"lng":-111.711941070332},{"id":"77260","name":"Jesus Barton","party":"","address":"29 S 760 E, Pleasant Grove, UT 84062","precinct":"25PG12","hd":"55","v_score":"6.657533174","decile":"7","lat":40.363766955695,"lng":-111.723924462826},{"id":"77445","name":"Vonetta Pouros DVM","party":"Dem","address":"634 E 100 S, Pleasant Grove, UT 84062","precinct":"25PG12","hd":"55","v_score":"2.315214949","decile":"5","lat":40.362365948641,"lng":-111.727416825107},{"id":"77496","name":"Shawnte Gutmann","party":"","address":"155 N 1400 E, Pleasant Grove, UT 84062","precinct":"25PG12","hd":"55","v_score":"1.121327652","decile":"3","lat":40.365538368522,"lng":-111.707876461163},{"id":"77526","name":"Mr. Otis Pfannerstill II","party":"","address":"151 N 1300 E, Pleasant Grove, UT 84062","precinct":"25PG12","hd":"55","v_score":"2.817000428","decile":"6","lat":40.365356099566,"lng":-111.710115011241},{"id":"77673","name":"Mr. Garett Runolfsdottir","party":"","address":"11 N 1300 E, Pleasant Grove, UT 84062","precinct":"25PG12","hd":"55","v_score":"1.193887297","decile":"3","lat":40.364288103792,"lng":-111.710021799578},{"id":"77789","name":"Ossie Rosenbaum","party":"Rep","address":"627 E 150 S, Pleasant Grove, UT 84062","precinct":"25PG12","hd":"55","v_score":"1.121327652","decile":"3","lat":40.361883290751,"lng":-111.727527319483},{"id":"77852","name":"Dr. Bess Schmitt PhD","party":"","address":"180 N 1050 E, Pleasant Grove, UT 84062","precinct":"25PG12","hd":"55","v_score":"2.315214949","decile":"5","lat":40.365828812191,"lng":-111.715721919013},{"id":"79973","name":"Ms. Gale Bernier","party":"Dem","address":"578 E 100 S, Pleasant Grove, UT 84062","precinct":"25PG12","hd":"55","v_score":"2.315214949","decile":"5","lat":40.362360710815,"lng":-111.728593841466},{"id":"80169","name":"Lue Runolfsson","party":"Rep","address":"1108 E 200 N, Pleasant Grove, UT 84062","precinct":"25PG12","hd":"55","v_score":"2.315214949","decile":"5","lat":40.366121565256,"lng":-111.713852147048},{"id":"80251","name":"Kyree Bayer-Lockman","party":"Dem","address":"1108 E 200 N, Pleasant Grove, UT 84062","precinct":"25PG12","hd":"55","v_score":"3.93832808","decile":"6","lat":40.366121565256,"lng":-111.713852147048},{"id":"81025","name":"Justina Medhurst","party":"Dem","address":"129 S 950 E, Pleasant Grove, UT 84062","precinct":"25PG12","hd":"55","v_score":"0","decile":"1","lat":40.362024150256,"lng":-111.71922434014},{"id":"81260","name":"Darryl Schroeder I","party":"Dem","address":"28 S 850 E, Pleasant Grove, UT 84062","precinct":"25PG12","hd":"55","v_score":"5.693042993","decile":"7","lat":40.363083579219,"lng":-111.721801257626},{"id":"81338","name":"Mr. Loring Wolf II","party":"Dem","address":"525 E 100 S, Pleasant Grove, UT 84062","precinct":"25PG12","hd":"55","v_score":"4.905839784","decile":"7","lat":40.362470625762,"lng":-111.729959731789},{"id":"81474","name":"Ashly Schiller MD","party":"Dem","address":"1285 E Center St, Pleasant Grove, UT 84062","precinct":"25PG12","hd":"55","v_score":"0","decile":"1","lat":40.364140738895,"lng":-111.710198075985},{"id":"81499","name":"Mohammad Fisher","party":"","address":"1175 E 100 N, Pleasant Grove, UT 84062","precinct":"25PG12","hd":"55","v_score":"15.44261933","decile":"9","lat":40.364853862636,"lng":-111.713208628564},{"id":"81730","name":"Darryn Kerluke","party":"Dem","address":"14 S 760 E, Pleasant Grove, UT 84062","precinct":"25PG12","hd":"55","v_score":"0","decile":"1","lat":40.363809676767,"lng":-111.724073315101},{"id":"81798","name":"Shana Raynor","party":"Dem","address":"922 E Center St, Pleasant Grove, UT 84062","precinct":"25PG12","hd":"55","v_score":"0","decile":"1","lat":40.363835666834,"lng":-111.719726976323},{"id":"82197","name":"Heaven Gottlieb","party":"","address":"581 E 200 S, Pleasant Grove, UT 84062","precinct":"25PG12","hd":"55","v_score":"0","decile":"1","lat":40.361226290902,"lng":-111.728528462621},{"id":"82893","name":"Eliot Wunsch Jr.","party":"","address":"90 S 1300 E, Pleasant Grove, UT 84062","precinct":"25PG12","hd":"55","v_score":"1.193887297","decile":"3","lat":40.362645297377,"lng":-111.709748006079},{"id":"82926","name":"Reynolds Schaden","party":"Dem","address":"1448 E 50 S, Pleasant Grove, UT 84062","precinct":"25PG12","hd":"55","v_score":"0","decile":"1","lat":40.362899809664,"lng":-111.707187915465},{"id":"84620","name":"Cordero Franecki","party":"","address":"34 S 760 E, Pleasant Grove, UT 84062","precinct":"25PG12","hd":"55","v_score":"4.499155696","decile":"7","lat":40.363758540241,"lng":-111.724075232727},{"id":"85204","name":"Dr. Jarvis Sipes DVM","party":"","address":"145 S 500 E, Pleasant Grove, UT 84062","precinct":"25PG12","hd":"55","v_score":"0","decile":"1","lat":40.361848307509,"lng":-111.730555954337},{"id":"85275","name":"Inga McKenzie","party":"Dem","address":"163 S 500 E, Pleasant Grove, UT 84062","precinct":"25PG12","hd":"55","v_score":"0","decile":"1","lat":40.361641230478,"lng":-111.730552202969},{"id":"85416","name":"Ms. Clotilda Weber DDS","party":"","address":"109 N 1240 E, Pleasant Grove, UT 84062","precinct":"25PG12","hd":"55","v_score":"5.693042993","decile":"7","lat":40.364934961024,"lng":-111.711498408254},{"id":"85695","name":"Brandy Gusikowski-Cremin","party":"Rep","address":"535 E 200 S, Pleasant Grove, UT 84062","precinct":"25PG12","hd":"55","v_score":"0","decile":"1","lat":40.361226290991,"lng":-111.729687199153},{"id":"86015","name":"Cortez Wisoky","party":"Rep","address":"145 S 500 E, Pleasant Grove, UT 84062","precinct":"25PG12","hd":"55","v_score":"5.693042993","decile":"7","lat":40.361848307509,"lng":-111.730555954337},{"id":"88187","name":"Mr. Xzavier Heathcote V","party":"Dem","address":"1213 E 50 N, Pleasant Grove, UT 84062","precinct":"25PG12","hd":"55","v_score":"0","decile":"1","lat":40.364634529911,"lng":-111.712326770612},{"id":"88482","name":"Maudie Kertzmann-McDermott","party":"Dem","address":"874 E Center St, Pleasant Grove, UT 84062","precinct":"25PG12","hd":"55","v_score":"0","decile":"1","lat":40.363847698633,"lng":-111.721039708427},{"id":"89628","name":"Alesia Watsica","party":"Dem","address":"824 E Center St, Pleasant Grove, UT 84062","precinct":"25PG12","hd":"55","v_score":"0","decile":"1","lat":40.363847698749,"lng":-111.722553547807},{"id":"89850","name":"Amanda Legros-Gerhold","party":"Dem","address":"198 S 1300 E, Pleasant Grove, UT 84062","precinct":"25PG12","hd":"55","v_score":"2.817000428","decile":"6","lat":40.361159376065,"lng":-111.709611854712},{"id":"89893","name":"Marty Hyatt","party":"","address":"1360 E 150 N, Pleasant Grove, UT 84062","precinct":"25PG12","hd":"55","v_score":"0","decile":"1","lat":40.365386697511,"lng":-111.708698474215},{"id":"89952","name":"Burton Strosin V","party":"","address":"633 E 150 S, Pleasant Grove, UT 84062","precinct":"25PG12","hd":"55","v_score":"0","decile":"1","lat":40.361883290744,"lng":-111.727433549448},{"id":"90086","name":"Sherron Rosenbaum-Prohaska","party":"Rep","address":"11 S 700 E, Pleasant Grove, UT 84062","precinct":"25PG12","hd":"55","v_score":"4.069929862","decile":"6","lat":40.36370876692,"lng":-111.725278357697},{"id":"90674","name":"Johan D'Amore","party":"Dem","address":"183 N 1350 E, Pleasant Grove, UT 84062","precinct":"25PG12","hd":"55","v_score":"0","decile":"1","lat":40.366472088941,"lng":-111.709195783575},{"id":"91042","name":"Shanice Rice DDS","party":"","address":"544 E Center St, Pleasant Grove, UT 84062","precinct":"25PG12","hd":"55","v_score":"0","decile":"1","lat":40.363852632284,"lng":-111.729449327466},{"id":"91256","name":"Mr. Myrtle Bogan V","party":"","address":"185 N 1300 E, Pleasant Grove, UT 84062","precinct":"25PG12","hd":"55","v_score":"1.193887297","decile":"4","lat":40.365851525219,"lng":-111.710165290628},{"id":"91589","name":"Dax Farrell","party":"","address":"162 N 1400 E, Pleasant Grove, UT 84062","precinct":"25PG12","hd":"55","v_score":"1.193887297","decile":"4","lat":40.365682007407,"lng":-111.707699155489},{"id":"91590","name":"Ronaldo Wiza","party":"Dem","address":"215 N 1400 E, Pleasant Grove, UT 84062","precinct":"25PG12","hd":"55","v_score":"2.817000428","decile":"6","lat":40.365984040243,"lng":-111.707818071273},{"id":"92616","name":"Rosendo Johns","party":"Rep","address":"14 S 760 E, Pleasant Grove, UT 84062","precinct":"25PG12","hd":"55","v_score":"1.193887297","decile":"4","lat":40.363809676767,"lng":-111.724073315101},{"id":"93206","name":"Dr. Gilda Stiedemann DVM","party":"","address":"140 S 600 E, Pleasant Grove, UT 84062","precinct":"25PG12","hd":"55","v_score":"5.693042993","decile":"7","lat":40.362031741664,"lng":-111.728085605205},{"id":"94795","name":"Sena Leannon MD","party":"Dem","address":"129 S 950 E, Pleasant Grove, UT 84062","precinct":"25PG12","hd":"55","v_score":"1.193887297","decile":"4","lat":40.362024150256,"lng":-111.71922434014},{"id":"95375","name":"Kolton Harris","party":"","address":"151 S 500 E, Pleasant Grove, UT 84062","precinct":"25PG12","hd":"55","v_score":"1.193887297","decile":"4","lat":40.361779281832,"lng":-111.730554703881},{"id":"95743","name":"Junious Marvin","party":"","address":"788 E 100 S, Pleasant Grove, UT 84062","precinct":"25PG12","hd":"55","v_score":"4.069929862","decile":"6","lat":40.362388550708,"lng":-111.72334313559},{"id":"96174","name":"Mr. Governor Durgan MD","party":"Rep","address":"1143 E 30 S, Pleasant Grove, UT 84062","precinct":"25PG12","hd":"55","v_score":"5.693042993","decile":"7","lat":40.36369182578,"lng":-111.714092111063},{"id":"96296","name":"Iverson Fahey","party":"","address":"28 S 1050 E, Pleasant Grove, UT 84062","precinct":"25PG12","hd":"55","v_score":"2.817000428","decile":"6","lat":40.363148875074,"lng":-111.715599715268},{"id":"96408","name":"Demonte Funk","party":"","address":"954 E Center St, Pleasant Grove, UT 84062","precinct":"25PG12","hd":"55","v_score":"0","decile":"1","lat":40.3638444109,"lng":-111.718842749147},{"id":"96640","name":"Raphael Keeling","party":"","address":"43 S 850 E, Pleasant Grove, UT 84062","precinct":"25PG12","hd":"55","v_score":"4.069929862","decile":"6","lat":40.363350692328,"lng":-111.721493435764},{"id":"97080","name":"Napoleon Hills-Goyette","party":"Dem","address":"35 S 500 E, Pleasant Grove, UT 84062","precinct":"25PG12","hd":"55","v_score":"12.85165745","decile":"9","lat":40.363374224108,"lng":-111.730548842686},{"id":"98196","name":"Hideo Klocko","party":"Dem","address":"34 S 760 E, Pleasant Grove, UT 84062","precinct":"25PG12","hd":"55","v_score":"5.693042993","decile":"7","lat":40.363758540241,"lng":-111.724075232727},{"id":"98931","name":"Eathel Kunze MD","party":"Rep","address":"873 E 200 S, Pleasant Grove, UT 84062","precinct":"25PG12","hd":"55","v_score":"0","decile":"1","lat":40.361217290346,"lng":-111.721268836531},{"id":"99891","name":"Ferman Nienow","party":"Rep","address":"1237 E 200 S, Pleasant Grove, UT 84062","precinct":"25PG12","hd":"55","v_score":"1.193887297","decile":"4","lat":40.361176601902,"lng":-111.711272063118},{"id":"100064","name":"Ryder Mills","party":"Dem","address":"621 E 150 S, Pleasant Grove, UT 84062","precinct":"25PG12","hd":"55","v_score":"0","decile":"1","lat":40.361883290758,"lng":-111.727621089518},{"id":"103148","name":"Dr. Lavern Pfannerstill PhD","party":"Rep","address":"640 E 100 S, Pleasant Grove, UT 84062","precinct":"25PG12","hd":"55","v_score":"0","decile":"2","lat":40.362366449478,"lng":-111.727324920177},{"id":"103638","name":"Evelina Mueller","party":"Rep","address":"30 S 700 E, Pleasant Grove, UT 84062","precinct":"25PG12","hd":"55","v_score":"1.193887297","decile":"4","lat":40.363454186979,"lng":-111.725434237258},{"id":"104555","name":"Corey Hintz","party":"Rep","address":"1108 E 200 N, Pleasant Grove, UT 84062","precinct":"25PG12","hd":"55","v_score":"4.905839784","decile":"7","lat":40.366121565256,"lng":-111.713852147048},{"id":"105320","name":"Nicholaus Brekke","party":"","address":"163 S 500 E, Pleasant Grove, UT 84062","precinct":"25PG12","hd":"55","v_score":"0","decile":"2","lat":40.361641230478,"lng":-111.730552202969},{"id":"105570","name":"Dr. Milissa Considine MD","party":"Dem","address":"180 N 1050 E, Pleasant Grove, UT 84062","precinct":"25PG12","hd":"55","v_score":"4.905839784","decile":"7","lat":40.365828812191,"lng":-111.715721919013},{"id":"107897","name":"Zaniyah Zboncak-Romaguera","party":"Rep","address":"152 N 1400 E, Pleasant Grove, UT 84062","precinct":"25PG12","hd":"55","v_score":"2.876042565","decile":"6","lat":40.365614533198,"lng":-111.707711150912},{"id":"108694","name":"Buell Eichmann II","party":"","address":"621 E 200 S, Pleasant Grove, UT 84062","precinct":"25PG12","hd":"55","v_score":"0","decile":"2","lat":40.361222838257,"lng":-111.727426428896},{"id":"108851","name":"Carolee Maggio","party":"Rep","address":"27 S 1185 E, Pleasant Grove, UT 84062","precinct":"25PG12","hd":"55","v_score":"0","decile":"2","lat":40.363637516627,"lng":-111.712647612862},{"id":"109772","name":"Amanda McGlynn-Reichel","party":"","address":"1093 E 30 S, Pleasant Grove, UT 84062","precinct":"25PG12","hd":"55","v_score":"0","decile":"2","lat":40.363478690724,"lng":-111.714546273583},{"id":"109815","name":"Asberry Legros","party":"Rep","address":"1113 E 30 S, Pleasant Grove, UT 84062","precinct":"25PG12","hd":"55","v_score":"1.193887297","decile":"4","lat":40.363556018939,"lng":-111.71437363839},{"id":"110105","name":"Hilda Wilkinson","party":"","address":"1381 E 150 N, Pleasant Grove, UT 84062","precinct":"25PG12","hd":"55","v_score":"4.069929862","decile":"7","lat":40.365501288862,"lng":-111.70827430477},{"id":"110510","name":"Mrs. Mya Watsica DVM","party":"","address":"125 S 1300 E, Pleasant Grove, UT 84062","precinct":"25PG12","hd":"55","v_score":"33.64625644","decile":"10","lat":40.362405173837,"lng":-111.709599304344},{"id":"110809","name":"Thurman Mann MD","party":"","address":"220 N 1300 E, Pleasant Grove, UT 84062","precinct":"25PG12","hd":"55","v_score":"37.23116319","decile":"10","lat":40.366297021439,"lng":-111.710060567337},{"id":"112017","name":"Moshe Durgan","party":"Rep","address":"26 S 760 E, Pleasant Grove, UT 84062","precinct":"25PG12","hd":"55","v_score":"1.193887297","decile":"4","lat":40.363778994852,"lng":-111.724074465676},{"id":"112209","name":"Dr. Kevin Dibbert DVM","party":"","address":"824 E Center St, Pleasant Grove, UT 84062","precinct":"25PG12","hd":"55","v_score":"0","decile":"2","lat":40.363847698749,"lng":-111.722553547807},{"id":"112526","name":"Savon Vandervort-Schmidt","party":"","address":"145 S 500 E, Pleasant Grove, UT 84062","precinct":"25PG12","hd":"55","v_score":"2.876042565","decile":"6","lat":40.361848307509,"lng":-111.730555954337},{"id":"113277","name":"Mr. Harm Williamson DVM","party":"","address":"163 S 500 E, Pleasant Grove, UT 84062","precinct":"25PG12","hd":"55","v_score":"1.193887297","decile":"4","lat":40.361641230478,"lng":-111.730552202969},{"id":"113593","name":"Osie Walker","party":"Dem","address":"1235 E 120 N, Pleasant Grove, UT 84062","precinct":"25PG12","hd":"55","v_score":"0","decile":"2","lat":40.365417193726,"lng":-111.711882983981},{"id":"113965","name":"Justice Wyman","party":"Dem","address":"113 N 1400 E, Pleasant Grove, UT 84062","precinct":"25PG12","hd":"55","v_score":"0","decile":"2","lat":40.365024866977,"lng":-111.707897050979},{"id":"114818","name":"Lacie Krajcik DDS","party":"","address":"89 S 800 E, Pleasant Grove, UT 84062","precinct":"25PG12","hd":"55","v_score":"1.193887297","decile":"4","lat":40.362564509284,"lng":-111.722970908927},{"id":"115245","name":"Dr. Sherrill Conroy Sr.","party":"","address":"180 N 1050 E, Pleasant Grove, UT 84062","precinct":"25PG12","hd":"55","v_score":"4.069929862","decile":"7","lat":40.365828812191,"lng":-111.715721919013},{"id":"116036","name":"Miss Vicki Bayer MD","party":"","address":"1235 E 120 N, Pleasant Grove, UT 84062","precinct":"25PG12","hd":"55","v_score":"0","decile":"2","lat":40.365417193726,"lng":-111.711882983981},{"id":"116946","name":"Lilliana Renner","party":"Rep","address":"922 E Center St, Pleasant Grove, UT 84062","precinct":"25PG12","hd":"55","v_score":"5.407962308","decile":"7","lat":40.363835666834,"lng":-111.719726976323},{"id":"116955","name":"Davin Bashirian","party":"","address":"922 E Center St, Pleasant Grove, UT 84062","precinct":"25PG12","hd":"55","v_score":"4.069929862","decile":"7","lat":40.363835666834,"lng":-111.719726976323},{"id":"117267","name":"Jarret Klein","party":"Rep","address":"1440 E 140 S, Pleasant Grove, UT 84062","precinct":"25PG12","hd":"55","v_score":"1.193887297","decile":"4","lat":40.361795697806,"lng":-111.707222400654},{"id":"117491","name":"Herlinda Konopelski","party":"Dem","address":"1440 E 140 S, Pleasant Grove, UT 84062","precinct":"25PG12","hd":"55","v_score":"0","decile":"2","lat":40.361795697806,"lng":-111.707222400654},{"id":"117904","name":"Miss Jonna Oberbrunner MD","party":"Dem","address":"589 E 200 S, Pleasant Grove, UT 84062","precinct":"25PG12","hd":"55","v_score":"1.193887297","decile":"4","lat":40.361226290887,"lng":-111.728326943224},{"id":"118050","name":"Alan Ratke","party":"Rep","address":"621 E 200 S, Pleasant Grove, UT 84062","precinct":"25PG12","hd":"55","v_score":"0","decile":"2","lat":40.361222838257,"lng":-111.727426428896},{"id":"120098","name":"Dashawn Considine","party":"","address":"627 E 150 S, Pleasant Grove, UT 84062","precinct":"25PG12","hd":"55","v_score":"1.193887297","decile":"4","lat":40.361883290751,"lng":-111.727527319483},{"id":"120939","name":"Samson Lubowitz","party":"Dem","address":"195 N 1400 E, Pleasant Grove, UT 84062","precinct":"25PG12","hd":"55","v_score":"4.069929862","decile":"7","lat":40.365837443393,"lng":-111.707823292262},{"id":"121410","name":"Kelvin O'Reilly III","party":"Dem","address":"30 S 1300 E, Pleasant Grove, UT 84062","precinct":"25PG12","hd":"55","v_score":"1.193887297","decile":"4","lat":40.36363924737,"lng":-111.709828904355},{"id":"121861","name":"Sheron McKenzie","party":"Rep","address":"1285 E Center St, Pleasant Grove, UT 84062","precinct":"25PG12","hd":"55","v_score":"0","decile":"2","lat":40.364140738895,"lng":-111.710198075985},{"id":"123178","name":"Louella Corkery MD","party":"Dem","address":"20 S 700 E, Pleasant Grove, UT 84062","precinct":"25PG12","hd":"55","v_score":"1.193887297","decile":"4","lat":40.363595064456,"lng":-111.725431212263},{"id":"124862","name":"Ms. Marnie Schmidt","party":"Dem","address":"164 S 980 E, Pleasant Grove, UT 84062","precinct":"25PG12","hd":"55","v_score":"0","decile":"2","lat":40.362227679534,"lng":-111.718229592199},{"id":"125261","name":"Rory Kling","party":"Rep","address":"30 S 700 E, Pleasant Grove, UT 84062","precinct":"25PG12","hd":"55","v_score":"0","decile":"2","lat":40.363454186979,"lng":-111.725434237258},{"id":"125935","name":"Mr. Gregory Barrows DVM","party":"","address":"163 S 500 E, Pleasant Grove, UT 84062","precinct":"25PG12","hd":"55","v_score":"0","decile":"2","lat":40.361641230478,"lng":-111.730552202969},{"id":"126118","name":"Elmer Vandervort II","party":"","address":"80 S 1300 E, Pleasant Grove, UT 84062","precinct":"25PG12","hd":"55","v_score":"0","decile":"2","lat":40.362813773043,"lng":-111.709746819609},{"id":"127201","name":"Napoleon Hagenes","party":"","address":"28 S 1050 E, Pleasant Grove, UT 84062","precinct":"25PG12","hd":"55","v_score":"0","decile":"2","lat":40.363148875074,"lng":-111.715599715268},{"id":"127524","name":"Cristian Parker","party":"","address":"715 E 200 S, Pleasant Grove, UT 84062","precinct":"25PG12","hd":"55","v_score":"0","decile":"2","lat":40.361217290633,"lng":-111.72500188152},{"id":"127578","name":"Jerimiah Dooley","party":"Rep","address":"590 E 100 S, Pleasant Grove, UT 84062","precinct":"25PG12","hd":"55","v_score":"0","decile":"2","lat":40.362361749768,"lng":-111.728290460484},{"id":"127682","name":"Stevie Bogisich III","party":"Rep","address":"20 S 700 E, Pleasant Grove, UT 84062","precinct":"25PG12","hd":"55","v_score":"0","decile":"2","lat":40.363595064456,"lng":-111.725431212263},{"id":"128053","name":"Alla Gusikowski","party":"","address":"715 E 200 S, Pleasant Grove, UT 84062","precinct":"25PG12","hd":"55","v_score":"0","decile":"2","lat":40.361217290633,"lng":-111.72500188152},{"id":"128389","name":"Hasel Hoeger DDS","party":"Dem","address":"1171 E 30 S, Pleasant Grove, UT 84062","precinct":"25PG12","hd":"55","v_score":"0","decile":"2","lat":40.363810267767,"lng":-111.71386277673},{"id":"128411","name":"Manuelita Steuber","party":"","address":"113 N 1400 E, Pleasant Grove, UT 84062","precinct":"25PG12","hd":"55","v_score":"0","decile":"2","lat":40.365024866977,"lng":-111.707897050979},{"id":"129622","name":"Buren Kovacek DVM","party":"Rep","address":"874 E Center St, Pleasant Grove, UT 84062","precinct":"25PG12","hd":"55","v_score":"0","decile":"2","lat":40.363847698633,"lng":-111.721039708427},{"id":"130329","name":"Mr. Gauge Hagenes","party":"","address":"1026 E 100 S, Pleasant Grove, UT 84062","precinct":"25PG12","hd":"55","v_score":"2.876042565","decile":"6","lat":40.362560749396,"lng":-111.717882890844},{"id":"130352","name":"Mr. Omar Veum","party":"Rep","address":"45 N 1400 E, Pleasant Grove, UT 84062","precinct":"25PG12","hd":"55","v_score":"2.876042565","decile":"6","lat":40.364341272408,"lng":-111.707897051069},{"id":"130531","name":"Dr. Dora Ledner MD","party":"","address":"1381 E 150 N, Pleasant Grove, UT 84062","precinct":"25PG12","hd":"55","v_score":"2.876042565","decile":"6","lat":40.365501288862,"lng":-111.70827430477},{"id":"130655","name":"Chin McClure","party":"","address":"535 E 200 S, Pleasant Grove, UT 84062","precinct":"25PG12","hd":"55","v_score":"0","decile":"2","lat":40.361226290991,"lng":-111.729687199153},{"id":"131874","name":"Mr. Orrie Gottlieb","party":"","address":"151 S 500 E, Pleasant Grove, UT 84062","precinct":"25PG12","hd":"55","v_score":"0","decile":"2","lat":40.361779281832,"lng":-111.730554703881},{"id":"132250","name":"Dr. Kyara Dare PhD","party":"","address":"45 N 1400 E, Pleasant Grove, UT 84062","precinct":"25PG12","hd":"55","v_score":"0","decile":"2","lat":40.364341272408,"lng":-111.707897051069},{"id":"132874","name":"Nealy Kerluke-Torphy","party":"","address":"1143 E 30 S, Pleasant Grove, UT 84062","precinct":"25PG12","hd":"55","v_score":"0","decile":"2","lat":40.36369182578,"lng":-111.714092111063},{"id":"133435","name":"Chaz Bartell","party":"","address":"35 S 500 E, Pleasant Grove, UT 84062","precinct":"25PG12","hd":"55","v_score":"0","decile":"2","lat":40.363374224108,"lng":-111.730548842686},{"id":"133478","name":"Mr. Isidro O'Keefe","party":"Rep","address":"73 S 850 E, Pleasant Grove, UT 84062","precinct":"25PG12","hd":"55","v_score":"1.121327652","decile":"3","lat":40.362852097016,"lng":-111.721763948276},{"id":"134061","name":"Miss Rachel Flatley","party":"Rep","address":"118 S 980 E, Pleasant Grove, UT 84062","precinct":"25PG12","hd":"55","v_score":"0","decile":"2","lat":40.362455179338,"lng":-111.718266317915},{"id":"134119","name":"Zayne Hegmann","party":"Rep","address":"616 E 100 S, Pleasant Grove, UT 84062","precinct":"25PG12","hd":"55","v_score":"0","decile":"2","lat":40.362364446129,"lng":-111.727692539896},{"id":"135609","name":"Darcie Christiansen","party":"Dem","address":"211 N 1300 E, Pleasant Grove, UT 84062","precinct":"25PG12","hd":"55","v_score":"19.1624148","decile":"10","lat":40.3661618362,"lng":-111.710197429935},{"id":"135953","name":"Cherrelle Denesik","party":"Dem","address":"1095 E 100 N, Pleasant Grove, UT 84062","precinct":"25PG12","hd":"55","v_score":"5.40460374","decile":"7","lat":40.364853289442,"lng":-111.714861853205},{"id":"136194","name":"Leticia Spinka","party":"Rep","address":"639 E 150 S, Pleasant Grove, UT 84062","precinct":"25PG12","hd":"55","v_score":"3.93832808","decile":"6","lat":40.361883290737,"lng":-111.727339779413},{"id":"140364","name":"Lyda Funk","party":"Rep","address":"1155 E 100 N, Pleasant Grove, UT 84062","precinct":"25PG12","hd":"55","v_score":"0","decile":"2","lat":40.364847972234,"lng":-111.713538492462},{"id":"140713","name":"Brock Emmerich","party":"Rep","address":"65 N 1400 E, Pleasant Grove, UT 84062","precinct":"25PG12","hd":"55","v_score":"14.95117867","decile":"9","lat":40.364542329635,"lng":-111.707897051043},{"id":"140813","name":"Cassius Nitzsche","party":"","address":"113 N 1400 E, Pleasant Grove, UT 84062","precinct":"25PG12","hd":"55","v_score":"4.069929862","decile":"7","lat":40.365024866977,"lng":-111.707897050979},{"id":"140984","name":"Lakendra Legros","party":"Rep","address":"185 N 1300 E, Pleasant Grove, UT 84062","precinct":"25PG12","hd":"55","v_score":"14.53583379","decile":"9","lat":40.365851525219,"lng":-111.710165290628},{"id":"141195","name":"Arlie Bashirian-Beier","party":"Rep","address":"45 N 1400 E, Pleasant Grove, UT 84062","precinct":"25PG12","hd":"55","v_score":"4.214075011","decile":"7","lat":40.364341272408,"lng":-111.707897051069},{"id":"142553","name":"Hadley Fay DDS","party":"Rep","address":"15 S Monson Cir, Pleasant Grove, UT 84062","precinct":"25PG12","hd":"55","v_score":"1.121327652","decile":"3","lat":40.363848512793,"lng":-111.718407433199},{"id":"142920","name":"Mr. Loring Durgan IV","party":"Rep","address":"1460 E 140 S, Pleasant Grove, UT 84062","precinct":"25PG12","hd":"55","v_score":"14.74039814","decile":"9","lat":40.361795697788,"lng":-111.706989520786},{"id":"142963","name":"Luanne Runolfsson PhD","party":"Rep","address":"1460 E 140 S, Pleasant Grove, UT 84062","precinct":"25PG12","hd":"55","v_score":"14.74039814","decile":"9","lat":40.361795697788,"lng":-111.706989520786},{"id":"143043","name":"Wally Howell","party":"","address":"220 N 1300 E, Pleasant Grove, UT 84062","precinct":"25PG12","hd":"55","v_score":"32.39500163","decile":"10","lat":40.366297021439,"lng":-111.710060567337},{"id":"143167","name":"Brett Kutch","party":"Rep","address":"788 E 100 S, Pleasant Grove, UT 84062","precinct":"25PG12","hd":"55","v_score":"20.37233113","decile":"10","lat":40.362388550708,"lng":-111.72334313559},{"id":"143280","name":"Hattie Bogisich PhD","party":"","address":"151 S 500 E, Pleasant Grove, UT 84062","precinct":"25PG12","hd":"55","v_score":"15.12746977","decile":"9","lat":40.361779281832,"lng":-111.730554703881},{"id":"143320","name":"Frankie Cartwright-Russel","party":"Dem","address":"636 E Center St, Pleasant Grove, UT 84062","precinct":"25PG12","hd":"55","v_score":"29.51444909","decile":"10","lat":40.363853019028,"lng":-111.727054054425},{"id":"143774","name":"Ramsey Boyle MD","party":"Dem","address":"695 E 200 S, Pleasant Grove, UT 84062","precinct":"25PG12","hd":"55","v_score":"17.89408627","decile":"10","lat":40.361217290677,"lng":-111.725573293347},{"id":"143973","name":"Conor Corkery-Bayer","party":"Dem","address":"653 E 150 S, Pleasant Grove, UT 84062","precinct":"25PG12","hd":"55","v_score":"12.71559837","decile":"9","lat":40.36188329072,"lng":-111.727120982666},{"id":"144773","name":"Cass Herman","party":"Rep","address":"790 E 100 S, Pleasant Grove, UT 84062","precinct":"25PG12","hd":"55","v_score":"22.19657077","decile":"10","lat":40.362388722551,"lng":-111.723298541473},{"id":"145003","name":"Wenzel Kub","party":"","address":"32 N 1300 E, Pleasant Grove, UT 84062","precinct":"25PG12","hd":"55","v_score":"7.934314529","decile":"8","lat":40.364459111695,"lng":-111.709887727562},{"id":"145116","name":"Yoshio Walter","party":"Rep","address":"183 N 1350 E, Pleasant Grove, UT 84062","precinct":"25PG12","hd":"55","v_score":"28.05068527","decile":"10","lat":40.366472088941,"lng":-111.709195783575},{"id":"145150","name":"Mr. Ignatz Hoeger I","party":"","address":"1213 E 200 S, Pleasant Grove, UT 84062","precinct":"25PG12","hd":"55","v_score":"8.280646305","decile":"8","lat":40.361181289638,"lng":-111.711988066729},{"id":"145332","name":"Mekhi Rice","party":"Dem","address":"739 E 200 S, Pleasant Grove, UT 84062","precinct":"25PG12","hd":"55","v_score":"20.77768495","decile":"10","lat":40.361217290589,"lng":-111.724434836711},{"id":"145554","name":"Minnie Konopelski","party":"Rep","address":"29 S 760 E, Pleasant Grove, UT 84062","precinct":"25PG12","hd":"55","v_score":"5.191257514","decile":"7","lat":40.363766955695,"lng":-111.723924462826},{"id":"145561","name":"Dr. Rufus Ferry","party":"Rep","address":"1117 E 30 S, Pleasant Grove, UT 84062","precinct":"25PG12","hd":"55","v_score":"6.468038869","decile":"7","lat":40.363573912508,"lng":-111.7143384477},{"id":"146449","name":"Kellie Spencer","party":"","address":"1084 E 30 S, Pleasant Grove, UT 84062","precinct":"25PG12","hd":"55","v_score":"38.39988068","decile":"10","lat":40.363336662223,"lng":-111.714574773198},{"id":"146789","name":"Severo Gleichner","party":"Rep","address":"595 E 200 S, Pleasant Grove, UT 84062","precinct":"25PG12","hd":"55","v_score":"0","decile":"3","lat":40.361226290875,"lng":-111.728175803677},{"id":"147372","name":"Daquan Steuber","party":"Rep","address":"1113 E 100 N, Pleasant Grove, UT 84062","precinct":"25PG12","hd":"55","v_score":"21.8990126","decile":"10","lat":40.36485052436,"lng":-111.714438607627},{"id":"147414","name":"Hal Grant","party":"Dem","address":"125 S 1300 E, Pleasant Grove, UT 84062","precinct":"25PG12","hd":"55","v_score":"30.70334885","decile":"10","lat":40.362405173837,"lng":-111.709599304344},{"id":"147513","name":"Audie Mills DDS","party":"Rep","address":"80 S 600 E, Pleasant Grove, UT 84062","precinct":"25PG12","hd":"55","v_score":"30.47669206","decile":"10","lat":40.36273357851,"lng":-111.728093303105},{"id":"147732","name":"Maxie Orn","party":"Rep","address":"1555 E 200 S, Pleasant Grove, UT 84062","precinct":"25PG12","hd":"55","v_score":"11.86178988","decile":"9","lat":40.361171053133,"lng":-111.705700384576},{"id":"148220","name":"Mr. Aaden Adams I","party":"Dem","address":"2 S 1300 E, Pleasant Grove, UT 84062","precinct":"25PG12","hd":"55","v_score":"18.00198781","decile":"10","lat":40.364095550868,"lng":-111.709971407492},{"id":"148367","name":"Muriel Cole DDS","party":"Dem","address":"93 N 1185 E, Pleasant Grove, UT 84062","precinct":"25PG12","hd":"55","v_score":"30.47669206","decile":"10","lat":40.364636409642,"lng":-111.712807687486},{"id":"148763","name":"Rona Brown","party":"Rep","address":"85 S 1400 E, Pleasant Grove, UT 84062","precinct":"25PG12","hd":"55","v_score":"19.15121325","decile":"10","lat":40.36238063258,"lng":-111.707681078961},{"id":"148899","name":"Urban Howell","party":"Dem","address":"1415 E 200 S, Pleasant Grove, UT 84062","precinct":"25PG12","hd":"55","v_score":"11.99259879","decile":"9","lat":40.361157422037,"lng":-111.707480548862},{"id":"149108","name":"Wirt Crist-Bernier","party":"","address":"1361 E 150 N, Pleasant Grove, UT 84062","precinct":"25PG12","hd":"55","v_score":"10.13721141","decile":"9","lat":40.365501288895,"lng":-111.7086984742},{"id":"149639","name":"Eduardo McLaughlin II","party":"Rep","address":"832 E 50 S, Pleasant Grove, UT 84062","precinct":"25PG12","hd":"55","v_score":"38.00020808","decile":"10","lat":40.36309531151,"lng":-111.722902320871},{"id":"149920","name":"Coolidge Denesik","party":"Rep","address":"67 S 600 E, Pleasant Grove, UT 84062","precinct":"25PG12","hd":"55","v_score":"2.315214949","decile":"5","lat":40.362925431114,"lng":-111.727945806955},{"id":"149964","name":"Kerry O'Keefe","party":"Dem","address":"67 S 600 E, Pleasant Grove, UT 84062","precinct":"25PG12","hd":"55","v_score":"2.744440783","decile":"6","lat":40.362925431114,"lng":-111.727945806955},{"id":"149969","name":"Ocie Stoltenberg-Mills","party":"","address":"570 E 100 S, Pleasant Grove, UT 84062","precinct":"25PG12","hd":"55","v_score":"30.47669206","decile":"10","lat":40.36236001818,"lng":-111.728796095453},{"id":"150053","name":"Milan Ullrich","party":"Rep","address":"1017 E 200 S, Pleasant Grove, UT 84062","precinct":"25PG12","hd":"55","v_score":"4.833280139","decile":"7","lat":40.361193159309,"lng":-111.716747920476},{"id":"150239","name":"Mr. Zigmund Grady","party":"Dem","address":"93 N 1185 E, Pleasant Grove, UT 84062","precinct":"25PG12","hd":"55","v_score":"33.57939141","decile":"10","lat":40.364636409642,"lng":-111.712807687486},{"id":"150799","name":"Gino Frami DVM","party":"","address":"17 S 1185 E, Pleasant Grove, UT 84062","precinct":"25PG12","hd":"55","v_score":"36.52229901","decile":"10","lat":40.363704804244,"lng":-111.712648786475},{"id":"150861","name":"Ms. Frieda Bogan","party":"Rep","address":"65 S 700 E, Pleasant Grove, UT 84062","precinct":"25PG12","hd":"55","v_score":"0","decile":"3","lat":40.362963553816,"lng":-111.725294359301},{"id":"150997","name":"Lahoma Jacobs","party":"","address":"164 S 980 E, Pleasant Grove, UT 84062","precinct":"25PG12","hd":"55","v_score":"16.14542271","decile":"9","lat":40.362227679534,"lng":-111.718229592199},{"id":"151042","name":"Banks Kilback-Davis","party":"Dem","address":"140 S 950 E, Pleasant Grove, UT 84062","precinct":"25PG12","hd":"55","v_score":"29.3653164","decile":"10","lat":40.361833825877,"lng":-111.719261555447},{"id":"151479","name":"Rylee Krajcik","party":"","address":"1252 E 200 N, Pleasant Grove, UT 84062","precinct":"25PG12","hd":"55","v_score":"1.121327652","decile":"3","lat":40.366117305834,"lng":-111.712555183412},{"id":"151773","name":"Mr. Jadyn Reynolds III","party":"Rep","address":"1183 E 120 N, Pleasant Grove, UT 84062","precinct":"25PG12","hd":"55","v_score":"17.36151318","decile":"9","lat":40.365415103444,"lng":-111.712185033003},{"id":"152116","name":"Starling Zulauf","party":"Rep","address":"151 N 1300 E, Pleasant Grove, UT 84062","precinct":"25PG12","hd":"55","v_score":"2.744440783","decile":"6","lat":40.365356099566,"lng":-111.710115011241},{"id":"152193","name":"Ason Hoppe","party":"","address":"650 E 150 S, Pleasant Grove, UT 84062","precinct":"25PG12","hd":"55","v_score":"26.77951785","decile":"10","lat":40.361768699338,"lng":-111.727152239359},{"id":"152363","name":"Houston Hintz","party":"","address":"515 E 200 S, Pleasant Grove, UT 84062","precinct":"25PG12","hd":"55","v_score":"9.116556227","decile":"8","lat":40.36122629103,"lng":-111.730190997645},{"id":"152576","name":"Griselda Auer-Vandervort","party":"Rep","address":"651 E 100 S, Pleasant Grove, UT 84062","precinct":"25PG12","hd":"55","v_score":"5.536205522","decile":"7","lat":40.362483713982,"lng":-111.726834935073},{"id":"152624","name":"Linton Cruickshank","party":"Dem","address":"938 E Center St, Pleasant Grove, UT 84062","precinct":"25PG12","hd":"55","v_score":"35.96283465","decile":"10","lat":40.363832002346,"lng":-111.719289073982},{"id":"153239","name":"Corinna O'Conner","party":"Rep","address":"180 S 700 E, Pleasant Grove, UT 84062","precinct":"25PG12","hd":"55","v_score":"28.05068527","decile":"10","lat":40.361431895459,"lng":-111.725477311259},{"id":"153272","name":"Vernie Swift","party":"","address":"1212 E 120 N, Pleasant Grove, UT 84062","precinct":"25PG12","hd":"55","v_score":"6.814370645","decile":"8","lat":40.36530172271,"lng":-111.712009408013},{"id":"153322","name":"Joi Klein","party":"","address":"570 E 100 S, Pleasant Grove, UT 84062","precinct":"25PG12","hd":"55","v_score":"10.71001167","decile":"9","lat":40.36236001818,"lng":-111.728796095453},{"id":"154912","name":"Gil Waelchi","party":"Rep","address":"1121 E 30 S, Pleasant Grove, UT 84062","precinct":"25PG12","hd":"55","v_score":"5.40460374","decile":"7","lat":40.363591806077,"lng":-111.71430325701},{"id":"155053","name":"Albin Hyatt","party":"Rep","address":"1026 E 100 S, Pleasant Grove, UT 84062","precinct":"25PG12","hd":"55","v_score":"8.149837396","decile":"8","lat":40.362560749396,"lng":-111.717882890844},{"id":"155111","name":"Hill Osinski","party":"Rep","address":"65 S 700 E, Pleasant Grove, UT 84062","precinct":"25PG12","hd":"55","v_score":"24.33873278","decile":"10","lat":40.362963553816,"lng":-111.725294359301},{"id":"155195","name":"Maximo Hagenes DVM","party":"Dem","address":"587 E 100 S, Pleasant Grove, UT 84062","precinct":"25PG12","hd":"55","v_score":"8.347511332","decile":"8","lat":40.362475993685,"lng":-111.728392263385},{"id":"155848","name":"Mr. Marlin Fahey DVM","party":"","address":"215 N 1400 E, Pleasant Grove, UT 84062","precinct":"25PG12","hd":"55","v_score":"6.027167436","decile":"7","lat":40.365984040243,"lng":-111.707818071273},{"id":"156261","name":"Vernell Harris PhD","party":"","address":"825 E 50 S, Pleasant Grove, UT 84062","precinct":"25PG12","hd":"55","v_score":"7.549608095","decile":"8","lat":40.363209411063,"lng":-111.722924676467},{"id":"156373","name":"Brian Mueller","party":"Rep","address":"151 N 1300 E, Pleasant Grove, UT 84062","precinct":"25PG12","hd":"55","v_score":"2.744440783","decile":"6","lat":40.365356099566,"lng":-111.710115011241},{"id":"156617","name":"Miss Delfina Leffler","party":"Rep","address":"1455 E 140 S, Pleasant Grove, UT 84062","precinct":"25PG12","hd":"55","v_score":"27.78610493","decile":"10","lat":40.361910289178,"lng":-111.707059384732},{"id":"156751","name":"Carolann Nolan","party":"Rep","address":"183 N 1350 E, Pleasant Grove, UT 84062","precinct":"25PG12","hd":"55","v_score":"6.468038869","decile":"7","lat":40.366472088941,"lng":-111.709195783575},{"id":"157071","name":"Shamika Quitzon","party":"Rep","address":"97 S 700 E, Pleasant Grove, UT 84062","precinct":"25PG12","hd":"55","v_score":"14.95117867","decile":"9","lat":40.362521946051,"lng":-111.725303841734},{"id":"157072","name":"Ms. Willie Watsica MD","party":"Rep","address":"97 S 700 E, Pleasant Grove, UT 84062","precinct":"25PG12","hd":"55","v_score":"14.95117867","decile":"9","lat":40.362521946051,"lng":-111.725303841734},{"id":"157204","name":"Dr. Gottlieb Larson PhD","party":"Dem","address":"1321 E 150 N, Pleasant Grove, UT 84062","precinct":"25PG12","hd":"55","v_score":"36.52229901","decile":"10","lat":40.36550128896,"lng":-111.709546813059},{"id":"157228","name":"Broderick Waelchi","party":"","address":"1008 E 100 S, Pleasant Grove, UT 84062","precinct":"25PG12","hd":"55","v_score":"25.7440844","decile":"10","lat":40.36255592434,"lng":-111.71806021213},{"id":"157290","name":"Mr. David Collins Sr.","party":"","address":"73 S 850 E, Pleasant Grove, UT 84062","precinct":"25PG12","hd":"55","v_score":"31.93892885","decile":"10","lat":40.362852097016,"lng":-111.721763948276},{"id":"157450","name":"Olivia Hahn-Emard","party":"Rep","address":"24 N 1185 E, Pleasant Grove, UT 84062","precinct":"25PG12","hd":"55","v_score":"5.258122542","decile":"7","lat":40.364063242275,"lng":-111.712652885384},{"id":"157698","name":"Waylon Heaney","party":"","address":"91 S 500 E, Pleasant Grove, UT 84062","precinct":"25PG12","hd":"55","v_score":"19.60612512","decile":"10","lat":40.362580841721,"lng":-111.730563095167},{"id":"158255","name":"Elzada Mills-Kunde","party":"Rep","address":"627 E 150 S, Pleasant Grove, UT 84062","precinct":"25PG12","hd":"55","v_score":"1.193887297","decile":"4","lat":40.361883290751,"lng":-111.727527319483},{"id":"158773","name":"Dr. Luda West DDS","party":"","address":"855 E 200 S, Pleasant Grove, UT 84062","precinct":"25PG12","hd":"55","v_score":"1.121327652","decile":"3","lat":40.361217290379,"lng":-111.721694120137},{"id":"158792","name":"Evia Cronin-Gerhold","party":"Rep","address":"1525 E 200 S, Pleasant Grove, UT 84062","precinct":"25PG12","hd":"55","v_score":"27.63686742","decile":"10","lat":40.361171600274,"lng":-111.705864522827},{"id":"158813","name":"Dr. Noe Boyle","party":"Rep","address":"2 S 1300 E, Pleasant Grove, UT 84062","precinct":"25PG12","hd":"55","v_score":"6.897264703","decile":"8","lat":40.364095550868,"lng":-111.709971407492},{"id":"158892","name":"Edmond Sawayn","party":"","address":"47 S 1185 E, Pleasant Grove, UT 84062","precinct":"25PG12","hd":"55","v_score":"38.00020808","decile":"10","lat":40.363502941393,"lng":-111.712645265638},{"id":"159051","name":"Jaren Kutch","party":"Dem","address":"50 S 700 E, Pleasant Grove, UT 84062","precinct":"25PG12","hd":"55","v_score":"33.57939141","decile":"10","lat":40.363172432024,"lng":-111.725440287248},{"id":"159068","name":"Caylee Ferry DDS","party":"Rep","address":"879 E 200 S, Pleasant Grove, UT 84062","precinct":"25PG12","hd":"55","v_score":"8.347511332","decile":"8","lat":40.361217290335,"lng":-111.721127075329},{"id":"159458","name":"Marie Bechtelar","party":"","address":"1340 E 150 N, Pleasant Grove, UT 84062","precinct":"25PG12","hd":"55","v_score":"30.47669206","decile":"10","lat":40.365386697543,"lng":-111.709122643644},{"id":"159459","name":"Mr. Carl Wolf","party":"Rep","address":"1340 E 150 N, Pleasant Grove, UT 84062","precinct":"25PG12","hd":"55","v_score":"30.47669206","decile":"10","lat":40.365386697543,"lng":-111.709122643644},{"id":"159913","name":"Chase Kulas","party":"Dem","address":"166 S 1300 E, Pleasant Grove, UT 84062","precinct":"25PG12","hd":"55","v_score":"25.7440844","decile":"10","lat":40.361501948921,"lng":-111.70969431532},{"id":"160622","name":"Armin Dickinson","party":"Dem","address":"1147 E 100 N, Pleasant Grove, UT 84062","precinct":"25PG12","hd":"55","v_score":"5.191257514","decile":"7","lat":40.364845616074,"lng":-111.713670438021},{"id":"161189","name":"Mr. Vinson Yundt MD","party":"","address":"627 E 150 S, Pleasant Grove, UT 84062","precinct":"25PG12","hd":"55","v_score":"5.40460374","decile":"7","lat":40.361883290751,"lng":-111.727527319483},{"id":"161428","name":"Madalynn Davis","party":"Dem","address":"90 S 1300 E, Pleasant Grove, UT 84062","precinct":"25PG12","hd":"55","v_score":"9.907118004","decile":"8","lat":40.362645297377,"lng":-111.709748006079},{"id":"162087","name":"Lorie Kub-Adams","party":"Rep","address":"938 E Center St, Pleasant Grove, UT 84062","precinct":"25PG12","hd":"55","v_score":"28.05068527","decile":"10","lat":40.363832002346,"lng":-111.719289073982},{"id":"162272","name":"Delos Rogahn","party":"","address":"1321 E 150 N, Pleasant Grove, UT 84062","precinct":"25PG12","hd":"55","v_score":"40.94311568","decile":"10","lat":40.36550128896,"lng":-111.709546813059},{"id":"162289","name":"Toshio Ritchie","party":"Dem","address":"1140 E 30 S, Pleasant Grove, UT 84062","precinct":"25PG12","hd":"55","v_score":"3.997370217","decile":"6","lat":40.363574564824,"lng":-111.714074184693},{"id":"162511","name":"Joanna Braun","party":"Dem","address":"65 N 1400 E, Pleasant Grove, UT 84062","precinct":"25PG12","hd":"55","v_score":"6.657533174","decile":"7","lat":40.364542329635,"lng":-111.707897051043},{"id":"163205","name":"Trace Funk DVM","party":"","address":"1155 E 30 S, Pleasant Grove, UT 84062","precinct":"25PG12","hd":"55","v_score":"5.40460374","decile":"7","lat":40.363736756148,"lng":-111.714001809591},{"id":"163406","name":"Jermaine Marquardt-Ritchie","party":"Rep","address":"1198 E 200 N, Pleasant Grove, UT 84062","precinct":"25PG12","hd":"55","v_score":"17.52130493","decile":"9","lat":40.366118903117,"lng":-111.713041544775},{"id":"163533","name":"Blair Heaney-Turner","party":"","address":"922 E Center St, Pleasant Grove, UT 84062","precinct":"25PG12","hd":"55","v_score":"13.83018807","decile":"9","lat":40.363835666834,"lng":-111.719726976323},{"id":"163565","name":"Minnie Ratke","party":"Dem","address":"75 S 500 E, Pleasant Grove, UT 84062","precinct":"25PG12","hd":"55","v_score":"1.121327652","decile":"3","lat":40.362807522403,"lng":-111.73055902303},{"id":"163771","name":"Dr. Shyla Hodkiewicz","party":"","address":"1211 E 120 N, Pleasant Grove, UT 84062","precinct":"25PG12","hd":"55","v_score":"9.116556227","decile":"8","lat":40.36541622898,"lng":-111.712022391222},{"id":"163795","name":"Miss Ada Bailey","party":"Rep","address":"175 S 700 E, Pleasant Grove, UT 84062","precinct":"25PG12","hd":"55","v_score":"0","decile":"3","lat":40.361501281015,"lng":-111.725325436185},{"id":"164628","name":"Dr. Lakeisha Parker PhD","party":"","address":"35 S 500 E, Pleasant Grove, UT 84062","precinct":"25PG12","hd":"55","v_score":"29.3653164","decile":"10","lat":40.363374224108,"lng":-111.730548842686},{"id":"164678","name":"Dr. Gustave VonRueden","party":"","address":"979 E 100 S, Pleasant Grove, UT 84062","precinct":"25PG12","hd":"55","v_score":"20.63538469","decile":"10","lat":40.362611865693,"lng":-111.718549756284},{"id":"165273","name":"Bobbye Veum-Schroeder","party":"Rep","address":"11 S 700 E, Pleasant Grove, UT 84062","precinct":"25PG12","hd":"55","v_score":"30.47669206","decile":"10","lat":40.36370876692,"lng":-111.725278357697},{"id":"165451","name":"Laurance Kunze","party":"Dem","address":"1555 E 200 S, Pleasant Grove, UT 84062","precinct":"25PG12","hd":"55","v_score":"7.781882349","decile":"8","lat":40.361171053133,"lng":-111.705700384576},{"id":"165885","name":"Carroll Schinner","party":"Rep","address":"35 S 1400 E, Pleasant Grove, UT 84062","precinct":"25PG12","hd":"55","v_score":"2.998909327","decile":"6","lat":40.363109010122,"lng":-111.707683244404},{"id":"165997","name":"Tavaris Runolfsdottir","party":"Rep","address":"586 E Center St, Pleasant Grove, UT 84062","precinct":"25PG12","hd":"55","v_score":"0","decile":"3","lat":40.36384900003,"lng":-111.728408709716},{"id":"167161","name":"Carleen O'Keefe","party":"Dem","address":"163 S 500 E, Pleasant Grove, UT 84062","precinct":"25PG12","hd":"55","v_score":"16.35938263","decile":"9","lat":40.361641230478,"lng":-111.730552202969},{"id":"167162","name":"Shelba Feest","party":"Dem","address":"163 S 500 E, Pleasant Grove, UT 84062","precinct":"25PG12","hd":"55","v_score":"5.130838307","decile":"7","lat":40.361641230478,"lng":-111.730552202969},{"id":"167164","name":"Lonny Walsh","party":"","address":"140 S 1400 E, Pleasant Grove, UT 84062","precinct":"25PG12","hd":"55","v_score":"1.121327652","decile":"3","lat":40.362216794572,"lng":-111.707833380771},{"id":"167292","name":"Aloys Fahey","party":"Rep","address":"1422 E 50 S, Pleasant Grove, UT 84062","precinct":"25PG12","hd":"55","v_score":"7.031075439","decile":"8","lat":40.362891665046,"lng":-111.70744783815},{"id":"167818","name":"Roxy Gottlieb","party":"","address":"145 N 1400 E, Pleasant Grove, UT 84062","precinct":"25PG12","hd":"55","v_score":"22.92065317","decile":"10","lat":40.365346558539,"lng":-111.707897050937},{"id":"168511","name":"Carol Hand","party":"Dem","address":"646 E Center St, Pleasant Grove, UT 84062","precinct":"25PG12","hd":"55","v_score":"15.39205011","decile":"9","lat":40.363854383155,"lng":-111.726802369342},{"id":"168670","name":"Hollis Herman","party":"Rep","address":"145 N 1400 E, Pleasant Grove, UT 84062","precinct":"25PG12","hd":"55","v_score":"11.37339366","decile":"9","lat":40.365346558539,"lng":-111.707897050937},{"id":"169393","name":"Mr. Fernand Howell Sr.","party":"","address":"20 S 700 E, Pleasant Grove, UT 84062","precinct":"25PG12","hd":"55","v_score":"1.193887297","decile":"4","lat":40.363595064456,"lng":-111.725431212263},{"id":"169842","name":"Mr. Tyreek Satterfield IV","party":"Rep","address":"558 E Center St, Pleasant Grove, UT 84062","precinct":"25PG12","hd":"55","v_score":"0","decile":"3","lat":40.363851421533,"lng":-111.729102454883},{"id":"170073","name":"Arminda Thompson-Wuckert","party":"","address":"653 E 150 S, Pleasant Grove, UT 84062","precinct":"25PG12","hd":"55","v_score":"18.36983947","decile":"10","lat":40.36188329072,"lng":-111.727120982666},{"id":"171034","name":"Mr. Jaydan Moen","party":"Rep","address":"1133 E 30 S, Pleasant Grove, UT 84062","precinct":"25PG12","hd":"55","v_score":"6.657533174","decile":"7","lat":40.363644299679,"lng":-111.714201649482},{"id":"171432","name":"Charley Wolf I","party":"Rep","address":"1065 E 200 S, Pleasant Grove, UT 84062","precinct":"25PG12","hd":"55","v_score":"1.193887297","decile":"4","lat":40.36119028994,"lng":-111.715931854141},{"id":"172630","name":"Mrs. Jacalyn Morissette","party":"Dem","address":"115 S 700 E, Pleasant Grove, UT 84062","precinct":"25PG12","hd":"55","v_score":"1.46627566","decile":"4","lat":40.362213581003,"lng":-111.725310387502},{"id":"173475","name":"Miss Kellie Powlowski PhD","party":"Rep","address":"29 S 760 E, Pleasant Grove, UT 84062","precinct":"25PG12","hd":"55","v_score":"38.39988068","decile":"10","lat":40.363766955695,"lng":-111.723924462826},{"id":"173959","name":"Linsey Schaefer","party":"Rep","address":"845 E 200 S, Pleasant Grove, UT 84062","precinct":"25PG12","hd":"55","v_score":"3.781490609","decile":"6","lat":40.361217290397,"lng":-111.721930388807},{"id":"174161","name":"Janie Lemke-Erdman","party":"Rep","address":"215 N 1400 E, Pleasant Grove, UT 84062","precinct":"25PG12","hd":"55","v_score":"6.027167436","decile":"7","lat":40.365984040243,"lng":-111.707818071273},{"id":"174470","name":"Dr. Pershing Corkery","party":"Rep","address":"959 E 100 S, Pleasant Grove, UT 84062","precinct":"25PG12","hd":"55","v_score":"33.57939141","decile":"10","lat":40.36257108731,"lng":-111.718793067397},{"id":"174580","name":"Elliana Boyle","party":"","address":"85 S 1400 E, Pleasant Grove, UT 84062","precinct":"25PG12","hd":"55","v_score":"19.15121325","decile":"10","lat":40.36238063258,"lng":-111.707681078961},{"id":"174872","name":"Magen Greenfelder","party":"Dem","address":"685 E 200 S, Pleasant Grove, UT 84062","precinct":"25PG12","hd":"55","v_score":"5.40460374","decile":"7","lat":40.361217290694,"lng":-111.725798915475},{"id":"175416","name":"Giada Wiegand","party":"","address":"120 N 1050 E, Pleasant Grove, UT 84062","precinct":"25PG12","hd":"55","v_score":"0","decile":"3","lat":40.364973082113,"lng":-111.715647027652},{"id":"176331","name":"Tamera Gerhold","party":"Rep","address":"1119 E 30 S, Pleasant Grove, UT 84062","precinct":"25PG12","hd":"55","v_score":"1.121327652","decile":"3","lat":40.363582859293,"lng":-111.714320852355},{"id":"176333","name":"Ambers Veum","party":"Dem","address":"1119 E 30 S, Pleasant Grove, UT 84062","precinct":"25PG12","hd":"55","v_score":"2.315214949","decile":"5","lat":40.363582859293,"lng":-111.714320852355},{"id":"177089","name":"Rhiannon Schumm","party":"Dem","address":"169 S 950 E, Pleasant Grove, UT 84062","precinct":"25PG12","hd":"55","v_score":"2.315214949","decile":"5","lat":40.361569500537,"lng":-111.718906085441},{"id":"177207","name":"Ms. Dawna Cronin","party":"Rep","address":"671 E 100 S, Pleasant Grove, UT 84062","precinct":"25PG12","hd":"55","v_score":"36.21050801","decile":"10","lat":40.362486976249,"lng":-111.726287566635},{"id":"177724","name":"Madie Olson","party":"Rep","address":"1255 E Center St, Pleasant Grove, UT 84062","precinct":"25PG12","hd":"55","v_score":"1.121327652","decile":"3","lat":40.364013214514,"lng":-111.710605460673},{"id":"177789","name":"Tea Hickle","party":"","address":"80 S 600 E, Pleasant Grove, UT 84062","precinct":"25PG12","hd":"55","v_score":"30.47669206","decile":"10","lat":40.36273357851,"lng":-111.728093303105},{"id":"178635","name":"Ms. Pallie Wintheiser PhD","party":"","address":"1147 E 100 N, Pleasant Grove, UT 84062","precinct":"25PG12","hd":"55","v_score":"2.315214949","decile":"5","lat":40.364845616074,"lng":-111.713670438021},{"id":"178704","name":"Shanon Langosh","party":"Dem","address":"235 N 1300 E, Pleasant Grove, UT 84062","precinct":"25PG12","hd":"55","v_score":"10.13721141","decile":"9","lat":40.366448277106,"lng":-111.710227096989},{"id":"178823","name":"Asher Kassulke MD","party":"","address":"97 S 600 E, Pleasant Grove, UT 84062","precinct":"25PG12","hd":"55","v_score":"31.75979888","decile":"10","lat":40.362505915987,"lng":-111.72793945072},{"id":"179384","name":"Vashti Morissette DDS","party":"Rep","address":"28 S 850 E, Pleasant Grove, UT 84062","precinct":"25PG12","hd":"55","v_score":"15.39205011","decile":"9","lat":40.363083579219,"lng":-111.721801257626},{"id":"180643","name":"Wirt Wehner","party":"Rep","address":"671 E 100 S, Pleasant Grove, UT 84062","precinct":"25PG12","hd":"55","v_score":"21.0484493","decile":"10","lat":40.362486976249,"lng":-111.726287566635},{"id":"181415","name":"Dr. Estela Mosciski","party":"Dem","address":"879 E 200 S, Pleasant Grove, UT 84062","precinct":"25PG12","hd":"55","v_score":"8.347511332","decile":"8","lat":40.361217290335,"lng":-111.721127075329}]