[{"vid":"764843","name":"Syreeta Brekke","party":"","address":"317 S 1000 W, Apt 102, Pleasant Grove, UT 84062","precinct":"25PG20","hd":"56","v_score":"3.93832808","decile":"6","lat":40.3598655165841,"lng":-111.75483243505857},{"vid":"1238521","name":"Unknown Price","party":"","address":"582 S 980 W, Unit 80, Pleasant Grove, UT 84062","precinct":"25PG20","hd":"56","v_score":"36.06006655","decile":"10","lat":40.35724132941762,"lng":-111.7548663690931},{"vid":"1255786","name":"Olie Prosacco","party":"","address":"345 S 930 W, Pleasant Grove, UT 84062","precinct":"25PG20","hd":"56","v_score":"0","decile":"1","lat":40.35957170153993,"lng":-111.75393263180365},{"vid":"1287526","name":"Ms. Zhane Mertz","party":"","address":"495 S 900 W, Apt 102, Pleasant Grove, UT 84062","precinct":"25PG20","hd":"56","v_score":"0","decile":"1","lat":40.2883760147893,"lng":-111.71619280960654},{"vid":"1295242","name":"Ahmed Jacobi","party":"Dem","address":"192 S 840 W, Unit C, Pleasant Grove, UT 84062","precinct":"25PG20","hd":"56","v_score":"1.46627566","decile":"4","lat":40.36139846889214,"lng":-111.75308257834484},{"vid":"d5aa3d82bb1a3871c8dabbb6c122bc63c3acc601e7f2debda08a09a3dcc54aca","name":"Maebelle Waelchi","party":"Dem","address":"343 S 1000 W, Apt 104, Pleasant Grove, UT 84062","precinct":"25PG20","hd":"56","v_score":"2.315214949","decile":"5","lat":40.359640004305284,"lng":-111.75466755872729},{"vid":"cb2a660f680b710c5acf6526f976b3f7bc8ed1a6ac888e2a67674a30021b835c","name":"Edsel Bernhard","party":"Rep","address":"384 S 790 W, Pleasant Grove, UT 84062","precinct":"25PG20","hd":"56","v_score":"9.55742766","decile":"8","lat":40.35911371405792,"lng":-111.7522609131099},{"vid":"1373590","name":"Miss Leanna Nolan MD","party":"Rep","address":"591 S 1050 W, Unit A, Pleasant Grove, UT 84062","precinct":"25PG20","hd":"56","v_score":"21.8990126","decile":"10","lat":40.356693574327046,"lng":-111.75525125014059},{"vid":"1381146","name":"Nathan Altenwerth","party":"Dem","address":"961 W 630 S, Unit 40, Pleasant Grove, UT 84062","precinct":"25PG20","hd":"56","v_score":"1.193887297","decile":"3","lat":40.35616558673512,"lng":-111.7546804871992},{"vid":"1392383","name":"Leda Spinka","party":"Rep","address":"587 S 910 W, Unit 71, Pleasant Grove, UT 84062","precinct":"25PG20","hd":"56","v_score":"13.61907049","decile":"9","lat":40.356910497059914,"lng":-111.75392305937233},{"vid":"1394380","name":"Winter Buckridge","party":"","address":"963 W 670 S, Unit 18, Pleasant Grove, UT 84062","precinct":"25PG20","hd":"56","v_score":"3.93832808","decile":"6","lat":40.355587950529795,"lng":-111.7547150672044},{"vid":"53327d122f3e3a9c5540a5a54c3666afb0e2dd2c1287e9be66c3b28ec790c551","name":"Aja Ledner","party":"Dem","address":"868 W 130 S, Unit C, Pleasant Grove, UT 84062","precinct":"25PG20","hd":"56","v_score":"10.52682644","decile":"9","lat":40.36255102537802,"lng":-111.75334762052019},{"vid":"1404281","name":"Mira Kulas-Williamson","party":"","address":"587 S 910 W, Unit 71, Pleasant Grove, UT 84062","precinct":"25PG20","hd":"56","v_score":"9.40499548","decile":"8","lat":40.356910497059914,"lng":-111.75392305937233},{"vid":"1423673","name":"Shirlee Pollich-Gibson","party":"Rep","address":"927 W 630 S, Unit 31, Pleasant Grove, UT 84062","precinct":"25PG20","hd":"56","v_score":"25.81612328","decile":"10","lat":40.35616502663899,"lng":-111.75430748477433},{"vid":"1431028","name":"Melinda Nolan","party":"","address":"305 S 810 W, Pleasant Grove, UT 84062","precinct":"25PG20","hd":"56","v_score":"4.283276088","decile":"7","lat":40.3600635835422,"lng":-111.7521421882186},{"vid":"1460316","name":"Glen Ernser","party":"Dem","address":"738 W 260 S, Pleasant Grove, UT 84062","precinct":"25PG20","hd":"56","v_score":"2.315214949","decile":"5","lat":40.36059103266987,"lng":-111.7516002897418},{"vid":"1d21831f9f77f39b74ff672faae9c586e725de32c5937677ccebac9c126819e0","name":"Dr. Owen Gleason I","party":"","address":"165 S Pleasant Grove Blvd, Unit 43, Pleasant Grove, UT 84062","precinct":"25PG20","hd":"56","v_score":"1.121327652","decile":"3","lat":40.362810323397525,"lng":-111.75314383021745},{"vid":"2725d24182e6cf0793d8aafc62a257af01e6577c6c58fda0216c1e7102e83165","name":"Arlyn Mohr","party":"","address":"952 W 270 S, Apt 202, Pleasant Grove, UT 84062","precinct":"25PG20","hd":"56","v_score":"11.2235539","decile":"9","lat":40.36061187793678,"lng":-111.75441525895278},{"vid":"1466121","name":"Manuelita Shields","party":"Dem","address":"587 S 910 W, Unit 70, Pleasant Grove, UT 84062","precinct":"25PG20","hd":"56","v_score":"19.98728549","decile":"10","lat":40.356910497059914,"lng":-111.75392305937233},{"vid":"1467298","name":"Dayse Dicki-Barrows","party":"","address":"289 S 1000 W, Apt 201, Pleasant Grove, UT 84062","precinct":"25PG20","hd":"56","v_score":"12.81089156","decile":"9","lat":40.360074109191544,"lng":-111.7547789034776},{"vid":"1482431","name":"Christeen Pfannerstill-Will","party":"","address":"376 S 740 W, Unit 302, Pleasant Grove, UT 84062","precinct":"25PG20","hd":"56","v_score":"2.587603312","decile":"5","lat":40.35936815626692,"lng":-111.75172216975345},{"vid":"7ec40efdf7bd5fe4334df322b9d410d0a0fc7f06083e7f0bd5f65327bc393131","name":"Donato Schiller","party":"","address":"952 W 270 S, Apt 201, Pleasant Grove, UT 84062","precinct":"25PG20","hd":"56","v_score":"7.493443096","decile":"8","lat":40.36061187793678,"lng":-111.75441525895278},{"vid":"1485368","name":"Mr. Hilbert Simonis","party":"Dem","address":"1016 W 700 S, Pleasant Grove, UT 84062","precinct":"25PG20","hd":"56","v_score":"8.347511332","decile":"8","lat":40.355451716954896,"lng":-111.75518664222737},{"vid":"1485867","name":"Adda Mills DDS","party":"","address":"165 S Pleasant Grove Blvd, Unit 44, Pleasant Grove, UT 84062","precinct":"25PG20","hd":"56","v_score":"0","decile":"1","lat":40.362810323397525,"lng":-111.75314383021745},{"vid":"1489863","name":"Hill Gleason Jr.","party":"Rep","address":"312 S 910 W, Pleasant Grove, UT 84062","precinct":"25PG20","hd":"56","v_score":"2.315214949","decile":"5","lat":40.359955731531144,"lng":-111.75374693453557},{"vid":"1495212","name":"Pierce Howe","party":"Dem","address":"151 S Pleasant Grove Blvd, Unit 12, Pleasant Grove, UT 84062","precinct":"25PG20","hd":"56","v_score":"45.25229277","decile":"10","lat":40.36401128887601,"lng":-111.75250084880315},{"vid":"1496542","name":"Lasonya Swaniawski","party":"Rep","address":"656 S 910 W, Unit 25, Pleasant Grove, UT 84062","precinct":"25PG20","hd":"56","v_score":"0","decile":"1","lat":40.35589489074498,"lng":-111.75411237359917},{"vid":"1501013","name":"Olie Johns","party":"Rep","address":"317 S 1000 W, Apt 201, Pleasant Grove, UT 84062","precinct":"25PG20","hd":"56","v_score":"1.193887297","decile":"3","lat":40.3598655165841,"lng":-111.75483243505857},{"vid":"1510749","name":"Tillie Kilback-Mante","party":"","address":"1199 W 700 S, Pleasant Grove, UT 84062","precinct":"25PG20","hd":"56","v_score":"2.817000428","decile":"6","lat":40.35418178862714,"lng":-111.75925601121529},{"vid":"ac215a8567887f7cee8b7936a406a6065f1dec19e46edbad9ad59a44682af797","name":"Evelyn O'Keefe-Ziemann","party":"","address":"927 W 630 S, Unit 33, Pleasant Grove, UT 84062","precinct":"25PG20","hd":"56","v_score":"13.080119","decile":"9","lat":40.35616502663899,"lng":-111.75430748477433},{"vid":"1524991","name":"Loraine Schowalter","party":"Rep","address":"376 S 740 W, Unit 302, Pleasant Grove, UT 84062","precinct":"25PG20","hd":"56","v_score":"0","decile":"1","lat":40.35936815626692,"lng":-111.75172216975345},{"vid":"1526287","name":"Kermit Maggio","party":"","address":"159 S Pleasant Grove Blvd, Unit 16, Pleasant Grove, UT 84062","precinct":"25PG20","hd":"56","v_score":"9.03120571","decile":"8","lat":40.36349506121401,"lng":-111.75297566094139},{"vid":"010851c30e03c1441b34bfb95fca816cc1051c53a531197297bcacd1d6c076a4","name":"Mona Wyman","party":"","address":"308 S 740 W, Apt 102, Pleasant Grove, UT 84062","precinct":"25PG20","hd":"56","v_score":"0","decile":"1","lat":40.36000960703506,"lng":-111.75180724193261},{"vid":"1530425","name":"Ms. Charolette Balistreri MD","party":"","address":"912 W 260 S, Pleasant Grove, UT 84062","precinct":"25PG20","hd":"56","v_score":"2.315214949","decile":"5","lat":40.36062240440669,"lng":-111.75356706575384},{"vid":"1541679","name":"Ramona Frami","party":"Rep","address":"159 S Pleasant Grove Blvd, Unit 24, Pleasant Grove, UT 84062","precinct":"25PG20","hd":"56","v_score":"15.24264201","decile":"9","lat":40.36349506121401,"lng":-111.75297566094139},{"vid":"1562545","name":"Brook Schmeler","party":"","address":"952 W 270 S, Apt 104, Pleasant Grove, UT 84062","precinct":"25PG20","hd":"56","v_score":"0","decile":"1","lat":40.36061187793678,"lng":-111.75441525895278},{"vid":"1563064","name":"Darell Larson","party":"Rep","address":"963 W 670 S, Unit 21, Pleasant Grove, UT 84062","precinct":"25PG20","hd":"56","v_score":"2.660162957","decile":"5","lat":40.355587950529795,"lng":-111.7547150672044},{"vid":"1563290","name":"Daisye Orn","party":"","address":"286 S 810 W, Pleasant Grove, UT 84062","precinct":"25PG20","hd":"56","v_score":"2.315214949","decile":"5","lat":40.360384933802,"lng":-111.75256032812472},{"vid":"1572005","name":"Griselda O'Keefe","party":"Dem","address":"899 W 310 S, Pleasant Grove, UT 84062","precinct":"25PG20","hd":"56","v_score":"1.193887297","decile":"3","lat":40.359823317045496,"lng":-111.75337184869939},{"vid":"1577226","name":"Myrtle Koss","party":"","address":"488 S 910 W, Unit 103, Pleasant Grove, UT 84062","precinct":"25PG20","hd":"56","v_score":"19.47300581","decile":"10","lat":40.357897136554406,"lng":-111.75408343302483},{"vid":"1593387","name":"Birtha Murazik","party":"Rep","address":"721 W 180 S, Unit A, Pleasant Grove, UT 84062","precinct":"25PG20","hd":"56","v_score":"3.93832808","decile":"6","lat":40.36132601821754,"lng":-111.75121927535523},{"vid":"1597254","name":"Elsworth Medhurst-Green","party":"Dem","address":"317 S 810 W, Pleasant Grove, UT 84062","precinct":"25PG20","hd":"56","v_score":"1.121327652","decile":"3","lat":40.35987006518158,"lng":-111.75219413833047},{"vid":"228910e41d9cb0dd3e5447f5a031f353d2a4eaafbce311c5019d9733432c0e2d","name":"Koen Gulgowski","party":"","address":"581 S 910 W, Unit 86, Pleasant Grove, UT 84062","precinct":"25PG20","hd":"56","v_score":"0","decile":"1","lat":40.357194142522545,"lng":-111.75393055832863},{"vid":"599325c32487255206f6a30b96e929a21f271fcfae804c37a6cdff399d07aca7","name":"Tristian O'Kon","party":"Rep","address":"308 S 740 W, Apt 204, Pleasant Grove, UT 84062","precinct":"25PG20","hd":"56","v_score":"0","decile":"1","lat":40.36000960703506,"lng":-111.75180724193261},{"vid":"1605104","name":"Ms. Dee Denesik","party":"Dem","address":"868 W 130 S, Unit C, Pleasant Grove, UT 84062","precinct":"25PG20","hd":"56","v_score":"7.583918848","decile":"8","lat":40.36255102537802,"lng":-111.75334762052019},{"vid":"877a06633a9a749f65a7b848463ce59640329d97cef1fdb750f1b0e55b33464e","name":"Tennie Waters","party":"Dem","address":"946 W 630 S, Unit 44, Pleasant Grove, UT 84062","precinct":"25PG20","hd":"56","v_score":"1.46627566","decile":"4","lat":40.35644429862219,"lng":-111.75425006426788},{"vid":"1612633","name":"Mr. Manning Paucek","party":"","address":"169 S Pleasant Grove Blvd, Unit 56, Pleasant Grove, UT 84062","precinct":"25PG20","hd":"56","v_score":"14.53583379","decile":"9","lat":40.36278017083475,"lng":-111.75266270030949},{"vid":"1626213","name":"Romie Considine I","party":"","address":"376 S 740 W, Unit 302, Pleasant Grove, UT 84062","precinct":"25PG20","hd":"56","v_score":"2.587603312","decile":"5","lat":40.35936815626692,"lng":-111.75172216975345},{"vid":"1633812","name":"Whitney Purdy","party":"","address":"343 S 1000 W, Apt 204, Pleasant Grove, UT 84062","precinct":"25PG20","hd":"56","v_score":"1.193887297","decile":"3","lat":40.359640004305284,"lng":-111.75466755872729},{"vid":"6ab2b14547057c73dd333f047890815c4b23af4d15763e864dc4e718d5959341","name":"Nickolas Ebert","party":"","address":"151 S Pleasant Grove Blvd, Unit 12, Pleasant Grove, UT 84062","precinct":"25PG20","hd":"56","v_score":"23.36528826","decile":"10","lat":40.36401128887601,"lng":-111.75250084880315},{"vid":"5f2791f2656b0cb6c78252b0ebbc57fd75a8ffbf3c7a425d9c5a5dc240005c21","name":"Dr. Ilene Heaney","party":"Rep","address":"379 S 790 W, Pleasant Grove, UT 84062","precinct":"25PG20","hd":"56","v_score":"3.93832808","decile":"6","lat":40.359206669017006,"lng":-111.75201291424871},{"vid":"1664644","name":"Alto Conroy","party":"","address":"289 S 1000 W, Apt 202, Pleasant Grove, UT 84062","precinct":"25PG20","hd":"56","v_score":"0","decile":"1","lat":40.360074109191544,"lng":-111.7547789034776},{"vid":"1670059","name":"Boss Grant-Farrell","party":"","address":"986 W 270 S, Apt 103, Pleasant Grove, UT 84062","precinct":"25PG20","hd":"56","v_score":"8.347511332","decile":"8","lat":40.36071670656927,"lng":-111.75501820883024},{"vid":"1682122","name":"Magdalena Bednar-Yost","party":"","address":"343 S 1000 W, Apt 302, Pleasant Grove, UT 84062","precinct":"25PG20","hd":"56","v_score":"2.660162957","decile":"5","lat":40.359640004305284,"lng":-111.75466755872729},{"vid":"1682664","name":"Hilton Auer-Howe","party":"","address":"385 S 640 W, Pleasant Grove, UT 84062","precinct":"25PG20","hd":"56","v_score":"0","decile":"1","lat":40.35911427711098,"lng":-111.74969362159241},{"vid":"1688308","name":"Mrs. Antonia Leannon","party":"Dem","address":"946 W 630 S, Unit 44, Pleasant Grove, UT 84062","precinct":"25PG20","hd":"56","v_score":"2.587603312","decile":"5","lat":40.35644429862219,"lng":-111.75425006426788},{"vid":"9e3c6425d032ddfff735df57b5cec5237b426b6f2578ef645a4d6ca19a441d5f","name":"Roxie Klein MD","party":"","address":"304 S 930 W, Pleasant Grove, UT 84062","precinct":"25PG20","hd":"56","v_score":"8.280646305","decile":"8","lat":40.36002028365936,"lng":-111.75439955603375},{"vid":"1699027","name":"Mrs. Tania Krajcik DVM","party":"Rep","address":"583 S 900 W, Apt 11-303, Pleasant Grove, UT 84062","precinct":"25PG20","hd":"56","v_score":"1.46627566","decile":"4","lat":40.36497138000084,"lng":-111.82295935360287},{"vid":"fbc5fa99e0260f93f229dbec595297b146b3d1982f162df4de1274d24797aa2b","name":"Kyle Muller","party":"Dem","address":"488 S 910 W, Unit 103, Pleasant Grove, UT 84062","precinct":"25PG20","hd":"56","v_score":"0","decile":"1","lat":40.357897136554406,"lng":-111.75408343302483},{"vid":"1714422","name":"Mr. Refugio Kling MD","party":"Dem","address":"956 W 580 S, Unit 118, Pleasant Grove, UT 84062","precinct":"25PG20","hd":"56","v_score":"6.724398202","decile":"8","lat":40.357867096746645,"lng":-111.75441523156414},{"vid":"f8e3ce329bd6e8bbc615e06c2481a884c529579f75b203cb80bc35970a87e9e1","name":"Miss Hollie Walsh","party":"Rep","address":"308 S 740 W, Apt 102, Pleasant Grove, UT 84062","precinct":"25PG20","hd":"56","v_score":"0","decile":"1","lat":40.36000960703506,"lng":-111.75180724193261},{"vid":"1721686","name":"Tad Funk","party":"","address":"376 S 740 W, Unit 103, Pleasant Grove, UT 84062","precinct":"25PG20","hd":"56","v_score":"2.587603312","decile":"5","lat":40.35936815626692,"lng":-111.75172216975345},{"vid":"1725557","name":"Esmeralda Metz","party":"","address":"488 S 910 W, Unit 113, Pleasant Grove, UT 84062","precinct":"25PG20","hd":"56","v_score":"2.315214949","decile":"5","lat":40.357897136554406,"lng":-111.75408343302483},{"vid":"1733829","name":"Ines Cummings","party":"Dem","address":"289 S 1000 W, Apt 101, Pleasant Grove, UT 84062","precinct":"25PG20","hd":"56","v_score":"6.74007049","decile":"8","lat":40.360074109191544,"lng":-111.7547789034776},{"vid":"de6a86a1f49712d9f94f75c2809ade379493f5ce363d61df548b5eb6ed9bfa9a","name":"Alferd Abbott Sr.","party":"Dem","address":"956 W 580 S, Unit 126, Pleasant Grove, UT 84062","precinct":"25PG20","hd":"56","v_score":"2.315214949","decile":"5","lat":40.357867096746645,"lng":-111.75441523156414},{"vid":"1916c28b962de5dc5982c007bf7cb1f617f48774440c5e992538c3120e3d35cc","name":"Johnathan Glover","party":"","address":"587 S 910 W, Unit 70, Pleasant Grove, UT 84062","precinct":"25PG20","hd":"56","v_score":"19.98728549","decile":"10","lat":40.356910497059914,"lng":-111.75392305937233},{"vid":"b1e1c75b6b3510aad1292f1151734e415f83ccf9a0f5747b75ba9f96981d4883","name":"Davina Gutmann PhD","party":"","address":"587 S 910 W, Unit 70, Pleasant Grove, UT 84062","precinct":"25PG20","hd":"56","v_score":"29.42874285","decile":"10","lat":40.356910497059914,"lng":-111.75392305937233},{"vid":"1763804","name":"Orvel McCullough","party":"","address":"488 S 910 W, Unit 104, Pleasant Grove, UT 84062","precinct":"25PG20","hd":"56","v_score":"19.09820228","decile":"10","lat":40.357897136554406,"lng":-111.75408343302483},{"vid":"1769437","name":"Darby Stoltenberg","party":"","address":"495 S 900 W, Apt 102, Pleasant Grove, UT 84062","precinct":"25PG20","hd":"56","v_score":"0","decile":"1","lat":40.2883760147893,"lng":-111.71619280960654},{"vid":"1773452","name":"Vaughn Johns","party":"Dem","address":"929 W 670 S, Unit 10, Pleasant Grove, UT 84062","precinct":"25PG20","hd":"56","v_score":"0","decile":"1","lat":40.35546470060453,"lng":-111.75403815646034},{"vid":"1773654","name":"Dion Trantow Sr.","party":"Rep","address":"534 S 810 W, Apt 4-304, Pleasant Grove, UT 84062","precinct":"25PG20","hd":"56","v_score":"1.46627566","decile":"4","lat":40.356859062547215,"lng":-111.75265166182382},{"vid":"1780939","name":"Mervin Carter","party":"","address":"582 S 980 W, Unit 74, Pleasant Grove, UT 84062","precinct":"25PG20","hd":"56","v_score":"2.587603312","decile":"5","lat":40.35724132941762,"lng":-111.7548663690931},{"vid":"1784170","name":"Antione White","party":"","address":"946 W 630 S, Unit 42, Pleasant Grove, UT 84062","precinct":"25PG20","hd":"56","v_score":"3.781490609","decile":"6","lat":40.35644429862219,"lng":-111.75425006426788},{"vid":"de7517523d47cf4725f493efbbd539718f2127e23c5c238ccf8db1cd9acacc7e","name":"Miguel Mayer","party":"","address":"343 S 1000 W, Apt 202, Pleasant Grove, UT 84062","precinct":"25PG20","hd":"56","v_score":"10.52632313","decile":"9","lat":40.359640004305284,"lng":-111.75466755872729},{"vid":"1786778","name":"Dr. Gage Gutkowski DVM","party":"Rep","address":"159 S Pleasant Grove Blvd, Unit 18, Pleasant Grove, UT 84062","precinct":"25PG20","hd":"56","v_score":"21.8990126","decile":"10","lat":40.36349506121401,"lng":-111.75297566094139},{"vid":"1801793","name":"Brittani Frami","party":"","address":"766 W 260 S, Pleasant Grove, UT 84062","precinct":"25PG20","hd":"56","v_score":"11.99259879","decile":"9","lat":40.36062013716663,"lng":-111.75202829778567},{"vid":"1802802","name":"Essa Stokes-Graham","party":"Dem","address":"367 S 1000 W, Apt 102, Pleasant Grove, UT 84062","precinct":"25PG20","hd":"56","v_score":"0","decile":"1","lat":40.35932951280452,"lng":-111.75488551288142},{"vid":"1813060","name":"Vere Larson","party":"Dem","address":"159 S Pleasant Grove Blvd, Unit 21, Pleasant Grove, UT 84062","precinct":"25PG20","hd":"56","v_score":"2.315214949","decile":"5","lat":40.36349506121401,"lng":-111.75297566094139},{"vid":"1816901","name":"Dr. Marget Ankunding DDS","party":"Rep","address":"344 S 740 W, Unit 204, Pleasant Grove, UT 84062","precinct":"25PG20","hd":"56","v_score":"6.814370645","decile":"8","lat":40.359540179660065,"lng":-111.75171505277572},{"vid":"1826679","name":"Kaycee Collins MD","party":"","address":"343 S 790 W, Unit 201, Pleasant Grove, UT 84062","precinct":"25PG20","hd":"56","v_score":"4.214075011","decile":"7","lat":40.35968586229441,"lng":-111.75212966465551},{"vid":"1833955","name":"Mora VonRueden","party":"Rep","address":"159 S Pleasant Grove Blvd, Unit 24, Pleasant Grove, UT 84062","precinct":"25PG20","hd":"56","v_score":"10.7597751","decile":"9","lat":40.36349506121401,"lng":-111.75297566094139},{"vid":"1837194","name":"Hernan Baumbach","party":"Rep","address":"1069 W 70 N, Pleasant Grove, UT 84062","precinct":"25PG20","hd":"56","v_score":"1.121327652","decile":"3","lat":40.364621888251605,"lng":-111.75608331858018},{"vid":"4085c1763e3867f32eff0f78ab8c092e231a9c350fe5eca765eb84bf359c0dc2","name":"Joe Stokes-Wolf","party":"Dem","address":"155 S Pleasant Grove Blvd, Unit 27, Pleasant Grove, UT 84062","precinct":"25PG20","hd":"56","v_score":"1.121327652","decile":"3","lat":40.36354653805449,"lng":-111.75241741368785},{"vid":"3719e97bd9b635c4250da452b9392382fbe0b9ef1c8c5e974e5fb14d93dde95f","name":"Amiyah Bartoletti-Marvin","party":"","address":"927 W 630 S, Unit 33, Pleasant Grove, UT 84062","precinct":"25PG20","hd":"56","v_score":"10.13721141","decile":"9","lat":40.35616502663899,"lng":-111.75430748477433},{"vid":"1854319","name":"Dr. Hillard Bauch MD","party":"Dem","address":"495 S 900 W, Apt 201, Pleasant Grove, UT 84062","precinct":"25PG20","hd":"56","v_score":"6.088298118","decile":"7","lat":40.2883760147893,"lng":-111.71619280960654},{"vid":"1855680","name":"Ms. Shameka Harber","party":"Rep","address":"317 S 1000 W, Apt 304, Pleasant Grove, UT 84062","precinct":"25PG20","hd":"56","v_score":"11.02844566","decile":"9","lat":40.3598655165841,"lng":-111.75483243505857},{"vid":"1856179","name":"Miss Noma Schamberger DDS","party":"Rep","address":"267 S 740 W, Pleasant Grove, UT 84062","precinct":"25PG20","hd":"56","v_score":"1.121327652","decile":"3","lat":40.36038095778281,"lng":-111.7514870862281},{"vid":"1857607","name":"Isai Ankunding I","party":"Rep","address":"367 S 1000 W, Apt 304, Pleasant Grove, UT 84062","precinct":"25PG20","hd":"56","v_score":"1.121327652","decile":"3","lat":40.35932951280452,"lng":-111.75488551288142},{"vid":"1860226","name":"Levar Simonis","party":"","address":"308 S 740 W, Apt 104, Pleasant Grove, UT 84062","precinct":"25PG20","hd":"56","v_score":"1.121327652","decile":"3","lat":40.36000960703506,"lng":-111.75180724193261},{"vid":"1873226","name":"Mettie Pagac","party":"","address":"336 S 930 W, Apt 203, Pleasant Grove, UT 84062","precinct":"25PG20","hd":"56","v_score":"0","decile":"1","lat":40.35975322846662,"lng":-111.75427547583944},{"vid":"1874377","name":"Dorathea Nikolaus-Lubowitz","party":"Dem","address":"495 S 900 W, Apt 304, Pleasant Grove, UT 84062","precinct":"25PG20","hd":"56","v_score":"1.193887297","decile":"3","lat":40.2883760147893,"lng":-111.71619280960654},{"vid":"1881236","name":"Emory Williamson","party":"Dem","address":"766 W 260 S, Pleasant Grove, UT 84062","precinct":"25PG20","hd":"56","v_score":"20.43732126","decile":"10","lat":40.36062013716663,"lng":-111.75202829778567},{"vid":"1888222","name":"Shafter Hudson-Dickinson","party":"","address":"324 S 810 W, Pleasant Grove, UT 84062","precinct":"25PG20","hd":"56","v_score":"1.121327652","decile":"3","lat":40.35962714810195,"lng":-111.75262103272772},{"vid":"1898158","name":"Dr. Debbra Marvin","party":"Dem","address":"317 S 810 W, Pleasant Grove, UT 84062","precinct":"25PG20","hd":"56","v_score":"1.121327652","decile":"3","lat":40.35987006518158,"lng":-111.75219413833047},{"vid":"1903435","name":"Elsworth Huels","party":"Dem","address":"336 S 930 W, Apt 101, Pleasant Grove, UT 84062","precinct":"25PG20","hd":"56","v_score":"5.191257514","decile":"7","lat":40.35975322846662,"lng":-111.75427547583944},{"vid":"1907846","name":"Beth Runolfsson","party":"Dem","address":"317 S 1000 W, Apt 104, Pleasant Grove, UT 84062","precinct":"25PG20","hd":"56","v_score":"6.724398202","decile":"8","lat":40.3598655165841,"lng":-111.75483243505857},{"vid":"1909568","name":"Anthony Russel","party":"","address":"986 W 270 S, Apt 103, Pleasant Grove, UT 84062","precinct":"25PG20","hd":"56","v_score":"8.347511332","decile":"8","lat":40.36071670656927,"lng":-111.75501820883024},{"vid":"1910571","name":"Franklyn Halvorson","party":"Rep","address":"927 W 630 S, Unit 35, Pleasant Grove, UT 84062","precinct":"25PG20","hd":"56","v_score":"2.660162957","decile":"5","lat":40.35616502663899,"lng":-111.75430748477433},{"vid":"1914938","name":"Rosalind Jaskolski","party":"","address":"336 S 930 W, Apt 301, Pleasant Grove, UT 84062","precinct":"25PG20","hd":"56","v_score":"11.37977487","decile":"9","lat":40.35975322846662,"lng":-111.75427547583944},{"vid":"1916353","name":"Lea Boyer PhD","party":"","address":"785 W 180 S, Unit B, Pleasant Grove, UT 84062","precinct":"25PG20","hd":"56","v_score":"10.45237972","decile":"9","lat":40.36132607229259,"lng":-111.752137696732},{"vid":"1916736","name":"Walton Cruickshank","party":"Rep","address":"956 W 580 S, Unit 115, Pleasant Grove, UT 84062","precinct":"25PG20","hd":"56","v_score":"7.153624035","decile":"8","lat":40.357867096746645,"lng":-111.75441523156414},{"vid":"1918953","name":"Amparo Breitenberg DDS","party":"Rep","address":"963 W 670 S, Unit 22, Pleasant Grove, UT 84062","precinct":"25PG20","hd":"56","v_score":"22.78550452","decile":"10","lat":40.355587950529795,"lng":-111.7547150672044},{"vid":"1924152","name":"Debby Stark-Morar","party":"","address":"495 S 900 W, Pleasant Grove, UT 84062","precinct":"25PG20","hd":"56","v_score":"1.121327652","decile":"3","lat":40.2883760147893,"lng":-111.71619280960654},{"vid":"734495cda75aa8e36b1b486d852fdf412e1807c29f2554a978f9153c8c0bfaa6","name":"Ms. Ferne Jenkins DVM","party":"Rep","address":"372 S 930 W, Apt 104, Pleasant Grove, UT 84062","precinct":"25PG20","hd":"56","v_score":"1.121327652","decile":"3","lat":40.359406454255804,"lng":-111.7543925872771},{"vid":"1954386","name":"Isaiah Lueilwitz","party":"Rep","address":"343 S 1000 W, Apt 204, Pleasant Grove, UT 84062","precinct":"25PG20","hd":"56","v_score":"1.193887297","decile":"3","lat":40.359640004305284,"lng":-111.75466755872729},{"vid":"1964020","name":"Sara Wilderman","party":"Rep","address":"159 S Pleasant Grove Blvd, Unit 21, Pleasant Grove, UT 84062","precinct":"25PG20","hd":"56","v_score":"2.315214949","decile":"5","lat":40.36349506121401,"lng":-111.75297566094139},{"vid":"1968781","name":"Krish Raynor","party":"Rep","address":"488 S 910 W, Unit 112, Pleasant Grove, UT 84062","precinct":"25PG20","hd":"56","v_score":"10.78919041","decile":"9","lat":40.357897136554406,"lng":-111.75408343302483},{"vid":"0b8ed5bb9e8fcc82b8f278ddb6cbd619ee62c69b4138165d76dd5b0273206d0e","name":"Mrs. Emeline Davis","party":"Rep","address":"534 S 810 W, Apt 202, Pleasant Grove, UT 84062","precinct":"25PG20","hd":"56","v_score":"6.364334873","decile":"7","lat":40.356859062547215,"lng":-111.75265166182382},{"vid":"1971867","name":"Darrell Wuckert","party":"Rep","address":"963 W 670 S, Unit 24, Pleasant Grove, UT 84062","precinct":"25PG20","hd":"56","v_score":"1.121327652","decile":"3","lat":40.355587950529795,"lng":-111.7547150672044},{"vid":"1975216","name":"Yurem Franecki","party":"","address":"584 S 980 W, Unit 60, Pleasant Grove, UT 84062","precinct":"25PG20","hd":"56","v_score":"3.781490609","decile":"6","lat":40.356735082290996,"lng":-111.75473522832135},{"vid":"1976703","name":"Erastus Schneider Sr.","party":"Rep","address":"317 S 1000 W, Apt 104, Pleasant Grove, UT 84062","precinct":"25PG20","hd":"56","v_score":"6.724398202","decile":"8","lat":40.3598655165841,"lng":-111.75483243505857},{"vid":"1989820","name":"Darrion Emmerich","party":"","address":"956 W 580 S, Unit 118, Pleasant Grove, UT 84062","precinct":"25PG20","hd":"56","v_score":"3.781490609","decile":"6","lat":40.357867096746645,"lng":-111.75441523156414},{"vid":"1989920","name":"Miss Sanai Gleichner","party":"Dem","address":"495 S 900 W, Apt 208, Pleasant Grove, UT 84062","precinct":"25PG20","hd":"56","v_score":"5.40460374","decile":"7","lat":40.2883760147893,"lng":-111.71619280960654},{"vid":"1995706","name":"Petra Haley","party":"Dem","address":"956 W 580 S, Unit 119, Pleasant Grove, UT 84062","precinct":"25PG20","hd":"56","v_score":"0","decile":"1","lat":40.357867096746645,"lng":-111.75441523156414},{"vid":"2002532","name":"Anaya Cruickshank-Balistreri","party":"Rep","address":"929 W 670 S, Unit 4, Pleasant Grove, UT 84062","precinct":"25PG20","hd":"56","v_score":"3.93832808","decile":"6","lat":40.35546470060453,"lng":-111.75403815646034},{"vid":"b026b70261633eec69fa1258b7e2e5ce9a8675bec67ba20cc1af70dfd307d19a","name":"Davonte Hickle DDS","party":"","address":"328 S 810 W, Pleasant Grove, UT 84062","precinct":"25PG20","hd":"56","v_score":"9.839815554","decile":"8","lat":40.359676659759174,"lng":-111.75266603706076},{"vid":"2004282","name":"Clytie Schaden-Mueller","party":"","address":"429 S 980 W, Unit 135, Pleasant Grove, UT 84062","precinct":"25PG20","hd":"56","v_score":"2.744440783","decile":"5","lat":40.358502513876154,"lng":-111.75466608217462},{"vid":"2014932","name":"Lena Gleason PhD","party":"Dem","address":"383 S 790 W, Pleasant Grove, UT 84062","precinct":"25PG20","hd":"56","v_score":"5.536205522","decile":"7","lat":40.35914296024086,"lng":-111.75198935862534},{"vid":"2015464","name":"Mr. Vic Block MD","party":"","address":"151 S Pleasant Grove Blvd, Unit 5, Pleasant Grove, UT 84062","precinct":"25PG20","hd":"56","v_score":"8.347511332","decile":"8","lat":40.36401128887601,"lng":-111.75250084880315},{"vid":"2017683","name":"Miss Evelina Monahan","party":"","address":"308 S 740 W, Apt 104, Pleasant Grove, UT 84062","precinct":"25PG20","hd":"56","v_score":"1.193887297","decile":"3","lat":40.36000960703506,"lng":-111.75180724193261},{"vid":"2021192","name":"Kathy Schuppe-Beer","party":"","address":"583 S 900 W, Apt 203, Pleasant Grove, UT 84062","precinct":"25PG20","hd":"56","v_score":"2.315214949","decile":"5","lat":40.36497138000084,"lng":-111.82295935360287},{"vid":"2029939","name":"Mr. Rylee Orn I","party":"","address":"495 S 900 W, Apt 104, Pleasant Grove, UT 84062","precinct":"25PG20","hd":"56","v_score":"0","decile":"1","lat":40.2883760147893,"lng":-111.71619280960654},{"vid":"2029971","name":"Keshia Krajcik","party":"Dem","address":"583 S 900 W, Apt 301, Pleasant Grove, UT 84062","precinct":"25PG20","hd":"56","v_score":"0","decile":"1","lat":40.36497138000084,"lng":-111.82295935360287},{"vid":"2040180","name":"Stevie Legros DVM","party":"Rep","address":"289 S 1000 W, Apt 303, Pleasant Grove, UT 84062","precinct":"25PG20","hd":"56","v_score":"12.51600754","decile":"9","lat":40.360074109191544,"lng":-111.7547789034776},{"vid":"2041143","name":"Haiden Rutherford","party":"Rep","address":"495 S 900 W, Apt 207, Pleasant Grove, UT 84062","precinct":"25PG20","hd":"56","v_score":"2.315214949","decile":"5","lat":40.2883760147893,"lng":-111.71619280960654},{"vid":"2042832","name":"Dr. Octavio Christiansen","party":"Rep","address":"963 W 670 S, Unit 22, Pleasant Grove, UT 84062","precinct":"25PG20","hd":"56","v_score":"17.80238461","decile":"10","lat":40.355587950529795,"lng":-111.7547150672044},{"vid":"2057261","name":"Hall Lowe","party":"","address":"292 S 930 W, Pleasant Grove, UT 84062","precinct":"25PG20","hd":"56","v_score":"3.93832808","decile":"6","lat":40.36015653439928,"lng":-111.7544180787495},{"vid":"2069598","name":"Newman Roberts","party":"Rep","address":"271 S 740 W, Pleasant Grove, UT 84062","precinct":"25PG20","hd":"56","v_score":"2.315214949","decile":"5","lat":40.36031848626312,"lng":-111.75151266672152},{"vid":"2075227","name":"Savannah Graham MD","party":"","address":"367 S 1000 W, Apt 202, Pleasant Grove, UT 84062","precinct":"25PG20","hd":"56","v_score":"18.84038455","decile":"10","lat":40.35932951280452,"lng":-111.75488551288142},{"vid":"2076174","name":"Ms. Nilda Barrows MD","party":"Rep","address":"343 S 790 W, Unit 201, Pleasant Grove, UT 84062","precinct":"25PG20","hd":"56","v_score":"4.283276088","decile":"7","lat":40.35968586229441,"lng":-111.75212966465551},{"vid":"2076945","name":"Ms. Jayne Ondricka","party":"","address":"534 S 810 W, Apt 4-203, Pleasant Grove, UT 84062","precinct":"25PG20","hd":"56","v_score":"2.315214949","decile":"5","lat":40.356859062547215,"lng":-111.75265166182382},{"vid":"2078378","name":"Math Turner","party":"","address":"336 S 930 W, Apt 203, Pleasant Grove, UT 84062","precinct":"25PG20","hd":"56","v_score":"24.41991715","decile":"10","lat":40.35975322846662,"lng":-111.75427547583944},{"vid":"18f67da5c41027adca52cac432eb3d7db023e9f1799a3714ecadbd8cc68a3b90","name":"Sister McCullough","party":"","address":"812 W 260 S, Pleasant Grove, UT 84062","precinct":"25PG20","hd":"56","v_score":"1.121327652","decile":"3","lat":40.360623305895146,"lng":-111.75247916911384},{"vid":"2083024","name":"Janiah Schmitt DDS","party":"Dem","address":"376 S 740 W, Unit 304, Pleasant Grove, UT 84062","precinct":"25PG20","hd":"56","v_score":"11.49369473","decile":"9","lat":40.35936815626692,"lng":-111.75172216975345},{"vid":"2083817","name":"Kristoffer Hansen","party":"","address":"929 W 670 S, Unit 12, Pleasant Grove, UT 84062","precinct":"25PG20","hd":"56","v_score":"20.12465777","decile":"10","lat":40.35546470060453,"lng":-111.75403815646034},{"vid":"30d1b829a6de3318fc1b343a338217bb597792a9693cad93a46417a39c5e99a3","name":"Vern Hartmann","party":"Rep","address":"929 W 670 S, Unit 7, Pleasant Grove, UT 84062","precinct":"25PG20","hd":"56","v_score":"1.121327652","decile":"3","lat":40.35546470060453,"lng":-111.75403815646034},{"vid":"bd260057e90e781b972b1505d262e5e3ef8538d3b49a2d90122d2f2e3544b69e","name":"Kit Schmeler","party":"","address":"943 W 580 S, Unit 94, Pleasant Grove, UT 84062","precinct":"25PG20","hd":"56","v_score":"1.121327652","decile":"3","lat":40.35745337475185,"lng":-111.7542837395166},{"vid":"2093085","name":"Mr. Hilton Stiedemann III","party":"Rep","address":"584 S 980 W, Unit 61, Pleasant Grove, UT 84062","precinct":"25PG20","hd":"56","v_score":"8.280646305","decile":"8","lat":40.356735082290996,"lng":-111.75473522832135},{"vid":"2093167","name":"Cristobal Gleichner","party":"Rep","address":"584 S 980 W, Unit 61, Pleasant Grove, UT 84062","precinct":"25PG20","hd":"56","v_score":"8.280646305","decile":"8","lat":40.356735082290996,"lng":-111.75473522832135},{"vid":"a40f2e87b804bd4f0fa3820b3e4da85b2470e91ed29313dc78d88cfec0edf399","name":"Haylie Schamberger-Brekke","party":"Rep","address":"597 S 910 W, Unit 57, Pleasant Grove, UT 84062","precinct":"25PG20","hd":"56","v_score":"1.121327652","decile":"3","lat":40.35662585412152,"lng":-111.75392011990505},{"vid":"65f529cacccf69e58c03e65aa72c44cfb9d8117dd92b3ee7f5c46cca610b6f56","name":"Lilburn Feeney","party":"","address":"812 W 260 S, Pleasant Grove, UT 84062","precinct":"25PG20","hd":"56","v_score":"1.121327652","decile":"3","lat":40.360623305895146,"lng":-111.75247916911384},{"vid":"2112075","name":"Julio Homenick","party":"Rep","address":"495 S 900 W, Apt 104, Pleasant Grove, UT 84062","precinct":"25PG20","hd":"56","v_score":"0","decile":"1","lat":40.2883760147893,"lng":-111.71619280960654},{"vid":"b7d7bce2ca35adf54919cba99a6519b2610b9da2659ccbc074f78441ed485183","name":"Champ Koelpin","party":"","address":"274 S 840 W, Pleasant Grove, UT 84062","precinct":"25PG20","hd":"56","v_score":"1.121327652","decile":"3","lat":40.360368377802175,"lng":-111.75305148078718},{"vid":"229ef7a7f5ef79c7eeb57236f88531d8bca0ad9ad228e76d55636a4332820948","name":"Long Schmidt","party":"Rep","address":"308 S 740 W, Apt 202, Pleasant Grove, UT 84062","precinct":"25PG20","hd":"56","v_score":"3.93832808","decile":"6","lat":40.36000960703506,"lng":-111.75180724193261},{"vid":"2120524","name":"Skip Zemlak","party":"Dem","address":"155 S Pleasant Grove Blvd, Unit 33, Pleasant Grove, UT 84062","precinct":"25PG20","hd":"56","v_score":"0","decile":"1","lat":40.36354653805449,"lng":-111.75241741368785},{"vid":"2121105","name":"Denny Reichert-Mraz","party":"Rep","address":"372 S 930 W, Apt 202, Pleasant Grove, UT 84062","precinct":"25PG20","hd":"56","v_score":"11.29723756","decile":"9","lat":40.359406454255804,"lng":-111.7543925872771},{"vid":"2121224","name":"London Schmitt-Schneider","party":"Dem","address":"784 W 260 S, Pleasant Grove, UT 84062","precinct":"25PG20","hd":"56","v_score":"1.193887297","decile":"3","lat":40.36061773620422,"lng":-111.75219360245974},{"vid":"2133703","name":"Mr. Philo Terry PhD","party":"","address":"583 S 900 W, # 11-101, Pleasant Grove, UT 84062","precinct":"25PG20","hd":"56","v_score":"0","decile":"1","lat":40.36497138000084,"lng":-111.82295935360287},{"vid":"648b73f61bab80f5b50defcec9c062104c454bccf9696e938bcdcb4be323bfe4","name":"Dr. Travon McCullough","party":"","address":"943 W 580 S, Unit 91, Pleasant Grove, UT 84062","precinct":"25PG20","hd":"56","v_score":"1.46627566","decile":"4","lat":40.35745337475185,"lng":-111.7542837395166},{"vid":"2144761","name":"Ms. Hettie Kuhn","party":"","address":"371 S 790 W, Pleasant Grove, UT 84062","precinct":"25PG20","hd":"56","v_score":"2.315214949","decile":"5","lat":40.35926968544851,"lng":-111.75198975875742},{"vid":"2150518","name":"Dr. Hermann Emard","party":"","address":"289 S 930 W, Pleasant Grove, UT 84062","precinct":"25PG20","hd":"56","v_score":"9.527862242","decile":"8","lat":40.36024651256627,"lng":-111.7540094858067},{"vid":"7b79520ace219047ca306651a9f15c4b141d4d697b44c07d445ca900093b01ac","name":"Rodrick Toy-Sauer","party":"Rep","address":"582 S 980 W, Unit 84, Pleasant Grove, UT 84062","precinct":"25PG20","hd":"56","v_score":"0","decile":"1","lat":40.35724132941762,"lng":-111.7548663690931},{"vid":"ce5b036843e199522443a6f87d55813cc2768e8bcef5a6e49bf495465ee07730","name":"Kahlil Rowe","party":"","address":"344 S 740 W, Unit 101, Pleasant Grove, UT 84062","precinct":"25PG20","hd":"56","v_score":"10.13721141","decile":"9","lat":40.359540179660065,"lng":-111.75171505277572},{"vid":"2164435","name":"Spurgeon Reilly","party":"","address":"159 S Pleasant Grove Blvd, Unit 22, Pleasant Grove, UT 84062","precinct":"25PG20","hd":"56","v_score":"11.36410258","decile":"9","lat":40.36349506121401,"lng":-111.75297566094139},{"vid":"2165243","name":"Ebony Waelchi","party":"","address":"488 S 910 W, Unit 109, Pleasant Grove, UT 84062","precinct":"25PG20","hd":"56","v_score":"3.781490609","decile":"6","lat":40.357897136554406,"lng":-111.75408343302483},{"vid":"2166436","name":"Babe Becker","party":"Rep","address":"308 S 740 W, Apt 204, Pleasant Grove, UT 84062","precinct":"25PG20","hd":"56","v_score":"2.660162957","decile":"5","lat":40.36000960703506,"lng":-111.75180724193261},{"vid":"2167968","name":"Abbigail Batz","party":"Rep","address":"943 W 580 S, Unit 97, Pleasant Grove, UT 84062","precinct":"25PG20","hd":"56","v_score":"5.530510904","decile":"7","lat":40.35745337475185,"lng":-111.7542837395166},{"vid":"2169166","name":"Franz Pouros","party":"Rep","address":"584 S 980 W, Unit 58, Pleasant Grove, UT 84062","precinct":"25PG20","hd":"56","v_score":"2.587603312","decile":"5","lat":40.356735082290996,"lng":-111.75473522832135},{"vid":"2173744","name":"Mr. Refugio Lebsack","party":"Rep","address":"946 W 630 S, Unit 46, Pleasant Grove, UT 84062","precinct":"25PG20","hd":"56","v_score":"2.315214949","decile":"5","lat":40.35644429862219,"lng":-111.75425006426788},{"vid":"c1fdf0ff1f469184e078edd49fcd9bfd4e893c0784c1b41fc56c5cd71efe04d0","name":"Erie Donnelly","party":"Rep","address":"581 S 910 W, Unit 90, Pleasant Grove, UT 84062","precinct":"25PG20","hd":"56","v_score":"8.970075029","decile":"8","lat":40.357194142522545,"lng":-111.75393055832863},{"vid":"9174a7dc25f470840b47f752e9f72d3727b53697a1a8c809534f31f4cb6ef8a2","name":"Rheta Graham","party":"","address":"317 S 1000 W, Apt 104, Pleasant Grove, UT 84062","precinct":"25PG20","hd":"56","v_score":"1.121327652","decile":"3","lat":40.3598655165841,"lng":-111.75483243505857},{"vid":"edd448b1cc9b923246132fea0af65650904fdf9560ef18f2a4f9a3542e9d6d5f","name":"Aron Nitzsche I","party":"","address":"952 W 270 S, Apt 203, Pleasant Grove, UT 84062","precinct":"25PG20","hd":"56","v_score":"0","decile":"1","lat":40.36061187793678,"lng":-111.75441525895278},{"vid":"92a7fd36684db69e060d58e5f9576de57bf7cb78800945d19abd01370dc3ab7f","name":"Franz Harber","party":"","address":"309 S 810 W, Pleasant Grove, UT 84062","precinct":"25PG20","hd":"56","v_score":"3.93832808","decile":"6","lat":40.35991584997869,"lng":-111.7521343287459},{"vid":"2190442","name":"Shay Baumbach","party":"Dem","address":"582 W 220 S, Pleasant Grove, UT 84062","precinct":"25PG20","hd":"56","v_score":"3.93832808","decile":"6","lat":40.36169805901034,"lng":-111.74948173542737},{"vid":"2194077","name":"Maureen Cummings","party":"","address":"169 S Pleasant Grove Blvd, Unit 53, Pleasant Grove, UT 84062","precinct":"25PG20","hd":"56","v_score":"5.407962308","decile":"7","lat":40.36278017083475,"lng":-111.75266270030949},{"vid":"18d935386a26fbe219383d92e2b26bdc1f4697209f7197c13ea8251905ee9e77","name":"Joseph Larson","party":"Dem","address":"155 S Pleasant Grove Blvd, Unit 34, Pleasant Grove, UT 84062","precinct":"25PG20","hd":"56","v_score":"1.193887297","decile":"3","lat":40.36354653805449,"lng":-111.75241741368785},{"vid":"9004a7aa47142b63979191b112aed04d2bfc28bc8c286aebe88fbe91eb03527c","name":"Ivor Macejkovic DDS","party":"Rep","address":"584 S 980 W, Unit 61, Pleasant Grove, UT 84062","precinct":"25PG20","hd":"56","v_score":"3.016591252","decile":"6","lat":40.356735082290996,"lng":-111.75473522832135},{"vid":"2202632","name":"Weldon Leuschke","party":"Rep","address":"461 S 980 W, Unit 129, Pleasant Grove, UT 84062","precinct":"25PG20","hd":"56","v_score":"0","decile":"1","lat":40.3582087374577,"lng":-111.75465415488326},{"vid":"a237ec5c0fde4762d39c43dc3cd8f15eddc2ce78ac69b89b67ea65169808bd8b","name":"Brianda Greenfelder","party":"Dem","address":"927 W 630 S, Unit 31, Pleasant Grove, UT 84062","precinct":"25PG20","hd":"56","v_score":"13.12164488","decile":"9","lat":40.35616502663899,"lng":-111.75430748477433},{"vid":"0d8481341c7fac2aacd237d34168514dadb5e7f99bea901f65f045901cffd429","name":"Cathrine Wiza MD","party":"Rep","address":"758 W 260 S, Pleasant Grove, UT 84062","precinct":"25PG20","hd":"56","v_score":"0","decile":"1","lat":40.36061770041456,"lng":-111.75195768741314},{"vid":"b5ba43090d679f0e77c0123244eb9db3bf536af9b66cb299a116074f6ce92965","name":"Rella Spinka","party":"","address":"952 W 270 S, Apt 301, Pleasant Grove, UT 84062","precinct":"25PG20","hd":"56","v_score":"1.121327652","decile":"3","lat":40.36061187793678,"lng":-111.75441525895278},{"vid":"c0091bc7d72c83efccbc0c2acf0999172200d3065c5f34d83a502d84161d79ab","name":"Estes Kohler","party":"","address":"963 W 670 S, Unit 14, Pleasant Grove, UT 84062","precinct":"25PG20","hd":"56","v_score":"1.193887297","decile":"3","lat":40.355587950529795,"lng":-111.7547150672044},{"vid":"385cff7a70b11244d2a37447ea03d5a8e9cd74b32f362ea63e15695c025b264e","name":"Eloy Gislason","party":"","address":"488 S 910 W, Unit 114, Pleasant Grove, UT 84062","precinct":"25PG20","hd":"56","v_score":"0","decile":"1","lat":40.357897136554406,"lng":-111.75408343302483},{"vid":"2215233","name":"Arno Block","party":"","address":"597 S 910 W, Unit 53, Pleasant Grove, UT 84062","precinct":"25PG20","hd":"56","v_score":"2.315214949","decile":"5","lat":40.35662585412152,"lng":-111.75392011990505},{"vid":"deecbebd6841d778f498791af8970933534b4aa0fe2c748898def5cef00ea836","name":"Irvin Roob DDS","party":"Dem","address":"943 W 580 S, Unit 92, Pleasant Grove, UT 84062","precinct":"25PG20","hd":"56","v_score":"1.121327652","decile":"3","lat":40.35745337475185,"lng":-111.7542837395166},{"vid":"e0ded220c7f3f59efc0fe81a031596e8ad8846b77ba70e5a3aa5441f48939c29","name":"Khari Morissette I","party":"Dem","address":"343 S 790 W, Unit 304, Pleasant Grove, UT 84062","precinct":"25PG20","hd":"56","v_score":"1.121327652","decile":"3","lat":40.35968586229441,"lng":-111.75212966465551},{"vid":"2255930","name":"Miss Esperanza Kautzer","party":"","address":"583 S 900 W, Apt 306, Pleasant Grove, UT 84062","precinct":"25PG20","hd":"56","v_score":"9.567299636","decile":"8","lat":40.36497138000084,"lng":-111.82295935360287},{"vid":"2257902","name":"Dania Murazik MD","party":"","address":"273 S 840 W, Pleasant Grove, UT 84062","precinct":"25PG20","hd":"56","v_score":"12.47076983","decile":"9","lat":40.360367599276586,"lng":-111.7527367787419},{"vid":"2257929","name":"Florida Aufderhar","party":"Rep","address":"582 S 980 W, Unit 80, Pleasant Grove, UT 84062","precinct":"25PG20","hd":"56","v_score":"9.307242465","decile":"8","lat":40.35724132941762,"lng":-111.7548663690931},{"vid":"577db1a025e36e833a059951cd98775abd39d79a23fb87d9d644d56f8b4b8de0","name":"Orene Hirthe","party":"Rep","address":"961 W 630 S, Pleasant Grove, UT 84062","precinct":"25PG20","hd":"56","v_score":"2.315214949","decile":"5","lat":40.35616558673512,"lng":-111.7546804871992},{"vid":"2260923","name":"Taurean Kub","party":"Rep","address":"165 S Pleasant Grove Blvd, Unit 41, Pleasant Grove, UT 84062","precinct":"25PG20","hd":"56","v_score":"0","decile":"1","lat":40.362810323397525,"lng":-111.75314383021745},{"vid":"2261496","name":"Dr. Weston Purdy","party":"","address":"956 W 580 S, Unit 126, Pleasant Grove, UT 84062","precinct":"25PG20","hd":"56","v_score":"2.315214949","decile":"5","lat":40.357867096746645,"lng":-111.75441523156414},{"vid":"9529adfa0ba3a5e7012e770ce1811e87acba1a1a8b03ab0946bacc696a1c403c","name":"Ms. Isamar Murazik DVM","party":"Dem","address":"591 S 1050 W, Unit A, Pleasant Grove, UT 84062","precinct":"25PG20","hd":"56","v_score":"24.8419202","decile":"10","lat":40.356693574327046,"lng":-111.75525125014059},{"vid":"2268452","name":"Torry Williamson","party":"Dem","address":"343 S 1000 W, Apt 302, Pleasant Grove, UT 84062","precinct":"25PG20","hd":"56","v_score":"2.315214949","decile":"5","lat":40.359640004305284,"lng":-111.75466755872729},{"vid":"2268684","name":"Janis Batz","party":"Rep","address":"587 S 910 W, Unit 72, Pleasant Grove, UT 84062","precinct":"25PG20","hd":"56","v_score":"0","decile":"1","lat":40.356910497059914,"lng":-111.75392305937233},{"vid":"2272467","name":"Alby Nicolas-Macejkovic","party":"","address":"963 W 670 S, Unit 23, Pleasant Grove, UT 84062","precinct":"25PG20","hd":"56","v_score":"1.121327652","decile":"3","lat":40.355587950529795,"lng":-111.7547150672044},{"vid":"2273107","name":"Halley Roob","party":"Rep","address":"583 S 900 W, # 11-201, Pleasant Grove, UT 84062","precinct":"25PG20","hd":"56","v_score":"5.258122542","decile":"7","lat":40.36497138000084,"lng":-111.82295935360287},{"vid":"2278608","name":"Robt Hilpert","party":"","address":"655 S 980 W, Unit 29, Pleasant Grove, UT 84062","precinct":"25PG20","hd":"56","v_score":"17.07745796","decile":"9","lat":40.355893740930036,"lng":-111.75463933253134},{"vid":"2278609","name":"Dr. Branch Wisozk Sr.","party":"","address":"655 S 980 W, Pleasant Grove, UT 84062","precinct":"25PG20","hd":"56","v_score":"8.241916548","decile":"8","lat":40.355893740930036,"lng":-111.75463933253134},{"vid":"9f0701b6c3d4d806f3b492bae6cf52b4d5b4ecc2a6af21c05ff890eef219aa07","name":"Mr. Delphin Fadel","party":"Rep","address":"785 W 180 S, Unit B, Pleasant Grove, UT 84062","precinct":"25PG20","hd":"56","v_score":"1.193887297","decile":"3","lat":40.36132607229259,"lng":-111.752137696732},{"vid":"b5382f512a99fc7793db81e7b41678b79a1aded5555686eefb35a981aeb26228","name":"Dr. Adolf Muller I","party":"Rep","address":"336 S 930 W, Apt 103, Pleasant Grove, UT 84062","precinct":"25PG20","hd":"56","v_score":"2.315214949","decile":"5","lat":40.35975322846662,"lng":-111.75427547583944},{"vid":"84e14d427605709312799ea179c20324579e9afcb6cf3f091402d6e0e7274341","name":"Moses Ortiz","party":"","address":"298 S 910 W, Pleasant Grove, UT 84062","precinct":"25PG20","hd":"56","v_score":"1.193887297","decile":"3","lat":40.36008287361919,"lng":-111.75374990480435},{"vid":"75c06faa3e9700fb0df4e072fb81bc94ccb00a3141102e227acecee3340b3add","name":"Ms. Roxanna Streich DDS","party":"Dem","address":"371 S 790 W, Pleasant Grove, UT 84062","precinct":"25PG20","hd":"56","v_score":"4.064235245","decile":"6","lat":40.35926968544851,"lng":-111.75198975875742},{"vid":"2309178","name":"Fremont Hahn II","party":"","address":"289 S 1000 W, Apt 204, Pleasant Grove, UT 84062","precinct":"25PG20","hd":"56","v_score":"2.315214949","decile":"5","lat":40.360074109191544,"lng":-111.7547789034776},{"vid":"2314150","name":"Dr. Zackary Eichmann","party":"Dem","address":"165 S Pleasant Grove Blvd, Unit 40, Pleasant Grove, UT 84062","precinct":"25PG20","hd":"56","v_score":"0","decile":"1","lat":40.362810323397525,"lng":-111.75314383021745},{"vid":"2321379","name":"Darl Glover","party":"","address":"345 S 930 W, Pleasant Grove, UT 84062","precinct":"25PG20","hd":"56","v_score":"1.121327652","decile":"3","lat":40.35957170153993,"lng":-111.75393263180365},{"vid":"2331311","name":"Glenn O'Keefe","party":"Rep","address":"952 W 270 S, Apt 301, Pleasant Grove, UT 84062","precinct":"25PG20","hd":"56","v_score":"1.121327652","decile":"3","lat":40.36061187793678,"lng":-111.75441525895278},{"vid":"2334027","name":"Gerhardt Blanda","party":"","address":"289 S 1000 W, Apt 204, Pleasant Grove, UT 84062","precinct":"25PG20","hd":"56","v_score":"1.193887297","decile":"3","lat":40.360074109191544,"lng":-111.7547789034776},{"vid":"2340624","name":"Gemma Bogan","party":"","address":"597 S 910 W, Unit 56, Pleasant Grove, UT 84062","precinct":"25PG20","hd":"56","v_score":"6.954919332","decile":"8","lat":40.35662585412152,"lng":-111.75392011990505},{"vid":"2343365","name":"Armstead Waelchi","party":"Dem","address":"583 S 900 W, Apt 107, Pleasant Grove, UT 84062","precinct":"25PG20","hd":"56","v_score":"1.121327652","decile":"3","lat":40.36497138000084,"lng":-111.82295935360287},{"vid":"2352306","name":"Taniyah Murphy PhD","party":"Rep","address":"384 S 790 W, Pleasant Grove, UT 84062","precinct":"25PG20","hd":"56","v_score":"3.93832808","decile":"6","lat":40.35911371405792,"lng":-111.7522609131099},{"vid":"2359205","name":"Delle Hirthe","party":"","address":"961 W 630 S, Unit 40, Pleasant Grove, UT 84062","precinct":"25PG20","hd":"56","v_score":"3.93832808","decile":"6","lat":40.35616558673512,"lng":-111.7546804871992},{"vid":"2359259","name":"Ina Kris","party":"Rep","address":"277 S 840 W, Pleasant Grove, UT 84062","precinct":"25PG20","hd":"56","v_score":"2.315214949","decile":"5","lat":40.36030768317788,"lng":-111.75274911333992},{"vid":"2369777","name":"Valery Lockman","party":"Dem","address":"986 W 270 S, Apt 301, Pleasant Grove, UT 84062","precinct":"25PG20","hd":"56","v_score":"6.814370645","decile":"8","lat":40.36071670656927,"lng":-111.75501820883024},{"vid":"2369867","name":"Jan Heidenreich","party":"","address":"808 W 260 S, Pleasant Grove, UT 84062","precinct":"25PG20","hd":"56","v_score":"6.027167436","decile":"7","lat":40.360616114590755,"lng":-111.7523645721859},{"vid":"2369990","name":"Alphonsine Keebler","party":"","address":"963 W 670 S, Unit 23, Pleasant Grove, UT 84062","precinct":"25PG20","hd":"56","v_score":"0","decile":"1","lat":40.355587950529795,"lng":-111.7547150672044},{"vid":"2370943","name":"Marco Legros-Tromp","party":"Rep","address":"495 S 900 W, Apt 207, Pleasant Grove, UT 84062","precinct":"25PG20","hd":"56","v_score":"1.121327652","decile":"3","lat":40.2883760147893,"lng":-111.71619280960654},{"vid":"2378068","name":"Jeffie Effertz","party":"","address":"808 W 260 S, Pleasant Grove, UT 84062","precinct":"25PG20","hd":"56","v_score":"14.80889503","decile":"9","lat":40.360616114590755,"lng":-111.7523645721859},{"vid":"2391260","name":"Alethea Corkery","party":"Dem","address":"582 S 980 W, Unit 80, Pleasant Grove, UT 84062","precinct":"25PG20","hd":"56","v_score":"6.364334873","decile":"7","lat":40.35724132941762,"lng":-111.7548663690931},{"vid":"2393644","name":"Finn Jast DDS","party":"Dem","address":"583 S 900 W, Apt 11-302, Pleasant Grove, UT 84062","precinct":"25PG20","hd":"56","v_score":"2.315214949","decile":"5","lat":40.36497138000084,"lng":-111.82295935360287},{"vid":"2405703","name":"Dr. Carrie O'Conner","party":"","address":"584 S 980 W, Unit 66, Pleasant Grove, UT 84062","precinct":"25PG20","hd":"56","v_score":"1.121327652","decile":"3","lat":40.356735082290996,"lng":-111.75473522832135},{"vid":"2417864","name":"Armin DuBuque","party":"Dem","address":"808 W 260 S, Pleasant Grove, UT 84062","precinct":"25PG20","hd":"56","v_score":"14.80889503","decile":"9","lat":40.360616114590755,"lng":-111.7523645721859},{"vid":"2418709","name":"Sharron Rowe","party":"Rep","address":"272 S 810 W, Pleasant Grove, UT 84062","precinct":"25PG20","hd":"56","v_score":"2.315214949","decile":"5","lat":40.36019979988783,"lng":-111.75255964463511},{"vid":"2419275","name":"Elmyra Blick","party":"Dem","address":"272 S 810 W, Pleasant Grove, UT 84062","precinct":"25PG20","hd":"56","v_score":"2.315214949","decile":"5","lat":40.36019979988783,"lng":-111.75255964463511},{"vid":"2420001","name":"Katelynn Goodwin","party":"Dem","address":"772 W 130 S, Unit D, Pleasant Grove, UT 84062","precinct":"25PG20","hd":"56","v_score":"1.121327652","decile":"3","lat":40.36236930929005,"lng":-111.75179178623848},{"vid":"2426429","name":"Mrs. Breann Schowalter","party":"","address":"584 S 980 W, Unit 69, Pleasant Grove, UT 84062","precinct":"25PG20","hd":"56","v_score":"2.744440783","decile":"5","lat":40.356735082290996,"lng":-111.75473522832135},{"vid":"2435503","name":"Buel Connelly","party":"Dem","address":"367 S 1000 W, Apt 203, Pleasant Grove, UT 84062","precinct":"25PG20","hd":"56","v_score":"2.315214949","decile":"5","lat":40.35932951280452,"lng":-111.75488551288142},{"vid":"2436656","name":"Ms. Emely Larson PhD","party":"Rep","address":"376 S 740 W, Unit 104, Pleasant Grove, UT 84062","precinct":"25PG20","hd":"56","v_score":"11.19041277","decile":"9","lat":40.35936815626692,"lng":-111.75172216975345},{"vid":"2438445","name":"Jacquelin Fay","party":"","address":"582 W 220 S, Pleasant Grove, UT 84062","precinct":"25PG20","hd":"56","v_score":"3.93832808","decile":"6","lat":40.36169805901034,"lng":-111.74948173542737},{"vid":"2446846","name":"Rosabelle Waelchi DDS","party":"Dem","address":"597 S 910 W, Unit 54, Pleasant Grove, UT 84062","precinct":"25PG20","hd":"56","v_score":"1.121327652","decile":"3","lat":40.35662585412152,"lng":-111.75392011990505},{"vid":"2452190","name":"Hughie Corkery","party":"Dem","address":"429 S 980 W, Unit 134, Pleasant Grove, UT 84062","precinct":"25PG20","hd":"56","v_score":"4.741221742","decile":"7","lat":40.358502513876154,"lng":-111.75466608217462},{"vid":"2459562","name":"Vickie Littel","party":"","address":"367 S 1000 W, Apt 304, Pleasant Grove, UT 84062","precinct":"25PG20","hd":"56","v_score":"0","decile":"1","lat":40.35932951280452,"lng":-111.75488551288142},{"vid":"2459590","name":"Theresia Murazik","party":"Dem","address":"956 W 580 S, Unit 117, Pleasant Grove, UT 84062","precinct":"25PG20","hd":"56","v_score":"0","decile":"1","lat":40.357867096746645,"lng":-111.75441523156414},{"vid":"2460176","name":"Garnett Wiegand","party":"","address":"362 S 790 W, Pleasant Grove, UT 84062","precinct":"25PG20","hd":"56","v_score":"0","decile":"1","lat":40.359393671130064,"lng":-111.75238282644656},{"vid":"2482235","name":"Keila Runte","party":"","address":"852 W 260 S, Pleasant Grove, UT 84062","precinct":"25PG20","hd":"56","v_score":"0","decile":"1","lat":40.36062309531314,"lng":-111.75328389400829},{"vid":"2482325","name":"Flossie Parker","party":"Dem","address":"584 S 980 W, Unit 61, Pleasant Grove, UT 84062","precinct":"25PG20","hd":"56","v_score":"0","decile":"1","lat":40.356735082290996,"lng":-111.75473522832135},{"vid":"2482451","name":"Valentina Jones-Witting","party":"Rep","address":"336 S 810 W, Pleasant Grove, UT 84062","precinct":"25PG20","hd":"56","v_score":"0","decile":"1","lat":40.3597794157415,"lng":-111.752767891798},{"vid":"2483926","name":"Julien Sporer","party":"","address":"906 W 260 S, Pleasant Grove, UT 84062","precinct":"25PG20","hd":"56","v_score":"0","decile":"1","lat":40.36062225313185,"lng":-111.75363128563977},{"vid":"2487418","name":"Natalee Koelpin-Gaylord","party":"Dem","address":"324 S 810 W, Pleasant Grove, UT 84062","precinct":"25PG20","hd":"56","v_score":"0","decile":"1","lat":40.35962714810195,"lng":-111.75262103272772},{"vid":"2487428","name":"Robbin Lesch","party":"Dem","address":"324 S 810 W, Pleasant Grove, UT 84062","precinct":"25PG20","hd":"56","v_score":"0","decile":"1","lat":40.35962714810195,"lng":-111.75262103272772},{"vid":"2489423","name":"Gilberto Hegmann MD","party":"","address":"488 S 910 W, Unit 107, Pleasant Grove, UT 84062","precinct":"25PG20","hd":"56","v_score":"0","decile":"1","lat":40.357897136554406,"lng":-111.75408343302483},{"vid":"2489767","name":"Ezell Mayer","party":"Rep","address":"151 S Pleasant Grove Blvd, Unit 10, Pleasant Grove, UT 84062","precinct":"25PG20","hd":"56","v_score":"0","decile":"1","lat":40.36401128887601,"lng":-111.75250084880315},{"vid":"2510207","name":"Perry Anderson","party":"","address":"308 S 740 W, Apt 302, Pleasant Grove, UT 84062","precinct":"25PG20","hd":"56","v_score":"0","decile":"1","lat":40.36000960703506,"lng":-111.75180724193261},{"vid":"2515730","name":"Ena Schamberger-Bauch","party":"","address":"356 S 790 W, Pleasant Grove, UT 84062","precinct":"25PG20","hd":"56","v_score":"7.549608095","decile":"8","lat":40.35949930917662,"lng":-111.75247336966522},{"vid":"2532942","name":"Elvie Heathcote","party":"","address":"323 S 810 W, Pleasant Grove, UT 84062","precinct":"25PG20","hd":"56","v_score":"0","decile":"1","lat":40.35985515491143,"lng":-111.75227916378229},{"vid":"2534204","name":"Rosella Anderson","party":"Rep","address":"946 W 630 S, Unit 41, Pleasant Grove, UT 84062","precinct":"25PG20","hd":"56","v_score":"2.876042565","decile":"6","lat":40.35644429862219,"lng":-111.75425006426788},{"vid":"2543036","name":"Troy Abernathy","party":"Rep","address":"345 S 930 W, Pleasant Grove, UT 84062","precinct":"25PG20","hd":"56","v_score":"0","decile":"1","lat":40.35957170153993,"lng":-111.75393263180365},{"vid":"2551595","name":"Mr. Kamari Parker II","party":"","address":"583 S 900 W, Apt 307, Pleasant Grove, UT 84062","precinct":"25PG20","hd":"56","v_score":"9.907118004","decile":"8","lat":40.36497138000084,"lng":-111.82295935360287},{"vid":"2552128","name":"Elliana Kulas","party":"Rep","address":"929 W 670 S, Unit 1, Pleasant Grove, UT 84062","precinct":"25PG20","hd":"56","v_score":"1.193887297","decile":"4","lat":40.35546470060453,"lng":-111.75403815646034},{"vid":"2565470","name":"Adison Ullrich PhD","party":"Dem","address":"317 S 1000 W, Apt 102, Pleasant Grove, UT 84062","precinct":"25PG20","hd":"56","v_score":"7.549608095","decile":"8","lat":40.3598655165841,"lng":-111.75483243505857},{"vid":"2571562","name":"Eliseo Von","party":"Rep","address":"816 W 260 S, Pleasant Grove, UT 84062","precinct":"25PG20","hd":"56","v_score":"0","decile":"1","lat":40.36061983419691,"lng":-111.75254333495114},{"vid":"2571580","name":"Dillon Morissette-Koss","party":"Dem","address":"952 W 270 S, Apt 104, Pleasant Grove, UT 84062","precinct":"25PG20","hd":"56","v_score":"0","decile":"1","lat":40.36061187793678,"lng":-111.75441525895278},{"vid":"2595220","name":"Mandy Jakubowski","party":"Rep","address":"337 S 930 W, Pleasant Grove, UT 84062","precinct":"25PG20","hd":"56","v_score":"1.193887297","decile":"4","lat":40.35965587688902,"lng":-111.75393332520882},{"vid":"2616755","name":"Kiersten Dibbert-Simonis","party":"","address":"808 W 260 S, Pleasant Grove, UT 84062","precinct":"25PG20","hd":"56","v_score":"13.68756737","decile":"9","lat":40.360616114590755,"lng":-111.7523645721859},{"vid":"2621797","name":"Shemar Hudson","party":"Rep","address":"986 W 270 S, Apt 201, Pleasant Grove, UT 84062","precinct":"25PG20","hd":"56","v_score":"1.193887297","decile":"4","lat":40.36071670656927,"lng":-111.75501820883024},{"vid":"2624311","name":"Dr. Urijah Shields II","party":"","address":"946 W 630 S, Unit 44, Pleasant Grove, UT 84062","precinct":"25PG20","hd":"56","v_score":"1.121327652","decile":"3","lat":40.35644429862219,"lng":-111.75425006426788},{"vid":"2626326","name":"Rylan Larkin","party":"","address":"946 W 630 S, Unit 50, Pleasant Grove, UT 84062","precinct":"25PG20","hd":"56","v_score":"2.817000428","decile":"6","lat":40.35644429862219,"lng":-111.75425006426788},{"vid":"2627478","name":"Dr. Sol Trantow III","party":"Dem","address":"317 S 1000 W, Apt 101, Pleasant Grove, UT 84062","precinct":"25PG20","hd":"56","v_score":"2.817000428","decile":"6","lat":40.3598655165841,"lng":-111.75483243505857},{"vid":"2630860","name":"Dr. Parley Reichel","party":"Dem","address":"289 S 1000 W, Apt 302, Pleasant Grove, UT 84062","precinct":"25PG20","hd":"56","v_score":"0","decile":"1","lat":40.360074109191544,"lng":-111.7547789034776},{"vid":"2641547","name":"Clem Marvin","party":"Dem","address":"584 S 980 W, Unit 69, Pleasant Grove, UT 84062","precinct":"25PG20","hd":"56","v_score":"1.193887297","decile":"4","lat":40.356735082290996,"lng":-111.75473522832135},{"vid":"2643655","name":"Celina Blick","party":"Dem","address":"956 W 580 S, Unit 115, Pleasant Grove, UT 84062","precinct":"25PG20","hd":"56","v_score":"1.623113131","decile":"5","lat":40.357867096746645,"lng":-111.75441523156414},{"vid":"2644982","name":"Latrell Schmitt","party":"Rep","address":"818 W 310 S, Pleasant Grove, UT 84062","precinct":"25PG20","hd":"56","v_score":"2.817000428","decile":"6","lat":40.36005492907324,"lng":-111.75280562331534},{"vid":"2646737","name":"Arthor Pouros","party":"Rep","address":"273 S 840 W, Pleasant Grove, UT 84062","precinct":"25PG20","hd":"56","v_score":"9.638447451","decile":"8","lat":40.360367599276586,"lng":-111.7527367787419},{"vid":"2654320","name":"Robt McCullough","party":"","address":"343 S 1000 W, Apt 101, Pleasant Grove, UT 84062","precinct":"25PG20","hd":"56","v_score":"1.193887297","decile":"4","lat":40.359640004305284,"lng":-111.75466755872729},{"vid":"2664658","name":"Ritchie Botsford Jr.","party":"Dem","address":"367 S 1000 W, Apt 203, Pleasant Grove, UT 84062","precinct":"25PG20","hd":"56","v_score":"1.193887297","decile":"4","lat":40.35932951280452,"lng":-111.75488551288142},{"vid":"2664865","name":"Valarie Hayes","party":"Dem","address":"337 S 930 W, Pleasant Grove, UT 84062","precinct":"25PG20","hd":"56","v_score":"4.069929862","decile":"6","lat":40.35965587688902,"lng":-111.75393332520882},{"vid":"2674440","name":"Dr. Tyreek Ratke Sr.","party":"","address":"367 S 1000 W, Apt 301, Pleasant Grove, UT 84062","precinct":"25PG20","hd":"56","v_score":"1.193887297","decile":"4","lat":40.35932951280452,"lng":-111.75488551288142},{"vid":"2676086","name":"Roma Zulauf","party":"","address":"495 S 900 W, Apt 107, Pleasant Grove, UT 84062","precinct":"25PG20","hd":"56","v_score":"0","decile":"2","lat":40.2883760147893,"lng":-111.71619280960654},{"vid":"2678446","name":"Gaines Rice","party":"Rep","address":"534 S 810 W, Apt 302, Pleasant Grove, UT 84062","precinct":"25PG20","hd":"56","v_score":"0","decile":"2","lat":40.356859062547215,"lng":-111.75265166182382},{"vid":"2683813","name":"Dr. Keri Bogan MD","party":"Rep","address":"742 W 130 S, Unit B, Pleasant Grove, UT 84062","precinct":"25PG20","hd":"56","v_score":"0","decile":"2","lat":40.362579210556945,"lng":-111.75133890094732},{"vid":"2686706","name":"Armani Cole","party":"","address":"169 S Pleasant Grove Blvd, Unit 53, Pleasant Grove, UT 84062","precinct":"25PG20","hd":"56","v_score":"1.193887297","decile":"4","lat":40.36278017083475,"lng":-111.75266270030949},{"vid":"2688944","name":"Gurney Homenick","party":"","address":"137 S 700 W, Unit A, Pleasant Grove, UT 84062","precinct":"25PG20","hd":"56","v_score":"19.15457182","decile":"10","lat":40.362054800871874,"lng":-111.75067326405417},{"vid":"2690199","name":"Mr. Early Schuppe","party":"Rep","address":"583 S 900 W, Apt 104, Pleasant Grove, UT 84062","precinct":"25PG20","hd":"56","v_score":"0","decile":"2","lat":40.36497138000084,"lng":-111.82295935360287},{"vid":"2692664","name":"Rhoda Dooley","party":"","address":"151 S Pleasant Grove Blvd, Unit 8, Pleasant Grove, UT 84062","precinct":"25PG20","hd":"56","v_score":"1.193887297","decile":"4","lat":40.36401128887601,"lng":-111.75250084880315},{"vid":"2705471","name":"Dr. Preston Borer","party":"","address":"597 S 910 W, Unit 56, Pleasant Grove, UT 84062","precinct":"25PG20","hd":"56","v_score":"1.193887297","decile":"4","lat":40.35662585412152,"lng":-111.75392011990505},{"vid":"2705995","name":"Cindy Lemke","party":"","address":"317 S 1000 W, Apt 202, Pleasant Grove, UT 84062","precinct":"25PG20","hd":"56","v_score":"5.926494964","decile":"7","lat":40.3598655165841,"lng":-111.75483243505857},{"vid":"2706110","name":"Nat Dibbert","party":"","address":"429 S 980 W, Unit 133, Pleasant Grove, UT 84062","precinct":"25PG20","hd":"56","v_score":"5.926494964","decile":"7","lat":40.358502513876154,"lng":-111.75466608217462},{"vid":"2713195","name":"Ansel Hackett","party":"Rep","address":"337 S 930 W, Pleasant Grove, UT 84062","precinct":"25PG20","hd":"56","v_score":"9.338633761","decile":"8","lat":40.35965587688902,"lng":-111.75393332520882},{"vid":"2723814","name":"Karyme Jones","party":"Rep","address":"351 S 930 W, Pleasant Grove, UT 84062","precinct":"25PG20","hd":"56","v_score":"10.71001167","decile":"9","lat":40.359517751693524,"lng":-111.75392370785796},{"vid":"2723822","name":"Harman Sauer","party":"","address":"351 S 930 W, Pleasant Grove, UT 84062","precinct":"25PG20","hd":"56","v_score":"9.516124369","decile":"8","lat":40.359517751693524,"lng":-111.75392370785796},{"vid":"2726169","name":"Ashlynn Botsford","party":"Dem","address":"785 W 180 S, Unit A, Pleasant Grove, UT 84062","precinct":"25PG20","hd":"56","v_score":"9.338633761","decile":"8","lat":40.36132607229259,"lng":-111.752137696732},{"vid":"2726609","name":"Dr. Harve Torphy","party":"","address":"343 S 790 W, Unit 202, Pleasant Grove, UT 84062","precinct":"25PG20","hd":"56","v_score":"11.99595736","decile":"9","lat":40.35968586229441,"lng":-111.75212966465551},{"vid":"2729950","name":"Danika McKenzie","party":"","address":"296 S 930 W, Pleasant Grove, UT 84062","precinct":"25PG20","hd":"56","v_score":"0","decile":"2","lat":40.36010206924503,"lng":-111.75441183343706},{"vid":"2746672","name":"Lawrence Halvorson","party":"","address":"367 S 1000 W, Pleasant Grove, UT 84062","precinct":"25PG20","hd":"56","v_score":"0","decile":"2","lat":40.35932951280452,"lng":-111.75488551288142},{"vid":"2754741","name":"Dr. Idella Mueller","party":"","address":"155 S Pleasant Grove Blvd, Unit 31, Pleasant Grove, UT 84062","precinct":"25PG20","hd":"56","v_score":"3.61989409","decile":"6","lat":40.36354653805449,"lng":-111.75241741368785},{"vid":"2757318","name":"Evertt Conn","party":"","address":"584 S 980 W, Unit 69, Pleasant Grove, UT 84062","precinct":"25PG20","hd":"56","v_score":"0","decile":"2","lat":40.356735082290996,"lng":-111.75473522832135},{"vid":"2775338","name":"Nell Lehner","party":"Rep","address":"267 S 930 W, Pleasant Grove, UT 84062","precinct":"25PG20","hd":"56","v_score":"0","decile":"2","lat":40.36048014102345,"lng":-111.75406770681802},{"vid":"2780212","name":"Magdalena Moore DVM","party":"","address":"584 S 980 W, Unit 65, Pleasant Grove, UT 84062","precinct":"25PG20","hd":"56","v_score":"0","decile":"2","lat":40.356735082290996,"lng":-111.75473522832135},{"vid":"2781811","name":"Elizah Connelly","party":"","address":"169 S Pleasant Grove Blvd, Unit 57, Pleasant Grove, UT 84062","precinct":"25PG20","hd":"56","v_score":"1.193887297","decile":"4","lat":40.36278017083475,"lng":-111.75266270030949},{"vid":"2783550","name":"Aileen Crooks","party":"Dem","address":"308 S 740 W, Apt 104, Pleasant Grove, UT 84062","precinct":"25PG20","hd":"56","v_score":"1.193887297","decile":"4","lat":40.36000960703506,"lng":-111.75180724193261},{"vid":"2785322","name":"Kiera Jerde","party":"Dem","address":"277 S 840 W, Pleasant Grove, UT 84062","precinct":"25PG20","hd":"56","v_score":"0","decile":"2","lat":40.36030768317788,"lng":-111.75274911333992},{"vid":"2785983","name":"Ms. Rosie Rogahn DDS","party":"Rep","address":"151 S Pleasant Grove Blvd, Unit 8, Pleasant Grove, UT 84062","precinct":"25PG20","hd":"56","v_score":"0","decile":"2","lat":40.36401128887601,"lng":-111.75250084880315},{"vid":"2787484","name":"Griffith Hand","party":"Rep","address":"155 S Pleasant Grove Blvd, Unit 34, Pleasant Grove, UT 84062","precinct":"25PG20","hd":"56","v_score":"1.193887297","decile":"4","lat":40.36354653805449,"lng":-111.75241741368785},{"vid":"2793616","name":"Dr. Laverne Mann","party":"","address":"343 S 790 W, Unit 301, Pleasant Grove, UT 84062","precinct":"25PG20","hd":"56","v_score":"1.193887297","decile":"4","lat":40.35968586229441,"lng":-111.75212966465551},{"vid":"2796642","name":"Deanna Cummerata","party":"","address":"495 S 900 W, Apt 304, Pleasant Grove, UT 84062","precinct":"25PG20","hd":"56","v_score":"1.193887297","decile":"4","lat":40.2883760147893,"lng":-111.71619280960654},{"vid":"2799755","name":"Mr. Fitzgerald Botsford","party":"Dem","address":"584 S 980 W, Unit 59, Pleasant Grove, UT 84062","precinct":"25PG20","hd":"56","v_score":"1.193887297","decile":"4","lat":40.356735082290996,"lng":-111.75473522832135},{"vid":"2807228","name":"Mr. Darin Wintheiser","party":"","address":"929 W 670 S, Unit 9, Pleasant Grove, UT 84062","precinct":"25PG20","hd":"56","v_score":"1.193887297","decile":"4","lat":40.35546470060453,"lng":-111.75403815646034},{"vid":"2815063","name":"Brielle Nolan","party":"Rep","address":"276 S 810 W, Pleasant Grove, UT 84062","precinct":"25PG20","hd":"56","v_score":"1.193887297","decile":"4","lat":40.36025583174222,"lng":-111.75254990473915},{"vid":"2815513","name":"Wayne Waelchi II","party":"Rep","address":"534 S 810 W, Apt 203, Pleasant Grove, UT 84062","precinct":"25PG20","hd":"56","v_score":"1.193887297","decile":"4","lat":40.356859062547215,"lng":-111.75265166182382},{"vid":"2833284","name":"Prentice Ferry","party":"","address":"308 S 740 W, Apt 104, Pleasant Grove, UT 84062","precinct":"25PG20","hd":"56","v_score":"0","decile":"2","lat":40.36000960703506,"lng":-111.75180724193261},{"vid":"2842936","name":"Breanna Tremblay-Abbott","party":"Dem","address":"534 S 810 W, Apt 202, Pleasant Grove, UT 84062","precinct":"25PG20","hd":"56","v_score":"1.193887297","decile":"4","lat":40.356859062547215,"lng":-111.75265166182382},{"vid":"2851201","name":"Miss Mariana Abshire MD","party":"Dem","address":"289 S 1000 W, Apt 303, Pleasant Grove, UT 84062","precinct":"25PG20","hd":"56","v_score":"1.193887297","decile":"4","lat":40.360074109191544,"lng":-111.7547789034776},{"vid":"2851295","name":"Bernetta Krajcik","party":"","address":"963 W 670 S, Unit 19, Pleasant Grove, UT 84062","precinct":"25PG20","hd":"56","v_score":"1.193887297","decile":"4","lat":40.355587950529795,"lng":-111.7547150672044},{"vid":"2851443","name":"Virgle O'Reilly","party":"","address":"429 S 980 W, Unit 136, Pleasant Grove, UT 84062","precinct":"25PG20","hd":"56","v_score":"1.193887297","decile":"4","lat":40.358502513876154,"lng":-111.75466608217462},{"vid":"2858154","name":"Mr. Trinity Daugherty I","party":"Dem","address":"429 S 980 W, Unit 132, Pleasant Grove, UT 84062","precinct":"25PG20","hd":"56","v_score":"1.193887297","decile":"4","lat":40.358502513876154,"lng":-111.75466608217462},{"vid":"2868806","name":"Shayne Toy","party":"","address":"308 S 740 W, Apt 302, Pleasant Grove, UT 84062","precinct":"25PG20","hd":"56","v_score":"1.193887297","decile":"4","lat":40.36000960703506,"lng":-111.75180724193261},{"vid":"2871773","name":"Neta Wuckert","party":"Dem","address":"376 S 740 W, Unit 203, Pleasant Grove, UT 84062","precinct":"25PG20","hd":"56","v_score":"1.193887297","decile":"4","lat":40.35936815626692,"lng":-111.75172216975345},{"vid":"2880433","name":"Tanya Cormier-Reilly","party":"Dem","address":"495 S 900 W, Apt 306, Pleasant Grove, UT 84062","precinct":"25PG20","hd":"56","v_score":"1.193887297","decile":"4","lat":40.2883760147893,"lng":-111.71619280960654},{"vid":"2884082","name":"Melva Deckow","party":"","address":"961 W 630 S, Unit 38, Pleasant Grove, UT 84062","precinct":"25PG20","hd":"56","v_score":"0","decile":"2","lat":40.35616558673512,"lng":-111.7546804871992},{"vid":"2884431","name":"Hall McCullough","party":"Dem","address":"583 S 900 W, Apt 203, Pleasant Grove, UT 84062","precinct":"25PG20","hd":"56","v_score":"1.193887297","decile":"4","lat":40.36497138000084,"lng":-111.82295935360287},{"vid":"2888909","name":"Delaney McCullough-Balistreri","party":"Dem","address":"344 S 740 W, Unit 103, Pleasant Grove, UT 84062","precinct":"25PG20","hd":"56","v_score":"1.193887297","decile":"4","lat":40.359540179660065,"lng":-111.75171505277572},{"vid":"2889315","name":"Page Casper-Schiller","party":"","address":"282 S 910 W, Cedar Hills, UT 84062","precinct":"25PG20","hd":"56","v_score":"1.193887297","decile":"4","lat":40.36026309009273,"lng":-111.75374639285147},{"vid":"2889683","name":"Dr. Kourtney Nienow DVM","party":"Dem","address":"308 S 740 W, Apt 302, Pleasant Grove, UT 84062","precinct":"25PG20","hd":"56","v_score":"0","decile":"2","lat":40.36000960703506,"lng":-111.75180724193261},{"vid":"2891413","name":"Aryanna Jenkins","party":"","address":"295 S 930 W, Pleasant Grove, UT 84062","precinct":"25PG20","hd":"56","v_score":"0","decile":"2","lat":40.36019046770224,"lng":-111.75399065419882},{"vid":"2893777","name":"Dr. Coty Walsh","party":"Dem","address":"159 S Pleasant Grove Blvd, Unit 14, Pleasant Grove, UT 84062","precinct":"25PG20","hd":"56","v_score":"0","decile":"2","lat":40.36349506121401,"lng":-111.75297566094139},{"vid":"2893786","name":"Mr. Dudley Hansen DDS","party":"","address":"816 W 260 S, Pleasant Grove, UT 84062","precinct":"25PG20","hd":"56","v_score":"0","decile":"2","lat":40.36061983419691,"lng":-111.75254333495114},{"vid":"2895291","name":"Augustine Cronin","party":"Dem","address":"283 S 840 W, Pleasant Grove, UT 84062","precinct":"25PG20","hd":"56","v_score":"0","decile":"2","lat":40.360238454082,"lng":-111.75274624877581},{"vid":"2905959","name":"Cedric Crona-Ratke","party":"","address":"344 S 740 W, Pleasant Grove, UT 84062","precinct":"25PG20","hd":"56","v_score":"0","decile":"2","lat":40.359540179660065,"lng":-111.75171505277572},{"vid":"2916185","name":"Kori Larkin","party":"Rep","address":"343 S 790 W, Unit 303, Pleasant Grove, UT 84062","precinct":"25PG20","hd":"56","v_score":"0","decile":"2","lat":40.35968586229441,"lng":-111.75212966465551},{"vid":"2923250","name":"Mr. Jerrod Smith","party":"Rep","address":"956 W 580 S, Bldg O-116, Pleasant Grove, UT 84062","precinct":"25PG20","hd":"56","v_score":"0","decile":"2","lat":40.357867096746645,"lng":-111.75441523156414},{"vid":"2926833","name":"Amalia Franecki","party":"Dem","address":"367 S 1000 W, Apt 204, Pleasant Grove, UT 84062","precinct":"25PG20","hd":"56","v_score":"0","decile":"2","lat":40.35932951280452,"lng":-111.75488551288142},{"vid":"2927258","name":"Skylar Macejkovic","party":"Rep","address":"856 W 260 S, Pleasant Grove, UT 84062","precinct":"25PG20","hd":"56","v_score":"0","decile":"2","lat":40.36062583666813,"lng":-111.75321332439145},{"vid":"2928168","name":"Mikala Zboncak DVM","party":"","address":"169 S Pleasant Grove Blvd, Unit 60, Pleasant Grove, UT 84062","precinct":"25PG20","hd":"56","v_score":"0","decile":"2","lat":40.36278017083475,"lng":-111.75266270030949},{"vid":"2932999","name":"Kevon Champlin","party":"","address":"159 S Pleasant Grove Blvd, Unit 22, Pleasant Grove, UT 84062","precinct":"25PG20","hd":"56","v_score":"0","decile":"2","lat":40.36349506121401,"lng":-111.75297566094139},{"vid":"2941140","name":"Leigh Daniel","party":"Rep","address":"856 W 260 S, Pleasant Grove, UT 84062","precinct":"25PG20","hd":"56","v_score":"0","decile":"2","lat":40.36062583666813,"lng":-111.75321332439145},{"vid":"2947902","name":"Odell Anderson","party":"","address":"376 S 740 W, Unit 204, Pleasant Grove, UT 84062","precinct":"25PG20","hd":"56","v_score":"0","decile":"2","lat":40.35936815626692,"lng":-111.75172216975345},{"vid":"2947905","name":"Liller Kuhlman","party":"","address":"376 S 740 W, Unit 204, Pleasant Grove, UT 84062","precinct":"25PG20","hd":"56","v_score":"0","decile":"2","lat":40.35936815626692,"lng":-111.75172216975345},{"vid":"2951988","name":"Lota Simonis DDS","party":"","address":"165 S Pleasant Grove Blvd, Unit 41, Pleasant Grove, UT 84062","precinct":"25PG20","hd":"56","v_score":"0","decile":"2","lat":40.362810323397525,"lng":-111.75314383021745},{"vid":"2956654","name":"Adalberto Wolf","party":"Dem","address":"298 S 910 W, Pleasant Grove, UT 84062","precinct":"25PG20","hd":"56","v_score":"0","decile":"2","lat":40.36008287361919,"lng":-111.75374990480435},{"vid":"2971762","name":"Dr. Skyler Sauer","party":"","address":"165 S Pleasant Grove Blvd, Pleasant Grove, UT 84062","precinct":"25PG20","hd":"56","v_score":"0","decile":"2","lat":40.362810323397525,"lng":-111.75314383021745},{"vid":"2976897","name":"Sharleen Larson","party":"Rep","address":"142 S 840 W, Unit B, Pleasant Grove, UT 84062","precinct":"25PG20","hd":"56","v_score":"0","decile":"2","lat":40.36196686395668,"lng":-111.75335515091757},{"vid":"2979260","name":"Preston Kessler","party":"Dem","address":"362 S 790 W, Pleasant Grove, UT 84062","precinct":"25PG20","hd":"56","v_score":"0","decile":"2","lat":40.359393671130064,"lng":-111.75238282644656},{"vid":"2981660","name":"Anthoney Hilll-Spencer","party":"Dem","address":"986 W 270 S, Apt 303, Pleasant Grove, UT 84062","precinct":"25PG20","hd":"56","v_score":"0","decile":"2","lat":40.36071670656927,"lng":-111.75501820883024},{"vid":"a3c4c78c784b741f4a56f596ac01384e28620d84a5b41e3675992fb4e48d9793","name":"Alvah Rosenbaum","party":"","address":"956 W 580 S, Unit 120, Pleasant Grove, UT 84062","precinct":"25PG20","hd":"56","v_score":"0","decile":"2","lat":40.357867096746645,"lng":-111.75441523156414},{"vid":"a850213e876c9231942d8911501536581930712451af284d67bb29d1828f0e14","name":"Elzie Veum","party":"","address":"142 S 840 W, Unit D, Pleasant Grove, UT 84062","precinct":"25PG20","hd":"56","v_score":"2.587603312","decile":"5","lat":40.36196686395668,"lng":-111.75335515091757},{"vid":"3063311","name":"Ebbie Powlowski I","party":"","address":"793 W 130 S, Unit D, Pleasant Grove, UT 84062","precinct":"25PG20","hd":"56","v_score":"16.72520646","decile":"9","lat":40.36195633762825,"lng":-111.75228046580044},{"vid":"3164248","name":"Everette Borer-Bode","party":"Rep","address":"952 W 270 S, Apt 104, Pleasant Grove, UT 84062","precinct":"25PG20","hd":"56","v_score":"9.917069994","decile":"9","lat":40.36061187793678,"lng":-111.75441525895278},{"vid":"3165929","name":"Royce Parisian","party":"","address":"597 S 910 W, Unit 57, Pleasant Grove, UT 84062","precinct":"25PG20","hd":"56","v_score":"2.315214949","decile":"5","lat":40.35662585412152,"lng":-111.75392011990505},{"vid":"3205368","name":"Toshiko Steuber","party":"","address":"929 W 670 S, Unit 3, Pleasant Grove, UT 84062","precinct":"25PG20","hd":"56","v_score":"3.93832808","decile":"6","lat":40.35546470060453,"lng":-111.75403815646034},{"vid":"752fd5792a687e93d7f6f81cc369ed735954fd73ee36b4a9eb3a2547aa8abd5b","name":"Liliana Turcotte-VonRueden","party":"Dem","address":"952 W 270 S, Apt 203, Pleasant Grove, UT 84062","precinct":"25PG20","hd":"56","v_score":"0","decile":"2","lat":40.36061187793678,"lng":-111.75441525895278},{"vid":"3255470","name":"Carmela Rath-Murphy","party":"Dem","address":"495 S 900 W, Apt 107, Pleasant Grove, UT 84062","precinct":"25PG20","hd":"56","v_score":"2.817000428","decile":"6","lat":40.2883760147893,"lng":-111.71619280960654},{"vid":"6d0a99f364474752d142393eccad9da4bac1bd7e24df5bea9a69f2077cec8e5b","name":"Kayleen Orn","party":"","address":"597 S 910 W, Unit 55, Pleasant Grove, UT 84062","precinct":"25PG20","hd":"56","v_score":"3.93832808","decile":"6","lat":40.35662585412152,"lng":-111.75392011990505},{"vid":"40bd30567064060662b615b9e0abf3cd34379eac8e9da10c0c56dfe7f6df1bda","name":"Verlon Kreiger IV","party":"Dem","address":"943 W 580 S, Unit 97, Pleasant Grove, UT 84062","precinct":"25PG20","hd":"56","v_score":"0","decile":"2","lat":40.35745337475185,"lng":-111.7542837395166},{"vid":"3325713","name":"Mrs. Karley Jast","party":"Rep","address":"284 S 840 W, Pleasant Grove, UT 84062","precinct":"25PG20","hd":"56","v_score":"1.121327652","decile":"3","lat":40.360286231487684,"lng":-111.75307645655076},{"vid":"3347365","name":"Laraine Hessel","party":"Rep","address":"495 S 900 W, Apt 308, Pleasant Grove, UT 84062","precinct":"25PG20","hd":"56","v_score":"0","decile":"2","lat":40.2883760147893,"lng":-111.71619280960654},{"vid":"3451321","name":"Park Langosh","party":"","address":"852 W 260 S, Pleasant Grove, UT 84062","precinct":"25PG20","hd":"56","v_score":"1.623113131","decile":"5","lat":40.36062309531314,"lng":-111.75328389400829},{"vid":"3540814","name":"Celina Pagac DVM","party":"","address":"502 W 700 S, Apt 2, Pleasant Grove, UT 84062","precinct":"25PG20","hd":"56","v_score":"16.22796003","decile":"9","lat":40.35601649325127,"lng":-111.74772678668829},{"vid":"3540817","name":"Dr. Marcos Purdy III","party":"Dem","address":"502 W 700 S, Apt 2, Pleasant Grove, UT 84062","precinct":"25PG20","hd":"56","v_score":"16.22796003","decile":"9","lat":40.35601649325127,"lng":-111.74772678668829},{"vid":"3559980","name":"Octa Lehner","party":"Rep","address":"963 W 670 S, Unit 18, Pleasant Grove, UT 84062","precinct":"25PG20","hd":"56","v_score":"13.77150267","decile":"9","lat":40.355587950529795,"lng":-111.7547150672044},{"vid":"4505532","name":"Hakeem Jaskolski","party":"Dem","address":"169 S Pleasant Grove Blvd, Unit 50, Pleasant Grove, UT 84062","precinct":"25PG20","hd":"56","v_score":"2.587603312","decile":"5","lat":40.36278017083475,"lng":-111.75266270030949},{"vid":"5314933","name":"Miss Kamora Upton","party":"Rep","address":"495 S 900 W, Apt 305, Pleasant Grove, UT 84062","precinct":"25PG20","hd":"56","v_score":"0","decile":"3","lat":40.2883760147893,"lng":-111.71619280960654},{"vid":"5843565","name":"Campbell Funk","party":"","address":"142 S 840 W, Unit C, Pleasant Grove, UT 84062","precinct":"25PG20","hd":"56","v_score":"32.99311139","decile":"10","lat":40.36196686395668,"lng":-111.75335515091757},{"vid":"b47ab9e1599e2392a951d8c5b24f78a8f4490c91787d775b3dc4c69ff7a54826","name":"Miss Cammie Turner PhD","party":"Rep","address":"762 W 180 S, Unit C, Pleasant Grove, UT 84062","precinct":"25PG20","hd":"56","v_score":"5.40460374","decile":"7","lat":40.36172885507197,"lng":-111.75164548194005},{"vid":"6166518","name":"Parrish Raynor","party":"Rep","address":"388 S 790 W, Pleasant Grove, UT 84062","precinct":"25PG20","hd":"56","v_score":"15.2589308","decile":"9","lat":40.35905858232053,"lng":-111.75221310223772},{"vid":"1eec29d4460130593d3aa54314360c522b1d130ddaab45d088b8588435d45868","name":"Gerhardt Hilll","party":"Rep","address":"963 W 670 S, Unit 16, Pleasant Grove, UT 84062","precinct":"25PG20","hd":"56","v_score":"0","decile":"3","lat":40.355587950529795,"lng":-111.7547150672044},{"vid":"df08255d2db0370eb97adb3c30788e35c864826bd7c120cde1584a730e90ee23","name":"Jeramy Effertz","party":"Dem","address":"912 W 260 S, Pleasant Grove, UT 84062","precinct":"25PG20","hd":"56","v_score":"5.40460374","decile":"7","lat":40.36062240440669,"lng":-111.75356706575384},{"vid":"6207822","name":"Eligah Kreiger","party":"","address":"166 S 840 W, Unit A, Pleasant Grove, UT 84062","precinct":"25PG20","hd":"56","v_score":"40.56588523","decile":"10","lat":40.36174973352703,"lng":-111.7530880749564},{"vid":"6213184","name":"Rocco Durgan DVM","party":"Dem","address":"772 W 130 S, Apt 13-B, Pleasant Grove, UT 84062","precinct":"25PG20","hd":"56","v_score":"19.21807828","decile":"10","lat":40.36236930929005,"lng":-111.75179178623848},{"vid":"6228263","name":"Laylah Dickens","party":"","address":"828 W 310 S, Pleasant Grove, UT 84062","precinct":"25PG20","hd":"56","v_score":"1.193887297","decile":"4","lat":40.36001393454964,"lng":-111.75263712587903},{"vid":"6232903","name":"Mr. Rosario Reinger","party":"","address":"793 W 130 S, Unit A, Pleasant Grove, UT 84062","precinct":"25PG20","hd":"56","v_score":"17.98301199","decile":"10","lat":40.36195633762825,"lng":-111.75228046580044},{"vid":"6283210","name":"Henry Aufderhar DDS","party":"","address":"868 W 130 S, Unit D, Pleasant Grove, UT 84062","precinct":"25PG20","hd":"56","v_score":"37.65509309","decile":"10","lat":40.36255102537802,"lng":-111.75334762052019},{"vid":"cf853365473ab6ad8bc764c97e8acf588e7126b5065e7291038e9634629161ef","name":"Mrs. Annmarie Kunze","party":"Dem","address":"163 S 700 W, Unit D, Pleasant Grove, UT 84062","precinct":"25PG20","hd":"56","v_score":"29.42656749","decile":"10","lat":40.3618349749334,"lng":-111.75070047779703},{"vid":"5acec6b0bc231e80a071ccc085dc3d32b396c17de6401109b43bde49552ddc68","name":"Mr. Ivey Runolfsdottir MD","party":"","address":"163 S 700 W, Unit D, Pleasant Grove, UT 84062","precinct":"25PG20","hd":"56","v_score":"32.36947509","decile":"10","lat":40.3618349749334,"lng":-111.75070047779703},{"vid":"6302420","name":"Janay Lemke","party":"Dem","address":"343 S 790 W, Unit 304, Pleasant Grove, UT 84062","precinct":"25PG20","hd":"56","v_score":"3.93832808","decile":"6","lat":40.35968586229441,"lng":-111.75212966465551},{"vid":"6316579","name":"Evita Johnston","party":"Rep","address":"308 S 740 W, Apt 104, Pleasant Grove, UT 84062","precinct":"25PG20","hd":"56","v_score":"1.193887297","decile":"4","lat":40.36000960703506,"lng":-111.75180724193261},{"vid":"6317692","name":"Mr. Rudolfo Huels PhD","party":"Dem","address":"946 W 630 S, Unit 52, Pleasant Grove, UT 84062","precinct":"25PG20","hd":"56","v_score":"0","decile":"3","lat":40.35644429862219,"lng":-111.75425006426788},{"vid":"6336666","name":"Ms. Yareli Jenkins","party":"","address":"762 W 180 S, Unit C, Pleasant Grove, UT 84062","precinct":"25PG20","hd":"56","v_score":"24.41991715","decile":"10","lat":40.36172885507197,"lng":-111.75164548194005},{"vid":"6343019","name":"Clotilde Cremin DVM","party":"","address":"137 S 700 W, Unit B, Pleasant Grove, UT 84062","precinct":"25PG20","hd":"56","v_score":"19.15121325","decile":"10","lat":40.362054800871874,"lng":-111.75067326405417},{"vid":"6343022","name":"Samson Schuster","party":"Rep","address":"137 S 700 W, Unit B, Pleasant Grove, UT 84062","precinct":"25PG20","hd":"56","v_score":"19.15121325","decile":"10","lat":40.362054800871874,"lng":-111.75067326405417},{"vid":"6355750","name":"Virgel Murazik","party":"","address":"343 S 790 W, Unit 304, Pleasant Grove, UT 84062","precinct":"25PG20","hd":"56","v_score":"3.93832808","decile":"6","lat":40.35968586229441,"lng":-111.75212966465551},{"vid":"6356286","name":"Deborah Reilly-Prosacco","party":"Dem","address":"301 S 930 W, Pleasant Grove, UT 84062","precinct":"25PG20","hd":"56","v_score":"1.121327652","decile":"3","lat":40.360105899806186,"lng":-111.7540063636313},{"vid":"90d94c331814041196b55939f7f7700ad771faecff7172cf67fda283c52ef222","name":"Dereck Corkery","party":"Rep","address":"534 S 810 W, Apt 204, Pleasant Grove, UT 84062","precinct":"25PG20","hd":"56","v_score":"0","decile":"3","lat":40.356859062547215,"lng":-111.75265166182382},{"vid":"6373312","name":"Harrie Kessler","party":"Rep","address":"151 S Pleasant Grove Blvd, Unit 5, Pleasant Grove, UT 84062","precinct":"25PG20","hd":"56","v_score":"10.89074633","decile":"9","lat":40.36401128887601,"lng":-111.75250084880315},{"vid":"6373527","name":"Dollie Hudson","party":"Dem","address":"785 W 180 S, Unit C, Pleasant Grove, UT 84062","precinct":"25PG20","hd":"56","v_score":"15.66172","decile":"9","lat":40.36132607229259,"lng":-111.752137696732},{"vid":"6374394","name":"Levon Hickle","party":"Dem","address":"308 S 740 W, Apt 104, Pleasant Grove, UT 84062","precinct":"25PG20","hd":"56","v_score":"1.193887297","decile":"4","lat":40.36000960703506,"lng":-111.75180724193261},{"vid":"6378881","name":"Dr. Marget Satterfield","party":"Rep","address":"868 W 260 S, Pleasant Grove, UT 84062","precinct":"25PG20","hd":"56","v_score":"3.93832808","decile":"6","lat":40.360624150325464,"lng":-111.75304803022982},{"vid":"6399420","name":"Michaele Kemmer-Bradtke","party":"","address":"163 S 700 W, Unit A, Pleasant Grove, UT 84062","precinct":"25PG20","hd":"56","v_score":"19.1624148","decile":"10","lat":40.3618349749334,"lng":-111.75070047779703},{"vid":"6399777","name":"Jordan Huel","party":"","address":"169 S Pleasant Grove Blvd, Unit 51, Pleasant Grove, UT 84062","precinct":"25PG20","hd":"56","v_score":"3.93832808","decile":"6","lat":40.36278017083475,"lng":-111.75266270030949},{"vid":"6404689","name":"Danny Schaefer V","party":"Rep","address":"163 S 700 W, Unit A, Pleasant Grove, UT 84062","precinct":"25PG20","hd":"56","v_score":"17.49642076","decile":"9","lat":40.3618349749334,"lng":-111.75070047779703},{"vid":"6413949","name":"Trevor Vandervort","party":"Dem","address":"255 S 930 W, Pleasant Grove, UT 84062","precinct":"25PG20","hd":"56","v_score":"3.781490609","decile":"6","lat":40.360617176588676,"lng":-111.7540668039295},{"vid":"6422293","name":"Deandra Schaden MD","party":"","address":"961 W 630 S, Unit 37, Pleasant Grove, UT 84062","precinct":"25PG20","hd":"56","v_score":"3.93832808","decile":"6","lat":40.35616558673512,"lng":-111.7546804871992},{"vid":"6424923","name":"Le Reichert","party":"","address":"929 W 670 S, Apt 10a, Pleasant Grove, UT 84062","precinct":"25PG20","hd":"56","v_score":"0","decile":"3","lat":40.35546470060453,"lng":-111.75403815646034},{"vid":"6430513","name":"Alena Hermiston","party":"Dem","address":"332 S 810 W, Pleasant Grove, UT 84062","precinct":"25PG20","hd":"56","v_score":"1.121327652","decile":"3","lat":40.359729943698596,"lng":-111.75271740885358},{"vid":"6437443","name":"Shad Koepp PhD","party":"Dem","address":"304 S 930 W, Pleasant Grove, UT 84062","precinct":"25PG20","hd":"56","v_score":"8.280646305","decile":"8","lat":40.36002028365936,"lng":-111.75439955603375},{"vid":"6438886","name":"Clive Lemke","party":"Dem","address":"488 S 910 W, Unit 114, Pleasant Grove, UT 84062","precinct":"25PG20","hd":"56","v_score":"1.121327652","decile":"3","lat":40.357897136554406,"lng":-111.75408343302483},{"vid":"833c8badd694816fe66e17fe3225dd1884fa6955d8c751697ad3bfc07273f53f","name":"Major Yost","party":"","address":"264 S 910 W, Pleasant Grove, UT 84062","precinct":"25PG20","hd":"56","v_score":"0","decile":"3","lat":40.36045337764766,"lng":-111.75373981846309},{"vid":"6446144","name":"Jimena Denesik-Steuber","party":"Dem","address":"343 S 1000 W, Apt 304, Pleasant Grove, UT 84062","precinct":"25PG20","hd":"56","v_score":"1.46627566","decile":"4","lat":40.359640004305284,"lng":-111.75466755872729},{"vid":"6452674","name":"Vickey Kemmer","party":"Rep","address":"986 W 270 S, Apt 102, Pleasant Grove, UT 84062","precinct":"25PG20","hd":"56","v_score":"3.93832808","decile":"6","lat":40.36071670656927,"lng":-111.75501820883024},{"vid":"6458855","name":"Shawnda Durgan","party":"Rep","address":"943 W 580 S, Unit 99, Pleasant Grove, UT 84062","precinct":"25PG20","hd":"56","v_score":"5.40460374","decile":"7","lat":40.35745337475185,"lng":-111.7542837395166},{"vid":"6460881","name":"Elmore Ledner","party":"Rep","address":"584 S 980 W, Unit 58, Pleasant Grove, UT 84062","precinct":"25PG20","hd":"56","v_score":"4.283276088","decile":"7","lat":40.356735082290996,"lng":-111.75473522832135},{"vid":"6461077","name":"Ennis Gulgowski","party":"","address":"383 S 790 W, Pleasant Grove, UT 84062","precinct":"25PG20","hd":"56","v_score":"9.600440767","decile":"8","lat":40.35914296024086,"lng":-111.75198935862534},{"vid":"6461892","name":"Orie Carroll-Dach","party":"","address":"929 W 670 S, Unit 3, Pleasant Grove, UT 84062","precinct":"25PG20","hd":"56","v_score":"2.315214949","decile":"5","lat":40.35546470060453,"lng":-111.75403815646034},{"vid":"6464340","name":"Dr. Sherwood Witting Sr.","party":"Dem","address":"502 W 700 S, Pleasant Grove, UT 84062","precinct":"25PG20","hd":"56","v_score":"0","decile":"3","lat":40.35601649325127,"lng":-111.74772678668829},{"vid":"6465964","name":"Oney Little","party":"","address":"306 S 910 W, Pleasant Grove, UT 84062","precinct":"25PG20","hd":"56","v_score":"2.587603312","decile":"5","lat":40.36001437662748,"lng":-111.75374993272698},{"vid":"3ceedfdfa5cbe813b258371e7683738e3ea64d00a7f4eca6d5d92dcfadbbba68","name":"Ignatz Hickle","party":"","address":"165 S Pleasant Grove Blvd, Unit 42, Pleasant Grove, UT 84062","precinct":"25PG20","hd":"56","v_score":"18.85933738","decile":"10","lat":40.362810323397525,"lng":-111.75314383021745},{"vid":"6482365","name":"Shirlee White","party":"","address":"961 W 630 S, Unit 37, Pleasant Grove, UT 84062","precinct":"25PG20","hd":"56","v_score":"8.15240309","decile":"8","lat":40.35616558673512,"lng":-111.7546804871992},{"vid":"6483102","name":"Aubra Bruen","party":"","address":"534 S 810 W, Apt 4-203, Pleasant Grove, UT 84062","precinct":"25PG20","hd":"56","v_score":"9.82709755","decile":"8","lat":40.356859062547215,"lng":-111.75265166182382},{"vid":"6483408","name":"Beula Ward","party":"Dem","address":"946 W 630 S, Unit 47, Pleasant Grove, UT 84062","precinct":"25PG20","hd":"56","v_score":"0","decile":"3","lat":40.35644429862219,"lng":-111.75425006426788},{"vid":"6485567","name":"Mr. Arlyn Swift DDS","party":"Rep","address":"372 S 930 W, Apt 204, Pleasant Grove, UT 84062","precinct":"25PG20","hd":"56","v_score":"24.26213645","decile":"10","lat":40.359406454255804,"lng":-111.7543925872771},{"vid":"2b97d9ce23f43fc3e82e6a52cfc1a33c4805740c8c87bc090e26c2c36f8be586","name":"Mr. Ryne Rowe","party":"","address":"376 S 740 W, Pleasant Grove, UT 84062","precinct":"25PG20","hd":"56","v_score":"2.587603312","decile":"5","lat":40.35936815626692,"lng":-111.75172216975345},{"vid":"6495657","name":"Shawnte Quigley","party":"","address":"828 W 310 S, Pleasant Grove, UT 84062","precinct":"25PG20","hd":"56","v_score":"5.191257514","decile":"7","lat":40.36001393454964,"lng":-111.75263712587903},{"vid":"6502526","name":"Alesia Ledner-Pfeffer","party":"Dem","address":"323 S 810 W, Pleasant Grove, UT 84062","precinct":"25PG20","hd":"56","v_score":"5.40460374","decile":"7","lat":40.35985515491143,"lng":-111.75227916378229},{"vid":"6515528","name":"Darrian Streich I","party":"","address":"676 W 130 S, Unit A, Pleasant Grove, UT 84062","precinct":"25PG20","hd":"56","v_score":"2.587603312","decile":"5","lat":40.36243949854356,"lng":-111.75041592601033},{"vid":"6516950","name":"Mrs. Zula Stamm PhD","party":"Dem","address":"295 S 930 W, Pleasant Grove, UT 84062","precinct":"25PG20","hd":"56","v_score":"1.121327652","decile":"3","lat":40.36019046770224,"lng":-111.75399065419882},{"vid":"6519015","name":"Kacie Terry","party":"","address":"159 S Pleasant Grove Blvd, Unit 16, Pleasant Grove, UT 84062","precinct":"25PG20","hd":"56","v_score":"13.32779236","decile":"9","lat":40.36349506121401,"lng":-111.75297566094139},{"vid":"6523954","name":"Dr. Marybelle Morar DVM","party":"","address":"159 S Pleasant Grove Blvd, Pleasant Grove, UT 84062","precinct":"25PG20","hd":"56","v_score":"0","decile":"3","lat":40.36349506121401,"lng":-111.75297566094139},{"vid":"6527467","name":"Rowan Nikolaus","party":"","address":"915 W 310 S, Pleasant Grove, UT 84062","precinct":"25PG20","hd":"56","v_score":"3.93832808","decile":"6","lat":40.35975558257208,"lng":-111.75365365692659}]