[{"vid":"1236264","name":"Jeannette Balistreri","party":"","address":"838 E Center St, Pleasant Grove, UT 84062","precinct":"25PG12","hd":"55","v_score":"13.45445245","decile":"9","lat":40.054304321683155,"lng":-111.65663322267953,"phone":"(775) 010-5906","sd":"21","ssbd":"11","lsbd":"School Board Timpanogos 1"},{"vid":"1236265","name":"Alonza Hodkiewicz","party":"Rep","address":"838 E Center St, Pleasant Grove, UT 84062","precinct":"25PG12","hd":"55","v_score":"13.45445245","decile":"9","lat":40.054304321683155,"lng":-111.65663322267953,"phone":"(996) 964-6737","sd":"21","ssbd":"11","lsbd":"School Board Timpanogos 1"},{"vid":"e41cdbf68255de0f62a4b61a9b6c5e14e58e430b30608577750e7db1c6766270","name":"Alcide Botsford","party":"Rep","address":"11 N 1300 E, Apt B, Pleasant Grove, UT 84062","precinct":"25PG12","hd":"55","v_score":"4.064235245","decile":"6","lat":40.36429361246218,"lng":-111.71016478501004,"phone":"(762) 015-6798","sd":"21","ssbd":"11","lsbd":"School Board Timpanogos 1"},{"vid":"fae8148d695f83d17304d5056e83a33ceea8f6fd7289581093adfb6a47796df1","name":"Stetson Streich","party":"Rep","address":"84 S 850 E, Pleasant Grove, UT 84062","precinct":"25PG12","hd":"55","v_score":"0","decile":"1","lat":40.36285168666581,"lng":-111.7222091245093,"phone":"(993) 579-4586","sd":"21","ssbd":"11","lsbd":"School Board Timpanogos 1"},{"vid":"1259546","name":"Dr. Gia Lubowitz","party":"Rep","address":"93 N 1185 E, Pleasant Grove, UT 84062","precinct":"25PG12","hd":"55","v_score":"5.530510904","decile":"7","lat":40.36469312047398,"lng":-111.71301512209835,"phone":"(242) 663-9837","sd":"21","ssbd":"11","lsbd":"School Board Timpanogos 1"},{"vid":"1278276","name":"Jerold Raynor","party":"","address":"739 E 200 S, Pleasant Grove, UT 84062","precinct":"25PG12","hd":"55","v_score":"20.77768495","decile":"10","lat":40.361519232620566,"lng":-111.7244644795464,"phone":"(105) 361-3805","sd":"21","ssbd":"11","lsbd":"School Board Timpanogos 1"},{"vid":"1281592","name":"Evelyn Okuneva","party":"Rep","address":"1183 E 120 N, Pleasant Grove, UT 84062","precinct":"25PG12","hd":"55","v_score":"2.587603312","decile":"5","lat":40.36553361448327,"lng":-111.71288532277542,"phone":"(116) 764-9614","sd":"21","ssbd":"11","lsbd":"School Board Timpanogos 1"},{"vid":"1297461","name":"Aubrey Ernser","party":"","address":"11 N 1300 E, Apt B, Pleasant Grove, UT 84062","precinct":"25PG12","hd":"55","v_score":"4.13679489","decile":"7","lat":40.36429361246218,"lng":-111.71016478501004,"phone":"(917) 674-8059","sd":"21","ssbd":"11","lsbd":"School Board Timpanogos 1"},{"vid":"1299306","name":"Mrs. Camille Feest","party":"","address":"215 N 1400 E, Pleasant Grove, UT 84062","precinct":"25PG12","hd":"55","v_score":"8.347511332","decile":"8","lat":40.3664903977452,"lng":-111.70794471362,"phone":"(714) 586-8488","sd":"21","ssbd":"11","lsbd":"School Board Timpanogos 1"},{"vid":"1317090","name":"Chris King DVM","party":"","address":"1340 E 150 N, Pleasant Grove, UT 84062","precinct":"25PG12","hd":"55","v_score":"2.315214949","decile":"5","lat":40.365031540897675,"lng":-111.70911137008247,"phone":"(105) 417-9357","sd":"21","ssbd":"11","lsbd":"School Board Timpanogos 1"},{"vid":"1319593","name":"Olympia Weber","party":"Dem","address":"2 S 1300 E, Pleasant Grove, UT 84062","precinct":"25PG12","hd":"55","v_score":"18.62406652","decile":"10","lat":40.36390983404573,"lng":-111.71002874948886,"phone":"(415) 373-4544","sd":"21","ssbd":"11","lsbd":"School Board Timpanogos 1"},{"vid":"e990c545cf7d36077640ccb0b0ad324360320c87cae9e63de1636725c0238805","name":"Jaunita Larkin-Boehm","party":"Rep","address":"1366 E 250 N, Pleasant Grove, UT 84062","precinct":"25PG12","hd":"55","v_score":"16.72520646","decile":"9","lat":40.36647971376609,"lng":-111.70852283121835,"phone":"(614) 145-6718","sd":"21","ssbd":"11","lsbd":"School Board Timpanogos 1"},{"vid":"afa4d6a33d92e3de6b6e912c9090ad958b9ecdd45b0bff0e8ac82f1895445c25","name":"Fronia Prohaska","party":"","address":"240 N 1300 E, Pleasant Grove, UT 84062","precinct":"25PG12","hd":"55","v_score":"17.48345516","decile":"9","lat":40.36640811078226,"lng":-111.70989160867963,"phone":"(925) 645-7367","sd":"21","ssbd":"11","lsbd":"School Board Timpanogos 1"},{"vid":"1343027","name":"Dr. Glenda Heaney","party":"Dem","address":"1065 E 200 S, Pleasant Grove, UT 84062","precinct":"25PG12","hd":"55","v_score":"0","decile":"1","lat":40.36196519890529,"lng":-111.71606549375917,"phone":"(903) 398-6279","sd":"21","ssbd":"11","lsbd":"School Board Timpanogos 1"},{"vid":"826d4c846c19d9d70d29dc1fedf9ee9e30b14608dc2d7a39fa7046ec1eb93b35","name":"Arra Terry","party":"Dem","address":"175 S 1300 E, Pleasant Grove, UT 84062","precinct":"25PG12","hd":"55","v_score":"1.193887297","decile":"3","lat":40.361863019407025,"lng":-111.70890457263393,"phone":"(645) 998-9241","sd":"21","ssbd":"11","lsbd":"School Board Timpanogos 1"},{"vid":"1355826","name":"Kyle Volkman","party":"","address":"558 E Center St, Pleasant Grove, UT 84062","precinct":"25PG12","hd":"55","v_score":"0","decile":"1","lat":40.36358689610796,"lng":-111.7290825672484,"phone":"(413) 514-4021","sd":"21","ssbd":"11","lsbd":"School Board Timpanogos 1"},{"vid":"1360793","name":"Tamara Schmidt-Grimes","party":"","address":"625 E 200 S, Pleasant Grove, UT 84062","precinct":"25PG12","hd":"55","v_score":"2.744440783","decile":"5","lat":40.36138131342687,"lng":-111.72693538471991,"phone":"(378) 415-5863","sd":"21","ssbd":"11","lsbd":"School Board Timpanogos 1"},{"vid":"1360903","name":"Clarinda Krajcik DDS","party":"Rep","address":"1175 E 100 N, Pleasant Grove, UT 84062","precinct":"25PG12","hd":"55","v_score":"40.94311568","decile":"10","lat":40.364979076155585,"lng":-111.7130015790388,"phone":"(748) 089-5526","sd":"21","ssbd":"11","lsbd":"School Board Timpanogos 1"},{"vid":"1364585","name":"Arlis Johnson","party":"Dem","address":"1213 E 200 S, Pleasant Grove, UT 84062","precinct":"25PG12","hd":"55","v_score":"8.280646305","decile":"8","lat":40.36145563058607,"lng":-111.7121430103124,"phone":"(394) 089-5888","sd":"21","ssbd":"11","lsbd":"School Board Timpanogos 1"},{"vid":"1364687","name":"Miss Maryann Yost","party":"","address":"695 E 200 S, Pleasant Grove, UT 84062","precinct":"25PG12","hd":"55","v_score":"14.95117867","decile":"9","lat":40.36140667008325,"lng":-111.72567558646713,"phone":"(311) 000-9772","sd":"21","ssbd":"11","lsbd":"School Board Timpanogos 1"},{"vid":"1378857","name":"Dan Lakin","party":"Dem","address":"578 E 100 S, Pleasant Grove, UT 84062","precinct":"25PG12","hd":"55","v_score":"0","decile":"1","lat":40.36211165600117,"lng":-111.72866956469123,"phone":"(450) 668-7839","sd":"21","ssbd":"11","lsbd":"School Board Timpanogos 1"},{"vid":"1382496","name":"Arturo Collier","party":"Dem","address":"195 N 1400 E, Pleasant Grove, UT 84062","precinct":"25PG12","hd":"55","v_score":"22.10816128","decile":"10","lat":40.36600899165194,"lng":-111.7080510671128,"phone":"(217) 462-0847","sd":"21","ssbd":"11","lsbd":"School Board Timpanogos 1"},{"vid":"1385249","name":"Barrett Hudson","party":"Dem","address":"1320 E 150 N, Pleasant Grove, UT 84062","precinct":"25PG12","hd":"55","v_score":"2.315214949","decile":"5","lat":40.36522215353959,"lng":-111.70944704266384,"phone":"(814) 825-0531","sd":"21","ssbd":"11","lsbd":"School Board Timpanogos 1"},{"vid":"1388684","name":"Hailey Turner-Emard","party":"","address":"37 N 1185 E, Pleasant Grove, UT 84062","precinct":"25PG12","hd":"55","v_score":"3.93832808","decile":"6","lat":40.36440382286424,"lng":-111.71314102230362,"phone":"(504) 730-9964","sd":"21","ssbd":"11","lsbd":"School Board Timpanogos 1"},{"vid":"1412558","name":"Adeline Schumm","party":"","address":"1225 E 120 N, Pleasant Grove, UT 84062","precinct":"25PG12","hd":"55","v_score":"2.587603312","decile":"5","lat":40.3656199180099,"lng":-111.71175569074816,"phone":"(868) 308-0943","sd":"21","ssbd":"11","lsbd":"School Board Timpanogos 1"},{"vid":"1424141","name":"Matias Grimes","party":"","address":"903 E 200 S, Pleasant Grove, UT 84062","precinct":"25PG12","hd":"55","v_score":"14.95117867","decile":"9","lat":40.36166882947946,"lng":-111.72032977870664,"phone":"(860) 091-0681","sd":"21","ssbd":"11","lsbd":"School Board Timpanogos 1"},{"vid":"1431318","name":"Berniece Marquardt DDS","party":"Dem","address":"1183 E 120 N, Pleasant Grove, UT 84062","precinct":"25PG12","hd":"55","v_score":"10.44299084","decile":"9","lat":40.36553361448327,"lng":-111.71288532277542,"phone":"(307) 930-1425","sd":"21","ssbd":"11","lsbd":"School Board Timpanogos 1"},{"vid":"1436688","name":"Mr. Almon Boyle","party":"Dem","address":"1212 E 120 N, Pleasant Grove, UT 84062","precinct":"25PG12","hd":"55","v_score":"1.121327652","decile":"3","lat":40.36520803985255,"lng":-111.71218253828098,"phone":"(467) 508-4109","sd":"21","ssbd":"11","lsbd":"School Board Timpanogos 1"},{"vid":"1445567","name":"Dr. Latonia Bosco","party":"","address":"615 E 200 S, Pleasant Grove, UT 84062","precinct":"25PG12","hd":"55","v_score":"8.347511332","decile":"8","lat":40.361360738909944,"lng":-111.72740342638653,"phone":"(359) 493-2344","sd":"21","ssbd":"11","lsbd":"School Board Timpanogos 1"},{"vid":"1449146","name":"Dr. Kinley Davis","party":"Dem","address":"11 S 1025 E, Pleasant Grove, UT 84062","precinct":"25PG12","hd":"55","v_score":"2.315214949","decile":"5","lat":40.364568809475905,"lng":-111.71706601584256,"phone":"(104) 107-4892","sd":"21","ssbd":"11","lsbd":"School Board Timpanogos 1"},{"vid":"1458229","name":"Peyton Auer","party":"Dem","address":"680 E Center St, Pleasant Grove, UT 84062","precinct":"25PG12","hd":"55","v_score":"4.283276088","decile":"7","lat":40.36356658488613,"lng":-111.72605296512475,"phone":"(111) 333-5845","sd":"21","ssbd":"11","lsbd":"School Board Timpanogos 1"},{"vid":"1499553","name":"Dr. Lilian Crooks","party":"Dem","address":"724 E 100 S, Pleasant Grove, UT 84062","precinct":"25PG12","hd":"55","v_score":"33.92580343","decile":"10","lat":40.36223443460922,"lng":-111.72469523509545,"phone":"(701) 679-0160","sd":"21","ssbd":"11","lsbd":"School Board Timpanogos 1"},{"vid":"1504152","name":"Chyna Deckow","party":"","address":"24 N 1185 E, Pleasant Grove, UT 84062","precinct":"25PG12","hd":"55","v_score":"13.835802","decile":"9","lat":40.3640275627228,"lng":-111.71254905846857,"phone":"(248) 188-9759","sd":"21","ssbd":"11","lsbd":"School Board Timpanogos 1"},{"vid":"1535735","name":"Jeana Satterfield MD","party":"","address":"724 E 100 S, Pleasant Grove, UT 84062","precinct":"25PG12","hd":"55","v_score":"33.92580343","decile":"10","lat":40.36223443460922,"lng":-111.72469523509545,"phone":"(497) 973-0144","sd":"21","ssbd":"11","lsbd":"School Board Timpanogos 1"},{"vid":"1544159","name":"Arietta Fadel","party":"","address":"230 N 1300 E, Pleasant Grove, UT 84062","precinct":"25PG12","hd":"55","v_score":"3.93832808","decile":"6","lat":40.366158341744374,"lng":-111.70984495386685,"phone":"(840) 701-4721","sd":"21","ssbd":"11","lsbd":"School Board Timpanogos 1"},{"vid":"4b9cc7ce82c72b9164ec2e9e0fadd3cd5653abf4d6c6375239bac43b3f581c72","name":"Mettie Crona","party":"","address":"1121 E 30 S, Pleasant Grove, UT 84062","precinct":"25PG12","hd":"55","v_score":"6.724398202","decile":"8","lat":40.364224799261855,"lng":-111.71455315512428,"phone":"(878) 573-6202","sd":"21","ssbd":"11","lsbd":"School Board Timpanogos 1"},{"vid":"1555044","name":"Shelvie Wunsch","party":"Rep","address":"1005 E 100 S, Pleasant Grove, UT 84062","precinct":"25PG12","hd":"55","v_score":"13.93704549","decile":"9","lat":40.36286519280102,"lng":-111.71765095489873,"phone":"(911) 942-0758","sd":"21","ssbd":"11","lsbd":"School Board Timpanogos 1"},{"vid":"1558448","name":"Amanda Aufderhar","party":"Dem","address":"32 N 1300 E, Pleasant Grove, UT 84062","precinct":"25PG12","hd":"55","v_score":"2.660162957","decile":"5","lat":40.36436851805758,"lng":-111.70970406470477,"phone":"(300) 953-8170","sd":"21","ssbd":"11","lsbd":"School Board Timpanogos 1"},{"vid":"1561093","name":"Mardell Flatley","party":"","address":"651 E 100 S, Pleasant Grove, UT 84062","precinct":"25PG12","hd":"55","v_score":"2.315214949","decile":"5","lat":40.362623112782416,"lng":-111.72676187368549,"phone":"(216) 914-4283","sd":"21","ssbd":"11","lsbd":"School Board Timpanogos 1"},{"vid":"1571585","name":"Cherrie Schuster-Mraz","party":"Rep","address":"651 E 100 S, Pleasant Grove, UT 84062","precinct":"25PG12","hd":"55","v_score":"1.193887297","decile":"3","lat":40.362623112782416,"lng":-111.72676187368549,"phone":"(295) 744-1898","sd":"21","ssbd":"11","lsbd":"School Board Timpanogos 1"},{"vid":"1580696","name":"Antonio Luettgen","party":"Rep","address":"37 S 1025 E, Pleasant Grove, UT 84062","precinct":"25PG12","hd":"55","v_score":"1.623113131","decile":"4","lat":40.36405593639579,"lng":-111.71680220853354,"phone":"(605) 384-4218","sd":"21","ssbd":"11","lsbd":"School Board Timpanogos 1"},{"vid":"1587901","name":"Boston Hackett","party":"Rep","address":"49 N 1300 E, Pleasant Grove, UT 84062","precinct":"25PG12","hd":"55","v_score":"16.03869888","decile":"9","lat":40.36453362543292,"lng":-111.71026614821177,"phone":"(787) 876-1404","sd":"21","ssbd":"11","lsbd":"School Board Timpanogos 1"},{"vid":"1594369","name":"Dahlia Larson-Johnston","party":"Rep","address":"180 N 1350 E, Pleasant Grove, UT 84062","precinct":"25PG12","hd":"55","v_score":"8.535114849","decile":"8","lat":40.366041559796834,"lng":-111.70885558812547,"phone":"(868) 901-3163","sd":"21","ssbd":"11","lsbd":"School Board Timpanogos 1"},{"vid":"8aae51f81f77c74de12b3aba7a58f0a06fe719af3cf7e5941db534748f8d78e1","name":"Mr. Sheldon Batz MD","party":"Dem","address":"858 E 100 S, Pleasant Grove, UT 84062","precinct":"25PG12","hd":"55","v_score":"26.8582098","decile":"10","lat":40.36227381894977,"lng":-111.72205773064468,"phone":"(647) 521-5560","sd":"21","ssbd":"11","lsbd":"School Board Timpanogos 1"},{"vid":"1617935","name":"Guadalupe O'Kon","party":"Dem","address":"140 S 600 E, Pleasant Grove, UT 84062","precinct":"25PG12","hd":"55","v_score":"10.52632313","decile":"9","lat":40.36194726775179,"lng":-111.72832870262764,"phone":"(437) 099-6655","sd":"21","ssbd":"11","lsbd":"School Board Timpanogos 1"},{"vid":"1631674","name":"Miss Francina Hagenes","party":"Dem","address":"196 N 1350 E, Pleasant Grove, UT 84062","precinct":"25PG12","hd":"55","v_score":"22.03213191","decile":"10","lat":40.36622026371281,"lng":-111.70868953489081,"phone":"(658) 966-6929","sd":"21","ssbd":"11","lsbd":"School Board Timpanogos 1"},{"vid":"1631972","name":"Maira Stoltenberg-Hand","party":"","address":"515 E 200 S, Pleasant Grove, UT 84062","precinct":"25PG12","hd":"55","v_score":"9.116556227","decile":"8","lat":40.36142416450314,"lng":-111.73011312670812,"phone":"(148) 962-7892","sd":"21","ssbd":"11","lsbd":"School Board Timpanogos 1"},{"vid":"1632122","name":"Dot Moen-Casper","party":"","address":"1213 E 50 N, Pleasant Grove, UT 84062","precinct":"25PG12","hd":"55","v_score":"2.587603312","decile":"5","lat":40.36487443873514,"lng":-111.71214869257578,"phone":"(711) 763-7101","sd":"21","ssbd":"11","lsbd":"School Board Timpanogos 1"},{"vid":"1633393","name":"Junior Terry","party":"","address":"835 E 100 S, Pleasant Grove, UT 84062","precinct":"25PG12","hd":"55","v_score":"7.583918848","decile":"8","lat":40.36262538323285,"lng":-111.72233923761608,"phone":"(932) 855-5309","sd":"21","ssbd":"11","lsbd":"School Board Timpanogos 1"},{"vid":"1635195","name":"Kimball Block","party":"Rep","address":"49 N 1300 E, Pleasant Grove, UT 84062","precinct":"25PG12","hd":"55","v_score":"13.09579129","decile":"9","lat":40.36453362543292,"lng":-111.71026614821177,"phone":"(890) 029-6950","sd":"21","ssbd":"11","lsbd":"School Board Timpanogos 1"},{"vid":"1647713","name":"Ms. Janyce Hermiston","party":"","address":"11 S 1025 E, Pleasant Grove, UT 84062","precinct":"25PG12","hd":"55","v_score":"2.315214949","decile":"5","lat":40.364568809475905,"lng":-111.71706601584256,"phone":"(402) 406-8110","sd":"21","ssbd":"11","lsbd":"School Board Timpanogos 1"},{"vid":"1660412","name":"Santana Cormier","party":"","address":"26 S 760 E, Pleasant Grove, UT 84062","precinct":"25PG12","hd":"55","v_score":"4.210716443","decile":"7","lat":40.363435172730966,"lng":-111.72425032765679,"phone":"(732) 283-0599","sd":"21","ssbd":"11","lsbd":"School Board Timpanogos 1"},{"vid":"1662677","name":"Steve Larson","party":"","address":"570 E 100 S, Pleasant Grove, UT 84062","precinct":"25PG12","hd":"55","v_score":"30.47669206","decile":"10","lat":40.362133876041725,"lng":-111.72895253066982,"phone":"(611) 921-9706","sd":"21","ssbd":"11","lsbd":"School Board Timpanogos 1"},{"vid":"1662679","name":"Malakai Hills","party":"Dem","address":"570 E 100 S, Pleasant Grove, UT 84062","precinct":"25PG12","hd":"55","v_score":"26.32386814","decile":"10","lat":40.362133876041725,"lng":-111.72895253066982,"phone":"(539) 034-6533","sd":"21","ssbd":"11","lsbd":"School Board Timpanogos 1"},{"vid":"335e7e45f01b46982a3122827c2035b6ed940bd71b01e42edd7c23aecc23e46d","name":"Christena Leffler","party":"","address":"144 N 1300 E, Pleasant Grove, UT 84062","precinct":"25PG12","hd":"55","v_score":"22.84391672","decile":"10","lat":40.36525694505119,"lng":-111.70972188054068,"phone":"(715) 021-0159","sd":"21","ssbd":"11","lsbd":"School Board Timpanogos 1"},{"vid":"1699394","name":"Earnestine Homenick","party":"","address":"845 E 200 S, Pleasant Grove, UT 84062","precinct":"25PG12","hd":"55","v_score":"3.781490609","decile":"6","lat":40.36147504725448,"lng":-111.72159746917822,"phone":"(809) 135-5172","sd":"21","ssbd":"11","lsbd":"School Board Timpanogos 1"},{"vid":"1701254","name":"Diya Daniel","party":"Rep","address":"1234 E 50 N, Pleasant Grove, UT 84062","precinct":"25PG12","hd":"55","v_score":"1.121327652","decile":"3","lat":40.364480067471945,"lng":-111.71142611473059,"phone":"(795) 142-6758","sd":"21","ssbd":"11","lsbd":"School Board Timpanogos 1"},{"vid":"1704285","name":"Simeon Gleichner","party":"Dem","address":"64 S 1025 E, # B, Pleasant Grove, UT 84062","precinct":"25PG12","hd":"55","v_score":"5.620483348","decile":"7","lat":40.363394885971005,"lng":-111.71747688008247,"phone":"(131) 316-6893","sd":"21","ssbd":"11","lsbd":"School Board Timpanogos 1"},{"vid":"1708335","name":"Merrily Reichert","party":"Rep","address":"1113 E 30 S, Pleasant Grove, UT 84062","precinct":"25PG12","hd":"55","v_score":"1.46627566","decile":"4","lat":40.36376058840159,"lng":-111.71453324738118,"phone":"(331) 530-2578","sd":"21","ssbd":"11","lsbd":"School Board Timpanogos 1"},{"vid":"1718112","name":"Charolette Morissette","party":"Dem","address":"102 N 1185 E, Pleasant Grove, UT 84062","precinct":"25PG12","hd":"55","v_score":"3.93832808","decile":"6","lat":40.364762809398655,"lng":-111.71260020538249,"phone":"(639) 638-8441","sd":"21","ssbd":"11","lsbd":"School Board Timpanogos 1"},{"vid":"1722430","name":"Ms. Nanette Howe","party":"Rep","address":"28 S 1050 E, Pleasant Grove, UT 84062","precinct":"25PG12","hd":"55","v_score":"23.27293592","decile":"10","lat":40.36331812480245,"lng":-111.71589935489939,"phone":"(558) 873-7280","sd":"21","ssbd":"11","lsbd":"School Board Timpanogos 1"},{"vid":"53303a5d1f378c4a9e60585aba647e76ebae4f96b2a4ba3c8baf0293f1b2f24c","name":"Jered Hartmann DVM","party":"","address":"11 S 700 E, Pleasant Grove, UT 84062","precinct":"25PG12","hd":"55","v_score":"21.92029883","decile":"10","lat":40.363785956236676,"lng":-111.7251809312012,"phone":"(597) 888-5580","sd":"21","ssbd":"11","lsbd":"School Board Timpanogos 1"},{"vid":"1744142","name":"Cyndi Zieme","party":"","address":"120 N 1400 E, Pleasant Grove, UT 84062","precinct":"25PG12","hd":"55","v_score":"16.93850135","decile":"9","lat":40.36541573972691,"lng":-111.70562601775194,"phone":"(843) 271-5549","sd":"21","ssbd":"11","lsbd":"School Board Timpanogos 1"},{"vid":"1779006","name":"Dr. Keira Bailey","party":"","address":"35 S 1400 E, Pleasant Grove, UT 84062","precinct":"25PG12","hd":"55","v_score":"0","decile":"1","lat":40.36314316258967,"lng":-111.7073293122842,"phone":"(975) 357-4889","sd":"21","ssbd":"11","lsbd":"School Board Timpanogos 1"},{"vid":"1785252","name":"Ham Goodwin","party":"Rep","address":"1140 E 100 N, Pleasant Grove, UT 84062","precinct":"25PG12","hd":"55","v_score":"13.81451578","decile":"9","lat":40.36461940210715,"lng":-111.71393769500996,"phone":"(541) 944-0313","sd":"21","ssbd":"11","lsbd":"School Board Timpanogos 1"},{"vid":"1787595","name":"Benedict Legros DDS","party":"","address":"24 S 800 E, Pleasant Grove, UT 84062","precinct":"25PG12","hd":"55","v_score":"1.46627566","decile":"4","lat":40.36377488423267,"lng":-111.72324554057543,"phone":"(598) 786-2189","sd":"21","ssbd":"11","lsbd":"School Board Timpanogos 1"},{"vid":"1797076","name":"Naoma Wisoky","party":"Rep","address":"1155 E 30 S, Pleasant Grove, UT 84062","precinct":"25PG12","hd":"55","v_score":"7.830610533","decile":"8","lat":40.364159234041466,"lng":-111.71353541118195,"phone":"(618) 079-4741","sd":"21","ssbd":"11","lsbd":"School Board Timpanogos 1"},{"vid":"1821879","name":"Darl Shields","party":"Dem","address":"1120 E 100 N, Pleasant Grove, UT 84062","precinct":"25PG12","hd":"55","v_score":"3.781490609","decile":"6","lat":40.364618122575955,"lng":-111.71427672764237,"phone":"(331) 611-7415","sd":"21","ssbd":"11","lsbd":"School Board Timpanogos 1"},{"vid":"1824481","name":"Dr. Clemente Mills PhD","party":"Rep","address":"879 E 200 S, Pleasant Grove, UT 84062","precinct":"25PG12","hd":"55","v_score":"8.347511332","decile":"8","lat":40.36158331639169,"lng":-111.72096572166708,"phone":"(306) 389-0885","sd":"21","ssbd":"11","lsbd":"School Board Timpanogos 1"},{"vid":"1834451","name":"Jarred Hudson Jr.","party":"Rep","address":"903 E 200 S, Pleasant Grove, UT 84062","precinct":"25PG12","hd":"55","v_score":"14.95117867","decile":"9","lat":40.36166882947946,"lng":-111.72032977870664,"phone":"(430) 813-4745","sd":"21","ssbd":"11","lsbd":"School Board Timpanogos 1"},{"vid":"1841750","name":"Thedore Leannon","party":"Dem","address":"180 S 700 E, Pleasant Grove, UT 84062","precinct":"25PG12","hd":"55","v_score":"12.51449002","decile":"9","lat":40.36172495731061,"lng":-111.72570246711471,"phone":"(939) 162-6732","sd":"21","ssbd":"11","lsbd":"School Board Timpanogos 1"},{"vid":"1853715","name":"Leitha Osinski-Keebler","party":"Rep","address":"162 N 1400 E, Pleasant Grove, UT 84062","precinct":"25PG12","hd":"55","v_score":"8.347511332","decile":"8","lat":40.36606494748036,"lng":-111.70736026876786,"phone":"(742) 023-4070","sd":"21","ssbd":"11","lsbd":"School Board Timpanogos 1"},{"vid":"1858629","name":"Ossie Fay V","party":"","address":"55 S 500 E, Pleasant Grove, UT 84062","precinct":"25PG12","hd":"55","v_score":"1.121327652","decile":"3","lat":40.36312071807414,"lng":-111.7300414657623,"phone":"(195) 108-5468","sd":"21","ssbd":"11","lsbd":"School Board Timpanogos 1"},{"vid":"1863876","name":"Jerrod Nader","party":"","address":"825 E 50 S, Pleasant Grove, UT 84062","precinct":"25PG12","hd":"55","v_score":"5.40460374","decile":"7","lat":40.36331340124466,"lng":-111.72250946021445,"phone":"(815) 550-0980","sd":"21","ssbd":"11","lsbd":"School Board Timpanogos 1"},{"vid":"1880815","name":"Mr. Silvio Hoeger","party":"Rep","address":"235 N 1300 E, Pleasant Grove, UT 84062","precinct":"25PG12","hd":"55","v_score":"2.587603312","decile":"5","lat":40.36612842614091,"lng":-111.71035311609072,"phone":"(187) 525-6691","sd":"21","ssbd":"11","lsbd":"School Board Timpanogos 1"},{"vid":"1881365","name":"Estefani Hackett PhD","party":"Rep","address":"152 N 1400 E, Pleasant Grove, UT 84062","precinct":"25PG12","hd":"55","v_score":"1.121327652","decile":"3","lat":40.36554992939114,"lng":-111.70595773345937,"phone":"(440) 752-5559","sd":"21","ssbd":"11","lsbd":"School Board Timpanogos 1"},{"vid":"1890485","name":"Dr. Wesley Heathcote","party":"","address":"34 S 760 E, Pleasant Grove, UT 84062","precinct":"25PG12","hd":"55","v_score":"10.51648655","decile":"9","lat":40.36337256864092,"lng":-111.72403866138674,"phone":"(839) 879-4993","sd":"21","ssbd":"11","lsbd":"School Board Timpanogos 1"},{"vid":"1913971","name":"Dr. Anie Terry","party":"","address":"879 E 200 S, Pleasant Grove, UT 84062","precinct":"25PG12","hd":"55","v_score":"3.781490609","decile":"6","lat":40.36158331639169,"lng":-111.72096572166708,"phone":"(145) 938-3951","sd":"21","ssbd":"11","lsbd":"School Board Timpanogos 1"},{"vid":"97a18b8ddd99bbca8c82258fd6ffa175fa4f91d28cbbd06aba3e267feff450ed","name":"Lawrence Schiller V","party":"","address":"1183 E 120 N, Pleasant Grove, UT 84062","precinct":"25PG12","hd":"55","v_score":"11.99259879","decile":"9","lat":40.36553361448327,"lng":-111.71288532277542,"phone":"(210) 378-2139","sd":"21","ssbd":"11","lsbd":"School Board Timpanogos 1"},{"vid":"1917213","name":"Anastacio Hauck","party":"","address":"1023 E 100 S, Pleasant Grove, UT 84062","precinct":"25PG12","hd":"55","v_score":"11.02844566","decile":"9","lat":40.36286742748705,"lng":-111.717280053274,"phone":"(561) 484-6217","sd":"21","ssbd":"11","lsbd":"School Board Timpanogos 1"},{"vid":"893d44b99e75cfea307d9df7e549646ec85da19cc24a3df4cb698ee05aa655f8","name":"Dominick Heller","party":"Rep","address":"641 E 100 S, Pleasant Grove, UT 84062","precinct":"25PG12","hd":"55","v_score":"29.86743893","decile":"10","lat":40.36262265308484,"lng":-111.72699865216707,"phone":"(965) 526-2879","sd":"21","ssbd":"11","lsbd":"School Board Timpanogos 1"},{"vid":"1922127","name":"Norris Olson","party":"Rep","address":"605 E 200 S, Pleasant Grove, UT 84062","precinct":"25PG12","hd":"55","v_score":"0","decile":"1","lat":40.36136024853843,"lng":-111.72765527015444,"phone":"(392) 844-7784","sd":"21","ssbd":"11","lsbd":"School Board Timpanogos 1"},{"vid":"1923446","name":"Glenda Ullrich","party":"","address":"180 S 700 E, Pleasant Grove, UT 84062","precinct":"25PG12","hd":"55","v_score":"16.53571215","decile":"9","lat":40.36172495731061,"lng":-111.72570246711471,"phone":"(665) 030-7346","sd":"21","ssbd":"11","lsbd":"School Board Timpanogos 1"},{"vid":"1926128","name":"Alize Rath","party":"Rep","address":"515 E 200 S, Pleasant Grove, UT 84062","precinct":"25PG12","hd":"55","v_score":"7.650280567","decile":"8","lat":40.36142416450314,"lng":-111.73011312670812,"phone":"(949) 020-8974","sd":"21","ssbd":"11","lsbd":"School Board Timpanogos 1"},{"vid":"a4577fa7a9af0cb0ec9262bd4b9afc397408634afdc24de1ffa8fd1aba883a5c","name":"Royal Willms Jr.","party":"Dem","address":"1080 E 100 N, Pleasant Grove, UT 84062","precinct":"25PG12","hd":"55","v_score":"7.801357537","decile":"8","lat":40.36461558801717,"lng":-111.71495482740245,"phone":"(756) 764-1901","sd":"21","ssbd":"11","lsbd":"School Board Timpanogos 1"},{"vid":"1944649","name":"Andres Conn-Hegmann","party":"Rep","address":"835 E 100 S, Pleasant Grove, UT 84062","precinct":"25PG12","hd":"55","v_score":"12.38288823","decile":"9","lat":40.36262538323285,"lng":-111.72233923761608,"phone":"(889) 870-3965","sd":"21","ssbd":"11","lsbd":"School Board Timpanogos 1"},{"vid":"1954720","name":"Keaton Mraz","party":"Dem","address":"198 S 1300 E, Pleasant Grove, UT 84062","precinct":"25PG12","hd":"55","v_score":"5.40460374","decile":"7","lat":40.36131113460571,"lng":-111.70970898202026,"phone":"(931) 438-4158","sd":"21","ssbd":"11","lsbd":"School Board Timpanogos 1"},{"vid":"1964697","name":"Lillis Hilll","party":"","address":"198 S 1300 E, Pleasant Grove, UT 84062","precinct":"25PG12","hd":"55","v_score":"3.781490609","decile":"6","lat":40.36131113460571,"lng":-111.70970898202026,"phone":"(894) 603-8781","sd":"21","ssbd":"11","lsbd":"School Board Timpanogos 1"},{"vid":"4e43ebb40eb00894e7ae551980743844ec68e8010f240ecd85187ad94991700f","name":"Lucile Senger","party":"Rep","address":"162 N 1400 E, Pleasant Grove, UT 84062","precinct":"25PG12","hd":"55","v_score":"17.75180262","decile":"10","lat":40.36606494748036,"lng":-111.70736026876786,"phone":"(314) 976-8479","sd":"21","ssbd":"11","lsbd":"School Board Timpanogos 1"},{"vid":"1994878","name":"Grace Orn","party":"","address":"1360 E 150 N, Pleasant Grove, UT 84062","precinct":"25PG12","hd":"55","v_score":"5.40460374","decile":"7","lat":40.36523974621521,"lng":-111.7087951976277,"phone":"(597) 648-8663","sd":"21","ssbd":"11","lsbd":"School Board Timpanogos 1"},{"vid":"1995607","name":"Dr. Orin Balistreri III","party":"","address":"987 E 200 S, Pleasant Grove, UT 84062","precinct":"25PG12","hd":"55","v_score":"1.121327652","decile":"3","lat":40.361420069550945,"lng":-111.7182469790819,"phone":"(416) 798-1467","sd":"21","ssbd":"11","lsbd":"School Board Timpanogos 1"},{"vid":"6d4857c02ddc1d4df3781520f844466dbd217ac42c5b2ca9165e23fb3a854211","name":"Adaline Ankunding","party":"Dem","address":"115 S 700 E, Pleasant Grove, UT 84062","precinct":"25PG12","hd":"55","v_score":"7.153624035","decile":"8","lat":40.3621230733438,"lng":-111.7251573893429,"phone":"(447) 539-6761","sd":"21","ssbd":"11","lsbd":"School Board Timpanogos 1"},{"vid":"2004009","name":"Deegan Macejkovic","party":"","address":"185 S 1300 E, Pleasant Grove, UT 84062","precinct":"25PG12","hd":"55","v_score":"4.409183253","decile":"7","lat":40.361553590571056,"lng":-111.70929073638038,"phone":"(221) 310-3414","sd":"21","ssbd":"11","lsbd":"School Board Timpanogos 1"},{"vid":"2015528","name":"Ms. Monserrat Paucek DVM","party":"Dem","address":"1341 E 150 N, Pleasant Grove, UT 84062","precinct":"25PG12","hd":"55","v_score":"11.29723756","decile":"9","lat":40.365716694323375,"lng":-111.7091147985327,"phone":"(695) 176-9982","sd":"21","ssbd":"11","lsbd":"School Board Timpanogos 1"},{"vid":"2024018","name":"Gwendolyn Greenfelder-Flatley","party":"","address":"85 S 1400 E, Pleasant Grove, UT 84062","precinct":"25PG12","hd":"55","v_score":"5.40460374","decile":"7","lat":40.36245439250474,"lng":-111.707509250495,"phone":"(845) 377-7152","sd":"21","ssbd":"11","lsbd":"School Board Timpanogos 1"},{"vid":"e6c8b094a9a7f04c42a15eb08b021cb2c8b5b32ea8929920697bb005c618dd43","name":"Leonardo Tromp","party":"Rep","address":"987 E 200 S, Pleasant Grove, UT 84062","precinct":"25PG12","hd":"55","v_score":"6.814370645","decile":"8","lat":40.361420069550945,"lng":-111.7182469790819,"phone":"(155) 299-3246","sd":"21","ssbd":"11","lsbd":"School Board Timpanogos 1"},{"vid":"2027975","name":"Gifford Kreiger","party":"Rep","address":"1160 E 100 N, Pleasant Grove, UT 84062","precinct":"25PG12","hd":"55","v_score":"0","decile":"1","lat":40.36457700193173,"lng":-111.71351630537131,"phone":"(362) 454-3151","sd":"21","ssbd":"11","lsbd":"School Board Timpanogos 1"},{"vid":"2029431","name":"Linwood Ziemann","party":"","address":"615 E 200 S, Pleasant Grove, UT 84062","precinct":"25PG12","hd":"55","v_score":"5.40460374","decile":"7","lat":40.361360738909944,"lng":-111.72740342638653,"phone":"(354) 737-6026","sd":"21","ssbd":"11","lsbd":"School Board Timpanogos 1"},{"vid":"2041136","name":"Sandra Cartwright","party":"Dem","address":"14 S 760 E, Pleasant Grove, UT 84062","precinct":"25PG12","hd":"55","v_score":"4.15282392","decile":"7","lat":40.36372470457833,"lng":-111.72423805226626,"phone":"(353) 622-0443","sd":"21","ssbd":"11","lsbd":"School Board Timpanogos 1"},{"vid":"8a9e73596dc1080d4ac9738f968497ca4d299432e75f51ca356ba76c450fc7af","name":"Leandro Herman","party":"Rep","address":"587 E 100 S, Pleasant Grove, UT 84062","precinct":"25PG12","hd":"55","v_score":"1.46627566","decile":"4","lat":40.362636946692916,"lng":-111.72858567829104,"phone":"(878) 611-3854","sd":"21","ssbd":"11","lsbd":"School Board Timpanogos 1"},{"vid":"2055608","name":"Mr. Orris Labadie MD","party":"Dem","address":"858 E 100 S, Pleasant Grove, UT 84062","precinct":"25PG12","hd":"55","v_score":"13.13857124","decile":"9","lat":40.36227381894977,"lng":-111.72205773064468,"phone":"(757) 426-2162","sd":"21","ssbd":"11","lsbd":"School Board Timpanogos 1"},{"vid":"2064326","name":"Jammie Heaney-Hermiston","party":"","address":"1155 E 30 S, Pleasant Grove, UT 84062","precinct":"25PG12","hd":"55","v_score":"1.623113131","decile":"5","lat":40.364159234041466,"lng":-111.71353541118195,"phone":"(104) 220-8923","sd":"21","ssbd":"11","lsbd":"School Board Timpanogos 1"},{"vid":"2069060","name":"Mr. Seamus Wiza V","party":"","address":"825 E 50 S, Pleasant Grove, UT 84062","precinct":"25PG12","hd":"55","v_score":"1.193887297","decile":"3","lat":40.36331340124466,"lng":-111.72250946021445,"phone":"(125) 667-3003","sd":"21","ssbd":"11","lsbd":"School Board Timpanogos 1"},{"vid":"ad6c329fbea58cb5a25d1fee76f671accfbd2c2a6ed2742a26b51cf910be021d","name":"Shan Morar","party":"Rep","address":"577 E 200 S, Unit B, Pleasant Grove, UT 84062","precinct":"25PG12","hd":"55","v_score":"3.93832808","decile":"6","lat":40.36160128290503,"lng":-111.72942204538812,"phone":"(478) 760-9701","sd":"21","ssbd":"11","lsbd":"School Board Timpanogos 1"},{"vid":"6adb4705ec960ee6b7898b7d68cc932ec5626e4636fd4ee13810fb8c4b3a3a17","name":"Levie Johnston","party":"Rep","address":"1153 E 100 N, Pleasant Grove, UT 84062","precinct":"25PG12","hd":"55","v_score":"0","decile":"1","lat":40.365274774089094,"lng":-111.7135844873247,"phone":"(606) 960-8894","sd":"21","ssbd":"11","lsbd":"School Board Timpanogos 1"},{"vid":"fac881598361a76be4cd105d7b3f5b8cf14003f5119d4fae7b33ef0c4fa1b4d8","name":"Mrs. Fairy Mraz","party":"Dem","address":"109 N 1240 E, Pleasant Grove, UT 84062","precinct":"25PG12","hd":"55","v_score":"6.724398202","decile":"8","lat":40.36523672575004,"lng":-111.71163275211146,"phone":"(283) 962-3141","sd":"21","ssbd":"11","lsbd":"School Board Timpanogos 1"},{"vid":"b67d20b62c8c40b2ce9d2af117e8be60a07fdd86c2306632af9170d441268d3b","name":"Dannie Kerluke","party":"","address":"109 N 1240 E, Pleasant Grove, UT 84062","precinct":"25PG12","hd":"55","v_score":"14.74039814","decile":"9","lat":40.36523672575004,"lng":-111.71163275211146,"phone":"(377) 191-0300","sd":"21","ssbd":"11","lsbd":"School Board Timpanogos 1"},{"vid":"2099407","name":"Eileen Skiles","party":"","address":"162 S 825 E, Pleasant Grove, UT 84062","precinct":"25PG12","hd":"55","v_score":"4.424855541","decile":"7","lat":40.36171759997355,"lng":-111.72293023244951,"phone":"(750) 029-0469","sd":"21","ssbd":"11","lsbd":"School Board Timpanogos 1"},{"vid":"64797c26208755d8351bc318a56c58698ec3117386f569d57e695ec170e1d20f","name":"Lilyanna Schinner","party":"Dem","address":"577 E 200 S, # B, Pleasant Grove, UT 84062","precinct":"25PG12","hd":"55","v_score":"13.70847796","decile":"9","lat":40.36160128290503,"lng":-111.72942204538812,"phone":"(545) 722-6150","sd":"21","ssbd":"11","lsbd":"School Board Timpanogos 1"},{"vid":"8df6de7ba945fe533f9e54188a643153c7f7111aec253df176c092fe4e93aa89","name":"Coty King-Kovacek","party":"Rep","address":"1225 E 120 N, Pleasant Grove, UT 84062","precinct":"25PG12","hd":"55","v_score":"0","decile":"1","lat":40.3656199180099,"lng":-111.71175569074816,"phone":"(921) 057-7253","sd":"21","ssbd":"11","lsbd":"School Board Timpanogos 1"},{"vid":"2112359","name":"Ms. Leann Lakin DDS","party":"","address":"185 N 1300 E, Pleasant Grove, UT 84062","precinct":"25PG12","hd":"55","v_score":"9.207031979","decile":"8","lat":40.36560757706543,"lng":-111.71032063893892,"phone":"(851) 076-8503","sd":"21","ssbd":"11","lsbd":"School Board Timpanogos 1"},{"vid":"2118558","name":"Hollie Glover","party":"","address":"624 E 150 S, Pleasant Grove, UT 84062","precinct":"25PG12","hd":"55","v_score":"7.830610533","decile":"8","lat":40.3616645137797,"lng":-111.72736063262272,"phone":"(110) 725-4090","sd":"21","ssbd":"11","lsbd":"School Board Timpanogos 1"},{"vid":"2da0a779af22451af5c05d25379621d6e72579aabaf235274f52b3a945ef3024","name":"Grady Lynch","party":"","address":"175 S 1300 E, Pleasant Grove, UT 84062","precinct":"25PG12","hd":"55","v_score":"5.61909958","decile":"7","lat":40.361863019407025,"lng":-111.70890457263393,"phone":"(191) 047-5031","sd":"21","ssbd":"11","lsbd":"School Board Timpanogos 1"},{"vid":"2120108","name":"Gray Wolff","party":"","address":"1448 E 50 S, Pleasant Grove, UT 84062","precinct":"25PG12","hd":"55","v_score":"9.55742766","decile":"8","lat":40.3627418830873,"lng":-111.70700679328611,"phone":"(398) 869-3875","sd":"21","ssbd":"11","lsbd":"School Board Timpanogos 1"},{"vid":"2136798","name":"Alejandra Abernathy DVM","party":"","address":"1145 E 100 N, Pleasant Grove, UT 84062","precinct":"25PG12","hd":"55","v_score":"4.064235245","decile":"6","lat":40.365533357532364,"lng":-111.71379301053702,"phone":"(328) 746-0090","sd":"21","ssbd":"11","lsbd":"School Board Timpanogos 1"},{"vid":"2139641","name":"Dwyane Casper","party":"Dem","address":"1121 E 30 S, Pleasant Grove, UT 84062","precinct":"25PG12","hd":"55","v_score":"5.258122542","decile":"7","lat":40.364224799261855,"lng":-111.71455315512428,"phone":"(550) 815-5900","sd":"21","ssbd":"11","lsbd":"School Board Timpanogos 1"},{"vid":"2153319","name":"Elex Lynch","party":"","address":"825 E 50 S, Pleasant Grove, UT 84062","precinct":"25PG12","hd":"55","v_score":"4.283276088","decile":"7","lat":40.36331340124466,"lng":-111.72250946021445,"phone":"(127) 726-2959","sd":"21","ssbd":"11","lsbd":"School Board Timpanogos 1"},{"vid":"2160048","name":"Wayne Mosciski III","party":"","address":"27 S 1185 E, Pleasant Grove, UT 84062","precinct":"25PG12","hd":"55","v_score":"1.46627566","decile":"4","lat":40.363423981788564,"lng":-111.71251565688465,"phone":"(856) 795-5912","sd":"21","ssbd":"11","lsbd":"School Board Timpanogos 1"},{"vid":"db87523c95ebab3893e12490360534e4cf40e27449ac7628bf39a5a6344b8376","name":"Donita McGlynn DVM","party":"Dem","address":"164 S 980 E, Pleasant Grove, UT 84062","precinct":"25PG12","hd":"55","v_score":"16.14542271","decile":"9","lat":40.361875157694975,"lng":-111.71813550140828,"phone":"(433) 834-1781","sd":"21","ssbd":"11","lsbd":"School Board Timpanogos 1"},{"vid":"ee92fe653591bf71a5d6aedf5de59ce5951069446f6abf9c8ad1ad77a36e1717","name":"Edw Leannon Sr.","party":"","address":"35 S 700 E, Pleasant Grove, UT 84062","precinct":"25PG12","hd":"55","v_score":"5.258122542","decile":"7","lat":40.363379117265154,"lng":-111.72492481351388,"phone":"(284) 861-5614","sd":"21","ssbd":"11","lsbd":"School Board Timpanogos 1"},{"vid":"2178806","name":"Dione D'Amore","party":"","address":"1093 E 30 S, Pleasant Grove, UT 84062","precinct":"25PG12","hd":"55","v_score":"8.284004873","decile":"8","lat":40.36350642676225,"lng":-111.71482113404541,"phone":"(686) 549-9483","sd":"21","ssbd":"11","lsbd":"School Board Timpanogos 1"},{"vid":"e2764249b25f3dc64a020df6681c3ee12b96bdc2a52decc53646af4ee8813eed","name":"Dr. Merlin O'Hara","party":"","address":"185 N 1300 E, Pleasant Grove, UT 84062","precinct":"25PG12","hd":"55","v_score":"1.121327652","decile":"3","lat":40.36560757706543,"lng":-111.71032063893892,"phone":"(674) 069-9309","sd":"21","ssbd":"11","lsbd":"School Board Timpanogos 1"},{"vid":"03f92bdcb93145e52e173613ea6c1810a8b54b6622a5d36653cde3d2a983725e","name":"Stephanie Graham","party":"","address":"40 S 1400 E, Pleasant Grove, UT 84062","precinct":"25PG12","hd":"55","v_score":"2.426006793","decile":"5","lat":40.362982823421326,"lng":-111.70797905561442,"phone":"(783) 543-8756","sd":"21","ssbd":"11","lsbd":"School Board Timpanogos 1"},{"vid":"894f0139b2dd0e5fd42deb5356136f72a0c8ec95e41173b7f063458d6d72d001","name":"Miss Dominga Ziemann","party":"Dem","address":"699 E 100 S, Pleasant Grove, UT 84062","precinct":"25PG12","hd":"55","v_score":"15.5432918","decile":"9","lat":40.362634229303175,"lng":-111.72571854875494,"phone":"(200) 569-8245","sd":"21","ssbd":"11","lsbd":"School Board Timpanogos 1"},{"vid":"228ea7440cf5ce14e2ff65326a13952bd383fc4633d571ec331a0925c338504d","name":"Hasel Mitchell","party":"Dem","address":"1213 E 50 N, Pleasant Grove, UT 84062","precinct":"25PG12","hd":"55","v_score":"6.528952915","decile":"7","lat":40.36487443873514,"lng":-111.71214869257578,"phone":"(106) 905-5378","sd":"21","ssbd":"11","lsbd":"School Board Timpanogos 1"},{"vid":"71afbd86bfc9bcb4ae15126a948f06b21c7e8e31f1396135bfd8a295a5d37b0e","name":"Cherryl Witting-Hackett","party":"","address":"95 S 1050 E, Pleasant Grove, UT 84062","precinct":"25PG12","hd":"55","v_score":"0","decile":"1","lat":40.362304438278485,"lng":-111.71524142407746,"phone":"(990) 942-0512","sd":"21","ssbd":"11","lsbd":"School Board Timpanogos 1"},{"vid":"a4399f2b8ac38a3a1cbddf56990a6c046af058e6da3025d7ac28e147edc59aae","name":"Aidan Bechtelar","party":"Dem","address":"66 S 600 E, Pleasant Grove, UT 84062","precinct":"25PG12","hd":"55","v_score":"0","decile":"1","lat":40.36309176459152,"lng":-111.72861904872758,"phone":"(511) 583-9137","sd":"21","ssbd":"11","lsbd":"School Board Timpanogos 1"},{"vid":"2186833","name":"Spurgeon Bosco","party":"Dem","address":"788 E 100 S, Pleasant Grove, UT 84062","precinct":"25PG12","hd":"55","v_score":"4.741221742","decile":"7","lat":40.362209386729795,"lng":-111.72335634373471,"phone":"(101) 003-4788","sd":"21","ssbd":"11","lsbd":"School Board Timpanogos 1"},{"vid":"2192140","name":"Aryan Hoppe Sr.","party":"","address":"671 E 100 S, Pleasant Grove, UT 84062","precinct":"25PG12","hd":"55","v_score":"3.997370217","decile":"6","lat":40.362633220925694,"lng":-111.7262401795995,"phone":"(908) 023-6645","sd":"21","ssbd":"11","lsbd":"School Board Timpanogos 1"},{"vid":"2198433","name":"Earle Kshlerin","party":"Dem","address":"35 S 700 E, Pleasant Grove, UT 84062","precinct":"25PG12","hd":"55","v_score":"4.192796624","decile":"7","lat":40.363379117265154,"lng":-111.72492481351388,"phone":"(917) 036-4457","sd":"21","ssbd":"11","lsbd":"School Board Timpanogos 1"},{"vid":"2200047","name":"Miss Teagan West","party":"","address":"28 S 1050 E, Pleasant Grove, UT 84062","precinct":"25PG12","hd":"55","v_score":"2.587603312","decile":"5","lat":40.36331812480245,"lng":-111.71589935489939,"phone":"(971) 673-9629","sd":"21","ssbd":"11","lsbd":"School Board Timpanogos 1"},{"vid":"11c4d44fadee775a1f3be1b87393f5a53b1f563e2913bdc89c3c64cc79872d42","name":"Nealie Lebsack DDS","party":"","address":"140 S 1400 E, Pleasant Grove, UT 84062","precinct":"25PG12","hd":"55","v_score":"2.315214949","decile":"5","lat":40.36219842377174,"lng":-111.70832359126635,"phone":"(602) 038-4817","sd":"21","ssbd":"11","lsbd":"School Board Timpanogos 1"},{"vid":"a367a88d3480fdb0abd5e5717962d26a3f79ea70010b8e0671e6f0e9d4e3eded","name":"Nanie Hackett","party":"","address":"1381 E 150 N, Pleasant Grove, UT 84062","precinct":"25PG12","hd":"55","v_score":"9.772950527","decile":"8","lat":40.365718215718246,"lng":-111.70844745627778,"phone":"(681) 352-2364","sd":"21","ssbd":"11","lsbd":"School Board Timpanogos 1"},{"vid":"7b4f68b54040a140dec8f086c63bc6b29c29b925b5b95d6642c4fbd740f8874f","name":"Marylyn Bruen-Bashirian","party":"","address":"1381 E 150 N, Pleasant Grove, UT 84062","precinct":"25PG12","hd":"55","v_score":"6.896907962","decile":"8","lat":40.365718215718246,"lng":-111.70844745627778,"phone":"(133) 051-1419","sd":"21","ssbd":"11","lsbd":"School Board Timpanogos 1"},{"vid":"2225715","name":"Kathlene Batz","party":"","address":"835 E 100 S, Pleasant Grove, UT 84062","precinct":"25PG12","hd":"55","v_score":"11.04973188","decile":"9","lat":40.36262538323285,"lng":-111.72233923761608,"phone":"(547) 656-5134","sd":"21","ssbd":"11","lsbd":"School Board Timpanogos 1"},{"vid":"9b38d935433f13e47668ed6b4b6df50dc567f08a830aac169e81ab3442730c60","name":"Heather Bayer DDS","party":"Dem","address":"1155 E 30 S, Pleasant Grove, UT 84062","precinct":"25PG12","hd":"55","v_score":"1.623113131","decile":"5","lat":40.364159234041466,"lng":-111.71353541118195,"phone":"(818) 853-9538","sd":"21","ssbd":"11","lsbd":"School Board Timpanogos 1"},{"vid":"2231167","name":"Clayton Bailey","party":"Rep","address":"1125 E 100 N, Pleasant Grove, UT 84062","precinct":"25PG12","hd":"55","v_score":"2.315214949","decile":"5","lat":40.364979802101416,"lng":-111.7145724620336,"phone":"(901) 262-5657","sd":"21","ssbd":"11","lsbd":"School Board Timpanogos 1"},{"vid":"2236788","name":"Glendora Orn","party":"","address":"52 S 1025 E, Pleasant Grove, UT 84062","precinct":"25PG12","hd":"55","v_score":"1.193887297","decile":"3","lat":40.36365925765167,"lng":-111.71750709673447,"phone":"(616) 524-7331","sd":"21","ssbd":"11","lsbd":"School Board Timpanogos 1"},{"vid":"1d2f5813693242cba768803000d30d3422115c8d02f13a76ce5c33dc305ecb77","name":"Dr. Julia Cronin","party":"Rep","address":"759 E 200 S, Pleasant Grove, UT 84062","precinct":"25PG12","hd":"55","v_score":"1.193887297","decile":"3","lat":40.361653518025776,"lng":-111.72373407243582,"phone":"(180) 168-7515","sd":"21","ssbd":"11","lsbd":"School Board Timpanogos 1"},{"vid":"dcb8f6861262ddf36e0bf2543303dac3138b6d5b3bf0aba14550637343d3e5f3","name":"Claus Blanda-Gaylord","party":"Dem","address":"879 E 200 S, Pleasant Grove, UT 84062","precinct":"25PG12","hd":"55","v_score":"3.93832808","decile":"6","lat":40.36158331639169,"lng":-111.72096572166708,"phone":"(195) 218-1501","sd":"21","ssbd":"11","lsbd":"School Board Timpanogos 1"},{"vid":"2244203","name":"Clovis Schultz","party":"Dem","address":"1285 E Center St, Pleasant Grove, UT 84062","precinct":"25PG12","hd":"55","v_score":"1.121327652","decile":"3","lat":40.3641639933496,"lng":-111.71058008577788,"phone":"(496) 834-4419","sd":"21","ssbd":"11","lsbd":"School Board Timpanogos 1"},{"vid":"c55b3ee9c5a668cbe30e85d2a528001783a4a0576b755053a5c6e81423555866","name":"Estrella Cummings","party":"Dem","address":"535 E 200 S, Pleasant Grove, UT 84062","precinct":"25PG12","hd":"55","v_score":"4.069929862","decile":"6","lat":40.36141889499943,"lng":-111.72979202121486,"phone":"(803) 191-9265","sd":"21","ssbd":"11","lsbd":"School Board Timpanogos 1"},{"vid":"8de460a28cca7863745a2427aa89182e4413826106e4c8cc48e063bb92d03605","name":"Ms. Tommie Adams PhD","party":"","address":"825 E 50 S, Pleasant Grove, UT 84062","precinct":"25PG12","hd":"55","v_score":"3.93832808","decile":"6","lat":40.36331340124466,"lng":-111.72250946021445,"phone":"(454) 805-6293","sd":"21","ssbd":"11","lsbd":"School Board Timpanogos 1"},{"vid":"ce109a09309d6f18946bebea9ed6eab944d9f0815692402d0045e571487d7ce7","name":"Stacy Pacocha","party":"Rep","address":"195 N 1400 E, Pleasant Grove, UT 84062","precinct":"25PG12","hd":"55","v_score":"6.814370645","decile":"8","lat":40.36600899165194,"lng":-111.7080510671128,"phone":"(834) 459-4558","sd":"21","ssbd":"11","lsbd":"School Board Timpanogos 1"},{"vid":"b9cb810de4f6b447a3b528717803a59e6343db96081dfe87b2789c0b8e2cda1a","name":"Mr. Hillard Becker","party":"Rep","address":"140 S 1400 E, Pleasant Grove, UT 84062","precinct":"25PG12","hd":"55","v_score":"0","decile":"1","lat":40.36219842377174,"lng":-111.70832359126635,"phone":"(440) 977-3436","sd":"21","ssbd":"11","lsbd":"School Board Timpanogos 1"},{"vid":"dd9e288d9c1a27b14f26600129ddbe5e44ac158c7c9db93063e1f58321e076ad","name":"Demetri Kirlin","party":"","address":"198 S 1300 E, Pleasant Grove, UT 84062","precinct":"25PG12","hd":"55","v_score":"2.817000428","decile":"6","lat":40.36131113460571,"lng":-111.70970898202026,"phone":"(672) 362-5681","sd":"21","ssbd":"11","lsbd":"School Board Timpanogos 1"},{"vid":"c37012be5f58302e2edcfa153ac3a821b6cc3ff67b6efa662f6fae9362831cc6","name":"Reilly Kessler","party":"Dem","address":"515 E 200 S, Pleasant Grove, UT 84062","precinct":"25PG12","hd":"55","v_score":"10.24124245","decile":"9","lat":40.36142416450314,"lng":-111.73011312670812,"phone":"(305) 063-7231","sd":"21","ssbd":"11","lsbd":"School Board Timpanogos 1"},{"vid":"02f6d403f341588096cb48d637826eccc8647b099f47f3ce045f26a9f2d4ccee","name":"Dr. Holland Lemke","party":"","address":"58 S 600 E, Pleasant Grove, UT 84062","precinct":"25PG12","hd":"55","v_score":"3.93832808","decile":"6","lat":40.36321278757749,"lng":-111.72834388235931,"phone":"(558) 207-8195","sd":"21","ssbd":"11","lsbd":"School Board Timpanogos 1"},{"vid":"f2b455fee89adb2fee66c5f3033bc5315c654eea2c518359cb417f609a7b7970","name":"Ruben Greenholt","party":"Dem","address":"28 S 1050 E, Pleasant Grove, UT 84062","precinct":"25PG12","hd":"55","v_score":"8.15240309","decile":"8","lat":40.36331812480245,"lng":-111.71589935489939,"phone":"(905) 397-7234","sd":"21","ssbd":"11","lsbd":"School Board Timpanogos 1"},{"vid":"5042bf7e25b445771319b6ebfac460f351bef3cac7c5e96033cb4667980d3c73","name":"Miss Giuliana Powlowski DVM","party":"Rep","address":"185 S 1300 E, Pleasant Grove, UT 84062","precinct":"25PG12","hd":"55","v_score":"2.817000428","decile":"6","lat":40.361553590571056,"lng":-111.70929073638038,"phone":"(386) 167-4356","sd":"21","ssbd":"11","lsbd":"School Board Timpanogos 1"},{"vid":"2273065","name":"Eugenia Zieme-Thompson","party":"Dem","address":"65 S 700 E, Pleasant Grove, UT 84062","precinct":"25PG12","hd":"55","v_score":"5.926494964","decile":"7","lat":40.363026917128785,"lng":-111.72499214819896,"phone":"(434) 225-1860","sd":"21","ssbd":"11","lsbd":"School Board Timpanogos 1"},{"vid":"2278046","name":"Mrs. Sommer Adams","party":"","address":"90 N 1300 E, Pleasant Grove, UT 84062","precinct":"25PG12","hd":"55","v_score":"0","decile":"1","lat":40.364886516883026,"lng":-111.70956491781128,"phone":"(224) 397-3420","sd":"21","ssbd":"11","lsbd":"School Board Timpanogos 1"},{"vid":"2280189","name":"Jerrica Pagac-Daniel","party":"","address":"152 N 1400 E, Pleasant Grove, UT 84062","precinct":"25PG12","hd":"55","v_score":"1.193887297","decile":"3","lat":40.36554992939114,"lng":-111.70595773345937,"phone":"(605) 904-5934","sd":"21","ssbd":"11","lsbd":"School Board Timpanogos 1"},{"vid":"c19bc38499c1169ad4b520b73fe44372745df1eedfded5148fc90c06130a45bb","name":"Gust Krajcik","party":"Rep","address":"35 S 500 E, Pleasant Grove, UT 84062","precinct":"25PG12","hd":"55","v_score":"13.97298511","decile":"9","lat":40.363384219506344,"lng":-111.7300362303808,"phone":"(719) 587-9755","sd":"21","ssbd":"11","lsbd":"School Board Timpanogos 1"},{"vid":"2292851","name":"Marvin Kiehn MD","party":"","address":"156 N 1300 E, Pleasant Grove, UT 84062","precinct":"25PG12","hd":"55","v_score":"6.881235673","decile":"8","lat":40.365697322498974,"lng":-111.70985150608871,"phone":"(893) 506-5187","sd":"21","ssbd":"11","lsbd":"School Board Timpanogos 1"},{"vid":"2296585","name":"Mr. Joe Aufderhar I","party":"Dem","address":"220 N 1300 E, Pleasant Grove, UT 84062","precinct":"25PG12","hd":"55","v_score":"16.39736004","decile":"9","lat":40.3658977649881,"lng":-111.7098317782766,"phone":"(258) 998-7620","sd":"21","ssbd":"11","lsbd":"School Board Timpanogos 1"},{"vid":"d28ebc3d526b6e3b876dcbbe1f6b8876be3850e96405437eed30305f5f3b4e87","name":"Zeke Toy","party":"","address":"211 N 1300 E, Pleasant Grove, UT 84062","precinct":"25PG12","hd":"55","v_score":"8.635950586","decile":"8","lat":40.365868003954276,"lng":-111.71033537023159,"phone":"(820) 551-9665","sd":"21","ssbd":"11","lsbd":"School Board Timpanogos 1"},{"vid":"4be360d135bc2e112e436152c6732136721aa4576edcfeb0d575b6461f8c6d30","name":"Dr. Jerrel O'Connell Sr.","party":"Rep","address":"1140 E 100 N, Pleasant Grove, UT 84062","precinct":"25PG12","hd":"55","v_score":"12.34824012","decile":"9","lat":40.36461940210715,"lng":-111.71393769500996,"phone":"(265) 658-8938","sd":"21","ssbd":"11","lsbd":"School Board Timpanogos 1"},{"vid":"3217eb3e8c44c035f705f8ccc36bb4ecbb23b138bdce97de29086df117e9f4a7","name":"Dr. Connie Casper","party":"","address":"152 N 1400 E, Pleasant Grove, UT 84062","precinct":"25PG12","hd":"55","v_score":"1.193887297","decile":"3","lat":40.36554992939114,"lng":-111.70595773345937,"phone":"(746) 877-6570","sd":"21","ssbd":"11","lsbd":"School Board Timpanogos 1"},{"vid":"72d35b3ec398cd75f0a4167f2676238cd73299639f81a8d2bacf61c268cb65f3","name":"Dr. Codi Prohaska IV","party":"Rep","address":"164 S 980 E, Pleasant Grove, UT 84062","precinct":"25PG12","hd":"55","v_score":"5.693042993","decile":"7","lat":40.361875157694975,"lng":-111.71813550140828,"phone":"(868) 690-1407","sd":"21","ssbd":"11","lsbd":"School Board Timpanogos 1"},{"vid":"2314959","name":"Zana Rice-Gutkowski","party":"Rep","address":"1120 E 100 N, Pleasant Grove, UT 84062","precinct":"25PG12","hd":"55","v_score":"2.315214949","decile":"5","lat":40.364618122575955,"lng":-111.71427672764237,"phone":"(259) 861-1713","sd":"21","ssbd":"11","lsbd":"School Board Timpanogos 1"},{"vid":"2318035","name":"Letha O'Conner","party":"Dem","address":"163 S 500 E, Pleasant Grove, UT 84062","precinct":"25PG12","hd":"55","v_score":"0","decile":"1","lat":40.361688707106126,"lng":-111.73040420906729,"phone":"(699) 182-5474","sd":"21","ssbd":"11","lsbd":"School Board Timpanogos 1"},{"vid":"2323871","name":"Nelly Effertz","party":"Dem","address":"1133 E 100 N, Pleasant Grove, UT 84062","precinct":"25PG12","hd":"55","v_score":"1.193887297","decile":"3","lat":40.364983105786436,"lng":-111.71400806367316,"phone":"(768) 082-6684","sd":"21","ssbd":"11","lsbd":"School Board Timpanogos 1"},{"vid":"2328220","name":"Mrs. Beulah Sawayn DVM","party":"Rep","address":"987 E 200 S, Pleasant Grove, UT 84062","precinct":"25PG12","hd":"55","v_score":"6.814370645","decile":"8","lat":40.361420069550945,"lng":-111.7182469790819,"phone":"(934) 585-1821","sd":"21","ssbd":"11","lsbd":"School Board Timpanogos 1"},{"vid":"2328657","name":"Dr. Eduardo Hodkiewicz I","party":"Rep","address":"973 E 200 S, Pleasant Grove, UT 84062","precinct":"25PG12","hd":"55","v_score":"1.121327652","decile":"3","lat":40.36134378217862,"lng":-111.71865239833953,"phone":"(292) 674-1973","sd":"21","ssbd":"11","lsbd":"School Board Timpanogos 1"},{"vid":"2330938","name":"Foster Schroeder-Pouros","party":"","address":"183 N 1350 E, Pleasant Grove, UT 84062","precinct":"25PG12","hd":"55","v_score":"5.926494964","decile":"7","lat":40.36605030255929,"lng":-111.7091755035874,"phone":"(109) 887-0240","sd":"21","ssbd":"11","lsbd":"School Board Timpanogos 1"},{"vid":"2333181","name":"Camila Haag","party":"Dem","address":"1060 E 100 N, Pleasant Grove, UT 84062","precinct":"25PG12","hd":"55","v_score":"0","decile":"1","lat":40.36466640514339,"lng":-111.7153838240124,"phone":"(221) 950-6579","sd":"21","ssbd":"11","lsbd":"School Board Timpanogos 1"},{"vid":"2333576","name":"Oral Sporer","party":"Rep","address":"1212 E 120 N, Pleasant Grove, UT 84062","precinct":"25PG12","hd":"55","v_score":"5.191257514","decile":"7","lat":40.36520803985255,"lng":-111.71218253828098,"phone":"(151) 304-9669","sd":"21","ssbd":"11","lsbd":"School Board Timpanogos 1"},{"vid":"2344668","name":"Stevie Lesch","party":"","address":"1160 E 100 N, Bsmt, Pleasant Grove, UT 84062","precinct":"25PG12","hd":"55","v_score":"1.121327652","decile":"3","lat":40.36457700193173,"lng":-111.71351630537131,"phone":"(986) 765-4172","sd":"21","ssbd":"11","lsbd":"School Board Timpanogos 1"},{"vid":"2344988","name":"Tori Vandervort","party":"","address":"245 N 1300 E, Pleasant Grove, UT 84062","precinct":"25PG12","hd":"55","v_score":"21.8990126","decile":"10","lat":40.36653854083333,"lng":-111.71031022452753,"phone":"(314) 941-2431","sd":"21","ssbd":"11","lsbd":"School Board Timpanogos 1"},{"vid":"2349216","name":"Deonte Kling","party":"Rep","address":"1026 E 100 S, Pleasant Grove, UT 84062","precinct":"25PG12","hd":"55","v_score":"5.191257514","decile":"7","lat":40.3624382459396,"lng":-111.71727241921106,"phone":"(783) 203-2468","sd":"21","ssbd":"11","lsbd":"School Board Timpanogos 1"},{"vid":"2361046","name":"Mr. Lyndon Ryan IV","party":"","address":"112 N 1185 E, Pleasant Grove, UT 84062","precinct":"25PG12","hd":"55","v_score":"14.80889503","decile":"9","lat":40.365244954386355,"lng":-111.71260203745724,"phone":"(867) 070-5881","sd":"21","ssbd":"11","lsbd":"School Board Timpanogos 1"},{"vid":"2366817","name":"Debby Ondricka","party":"Rep","address":"819 E 50 S, Pleasant Grove, UT 84062","precinct":"25PG12","hd":"55","v_score":"1.121327652","decile":"3","lat":40.36331642096918,"lng":-111.7228563731535,"phone":"(350) 589-4804","sd":"21","ssbd":"11","lsbd":"School Board Timpanogos 1"},{"vid":"2369234","name":"Alia Dickens MD","party":"","address":"1119 E 30 S, Pleasant Grove, UT 84062","precinct":"25PG12","hd":"55","v_score":"1.121327652","decile":"3","lat":40.364181637741446,"lng":-111.71484354700947,"phone":"(424) 013-7269","sd":"21","ssbd":"11","lsbd":"School Board Timpanogos 1"},{"vid":"2370068","name":"Mr. Lawrence Blanda PhD","party":"","address":"625 E 100 S, Pleasant Grove, UT 84062","precinct":"25PG12","hd":"55","v_score":"2.315214949","decile":"5","lat":40.362654607122366,"lng":-111.7273595880617,"phone":"(275) 423-7005","sd":"21","ssbd":"11","lsbd":"School Board Timpanogos 1"},{"vid":"2385815","name":"Antwan Crist","party":"Dem","address":"1093 E 30 S, Pleasant Grove, UT 84062","precinct":"25PG12","hd":"55","v_score":"9.830961897","decile":"8","lat":40.36350642676225,"lng":-111.71482113404541,"phone":"(819) 033-9841","sd":"21","ssbd":"11","lsbd":"School Board Timpanogos 1"},{"vid":"2387316","name":"Coby Hills-Sipes","party":"Rep","address":"836 E 100 S, Pleasant Grove, UT 84062","precinct":"25PG12","hd":"55","v_score":"2.744440783","decile":"5","lat":40.36229438066086,"lng":-111.72245241583701,"phone":"(462) 109-3052","sd":"21","ssbd":"11","lsbd":"School Board Timpanogos 1"},{"vid":"2391541","name":"Deshaun Heathcote","party":"","address":"665 E 200 S, Pleasant Grove, UT 84062","precinct":"25PG12","hd":"55","v_score":"1.121327652","decile":"3","lat":40.36141124195219,"lng":-111.72635564132064,"phone":"(227) 146-4088","sd":"21","ssbd":"11","lsbd":"School Board Timpanogos 1"},{"vid":"2419397","name":"Milissa Grant","party":"Rep","address":"1225 E 120 N, Pleasant Grove, UT 84062","precinct":"25PG12","hd":"55","v_score":"1.121327652","decile":"3","lat":40.3656199180099,"lng":-111.71175569074816,"phone":"(506) 475-9686","sd":"21","ssbd":"11","lsbd":"School Board Timpanogos 1"},{"vid":"2428205","name":"Jesus Barton","party":"","address":"29 S 760 E, Pleasant Grove, UT 84062","precinct":"25PG12","hd":"55","v_score":"6.657533174","decile":"7","lat":40.36343467275357,"lng":-111.72378706507125,"phone":"(104) 000-1217","sd":"21","ssbd":"11","lsbd":"School Board Timpanogos 1"},{"vid":"2430347","name":"Vonetta Pouros DVM","party":"Dem","address":"634 E 100 S, Pleasant Grove, UT 84062","precinct":"25PG12","hd":"55","v_score":"2.315214949","decile":"5","lat":40.36226182157388,"lng":-111.72704925462635,"phone":"(481) 769-5600","sd":"21","ssbd":"11","lsbd":"School Board Timpanogos 1"},{"vid":"2430966","name":"Shawnte Gutmann","party":"","address":"155 N 1400 E, Pleasant Grove, UT 84062","precinct":"25PG12","hd":"55","v_score":"1.121327652","decile":"3","lat":40.365667780182356,"lng":-111.70800253011139,"phone":"(384) 552-1785","sd":"21","ssbd":"11","lsbd":"School Board Timpanogos 1"},{"vid":"2431547","name":"Mr. Otis Pfannerstill II","party":"","address":"151 N 1300 E, Pleasant Grove, UT 84062","precinct":"25PG12","hd":"55","v_score":"2.817000428","decile":"6","lat":40.365347152045096,"lng":-111.71030440009353,"phone":"(769) 378-8208","sd":"21","ssbd":"11","lsbd":"School Board Timpanogos 1"},{"vid":"2433345","name":"Mr. Garett Runolfsdottir","party":"","address":"11 N 1300 E, Pleasant Grove, UT 84062","precinct":"25PG12","hd":"55","v_score":"1.193887297","decile":"3","lat":40.36429361246218,"lng":-111.71016478501004,"phone":"(630) 560-9937","sd":"21","ssbd":"11","lsbd":"School Board Timpanogos 1"},{"vid":"2435510","name":"Dr. Bess Schmitt PhD","party":"","address":"180 N 1050 E, Pleasant Grove, UT 84062","precinct":"25PG12","hd":"55","v_score":"2.315214949","decile":"5","lat":40.365977217434555,"lng":-111.71555456047278,"phone":"(546) 304-1140","sd":"21","ssbd":"11","lsbd":"School Board Timpanogos 1"},{"vid":"2452709","name":"Ms. Gale Bernier","party":"Dem","address":"578 E 100 S, Pleasant Grove, UT 84062","precinct":"25PG12","hd":"55","v_score":"2.315214949","decile":"5","lat":40.36211165600117,"lng":-111.72866956469123,"phone":"(641) 816-7149","sd":"21","ssbd":"11","lsbd":"School Board Timpanogos 1"},{"vid":"2453914","name":"Lue Runolfsson","party":"Rep","address":"1108 E 200 N, Pleasant Grove, UT 84062","precinct":"25PG12","hd":"55","v_score":"2.315214949","decile":"5","lat":40.16925396560105,"lng":-111.59041639714906,"phone":"(777) 484-0070","sd":"21","ssbd":"11","lsbd":"School Board Timpanogos 1"},{"vid":"2454537","name":"Kyree Bayer-Lockman","party":"Dem","address":"1108 E 200 N, Pleasant Grove, UT 84062","precinct":"25PG12","hd":"55","v_score":"3.93832808","decile":"6","lat":40.16925396560105,"lng":-111.59041639714906,"phone":"(385) 373-1463","sd":"21","ssbd":"11","lsbd":"School Board Timpanogos 1"},{"vid":"2459959","name":"Justina Medhurst","party":"Dem","address":"129 S 950 E, Pleasant Grove, UT 84062","precinct":"25PG12","hd":"55","v_score":"0","decile":"1","lat":40.3622999656997,"lng":-111.71934188772879,"phone":"(264) 264-8842","sd":"21","ssbd":"11","lsbd":"School Board Timpanogos 1"},{"vid":"2460862","name":"Darryl Schroeder I","party":"Dem","address":"28 S 850 E, Pleasant Grove, UT 84062","precinct":"25PG12","hd":"55","v_score":"5.693042993","decile":"7","lat":40.363715475472205,"lng":-111.72162872230497,"phone":"(823) 164-1882","sd":"21","ssbd":"11","lsbd":"School Board Timpanogos 1"},{"vid":"2462693","name":"Mr. Loring Wolf II","party":"Dem","address":"525 E 100 S, Pleasant Grove, UT 84062","precinct":"25PG12","hd":"55","v_score":"4.905839784","decile":"7","lat":40.36264422902302,"lng":-111.73008697405525,"phone":"(969) 207-9561","sd":"21","ssbd":"11","lsbd":"School Board Timpanogos 1"},{"vid":"2464779","name":"Ashly Schiller MD","party":"Dem","address":"1285 E Center St, Pleasant Grove, UT 84062","precinct":"25PG12","hd":"55","v_score":"0","decile":"1","lat":40.3641639933496,"lng":-111.71058008577788,"phone":"(356) 114-7888","sd":"21","ssbd":"11","lsbd":"School Board Timpanogos 1"},{"vid":"2464848","name":"Mohammad Fisher","party":"","address":"1175 E 100 N, Pleasant Grove, UT 84062","precinct":"25PG12","hd":"55","v_score":"15.44261933","decile":"9","lat":40.364979076155585,"lng":-111.7130015790388,"phone":"(277) 629-9518","sd":"21","ssbd":"11","lsbd":"School Board Timpanogos 1"},{"vid":"2467292","name":"Darryn Kerluke","party":"Dem","address":"14 S 760 E, Pleasant Grove, UT 84062","precinct":"25PG12","hd":"55","v_score":"0","decile":"1","lat":40.36372470457833,"lng":-111.72423805226626,"phone":"(281) 831-8776","sd":"21","ssbd":"11","lsbd":"School Board Timpanogos 1"},{"vid":"2471969","name":"Heaven Gottlieb","party":"","address":"581 E 200 S, Pleasant Grove, UT 84062","precinct":"25PG12","hd":"55","v_score":"0","decile":"1","lat":40.361659104775946,"lng":-111.72905793390336,"phone":"(655) 793-1960","sd":"21","ssbd":"11","lsbd":"School Board Timpanogos 1"},{"vid":"2479146","name":"Eliot Wunsch Jr.","party":"","address":"90 S 1300 E, Pleasant Grove, UT 84062","precinct":"25PG12","hd":"55","v_score":"1.193887297","decile":"3","lat":40.36267758175221,"lng":-111.71006159003117,"phone":"(674) 856-4827","sd":"21","ssbd":"11","lsbd":"School Board Timpanogos 1"},{"vid":"2479328","name":"Reynolds Schaden","party":"Dem","address":"1448 E 50 S, Pleasant Grove, UT 84062","precinct":"25PG12","hd":"55","v_score":"0","decile":"1","lat":40.3627418830873,"lng":-111.70700679328611,"phone":"(555) 774-7855","sd":"21","ssbd":"11","lsbd":"School Board Timpanogos 1"},{"vid":"2496246","name":"Cordero Franecki","party":"","address":"34 S 760 E, Pleasant Grove, UT 84062","precinct":"25PG12","hd":"55","v_score":"4.499155696","decile":"7","lat":40.36337256864092,"lng":-111.72403866138674,"phone":"(495) 659-6488","sd":"21","ssbd":"11","lsbd":"School Board Timpanogos 1"},{"vid":"2501712","name":"Dr. Jarvis Sipes DVM","party":"","address":"145 S 500 E, Pleasant Grove, UT 84062","precinct":"25PG12","hd":"55","v_score":"0","decile":"1","lat":40.36192595616996,"lng":-111.73002725665383,"phone":"(480) 491-7363","sd":"21","ssbd":"11","lsbd":"School Board Timpanogos 1"},{"vid":"2502307","name":"Inga McKenzie","party":"Dem","address":"163 S 500 E, Pleasant Grove, UT 84062","precinct":"25PG12","hd":"55","v_score":"0","decile":"1","lat":40.361688707106126,"lng":-111.73040420906729,"phone":"(859) 240-9398","sd":"21","ssbd":"11","lsbd":"School Board Timpanogos 1"},{"vid":"2503400","name":"Ms. Clotilda Weber DDS","party":"","address":"109 N 1240 E, Pleasant Grove, UT 84062","precinct":"25PG12","hd":"55","v_score":"5.693042993","decile":"7","lat":40.36523672575004,"lng":-111.71163275211146,"phone":"(377) 744-8947","sd":"21","ssbd":"11","lsbd":"School Board Timpanogos 1"},{"vid":"2506301","name":"Brandy Gusikowski-Cremin","party":"Rep","address":"535 E 200 S, Pleasant Grove, UT 84062","precinct":"25PG12","hd":"55","v_score":"0","decile":"1","lat":40.36141889499943,"lng":-111.72979202121486,"phone":"(886) 152-9927","sd":"21","ssbd":"11","lsbd":"School Board Timpanogos 1"},{"vid":"2509138","name":"Cortez Wisoky","party":"Rep","address":"145 S 500 E, Pleasant Grove, UT 84062","precinct":"25PG12","hd":"55","v_score":"5.693042993","decile":"7","lat":40.36192595616996,"lng":-111.73002725665383,"phone":"(422) 034-0835","sd":"21","ssbd":"11","lsbd":"School Board Timpanogos 1"},{"vid":"2529112","name":"Mr. Xzavier Heathcote V","party":"Dem","address":"1213 E 50 N, Pleasant Grove, UT 84062","precinct":"25PG12","hd":"55","v_score":"0","decile":"1","lat":40.36487443873514,"lng":-111.71214869257578,"phone":"(706) 437-4064","sd":"21","ssbd":"11","lsbd":"School Board Timpanogos 1"},{"vid":"2546596","name":"Amanda Legros-Gerhold","party":"Dem","address":"198 S 1300 E, Pleasant Grove, UT 84062","precinct":"25PG12","hd":"55","v_score":"2.817000428","decile":"6","lat":40.36131113460571,"lng":-111.70970898202026,"phone":"(231) 844-2787","sd":"21","ssbd":"11","lsbd":"School Board Timpanogos 1"},{"vid":"2546927","name":"Marty Hyatt","party":"","address":"1360 E 150 N, Pleasant Grove, UT 84062","precinct":"25PG12","hd":"55","v_score":"0","decile":"1","lat":40.36523974621521,"lng":-111.7087951976277,"phone":"(354) 775-1125","sd":"21","ssbd":"11","lsbd":"School Board Timpanogos 1"},{"vid":"2547724","name":"Burton Strosin V","party":"","address":"633 E 150 S, Pleasant Grove, UT 84062","precinct":"25PG12","hd":"55","v_score":"0","decile":"1","lat":40.36204206462227,"lng":-111.7269777726249,"phone":"(779) 404-5065","sd":"21","ssbd":"11","lsbd":"School Board Timpanogos 1"},{"vid":"2548646","name":"Sherron Rosenbaum-Prohaska","party":"Rep","address":"11 S 700 E, Pleasant Grove, UT 84062","precinct":"25PG12","hd":"55","v_score":"4.069929862","decile":"6","lat":40.363785956236676,"lng":-111.7251809312012,"phone":"(145) 314-8741","sd":"21","ssbd":"11","lsbd":"School Board Timpanogos 1"},{"vid":"2555057","name":"Johan D'Amore","party":"Dem","address":"183 N 1350 E, Pleasant Grove, UT 84062","precinct":"25PG12","hd":"55","v_score":"0","decile":"1","lat":40.36605030255929,"lng":-111.7091755035874,"phone":"(214) 600-0845","sd":"21","ssbd":"11","lsbd":"School Board Timpanogos 1"},{"vid":"2557743","name":"Shanice Rice DDS","party":"","address":"544 E Center St, Pleasant Grove, UT 84062","precinct":"25PG12","hd":"55","v_score":"0","decile":"1","lat":40.36368659783653,"lng":-111.72974126604197,"phone":"(463) 990-8604","sd":"21","ssbd":"11","lsbd":"School Board Timpanogos 1"},{"vid":"2560143","name":"Mr. Myrtle Bogan V","party":"","address":"185 N 1300 E, Pleasant Grove, UT 84062","precinct":"25PG12","hd":"55","v_score":"1.193887297","decile":"4","lat":40.36560757706543,"lng":-111.71032063893892,"phone":"(426) 253-8411","sd":"21","ssbd":"11","lsbd":"School Board Timpanogos 1"},{"vid":"2563229","name":"Dax Farrell","party":"","address":"162 N 1400 E, Pleasant Grove, UT 84062","precinct":"25PG12","hd":"55","v_score":"1.193887297","decile":"4","lat":40.36606494748036,"lng":-111.70736026876786,"phone":"(204) 123-9826","sd":"21","ssbd":"11","lsbd":"School Board Timpanogos 1"},{"vid":"2563230","name":"Ronaldo Wiza","party":"Dem","address":"215 N 1400 E, Pleasant Grove, UT 84062","precinct":"25PG12","hd":"55","v_score":"2.817000428","decile":"6","lat":40.3664903977452,"lng":-111.70794471362,"phone":"(176) 843-5389","sd":"21","ssbd":"11","lsbd":"School Board Timpanogos 1"},{"vid":"2578940","name":"Rosendo Johns","party":"Rep","address":"14 S 760 E, Pleasant Grove, UT 84062","precinct":"25PG12","hd":"55","v_score":"1.193887297","decile":"4","lat":40.36372470457833,"lng":-111.72423805226626,"phone":"(581) 300-7467","sd":"21","ssbd":"11","lsbd":"School Board Timpanogos 1"},{"vid":"2590938","name":"Dr. Gilda Stiedemann DVM","party":"","address":"140 S 600 E, Pleasant Grove, UT 84062","precinct":"25PG12","hd":"55","v_score":"5.693042993","decile":"7","lat":40.36194726775179,"lng":-111.72832870262764,"phone":"(599) 127-6289","sd":"21","ssbd":"11","lsbd":"School Board Timpanogos 1"},{"vid":"2610221","name":"Sena Leannon MD","party":"Dem","address":"129 S 950 E, Pleasant Grove, UT 84062","precinct":"25PG12","hd":"55","v_score":"1.193887297","decile":"4","lat":40.3622999656997,"lng":-111.71934188772879,"phone":"(724) 681-3139","sd":"21","ssbd":"11","lsbd":"School Board Timpanogos 1"},{"vid":"2615879","name":"Kolton Harris","party":"","address":"151 S 500 E, Pleasant Grove, UT 84062","precinct":"25PG12","hd":"55","v_score":"1.193887297","decile":"4","lat":40.36191714910828,"lng":-111.72985291865926,"phone":"(751) 384-7099","sd":"21","ssbd":"11","lsbd":"School Board Timpanogos 1"},{"vid":"2621371","name":"Junious Marvin","party":"","address":"788 E 100 S, Pleasant Grove, UT 84062","precinct":"25PG12","hd":"55","v_score":"4.069929862","decile":"6","lat":40.362209386729795,"lng":-111.72335634373471,"phone":"(275) 297-3723","sd":"21","ssbd":"11","lsbd":"School Board Timpanogos 1"},{"vid":"2626589","name":"Mr. Governor Durgan MD","party":"Rep","address":"1143 E 30 S, Pleasant Grove, UT 84062","precinct":"25PG12","hd":"55","v_score":"5.693042993","decile":"7","lat":40.3640817079038,"lng":-111.71373897328105,"phone":"(776) 514-2566","sd":"21","ssbd":"11","lsbd":"School Board Timpanogos 1"},{"vid":"2627343","name":"Iverson Fahey","party":"","address":"28 S 1050 E, Pleasant Grove, UT 84062","precinct":"25PG12","hd":"55","v_score":"2.817000428","decile":"6","lat":40.36331812480245,"lng":-111.71589935489939,"phone":"(563) 474-6191","sd":"21","ssbd":"11","lsbd":"School Board Timpanogos 1"},{"vid":"2630614","name":"Raphael Keeling","party":"","address":"43 S 850 E, Pleasant Grove, UT 84062","precinct":"25PG12","hd":"55","v_score":"4.069929862","decile":"6","lat":40.36331369392765,"lng":-111.721259040573,"phone":"(336) 803-4986","sd":"21","ssbd":"11","lsbd":"School Board Timpanogos 1"},{"vid":"2634522","name":"Napoleon Hills-Goyette","party":"Dem","address":"35 S 500 E, Pleasant Grove, UT 84062","precinct":"25PG12","hd":"55","v_score":"12.85165745","decile":"9","lat":40.363384219506344,"lng":-111.7300362303808,"phone":"(841) 553-0692","sd":"21","ssbd":"11","lsbd":"School Board Timpanogos 1"},{"vid":"2644702","name":"Hideo Klocko","party":"Dem","address":"34 S 760 E, Pleasant Grove, UT 84062","precinct":"25PG12","hd":"55","v_score":"5.693042993","decile":"7","lat":40.36337256864092,"lng":-111.72403866138674,"phone":"(507) 499-6959","sd":"21","ssbd":"11","lsbd":"School Board Timpanogos 1"},{"vid":"2653081","name":"Eathel Kunze MD","party":"Rep","address":"873 E 200 S, Pleasant Grove, UT 84062","precinct":"25PG12","hd":"55","v_score":"0","decile":"1","lat":40.361322127506014,"lng":-111.72103058210791,"phone":"(265) 956-8653","sd":"21","ssbd":"11","lsbd":"School Board Timpanogos 1"},{"vid":"2661168","name":"Ferman Nienow","party":"Rep","address":"1237 E 200 S, Pleasant Grove, UT 84062","precinct":"25PG12","hd":"55","v_score":"1.193887297","decile":"4","lat":40.3613286889775,"lng":-111.71062470069629,"phone":"(391) 142-9238","sd":"21","ssbd":"11","lsbd":"School Board Timpanogos 1"},{"vid":"2681165","name":"Linden Walsh-Larson","party":"","address":"1221 E 200 S, Pleasant Grove, UT 84062","precinct":"25PG12","hd":"55","v_score":"0","decile":"2","lat":40.36144350417513,"lng":-111.71092406570202,"phone":"(674) 545-2302","sd":"21","ssbd":"11","lsbd":"School Board Timpanogos 1"},{"vid":"2682391","name":"Duwayne Volkman Sr.","party":"","address":"841 E 200 S, Pleasant Grove, UT 84062","precinct":"25PG12","hd":"55","v_score":"0","decile":"2","lat":40.36159197822508,"lng":-111.72159355440004,"phone":"(240) 628-3127","sd":"21","ssbd":"11","lsbd":"School Board Timpanogos 1"},{"vid":"2690198","name":"Dr. Lavern Pfannerstill PhD","party":"Rep","address":"640 E 100 S, Pleasant Grove, UT 84062","precinct":"25PG12","hd":"55","v_score":"0","decile":"2","lat":40.10820295641484,"lng":-111.6433964046749,"phone":"(179) 155-4540","sd":"21","ssbd":"11","lsbd":"School Board Timpanogos 1"},{"vid":"2694373","name":"Evelina Mueller","party":"Rep","address":"30 S 700 E, Pleasant Grove, UT 84062","precinct":"25PG12","hd":"55","v_score":"1.193887297","decile":"4","lat":40.3635168018805,"lng":-111.72568399308123,"phone":"(463) 650-0985","sd":"21","ssbd":"11","lsbd":"School Board Timpanogos 1"},{"vid":"2701584","name":"Corey Hintz","party":"Rep","address":"1108 E 200 N, Pleasant Grove, UT 84062","precinct":"25PG12","hd":"55","v_score":"4.905839784","decile":"7","lat":40.16925396560105,"lng":-111.59041639714906,"phone":"(288) 474-9197","sd":"21","ssbd":"11","lsbd":"School Board Timpanogos 1"},{"vid":"2708064","name":"Nicholaus Brekke","party":"","address":"163 S 500 E, Pleasant Grove, UT 84062","precinct":"25PG12","hd":"55","v_score":"0","decile":"2","lat":40.361688707106126,"lng":-111.73040420906729,"phone":"(938) 212-4123","sd":"21","ssbd":"11","lsbd":"School Board Timpanogos 1"},{"vid":"2710522","name":"Dr. Milissa Considine MD","party":"Dem","address":"180 N 1050 E, Pleasant Grove, UT 84062","precinct":"25PG12","hd":"55","v_score":"4.905839784","decile":"7","lat":40.365977217434555,"lng":-111.71555456047278,"phone":"(626) 999-4427","sd":"21","ssbd":"11","lsbd":"School Board Timpanogos 1"},{"vid":"2735114","name":"Zaniyah Zboncak-Romaguera","party":"Rep","address":"152 N 1400 E, Pleasant Grove, UT 84062","precinct":"25PG12","hd":"55","v_score":"2.876042565","decile":"6","lat":40.36554992939114,"lng":-111.70595773345937,"phone":"(569) 818-3116","sd":"21","ssbd":"11","lsbd":"School Board Timpanogos 1"},{"vid":"2736046","name":"Charle Cole","party":"Dem","address":"64 S 1025 E, Pleasant Grove, UT 84062","precinct":"25PG12","hd":"55","v_score":"0","decile":"2","lat":40.363394885971005,"lng":-111.71747688008247,"phone":"(439) 152-3304","sd":"21","ssbd":"11","lsbd":"School Board Timpanogos 1"},{"vid":"2741404","name":"Buell Eichmann II","party":"","address":"621 E 200 S, Pleasant Grove, UT 84062","precinct":"25PG12","hd":"55","v_score":"0","decile":"2","lat":40.361359067649396,"lng":-111.72717455667272,"phone":"(332) 168-9364","sd":"21","ssbd":"11","lsbd":"School Board Timpanogos 1"},{"vid":"2742064","name":"Carolee Maggio","party":"Rep","address":"27 S 1185 E, Pleasant Grove, UT 84062","precinct":"25PG12","hd":"55","v_score":"0","decile":"2","lat":40.363423981788564,"lng":-111.71251565688465,"phone":"(193) 430-3207","sd":"21","ssbd":"11","lsbd":"School Board Timpanogos 1"},{"vid":"2751214","name":"Amanda McGlynn-Reichel","party":"","address":"1093 E 30 S, Pleasant Grove, UT 84062","precinct":"25PG12","hd":"55","v_score":"0","decile":"2","lat":40.36350642676225,"lng":-111.71482113404541,"phone":"(111) 491-3347","sd":"21","ssbd":"11","lsbd":"School Board Timpanogos 1"},{"vid":"2751384","name":"Asberry Legros","party":"Rep","address":"1113 E 30 S, Pleasant Grove, UT 84062","precinct":"25PG12","hd":"55","v_score":"1.193887297","decile":"4","lat":40.36376058840159,"lng":-111.71453324738118,"phone":"(912) 372-3891","sd":"21","ssbd":"11","lsbd":"School Board Timpanogos 1"},{"vid":"2753820","name":"Hilda Wilkinson","party":"","address":"1381 E 150 N, Pleasant Grove, UT 84062","precinct":"25PG12","hd":"55","v_score":"4.069929862","decile":"7","lat":40.365718215718246,"lng":-111.70844745627778,"phone":"(195) 602-3693","sd":"21","ssbd":"11","lsbd":"School Board Timpanogos 1"},{"vid":"2759100","name":"Mrs. Mya Watsica DVM","party":"","address":"125 S 1300 E, Pleasant Grove, UT 84062","precinct":"25PG12","hd":"55","v_score":"33.64625644","decile":"10","lat":40.3621369413759,"lng":-111.70937628888169,"phone":"(167) 541-7065","sd":"21","ssbd":"11","lsbd":"School Board Timpanogos 1"},{"vid":"2760904","name":"Thurman Mann MD","party":"","address":"220 N 1300 E, Pleasant Grove, UT 84062","precinct":"25PG12","hd":"55","v_score":"37.23116319","decile":"10","lat":40.3658977649881,"lng":-111.7098317782766,"phone":"(751) 535-0270","sd":"21","ssbd":"11","lsbd":"School Board Timpanogos 1"},{"vid":"2775354","name":"Moshe Durgan","party":"Rep","address":"26 S 760 E, Pleasant Grove, UT 84062","precinct":"25PG12","hd":"55","v_score":"1.193887297","decile":"4","lat":40.363435172730966,"lng":-111.72425032765679,"phone":"(710) 349-6410","sd":"21","ssbd":"11","lsbd":"School Board Timpanogos 1"},{"vid":"2780005","name":"Savon Vandervort-Schmidt","party":"","address":"145 S 500 E, Pleasant Grove, UT 84062","precinct":"25PG12","hd":"55","v_score":"2.876042565","decile":"6","lat":40.36192595616996,"lng":-111.73002725665383,"phone":"(241) 553-8284","sd":"21","ssbd":"11","lsbd":"School Board Timpanogos 1"},{"vid":"2787020","name":"Mr. Harm Williamson DVM","party":"","address":"163 S 500 E, Pleasant Grove, UT 84062","precinct":"25PG12","hd":"55","v_score":"1.193887297","decile":"4","lat":40.361688707106126,"lng":-111.73040420906729,"phone":"(578) 222-8406","sd":"21","ssbd":"11","lsbd":"School Board Timpanogos 1"},{"vid":"2790327","name":"Osie Walker","party":"Dem","address":"1235 E 120 N, Pleasant Grove, UT 84062","precinct":"25PG12","hd":"55","v_score":"0","decile":"2","lat":40.36551260539265,"lng":-111.71137738339792,"phone":"(727) 270-1028","sd":"21","ssbd":"11","lsbd":"School Board Timpanogos 1"},{"vid":"2792648","name":"Justice Wyman","party":"Dem","address":"113 N 1400 E, Pleasant Grove, UT 84062","precinct":"25PG12","hd":"55","v_score":"0","decile":"2","lat":40.36490881167486,"lng":-111.70873419630064,"phone":"(505) 852-5710","sd":"21","ssbd":"11","lsbd":"School Board Timpanogos 1"},{"vid":"2797894","name":"Lacie Krajcik DDS","party":"","address":"89 S 800 E, Pleasant Grove, UT 84062","precinct":"25PG12","hd":"55","v_score":"1.193887297","decile":"4","lat":40.362596017765455,"lng":-111.72290639910912,"phone":"(677) 220-5872","sd":"21","ssbd":"11","lsbd":"School Board Timpanogos 1"},{"vid":"2801641","name":"Dr. Sherrill Conroy Sr.","party":"","address":"180 N 1050 E, Pleasant Grove, UT 84062","precinct":"25PG12","hd":"55","v_score":"4.069929862","decile":"7","lat":40.365977217434555,"lng":-111.71555456047278,"phone":"(681) 952-2506","sd":"21","ssbd":"11","lsbd":"School Board Timpanogos 1"},{"vid":"2810788","name":"Miss Vicki Bayer MD","party":"","address":"1235 E 120 N, Pleasant Grove, UT 84062","precinct":"25PG12","hd":"55","v_score":"0","decile":"2","lat":40.36551260539265,"lng":-111.71137738339792,"phone":"(371) 610-3382","sd":"21","ssbd":"11","lsbd":"School Board Timpanogos 1"},{"vid":"2827380","name":"Miss Jonna Oberbrunner MD","party":"Dem","address":"589 E 200 S, Pleasant Grove, UT 84062","precinct":"25PG12","hd":"55","v_score":"1.193887297","decile":"4","lat":40.36142366040313,"lng":-111.72864283601363,"phone":"(644) 091-1382","sd":"21","ssbd":"11","lsbd":"School Board Timpanogos 1"},{"vid":"2828829","name":"Alan Ratke","party":"Rep","address":"621 E 200 S, Pleasant Grove, UT 84062","precinct":"25PG12","hd":"55","v_score":"0","decile":"2","lat":40.361359067649396,"lng":-111.72717455667272,"phone":"(786) 394-9240","sd":"21","ssbd":"11","lsbd":"School Board Timpanogos 1"},{"vid":"2860719","name":"Samson Lubowitz","party":"Dem","address":"195 N 1400 E, Pleasant Grove, UT 84062","precinct":"25PG12","hd":"55","v_score":"4.069929862","decile":"7","lat":40.36600899165194,"lng":-111.7080510671128,"phone":"(262) 134-3996","sd":"21","ssbd":"11","lsbd":"School Board Timpanogos 1"},{"vid":"2868950","name":"Kelvin O'Reilly III","party":"Dem","address":"30 S 1300 E, Pleasant Grove, UT 84062","precinct":"25PG12","hd":"55","v_score":"1.193887297","decile":"4","lat":40.363667779714845,"lng":-111.71001849707068,"phone":"(285) 026-0761","sd":"21","ssbd":"11","lsbd":"School Board Timpanogos 1"},{"vid":"2874233","name":"Sheron McKenzie","party":"Rep","address":"1285 E Center St, Pleasant Grove, UT 84062","precinct":"25PG12","hd":"55","v_score":"0","decile":"2","lat":40.3641639933496,"lng":-111.71058008577788,"phone":"(422) 335-9747","sd":"21","ssbd":"11","lsbd":"School Board Timpanogos 1"},{"vid":"2882148","name":"Santos Wisozk","party":"","address":"1098 E 110 S, Pleasant Grove, UT 84062","precinct":"25PG12","hd":"55","v_score":"1.193887297","decile":"4","lat":40.361915953050485,"lng":-111.71455419726854,"phone":"(144) 466-2112","sd":"21","ssbd":"11","lsbd":"School Board Timpanogos 1"},{"vid":"2886454","name":"Louella Corkery MD","party":"Dem","address":"20 S 700 E, Pleasant Grove, UT 84062","precinct":"25PG12","hd":"55","v_score":"1.193887297","decile":"4","lat":40.36367487217367,"lng":-111.7256845141041,"phone":"(812) 501-4729","sd":"21","ssbd":"11","lsbd":"School Board Timpanogos 1"},{"vid":"2895298","name":"Ms. Marnie Schmidt","party":"Dem","address":"164 S 980 E, Pleasant Grove, UT 84062","precinct":"25PG12","hd":"55","v_score":"0","decile":"2","lat":40.361875157694975,"lng":-111.71813550140828,"phone":"(871) 472-3801","sd":"21","ssbd":"11","lsbd":"School Board Timpanogos 1"},{"vid":"2898521","name":"Rory Kling","party":"Rep","address":"30 S 700 E, Pleasant Grove, UT 84062","precinct":"25PG12","hd":"55","v_score":"0","decile":"2","lat":40.3635168018805,"lng":-111.72568399308123,"phone":"(448) 892-4209","sd":"21","ssbd":"11","lsbd":"School Board Timpanogos 1"},{"vid":"2904514","name":"Mr. Gregory Barrows DVM","party":"","address":"163 S 500 E, Pleasant Grove, UT 84062","precinct":"25PG12","hd":"55","v_score":"0","decile":"2","lat":40.361688707106126,"lng":-111.73040420906729,"phone":"(704) 190-7575","sd":"21","ssbd":"11","lsbd":"School Board Timpanogos 1"},{"vid":"2906741","name":"Elmer Vandervort II","party":"","address":"80 S 1300 E, Pleasant Grove, UT 84062","precinct":"25PG12","hd":"55","v_score":"0","decile":"2","lat":40.36289622705841,"lng":-111.7099385134037,"phone":"(472) 064-2373","sd":"21","ssbd":"11","lsbd":"School Board Timpanogos 1"},{"vid":"2916925","name":"Napoleon Hagenes","party":"","address":"28 S 1050 E, Pleasant Grove, UT 84062","precinct":"25PG12","hd":"55","v_score":"0","decile":"2","lat":40.36331812480245,"lng":-111.71589935489939,"phone":"(559) 709-9552","sd":"21","ssbd":"11","lsbd":"School Board Timpanogos 1"},{"vid":"2920312","name":"Cristian Parker","party":"","address":"715 E 200 S, Pleasant Grove, UT 84062","precinct":"25PG12","hd":"55","v_score":"0","decile":"2","lat":40.361474120724985,"lng":-111.72513916809535,"phone":"(376) 035-8804","sd":"21","ssbd":"11","lsbd":"School Board Timpanogos 1"},{"vid":"2920617","name":"Jerimiah Dooley","party":"Rep","address":"590 E 100 S, Pleasant Grove, UT 84062","precinct":"25PG12","hd":"55","v_score":"0","decile":"2","lat":40.36218364763779,"lng":-111.72861713997794,"phone":"(790) 637-1011","sd":"21","ssbd":"11","lsbd":"School Board Timpanogos 1"},{"vid":"2921615","name":"Stevie Bogisich III","party":"Rep","address":"20 S 700 E, Pleasant Grove, UT 84062","precinct":"25PG12","hd":"55","v_score":"0","decile":"2","lat":40.36367487217367,"lng":-111.7256845141041,"phone":"(305) 147-3525","sd":"21","ssbd":"11","lsbd":"School Board Timpanogos 1"},{"vid":"2925149","name":"Alla Gusikowski","party":"","address":"715 E 200 S, Pleasant Grove, UT 84062","precinct":"25PG12","hd":"55","v_score":"0","decile":"2","lat":40.361474120724985,"lng":-111.72513916809535,"phone":"(909) 892-6577","sd":"21","ssbd":"11","lsbd":"School Board Timpanogos 1"},{"vid":"2927679","name":"Hasel Hoeger DDS","party":"Dem","address":"1171 E 30 S, Pleasant Grove, UT 84062","precinct":"25PG12","hd":"55","v_score":"0","decile":"2","lat":40.36402705909972,"lng":-111.7130449490191,"phone":"(542) 034-1389","sd":"21","ssbd":"11","lsbd":"School Board Timpanogos 1"},{"vid":"2927816","name":"Manuelita Steuber","party":"","address":"113 N 1400 E, Pleasant Grove, UT 84062","precinct":"25PG12","hd":"55","v_score":"0","decile":"2","lat":40.36490881167486,"lng":-111.70873419630064,"phone":"(418) 911-0629","sd":"21","ssbd":"11","lsbd":"School Board Timpanogos 1"},{"vid":"2946414","name":"Mr. Gauge Hagenes","party":"","address":"1026 E 100 S, Pleasant Grove, UT 84062","precinct":"25PG12","hd":"55","v_score":"2.876042565","decile":"6","lat":40.3624382459396,"lng":-111.71727241921106,"phone":"(163) 167-7941","sd":"21","ssbd":"11","lsbd":"School Board Timpanogos 1"},{"vid":"2946811","name":"Mr. Omar Veum","party":"Rep","address":"45 N 1400 E, Pleasant Grove, UT 84062","precinct":"25PG12","hd":"55","v_score":"2.876042565","decile":"6","lat":40.36459701299123,"lng":-111.70824324905996,"phone":"(296) 310-5463","sd":"21","ssbd":"11","lsbd":"School Board Timpanogos 1"},{"vid":"2948100","name":"Dr. Dora Ledner MD","party":"","address":"1381 E 150 N, Pleasant Grove, UT 84062","precinct":"25PG12","hd":"55","v_score":"2.876042565","decile":"6","lat":40.365718215718246,"lng":-111.70844745627778,"phone":"(227) 136-2129","sd":"21","ssbd":"11","lsbd":"School Board Timpanogos 1"},{"vid":"2948949","name":"Chin McClure","party":"","address":"535 E 200 S, Pleasant Grove, UT 84062","precinct":"25PG12","hd":"55","v_score":"0","decile":"2","lat":40.36141889499943,"lng":-111.72979202121486,"phone":"(727) 740-5851","sd":"21","ssbd":"11","lsbd":"School Board Timpanogos 1"},{"vid":"2960768","name":"Mr. Orrie Gottlieb","party":"","address":"151 S 500 E, Pleasant Grove, UT 84062","precinct":"25PG12","hd":"55","v_score":"0","decile":"2","lat":40.36191714910828,"lng":-111.72985291865926,"phone":"(602) 895-6764","sd":"21","ssbd":"11","lsbd":"School Board Timpanogos 1"},{"vid":"2964651","name":"Dr. Kyara Dare PhD","party":"","address":"45 N 1400 E, Pleasant Grove, UT 84062","precinct":"25PG12","hd":"55","v_score":"0","decile":"2","lat":40.36459701299123,"lng":-111.70824324905996,"phone":"(105) 104-4870","sd":"21","ssbd":"11","lsbd":"School Board Timpanogos 1"},{"vid":"2970705","name":"Nealy Kerluke-Torphy","party":"","address":"1143 E 30 S, Pleasant Grove, UT 84062","precinct":"25PG12","hd":"55","v_score":"0","decile":"2","lat":40.3640817079038,"lng":-111.71373897328105,"phone":"(980) 201-9942","sd":"21","ssbd":"11","lsbd":"School Board Timpanogos 1"},{"vid":"2974328","name":"Chaz Bartell","party":"","address":"35 S 500 E, Pleasant Grove, UT 84062","precinct":"25PG12","hd":"55","v_score":"0","decile":"2","lat":40.363384219506344,"lng":-111.7300362303808,"phone":"(437) 376-8009","sd":"21","ssbd":"11","lsbd":"School Board Timpanogos 1"},{"vid":"2974589","name":"Mr. Isidro O'Keefe","party":"Rep","address":"73 S 850 E, Pleasant Grove, UT 84062","precinct":"25PG12","hd":"55","v_score":"1.121327652","decile":"3","lat":40.36283774328278,"lng":-111.72160302022769,"phone":"(253) 513-9385","sd":"21","ssbd":"11","lsbd":"School Board Timpanogos 1"},{"vid":"2981782","name":"Miss Rachel Flatley","party":"Rep","address":"118 S 980 E, Pleasant Grove, UT 84062","precinct":"25PG12","hd":"55","v_score":"0","decile":"2","lat":40.362421296529384,"lng":-111.71838871198128,"phone":"(525) 534-7008","sd":"21","ssbd":"11","lsbd":"School Board Timpanogos 1"},{"vid":"2982557","name":"Zayne Hegmann","party":"Rep","address":"616 E 100 S, Pleasant Grove, UT 84062","precinct":"25PG12","hd":"55","v_score":"0","decile":"2","lat":40.362263939780604,"lng":-111.72776677803064,"phone":"(688) 971-6176","sd":"21","ssbd":"11","lsbd":"School Board Timpanogos 1"},{"vid":"3090941","name":"Darcie Christiansen","party":"Dem","address":"211 N 1300 E, Pleasant Grove, UT 84062","precinct":"25PG12","hd":"55","v_score":"19.1624148","decile":"10","lat":40.365868003954276,"lng":-111.71033537023159,"phone":"(291) 941-0548","sd":"21","ssbd":"11","lsbd":"School Board Timpanogos 1"},{"vid":"3119192","name":"Cherrelle Denesik","party":"Dem","address":"1095 E 100 N, Pleasant Grove, UT 84062","precinct":"25PG12","hd":"55","v_score":"5.40460374","decile":"7","lat":40.365481601149845,"lng":-111.71501202236048,"phone":"(770) 999-4847","sd":"21","ssbd":"11","lsbd":"School Board Timpanogos 1"},{"vid":"3513962","name":"Lyda Funk","party":"Rep","address":"1155 E 100 N, Pleasant Grove, UT 84062","precinct":"25PG12","hd":"55","v_score":"0","decile":"2","lat":40.364983982321554,"lng":-111.71352397857531,"phone":"(809) 600-1926","sd":"21","ssbd":"11","lsbd":"School Board Timpanogos 1"},{"vid":"3544953","name":"Brock Emmerich","party":"Rep","address":"65 N 1400 E, Pleasant Grove, UT 84062","precinct":"25PG12","hd":"55","v_score":"14.95117867","decile":"9","lat":40.36465402222349,"lng":-111.70862884872425,"phone":"(798) 137-8524","sd":"21","ssbd":"11","lsbd":"School Board Timpanogos 1"},{"vid":"3554448","name":"Cassius Nitzsche","party":"","address":"113 N 1400 E, Pleasant Grove, UT 84062","precinct":"25PG12","hd":"55","v_score":"4.069929862","decile":"7","lat":40.36490881167486,"lng":-111.70873419630064,"phone":"(844) 861-6644","sd":"21","ssbd":"11","lsbd":"School Board Timpanogos 1"},{"vid":"85c9c0833d43b76ab61b3a7709c2447da2e12213fff32c23e023d4953a6d2ad7","name":"Lakendra Legros","party":"Rep","address":"185 N 1300 E, Pleasant Grove, UT 84062","precinct":"25PG12","hd":"55","v_score":"14.53583379","decile":"9","lat":40.36560757706543,"lng":-111.71032063893892,"phone":"(268) 147-6495","sd":"21","ssbd":"11","lsbd":"School Board Timpanogos 1"},{"vid":"3586900","name":"Arlie Bashirian-Beier","party":"Rep","address":"45 N 1400 E, Pleasant Grove, UT 84062","precinct":"25PG12","hd":"55","v_score":"4.214075011","decile":"7","lat":40.36459701299123,"lng":-111.70824324905996,"phone":"(488) 533-5556","sd":"21","ssbd":"11","lsbd":"School Board Timpanogos 1"},{"vid":"5220785","name":"Hadley Fay DDS","party":"Rep","address":"15 S Monson Cir, Pleasant Grove, UT 84062","precinct":"25PG12","hd":"55","v_score":"1.121327652","decile":"3","lat":40.363574731521034,"lng":-111.71816170761574,"phone":"(347) 206-0368","sd":"21","ssbd":"11","lsbd":"School Board Timpanogos 1"},{"vid":"5517966","name":"Mr. Loring Durgan IV","party":"Rep","address":"1460 E 140 S, Pleasant Grove, UT 84062","precinct":"25PG12","hd":"55","v_score":"14.74039814","decile":"9","lat":40.36174380940942,"lng":-111.70674364350097,"phone":"(919) 507-7225","sd":"21","ssbd":"11","lsbd":"School Board Timpanogos 1"},{"vid":"5528201","name":"Luanne Runolfsson PhD","party":"Rep","address":"1460 E 140 S, Pleasant Grove, UT 84062","precinct":"25PG12","hd":"55","v_score":"14.74039814","decile":"9","lat":40.36174380940942,"lng":-111.70674364350097,"phone":"(671) 451-1288","sd":"21","ssbd":"11","lsbd":"School Board Timpanogos 1"},{"vid":"5538455","name":"Wally Howell","party":"","address":"220 N 1300 E, Pleasant Grove, UT 84062","precinct":"25PG12","hd":"55","v_score":"32.39500163","decile":"10","lat":40.3658977649881,"lng":-111.7098317782766,"phone":"(828) 320-2117","sd":"21","ssbd":"11","lsbd":"School Board Timpanogos 1"},{"vid":"5550062","name":"Brett Kutch","party":"Rep","address":"788 E 100 S, Pleasant Grove, UT 84062","precinct":"25PG12","hd":"55","v_score":"20.37233113","decile":"10","lat":40.362209386729795,"lng":-111.72335634373471,"phone":"(802) 088-7410","sd":"21","ssbd":"11","lsbd":"School Board Timpanogos 1"},{"vid":"5557561","name":"Hattie Bogisich PhD","party":"","address":"151 S 500 E, Pleasant Grove, UT 84062","precinct":"25PG12","hd":"55","v_score":"15.12746977","decile":"9","lat":40.36191714910828,"lng":-111.72985291865926,"phone":"(947) 894-6520","sd":"21","ssbd":"11","lsbd":"School Board Timpanogos 1"},{"vid":"17ac99175d50edd7d9cc92492065d2fe6d13cf0f4604dc97569b0f29cb4610d7","name":"Ramsey Boyle MD","party":"Dem","address":"695 E 200 S, Pleasant Grove, UT 84062","precinct":"25PG12","hd":"55","v_score":"17.89408627","decile":"10","lat":40.36140667008325,"lng":-111.72567558646713,"phone":"(817) 293-5627","sd":"21","ssbd":"11","lsbd":"School Board Timpanogos 1"},{"vid":"8b3b3a1e42621d98524e2ceb8133fa522f879fecef3594eb076781d1462e18ee","name":"Cass Herman","party":"Rep","address":"790 E 100 S, Pleasant Grove, UT 84062","precinct":"25PG12","hd":"55","v_score":"22.19657077","decile":"10","lat":40.36204119338758,"lng":-111.7232851445486,"phone":"(858) 222-7170","sd":"21","ssbd":"11","lsbd":"School Board Timpanogos 1"},{"vid":"6081490","name":"Mr. Alvia Sporer DDS","party":"","address":"29 S 1025 E, Pleasant Grove, UT 84062","precinct":"25PG12","hd":"55","v_score":"14.13794019","decile":"9","lat":40.364316190205365,"lng":-111.71640293585824,"phone":"(652) 096-6792","sd":"21","ssbd":"11","lsbd":"School Board Timpanogos 1"},{"vid":"36d2a31f5d1248f04f05a85d53ba10ddefe736dc6c30cf40e02f7dfd2491353f","name":"Wenzel Kub","party":"","address":"32 N 1300 E, Pleasant Grove, UT 84062","precinct":"25PG12","hd":"55","v_score":"7.934314529","decile":"8","lat":40.36436851805758,"lng":-111.70970406470477,"phone":"(301) 626-1471","sd":"21","ssbd":"11","lsbd":"School Board Timpanogos 1"},{"vid":"7e5fbb66d0b71bef5bd7e04f5629bffced553686a97e527a85dc2cd9deb33a6a","name":"Yoshio Walter","party":"Rep","address":"183 N 1350 E, Pleasant Grove, UT 84062","precinct":"25PG12","hd":"55","v_score":"28.05068527","decile":"10","lat":40.36605030255929,"lng":-111.7091755035874,"phone":"(910) 160-0271","sd":"21","ssbd":"11","lsbd":"School Board Timpanogos 1"},{"vid":"6094419","name":"Mr. Ignatz Hoeger I","party":"","address":"1213 E 200 S, Pleasant Grove, UT 84062","precinct":"25PG12","hd":"55","v_score":"8.280646305","decile":"8","lat":40.36145563058607,"lng":-111.7121430103124,"phone":"(132) 537-5936","sd":"21","ssbd":"11","lsbd":"School Board Timpanogos 1"},{"vid":"6103741","name":"Mekhi Rice","party":"Dem","address":"739 E 200 S, Pleasant Grove, UT 84062","precinct":"25PG12","hd":"55","v_score":"20.77768495","decile":"10","lat":40.361519232620566,"lng":-111.7244644795464,"phone":"(535) 977-9549","sd":"21","ssbd":"11","lsbd":"School Board Timpanogos 1"},{"vid":"960ad4d6b491496146b4e5bf5c0573b0950503c32d0a0a9427b8e9d313d79dcb","name":"Minnie Konopelski","party":"Rep","address":"29 S 760 E, Pleasant Grove, UT 84062","precinct":"25PG12","hd":"55","v_score":"5.191257514","decile":"7","lat":40.36343467275357,"lng":-111.72378706507125,"phone":"(312) 488-7851","sd":"21","ssbd":"11","lsbd":"School Board Timpanogos 1"},{"vid":"6148834","name":"Dr. Rufus Ferry","party":"Rep","address":"1117 E 30 S, Pleasant Grove, UT 84062","precinct":"25PG12","hd":"55","v_score":"6.468038869","decile":"7","lat":40.36393162531632,"lng":-111.71480121151852,"phone":"(288) 166-9292","sd":"21","ssbd":"11","lsbd":"School Board Timpanogos 1"},{"vid":"6170989","name":"Kellie Spencer","party":"","address":"1084 E 30 S, Pleasant Grove, UT 84062","precinct":"25PG12","hd":"55","v_score":"38.39988068","decile":"10","lat":40.36321015082318,"lng":-111.71490577443981,"phone":"(769) 466-4055","sd":"21","ssbd":"11","lsbd":"School Board Timpanogos 1"},{"vid":"6179722","name":"Severo Gleichner","party":"Rep","address":"595 E 200 S, Pleasant Grove, UT 84062","precinct":"25PG12","hd":"55","v_score":"0","decile":"3","lat":40.36142307310781,"lng":-111.7284165375605,"phone":"(731) 352-8101","sd":"21","ssbd":"11","lsbd":"School Board Timpanogos 1"},{"vid":"6201218","name":"Daquan Steuber","party":"Rep","address":"1113 E 100 N, Pleasant Grove, UT 84062","precinct":"25PG12","hd":"55","v_score":"21.8990126","decile":"10","lat":40.36548274886392,"lng":-111.7145709858834,"phone":"(178) 647-8176","sd":"21","ssbd":"11","lsbd":"School Board Timpanogos 1"},{"vid":"6201546","name":"Hal Grant","party":"Dem","address":"125 S 1300 E, Pleasant Grove, UT 84062","precinct":"25PG12","hd":"55","v_score":"30.70334885","decile":"10","lat":40.3621369413759,"lng":-111.70937628888169,"phone":"(473) 072-7828","sd":"21","ssbd":"11","lsbd":"School Board Timpanogos 1"},{"vid":"6202547","name":"Audie Mills DDS","party":"Rep","address":"80 S 600 E, Pleasant Grove, UT 84062","precinct":"25PG12","hd":"55","v_score":"30.47669206","decile":"10","lat":40.362862202176565,"lng":-111.72838361801088,"phone":"(390) 453-5011","sd":"21","ssbd":"11","lsbd":"School Board Timpanogos 1"},{"vid":"6204207","name":"Maxie Orn","party":"Rep","address":"1555 E 200 S, Pleasant Grove, UT 84062","precinct":"25PG12","hd":"55","v_score":"11.86178988","decile":"9","lat":40.361459142377406,"lng":-111.705094120258,"phone":"(160) 730-9935","sd":"21","ssbd":"11","lsbd":"School Board Timpanogos 1"},{"vid":"6208493","name":"Mr. Aaden Adams I","party":"Dem","address":"2 S 1300 E, Pleasant Grove, UT 84062","precinct":"25PG12","hd":"55","v_score":"18.00198781","decile":"10","lat":40.36390983404573,"lng":-111.71002874948886,"phone":"(579) 098-8330","sd":"21","ssbd":"11","lsbd":"School Board Timpanogos 1"},{"vid":"6210026","name":"Muriel Cole DDS","party":"Dem","address":"93 N 1185 E, Pleasant Grove, UT 84062","precinct":"25PG12","hd":"55","v_score":"30.47669206","decile":"10","lat":40.36469312047398,"lng":-111.71301512209835,"phone":"(576) 134-8584","sd":"21","ssbd":"11","lsbd":"School Board Timpanogos 1"},{"vid":"6214207","name":"Rona Brown","party":"Rep","address":"85 S 1400 E, Pleasant Grove, UT 84062","precinct":"25PG12","hd":"55","v_score":"19.15121325","decile":"10","lat":40.36245439250474,"lng":-111.707509250495,"phone":"(845) 221-3048","sd":"21","ssbd":"11","lsbd":"School Board Timpanogos 1"},{"vid":"6217969","name":"Wirt Crist-Bernier","party":"","address":"1361 E 150 N, Pleasant Grove, UT 84062","precinct":"25PG12","hd":"55","v_score":"10.13721141","decile":"9","lat":40.365717454883914,"lng":-111.70878110979825,"phone":"(752) 293-0767","sd":"21","ssbd":"11","lsbd":"School Board Timpanogos 1"},{"vid":"6223465","name":"Eduardo McLaughlin II","party":"Rep","address":"832 E 50 S, Pleasant Grove, UT 84062","precinct":"25PG12","hd":"55","v_score":"38.00020808","decile":"10","lat":40.36311093701776,"lng":-111.72249936434915,"phone":"(387) 582-7157","sd":"21","ssbd":"11","lsbd":"School Board Timpanogos 1"},{"vid":"6226393","name":"Coolidge Denesik","party":"Rep","address":"67 S 600 E, Pleasant Grove, UT 84062","precinct":"25PG12","hd":"55","v_score":"2.315214949","decile":"5","lat":40.36298572569719,"lng":-111.72770186433091,"phone":"(336) 911-8082","sd":"21","ssbd":"11","lsbd":"School Board Timpanogos 1"},{"vid":"6226800","name":"Kerry O'Keefe","party":"Dem","address":"67 S 600 E, Pleasant Grove, UT 84062","precinct":"25PG12","hd":"55","v_score":"2.744440783","decile":"6","lat":40.36298572569719,"lng":-111.72770186433091,"phone":"(798) 525-4201","sd":"21","ssbd":"11","lsbd":"School Board Timpanogos 1"},{"vid":"923a04b71e77bf454e96ec73c9ddade3b229bfe4104ad4157421269cde18f14a","name":"Ocie Stoltenberg-Mills","party":"","address":"570 E 100 S, Pleasant Grove, UT 84062","precinct":"25PG12","hd":"55","v_score":"30.47669206","decile":"10","lat":40.362133876041725,"lng":-111.72895253066982,"phone":"(324) 137-2427","sd":"21","ssbd":"11","lsbd":"School Board Timpanogos 1"},{"vid":"6227685","name":"Milan Ullrich","party":"Rep","address":"1017 E 200 S, Pleasant Grove, UT 84062","precinct":"25PG12","hd":"55","v_score":"4.833280139","decile":"7","lat":40.361521543847054,"lng":-111.71683947538133,"phone":"(582) 604-9882","sd":"21","ssbd":"11","lsbd":"School Board Timpanogos 1"},{"vid":"6229206","name":"Mr. Zigmund Grady","party":"Dem","address":"93 N 1185 E, Pleasant Grove, UT 84062","precinct":"25PG12","hd":"55","v_score":"33.57939141","decile":"10","lat":40.36469312047398,"lng":-111.71301512209835,"phone":"(835) 626-8970","sd":"21","ssbd":"11","lsbd":"School Board Timpanogos 1"},{"vid":"6236625","name":"Gino Frami DVM","party":"","address":"17 S 1185 E, Pleasant Grove, UT 84062","precinct":"25PG12","hd":"55","v_score":"36.52229901","decile":"10","lat":40.36374814799202,"lng":-111.7125093780357,"phone":"(502) 078-6080","sd":"21","ssbd":"11","lsbd":"School Board Timpanogos 1"},