[{"id":"318","name":"Dr. Julien Harris I","party":"","address":"3511 N 1590 W, Pleasant Grove, UT 84062","precinct":"25PG01","hd":"55","v_score":"2.315214949","decile":"5","lat":40.401621892444,"lng":-111.76369030292},{"id":"437","name":"Davey Walter DVM","party":"","address":"576 W 2900 N, Pleasant Grove, UT 84062","precinct":"25PG01","hd":"55","v_score":"5.40460374","decile":"7","lat":40.395188566032,"lng":-111.749005937071},{"id":"447","name":"Jermain Heaney-Haag","party":"","address":"576 W 2900 N, Pleasant Grove, UT 84062","precinct":"25PG01","hd":"55","v_score":"5.40460374","decile":"7","lat":40.395188566032,"lng":-111.749005937071},{"id":"456","name":"Ronan Stehr","party":"","address":"3611 N 1590 W, Pleasant Grove, UT 84062","precinct":"25PG01","hd":"55","v_score":"20.99678562","decile":"10","lat":40.402469749187,"lng":-111.763755577477},{"id":"968","name":"Cathrine Keeling-Rosenbaum","party":"","address":"1464 W 3400 N, Pleasant Grove, UT 84062","precinct":"25PG01","hd":"55","v_score":"12.51600754","decile":"9","lat":40.40037628901,"lng":-111.761720437561},{"id":"1319","name":"Mrs. Delphine Emmerich","party":"Dem","address":"3197 N 1550 W, Pleasant Grove, UT 84062","precinct":"25PG01","hd":"55","v_score":"1.193887297","decile":"3","lat":40.396972460494,"lng":-111.762848251199},{"id":"1759","name":"Zollie Block","party":"Dem","address":"3028 N 550 W, Pleasant Grove, UT 84062","precinct":"25PG01","hd":"55","v_score":"17.638635","decile":"9","lat":40.395890486817,"lng":-111.748880087487},{"id":"2492","name":"Mr. Sol Rosenbaum","party":"Dem","address":"3391 N 750 W, Pleasant Grove, UT 84062","precinct":"25PG01","hd":"55","v_score":"1.193887297","decile":"3","lat":40.399797674383,"lng":-111.752276790143},{"id":"2971","name":"Piper Ankunding-O'Reilly","party":"Dem","address":"3586 N 1270 W, Pleasant Grove, UT 84062","precinct":"25PG01","hd":"55","v_score":"9.834558359","decile":"8","lat":40.402246636517,"lng":-111.758750539151},{"id":"3456","name":"Kamilah Bins-Brown","party":"","address":"1244 W 3040 N, Pleasant Grove, UT 84062","precinct":"25PG01","hd":"55","v_score":"1.121327652","decile":"3","lat":40.396509139542,"lng":-111.758831659475},{"id":"6104","name":"Delwin Ebert","party":"Rep","address":"3077 N 1550 W, Pleasant Grove, UT 84062","precinct":"25PG01","hd":"55","v_score":"3.93832808","decile":"6","lat":40.396641661066,"lng":-111.762832347425},{"id":"8653","name":"Simona Goyette","party":"Dem","address":"3126 N Millcreek Rd, Pleasant Grove, UT 84062","precinct":"25PG01","hd":"55","v_score":"1.121327652","decile":"3","lat":40.397399761739,"lng":-111.746943209628},{"id":"11328","name":"Dr. Ola Hansen III","party":"Dem","address":"2737 N 550 W, Pleasant Grove, UT 84062","precinct":"25PG01","hd":"55","v_score":"2.744440783","decile":"5","lat":40.393123153155,"lng":-111.748979307942},{"id":"11397","name":"Birdella Corkery-Rogahn","party":"Dem","address":"1543 W 3600 N, Pleasant Grove, UT 84062","precinct":"25PG01","hd":"55","v_score":"0","decile":"1","lat":40.402318762543,"lng":-111.763107183516},{"id":"11553","name":"Luisa Hessel","party":"Dem","address":"2651 N 1550 W, Pleasant Grove, UT 84062","precinct":"25PG01","hd":"55","v_score":"5.40460374","decile":"7","lat":40.392183896852,"lng":-111.763016973011},{"id":"13095","name":"Charle Luettgen","party":"","address":"463 W Millcreek Rd, Pleasant Grove, UT 84062","precinct":"25PG01","hd":"55","v_score":"4.741221742","decile":"7","lat":40.397794200861,"lng":-111.748131214813},{"id":"14435","name":"Dr. Page Boyer","party":"","address":"2848 N 1020 W, Pleasant Grove, UT 84062","precinct":"25PG01","hd":"55","v_score":"20.66133924","decile":"10","lat":40.394237399319,"lng":-111.755483910198},{"id":"15108","name":"Ritchie Jakubowski V","party":"Dem","address":"3043 N 650 W, Pleasant Grove, UT 84062","precinct":"25PG01","hd":"55","v_score":"3.781490609","decile":"6","lat":40.396152073708,"lng":-111.750486048159},{"id":"16278","name":"Ellis Wolf","party":"Rep","address":"3375 N 1270 W, Pleasant Grove, UT 84062","precinct":"25PG01","hd":"55","v_score":"3.93832808","decile":"6","lat":40.40013523778,"lng":-111.759096749782},{"id":"16336","name":"Mrs. Oma Kutch","party":"Dem","address":"2691 N 1450 W, Pleasant Grove, UT 84062","precinct":"25PG01","hd":"55","v_score":"2.315214949","decile":"5","lat":40.393196962575,"lng":-111.761401030287},{"id":"17323","name":"Gus Pouros","party":"Rep","address":"1361 W 3540 N, Pleasant Grove, UT 84062","precinct":"25PG01","hd":"55","v_score":"1.121327652","decile":"3","lat":40.401713954409,"lng":-111.760119332847},{"id":"17453","name":"Ms. Ruie Bins DVM","party":"Dem","address":"3148 N Millcreek Rd, Pleasant Grove, UT 84062","precinct":"25PG01","hd":"55","v_score":"12.51600754","decile":"9","lat":40.397564300577,"lng":-111.747087009334},{"id":"17573","name":"Fidencio Ferry-Trantow","party":"Rep","address":"1373 W 3040 N, Pleasant Grove, UT 84062","precinct":"25PG01","hd":"55","v_score":"10.38488476","decile":"9","lat":40.396400697929,"lng":-111.759971072284},{"id":"18593","name":"Ms. Tennessee Lakin DDS","party":"Rep","address":"2980 N Adams Way, Pleasant Grove, UT 84062","precinct":"25PG01","hd":"55","v_score":"10.75297992","decile":"9","lat":40.396758008328,"lng":-111.751788677589},{"id":"18949","name":"Mr. Teagan Schimmel II","party":"Dem","address":"1442 W 3300 N, Pleasant Grove, UT 84062","precinct":"25PG01","hd":"55","v_score":"5.40460374","decile":"7","lat":40.399263555976,"lng":-111.76095243368},{"id":"19962","name":"Armond Grady I","party":"","address":"1432 W 3040 N, Pleasant Grove, UT 84062","precinct":"25PG01","hd":"55","v_score":"0","decile":"1","lat":40.396515289381,"lng":-111.760855328876},{"id":"20630","name":"Ronny Abernathy","party":"Rep","address":"1358 W 3150 N, Pleasant Grove, UT 84062","precinct":"25PG01","hd":"55","v_score":"3.93832808","decile":"6","lat":40.397874289114,"lng":-111.759394140223},{"id":"21240","name":"Tess Oberbrunner","party":"Rep","address":"1582 W 2600 N, Pleasant Grove, UT 84062","precinct":"25PG01","hd":"55","v_score":"21.53000939","decile":"10","lat":40.391986019671,"lng":-111.761519316288},{"id":"21631","name":"Dr. Derald D'Amore","party":"","address":"799 W Faraday Ln, Pleasant Grove, UT 84062","precinct":"25PG01","hd":"55","v_score":"1.121327652","decile":"3","lat":40.396045563145,"lng":-111.752682691204},{"id":"22140","name":"Estefania Murazik","party":"Dem","address":"1575 W 3600 N, Pleasant Grove, UT 84062","precinct":"25PG01","hd":"55","v_score":"6.027167436","decile":"7","lat":40.402327082258,"lng":-111.763386007375},{"id":"25419","name":"Robyn Kirlin","party":"Rep","address":"2832 N 1550 W, Pleasant Grove, UT 84062","precinct":"25PG01","hd":"55","v_score":"2.315214949","decile":"5","lat":40.394537832789,"lng":-111.762682252093},{"id":"26798","name":"Augustin D'Amore","party":"","address":"3037 N 550 W, Pleasant Grove, UT 84062","precinct":"25PG01","hd":"55","v_score":"2.315214949","decile":"5","lat":40.396068040915,"lng":-111.74907515311},{"id":"27685","name":"Artelia Daniel","party":"","address":"1501 W 3600 N, Pleasant Grove, UT 84062","precinct":"25PG01","hd":"55","v_score":"8.761771632","decile":"8","lat":40.402316163506,"lng":-111.762773870446},{"id":"27907","name":"Leisa Kreiger-Jast","party":"","address":"688 W 3300 N, Pleasant Grove, UT 84062","precinct":"25PG01","hd":"55","v_score":"1.193887297","decile":"3","lat":40.399364936295,"lng":-111.75012643611},{"id":"28582","name":"Clayton Treutel","party":"Dem","address":"838 W 3300 N, Pleasant Grove, UT 84062","precinct":"25PG01","hd":"55","v_score":"5.40460374","decile":"7","lat":40.399342451147,"lng":-111.751558746895},{"id":"28718","name":"Dr. Guido Boyle","party":"Rep","address":"2991 N 1350 W, Pleasant Grove, UT 84062","precinct":"25PG01","hd":"55","v_score":"0","decile":"1","lat":40.396103082255,"lng":-111.759971072323},{"id":"29331","name":"Orion Rau","party":"Rep","address":"3033 Millcreek Rd, Pleasant Grove, UT 84062","precinct":"25PG01","hd":"55","v_score":"1.46627566","decile":"4","lat":40.396406630484,"lng":-111.747650074753},{"id":"31052","name":"Ivana Rau-Littel","party":"","address":"1468 W 2850 N, Pleasant Grove, UT 84062","precinct":"25PG01","hd":"55","v_score":"4.210716443","decile":"7","lat":40.394742452851,"lng":-111.761797682491},{"id":"31361","name":"Corie Smitham","party":"","address":"3391 N 750 W, Pleasant Grove, UT 84062","precinct":"25PG01","hd":"55","v_score":"1.193887297","decile":"3","lat":40.399797674383,"lng":-111.752276790143},{"id":"31380","name":"Nautica Watsica","party":"Rep","address":"3378 N 1270 W, Pleasant Grove, UT 84062","precinct":"25PG01","hd":"55","v_score":"10.90677536","decile":"9","lat":40.400147778827,"lng":-111.758946320975},{"id":"32913","name":"Jaelynn Schowalter-Beer","party":"Rep","address":"1243 W 3040 N, Pleasant Grove, UT 84062","precinct":"25PG01","hd":"55","v_score":"23.02311981","decile":"10","lat":40.396394143008,"lng":-111.758762139144},{"id":"33468","name":"Rohan Gusikowski","party":"Rep","address":"664 W 2600 N, Pleasant Grove, UT 84062","precinct":"25PG01","hd":"55","v_score":"1.193887297","decile":"3","lat":40.392086495922,"lng":-111.750683123937},{"id":"34067","name":"Avie Runolfsdottir-Wuckert","party":"","address":"1116 W 3540 N, Pleasant Grove, UT 84062","precinct":"25PG01","hd":"55","v_score":"2.315214949","decile":"5","lat":40.40179071156,"lng":-111.756832549257},{"id":"34759","name":"Hattie Krajcik-Wehner","party":"","address":"3686 N 900 W, Pleasant Grove, UT 84062","precinct":"25PG01","hd":"55","v_score":"9.839815554","decile":"8","lat":40.403132466602,"lng":-111.754147084344},{"id":"35235","name":"Tayshaun Borer","party":"Dem","address":"1206 W 3300 N, Pleasant Grove, UT 84062","precinct":"25PG01","hd":"55","v_score":"2.315214949","decile":"5","lat":40.399283197591,"lng":-111.757160527666},{"id":"35949","name":"Royal Runolfsdottir","party":"","address":"888 W 2800 N, Pleasant Grove, UT 84062","precinct":"25PG01","hd":"55","v_score":"3.781490609","decile":"6","lat":40.394193289107,"lng":-111.753870892409},{"id":"38947","name":"Dr. Ian Blick","party":"Rep","address":"591 W 2900 N, Pleasant Grove, UT 84062","precinct":"25PG01","hd":"55","v_score":"6.881235673","decile":"8","lat":40.395056669323,"lng":-111.749457567145},{"id":"40348","name":"Alfie Leuschke","party":"Rep","address":"3148 Millcreek Rd, Pleasant Grove, UT 84062","precinct":"25PG01","hd":"55","v_score":"1.193887297","decile":"3","lat":40.397564300577,"lng":-111.747087009334},{"id":"41181","name":"Cash Hammes","party":"Rep","address":"3284 N 1450 W, Pleasant Grove, UT 84062","precinct":"25PG01","hd":"55","v_score":"1.121327652","decile":"3","lat":40.398960356115,"lng":-111.761302021354},{"id":"42349","name":"Elmore Yost","party":"Dem","address":"1161 W 3540 N, Pleasant Grove, UT 84062","precinct":"25PG01","hd":"55","v_score":"1.121327652","decile":"3","lat":40.40175137847,"lng":-111.757513991915},{"id":"42661","name":"Isom Goodwin","party":"","address":"391 Millcreek Rd, Pleasant Grove, UT 84062","precinct":"25PG01","hd":"55","v_score":"2.315214949","decile":"5","lat":40.396010106866,"lng":-111.746965170346},{"id":"43765","name":"Ms. Risa Heidenreich","party":"Dem","address":"2784 N 1020 W, Pleasant Grove, UT 84062","precinct":"25PG01","hd":"55","v_score":"3.781490609","decile":"6","lat":40.394000973507,"lng":-111.755476364725},{"id":"44096","name":"Mallory Yost","party":"Dem","address":"3632 N 1450 W, Pleasant Grove, UT 84062","precinct":"25PG01","hd":"55","v_score":"2.876042565","decile":"6","lat":40.403350505369,"lng":-111.761334086338},{"id":"44333","name":"Alvena Labadie","party":"Rep","address":"3116 N 1450 W, Pleasant Grove, UT 84062","precinct":"25PG01","hd":"55","v_score":"11.54256302","decile":"9","lat":40.396728488384,"lng":-111.761269092454},{"id":"44361","name":"Dr. Clemmie Collins PhD","party":"Dem","address":"3084 Millcreek Rd, Pleasant Grove, UT 84062","precinct":"25PG01","hd":"55","v_score":"3.93832808","decile":"6","lat":40.397080299468,"lng":-111.746668837635},{"id":"44515","name":"Adriana DuBuque-Cassin","party":"","address":"688 W 3300 N, Pleasant Grove, UT 84062","precinct":"25PG01","hd":"55","v_score":"1.121327652","decile":"3","lat":40.399364936295,"lng":-111.75012643611},{"id":"44973","name":"Gordon Reinger","party":"","address":"3088 N 1550 W, Pleasant Grove, UT 84062","precinct":"25PG01","hd":"55","v_score":"1.121327652","decile":"3","lat":40.397086690062,"lng":-111.762703174609},{"id":"46075","name":"Birtha Bosco","party":"Dem","address":"3611 N 1590 W, Pleasant Grove, UT 84062","precinct":"25PG01","hd":"55","v_score":"1.121327652","decile":"3","lat":40.402469749187,"lng":-111.763755577477},{"id":"46692","name":"Mireya Hackett DVM","party":"Dem","address":"3474 N 1270 W, Pleasant Grove, UT 84062","precinct":"25PG01","hd":"55","v_score":"3.93832808","decile":"6","lat":40.40130090156,"lng":-111.758856377043},{"id":"47646","name":"Hallie Christiansen-Kutch","party":"","address":"1265 W 2850 N, Pleasant Grove, UT 84062","precinct":"25PG01","hd":"55","v_score":"7.212647293","decile":"8","lat":40.394509828858,"lng":-111.758774515915},{"id":"48498","name":"Hans Carter","party":"Rep","address":"3058 Millcreek Rd, Pleasant Grove, UT 84062","precinct":"25PG01","hd":"55","v_score":"2.315214949","decile":"5","lat":40.396837445045,"lng":-111.746585872396},{"id":"48768","name":"Coolidge Altenwerth Jr.","party":"Dem","address":"1527 W 3400 N, Pleasant Grove, UT 84062","precinct":"25PG01","hd":"55","v_score":"2.660162957","decile":"5","lat":40.400261697644,"lng":-111.761967819308},{"id":"48998","name":"Peyton Barrows-Ortiz","party":"","address":"2691 N 1450 W, Pleasant Grove, UT 84062","precinct":"25PG01","hd":"55","v_score":"1.121327652","decile":"3","lat":40.393196962575,"lng":-111.761401030287},{"id":"50044","name":"Miss Dellia Upton","party":"Dem","address":"3034 Millcreek Rd, Pleasant Grove, UT 84062","precinct":"25PG01","hd":"55","v_score":"2.315214949","decile":"5","lat":40.396627327036,"lng":-111.746550708215},{"id":"50948","name":"Codie Champlin-Kassulke","party":"Rep","address":"1567 W 3500 N, Pleasant Grove, UT 84062","precinct":"25PG01","hd":"55","v_score":"5.170447576","decile":"7","lat":40.401378600131,"lng":-111.763244740771},{"id":"51604","name":"Miss Virgie Smitham DDS","party":"","address":"414 W 2900 N, Pleasant Grove, UT 84062","precinct":"25PG01","hd":"55","v_score":"1.623113131","decile":"5","lat":40.395192288495,"lng":-111.747387110795},{"id":"51708","name":"Brigitte Kutch-Beatty","party":"Dem","address":"3058 N 650 W, Pleasant Grove, UT 84062","precinct":"25PG01","hd":"55","v_score":"1.193887297","decile":"3","lat":40.396285975147,"lng":-111.750337635626},{"id":"51800","name":"Travis Johns","party":"Dem","address":"993 W 2760 N, Pleasant Grove, UT 84062","precinct":"25PG01","hd":"55","v_score":"10.89289441","decile":"9","lat":40.393576604839,"lng":-111.755381443754},{"id":"52109","name":"Josefina O'Keefe-Hessel","party":"","address":"3375 N 1270 W, Pleasant Grove, UT 84062","precinct":"25PG01","hd":"55","v_score":"1.193887297","decile":"3","lat":40.40013523778,"lng":-111.759096749782},{"id":"53627","name":"Raheem Weber-Larson","party":"Dem","address":"414 W 2900 N, Pleasant Grove, UT 84062","precinct":"25PG01","hd":"55","v_score":"1.46627566","decile":"4","lat":40.395192288495,"lng":-111.747387110795},{"id":"53686","name":"Lindsay Hoeger","party":"Rep","address":"3284 N 1450 W, Pleasant Grove, UT 84062","precinct":"25PG01","hd":"55","v_score":"1.46627566","decile":"4","lat":40.398960356115,"lng":-111.761302021354},{"id":"55272","name":"Dr. Judah Auer","party":"","address":"1361 W 3540 N, Pleasant Grove, UT 84062","precinct":"25PG01","hd":"55","v_score":"1.121327652","decile":"3","lat":40.401713954409,"lng":-111.760119332847},{"id":"55389","name":"Miss Prudence Pouros DVM","party":"","address":"598 W 2760 N, Pleasant Grove, UT 84062","precinct":"25PG01","hd":"55","v_score":"8.2936455","decile":"8","lat":40.393707288859,"lng":-111.749920704624},{"id":"56332","name":"Miss Cristen Smitham","party":"","address":"3611 N 1590 W, Pleasant Grove, UT 84062","precinct":"25PG01","hd":"55","v_score":"0","decile":"1","lat":40.402469749187,"lng":-111.763755577477},{"id":"56566","name":"May Gibson-Jacobi","party":"Dem","address":"1495 W 3400 N, Pleasant Grove, UT 84062","precinct":"25PG01","hd":"55","v_score":"1.193887297","decile":"3","lat":40.400261697634,"lng":-111.761840138414},{"id":"56760","name":"Izayah O'Reilly PhD","party":"Dem","address":"3568 N 1450 W, Pleasant Grove, UT 84062","precinct":"25PG01","hd":"55","v_score":"1.193887297","decile":"3","lat":40.402156361473,"lng":-111.761326715237},{"id":"56780","name":"Sherie O'Kon-Schroeder","party":"Rep","address":"2969 N 1350 W, Pleasant Grove, UT 84062","precinct":"25PG01","hd":"55","v_score":"0","decile":"1","lat":40.396033776958,"lng":-111.759966162154},{"id":"57069","name":"Leonore Wyman","party":"Rep","address":"1161 W 3540 N, Pleasant Grove, UT 84062","precinct":"25PG01","hd":"55","v_score":"1.623113131","decile":"5","lat":40.40175137847,"lng":-111.757513991915},{"id":"58875","name":"Ms. Treva Nikolaus MD","party":"","address":"2844 N 1130 W, Pleasant Grove, UT 84062","precinct":"25PG01","hd":"55","v_score":"1.121327652","decile":"3","lat":40.394441957504,"lng":-111.756927819431},{"id":"58902","name":"Long Hudson IV","party":"Rep","address":"3688 N 1270 W, Pleasant Grove, UT 84062","precinct":"25PG01","hd":"55","v_score":"7.047822616","decile":"8","lat":40.402791789661,"lng":-111.758757241782},{"id":"58922","name":"Dr. Keshawn Schimmel III","party":"Dem","address":"1204 W 3420 N, Pleasant Grove, UT 84062","precinct":"25PG01","hd":"55","v_score":"3.93832808","decile":"6","lat":40.400574288734,"lng":-111.758422993888},{"id":"59193","name":"Alfonse Wolff","party":"","address":"752 W 2600 N, Pleasant Grove, UT 84062","precinct":"25PG01","hd":"55","v_score":"11.54697831","decile":"9","lat":40.392080241777,"lng":-111.751732166622},{"id":"59847","name":"Dr. Clint Pagac DVM","party":"Rep","address":"836 W 2900 N, Pleasant Grove, UT 84062","precinct":"25PG01","hd":"55","v_score":"6.814370645","decile":"8","lat":40.394967288959,"lng":-111.753092234374},{"id":"60082","name":"Hadley Leannon DVM","party":"Rep","address":"836 W 2900 N, Pleasant Grove, UT 84062","precinct":"25PG01","hd":"55","v_score":"3.93832808","decile":"6","lat":40.394967288959,"lng":-111.753092234374},{"id":"60365","name":"Germaine Dickinson","party":"","address":"836 W 2900 N, Pleasant Grove, UT 84062","precinct":"25PG01","hd":"55","v_score":"6.814370645","decile":"8","lat":40.394967288959,"lng":-111.753092234374},{"id":"60663","name":"Miss Ozella Bernier","party":"","address":"1356 W 3040 N, Pleasant Grove, UT 84062","precinct":"25PG01","hd":"55","v_score":"0","decile":"1","lat":40.396515289318,"lng":-111.760035773972},{"id":"60919","name":"Lillian Stracke","party":"","address":"391 W Millcreek Rd, Pleasant Grove, UT 84062","precinct":"25PG01","hd":"55","v_score":"0","decile":"1","lat":40.396164151126,"lng":-111.746516869057},{"id":"60949","name":"Adelia Barrows","party":"Rep","address":"3511 N 1590 W, Pleasant Grove, UT 84062","precinct":"25PG01","hd":"55","v_score":"2.315214949","decile":"5","lat":40.401621892444,"lng":-111.76369030292},{"id":"61086","name":"Haden Windler","party":"Dem","address":"1361 W 3540 N, Pleasant Grove, UT 84062","precinct":"25PG01","hd":"55","v_score":"1.193887297","decile":"3","lat":40.401713954409,"lng":-111.760119332847},{"id":"61189","name":"Brenden Strosin-Barton","party":"Dem","address":"803 W 2760 N, Pleasant Grove, UT 84062","precinct":"25PG01","hd":"55","v_score":"5.191257514","decile":"7","lat":40.393595685355,"lng":-111.752054711061},{"id":"62871","name":"Miss Marybelle Roob DDS","party":"Rep","address":"1532 W 3500 N, Pleasant Grove, UT 84062","precinct":"25PG01","hd":"55","v_score":"1.193887297","decile":"3","lat":40.401403479455,"lng":-111.762871821457},{"id":"63926","name":"Vincenza Frami","party":"Rep","address":"3001 N Millcreek Rd, Pleasant Grove, UT 84062","precinct":"25PG01","hd":"55","v_score":"2.315214949","decile":"5","lat":40.396100402585,"lng":-111.747648079712},{"id":"64114","name":"Scottie Weber","party":"Rep","address":"3284 N 1450 W, Pleasant Grove, UT 84062","precinct":"25PG01","hd":"55","v_score":"0","decile":"1","lat":40.398960356115,"lng":-111.761302021354},{"id":"65098","name":"Ms. Jerica Tillman","party":"","address":"1328 W 3040 N, Pleasant Grove, UT 84062","precinct":"25PG01","hd":"55","v_score":"2.315214949","decile":"5","lat":40.396513754087,"lng":-111.759629965041},{"id":"67024","name":"Cam Wuckert DDS","party":"Rep","address":"3349 N 1270 W, Pleasant Grove, UT 84062","precinct":"25PG01","hd":"55","v_score":"3.93832808","decile":"6","lat":40.399834094343,"lng":-111.759095704184},{"id":"67102","name":"Antonia Krajcik PhD","party":"Rep","address":"2832 N 1550 W, Pleasant Grove, UT 84062","precinct":"25PG01","hd":"55","v_score":"2.315214949","decile":"5","lat":40.394537832789,"lng":-111.762682252093},{"id":"67465","name":"Sheldon Legros","party":"","address":"3474 N 1270 W, Pleasant Grove, UT 84062","precinct":"25PG01","hd":"55","v_score":"1.121327652","decile":"3","lat":40.40130090156,"lng":-111.758856377043},{"id":"67921","name":"Hung Bode","party":"","address":"3037 N 550 W, Pleasant Grove, UT 84062","precinct":"25PG01","hd":"55","v_score":"3.93832808","decile":"6","lat":40.396068040915,"lng":-111.74907515311},{"id":"68027","name":"Bennett Hermann","party":"","address":"3084 Millcreek Rd, Pleasant Grove, UT 84062","precinct":"25PG01","hd":"55","v_score":"7.549608095","decile":"8","lat":40.397080299468,"lng":-111.746668837635},{"id":"68724","name":"Mrs. Rylie Harvey PhD","party":"","address":"864 W 2900 N, Pleasant Grove, UT 84062","precinct":"25PG01","hd":"55","v_score":"1.121327652","decile":"3","lat":40.394995919606,"lng":-111.753487210558},{"id":"68732","name":"Ivory Greenholt","party":"Rep","address":"1285 W 3150 N, Pleasant Grove, UT 84062","precinct":"25PG01","hd":"55","v_score":"3.93832808","decile":"6","lat":40.397750697695,"lng":-111.758921364664},{"id":"69029","name":"Krish Beier-Crist","party":"Rep","address":"1047 W 2760 N, Pleasant Grove, UT 84062","precinct":"25PG01","hd":"55","v_score":"5.407962308","decile":"7","lat":40.393568977469,"lng":-111.755962487954},{"id":"69445","name":"Lee Sauer","party":"Rep","address":"1576 W 3600 N, Pleasant Grove, UT 84062","precinct":"25PG01","hd":"55","v_score":"1.121327652","decile":"3","lat":40.402438769627,"lng":-111.763423946685},{"id":"70199","name":"Ms. Alysia Hessel","party":"Rep","address":"3688 N 1270 W, Pleasant Grove, UT 84062","precinct":"25PG01","hd":"55","v_score":"1.121327652","decile":"3","lat":40.402791789661,"lng":-111.758757241782},{"id":"70417","name":"Dr. Virgel Langworth","party":"","address":"1544 W 3600 N, Pleasant Grove, UT 84062","precinct":"25PG01","hd":"55","v_score":"5.243007221","decile":"7","lat":40.40242968211,"lng":-111.763148826382},{"id":"70976","name":"Amaris Flatley MD","party":"","address":"3611 N 1590 W, Pleasant Grove, UT 84062","precinct":"25PG01","hd":"55","v_score":"0","decile":"1","lat":40.402469749187,"lng":-111.763755577477},{"id":"71068","name":"Zack Lakin-Cormier","party":"Rep","address":"3512 N 1270 W, Pleasant Grove, UT 84062","precinct":"25PG01","hd":"55","v_score":"4.069929862","decile":"6","lat":40.401746697228,"lng":-111.758745100247},{"id":"72361","name":"Rayburn Moore IV","party":"Rep","address":"3231 Millcreek Rd, Pleasant Grove, UT 84062","precinct":"25PG01","hd":"55","v_score":"0","decile":"1","lat":40.399194226123,"lng":-111.74866028434},{"id":"72915","name":"Dr. Michael O'Reilly","party":"Rep","address":"1328 W 3040 N, Pleasant Grove, UT 84062","precinct":"25PG01","hd":"55","v_score":"1.121327652","decile":"3","lat":40.396513754087,"lng":-111.759629965041},{"id":"73311","name":"Odalis Jacobi DDS","party":"","address":"3345 N 750 W, Pleasant Grove, UT 84062","precinct":"25PG01","hd":"55","v_score":"5.170447576","decile":"7","lat":40.399559971594,"lng":-111.752278512658},{"id":"73344","name":"Susie Dicki III","party":"Rep","address":"1538 W 3400 N, Pleasant Grove, UT 84062","precinct":"25PG01","hd":"55","v_score":"2.315214949","decile":"5","lat":40.400376289032,"lng":-111.762015699628},{"id":"73613","name":"Ezekiel Deckow","party":"Rep","address":"1285 W 3150 N, Pleasant Grove, UT 84062","precinct":"25PG01","hd":"55","v_score":"1.121327652","decile":"3","lat":40.397750697695,"lng":-111.758921364664},{"id":"73849","name":"Daisey Ernser","party":"Dem","address":"1189 W 3540 N, Pleasant Grove, UT 84062","precinct":"25PG01","hd":"55","v_score":"1.121327652","decile":"3","lat":40.401753775861,"lng":-111.757825429041},{"id":"74474","name":"Carmella Fahey","party":"Rep","address":"3043 N 650 W, Pleasant Grove, UT 84062","precinct":"25PG01","hd":"55","v_score":"2.315214949","decile":"5","lat":40.396152073708,"lng":-111.750486048159},{"id":"74887","name":"Trina Kassulke","party":"","address":"2837 N 550 W, Pleasant Grove, UT 84062","precinct":"25PG01","hd":"55","v_score":"2.744440783","decile":"5","lat":40.39420573896,"lng":-111.749011236018},{"id":"75142","name":"America Sanford","party":"Dem","address":"3688 N 1270 W, Pleasant Grove, UT 84062","precinct":"25PG01","hd":"55","v_score":"11.09694254","decile":"9","lat":40.402791789661,"lng":-111.758757241782},{"id":"76248","name":"Pat Reichert","party":"Dem","address":"3007 N 650 W, Pleasant Grove, UT 84062","precinct":"25PG01","hd":"55","v_score":"2.315214949","decile":"5","lat":40.395853816202,"lng":-111.750481459622},{"id":"76389","name":"Olen Brakus I","party":"Rep","address":"3106 Millcreek Rd, Pleasant Grove, UT 84062","precinct":"25PG01","hd":"55","v_score":"3.93832808","decile":"6","lat":40.397257199858,"lng":-111.746815221292},{"id":"77553","name":"Sincere Johns-Mueller","party":"Rep","address":"3611 N 1590 W, Pleasant Grove, UT 84062","precinct":"25PG01","hd":"55","v_score":"0","decile":"1","lat":40.402469749187,"lng":-111.763755577477},{"id":"78604","name":"Ahmed Nienow I","party":"Rep","address":"1309 W 3300 N, Pleasant Grove, UT 84062","precinct":"25PG01","hd":"55","v_score":"6.481563075","decile":"7","lat":40.399162446279,"lng":-111.759182193898},{"id":"79137","name":"Dr. Leland Jacobs","party":"Rep","address":"3148 Millcreek Rd, Pleasant Grove, UT 84062","precinct":"25PG01","hd":"55","v_score":"1.121327652","decile":"3","lat":40.397564300577,"lng":-111.747087009334},{"id":"79198","name":"Tevin Kshlerin-Auer","party":"Dem","address":"1483 W 2850 N, Pleasant Grove, UT 84062","precinct":"25PG01","hd":"55","v_score":"1.121327652","decile":"3","lat":40.39463134617,"lng":-111.761612277558},{"id":"79244","name":"Orilla Hoppe","party":"","address":"1389 W 3540 N, Pleasant Grove, UT 84062","precinct":"25PG01","hd":"55","v_score":"2.315214949","decile":"5","lat":40.401688892088,"lng":-111.760651940324},{"id":"79896","name":"Jep Schneider","party":"","address":"1576 W 3600 N, Pleasant Grove, UT 84062","precinct":"25PG01","hd":"55","v_score":"8.570402431","decile":"8","lat":40.402438769627,"lng":-111.763423946685},{"id":"80318","name":"Mrs. Martina Beier","party":"Dem","address":"1245 W 3150 N, Pleasant Grove, UT 84062","precinct":"25PG01","hd":"55","v_score":"1.121327652","decile":"3","lat":40.397759697674,"lng":-111.758665850643},{"id":"80909","name":"Ms. Ebba Zemlak","party":"Rep","address":"2711 N 1550 W, Pleasant Grove, UT 84062","precinct":"25PG01","hd":"55","v_score":"16.04507728","decile":"9","lat":40.392443551935,"lng":-111.763024921601},{"id":"81464","name":"Venus Bartoletti-Schowalter","party":"","address":"1275 W 3040 N, Pleasant Grove, UT 84062","precinct":"25PG01","hd":"55","v_score":"0","decile":"1","lat":40.396395673434,"lng":-111.759026899309},{"id":"82112","name":"Billie Abbott-Cassin","party":"","address":"1369 W 3300 N, Pleasant Grove, UT 84062","precinct":"25PG01","hd":"55","v_score":"0","decile":"1","lat":40.399157339178,"lng":-111.75985250761},{"id":"82458","name":"Loris Pacocha","party":"Rep","address":"775 W 2760 N, Pleasant Grove, UT 84062","precinct":"25PG01","hd":"55","v_score":"1.193887297","decile":"3","lat":40.393589034384,"lng":-111.751760554444},{"id":"82719","name":"Sharron Barton","party":"Dem","address":"2737 N 1550 W, Pleasant Grove, UT 84062","precinct":"25PG01","hd":"55","v_score":"0","decile":"1","lat":40.392561600322,"lng":-111.763020425117},{"id":"82721","name":"Soloman Davis","party":"","address":"3034 Millcreek Rd, Pleasant Grove, UT 84062","precinct":"25PG01","hd":"55","v_score":"0","decile":"1","lat":40.396627327036,"lng":-111.746550708215},{"id":"83080","name":"Mrs. Izabelle Veum","party":"Dem","address":"1567 W 3500 N, Pleasant Grove, UT 84062","precinct":"25PG01","hd":"55","v_score":"2.426006793","decile":"5","lat":40.401378600131,"lng":-111.763244740771},{"id":"83192","name":"Sena Lemke MD","party":"Rep","address":"3632 N 1450 W, Pleasant Grove, UT 84062","precinct":"25PG01","hd":"55","v_score":"0","decile":"1","lat":40.403350505369,"lng":-111.761334086338},{"id":"83804","name":"Mr. Everett Bednar DDS","party":"Dem","address":"1492 W 2600 N, Pleasant Grove, UT 84062","precinct":"25PG01","hd":"55","v_score":"1.193887297","decile":"3","lat":40.391986718909,"lng":-111.761457433321},{"id":"83977","name":"Corinne Ernser","party":"","address":"1495 W 3400 N, Pleasant Grove, UT 84062","precinct":"25PG01","hd":"55","v_score":"0","decile":"1","lat":40.400261697634,"lng":-111.761840138414},{"id":"83989","name":"Phoenix Conn-Hyatt","party":"Dem","address":"2698 N 1550 W, Pleasant Grove, UT 84062","precinct":"25PG01","hd":"55","v_score":"0","decile":"1","lat":40.393258006391,"lng":-111.762840607136},{"id":"84356","name":"Alda Koepp","party":"Dem","address":"3375 N 1270 W, Pleasant Grove, UT 84062","precinct":"25PG01","hd":"55","v_score":"6.528952915","decile":"7","lat":40.40013523778,"lng":-111.759096749782},{"id":"85036","name":"Wendy Zemlak","party":"","address":"1485 W 2730 N, Pleasant Grove, UT 84062","precinct":"25PG01","hd":"55","v_score":"1.193887297","decile":"3","lat":40.393236538754,"lng":-111.762642139185},{"id":"85345","name":"Tommie Heaney V","party":"","address":"1326 W 3150 N, Pleasant Grove, UT 84062","precinct":"25PG01","hd":"55","v_score":"0","decile":"1","lat":40.39786455412,"lng":-111.759177290797},{"id":"86231","name":"Ramiro Kling","party":"","address":"3688 N 1270 W, Pleasant Grove, UT 84062","precinct":"25PG01","hd":"55","v_score":"7.549608095","decile":"8","lat":40.402791789661,"lng":-111.758757241782},{"id":"86348","name":"Mr. Jermey Carroll","party":"Dem","address":"2832 N 1550 W, Pleasant Grove, UT 84062","precinct":"25PG01","hd":"55","v_score":"0","decile":"1","lat":40.394537832789,"lng":-111.762682252093},{"id":"86376","name":"Rupert Smitham DDS","party":"Rep","address":"636 W 3100 N, Pleasant Grove, UT 84062","precinct":"25PG01","hd":"55","v_score":"4.905839784","decile":"7","lat":40.39771523018,"lng":-111.750772404893},{"id":"86500","name":"Mr. Orland Bartell PhD","party":"Dem","address":"1501 W 3600 N, Pleasant Grove, UT 84062","precinct":"25PG01","hd":"55","v_score":"1.193887297","decile":"4","lat":40.402316163506,"lng":-111.762773870446},{"id":"86846","name":"Lexi Rau","party":"","address":"1294 W 3150 N, Pleasant Grove, UT 84062","precinct":"25PG01","hd":"55","v_score":"7.781882349","decile":"8","lat":40.397865289084,"lng":-111.758985391982},{"id":"87746","name":"Quiana O'Conner","party":"","address":"2931 N 1130 W, Pleasant Grove, UT 84062","precinct":"25PG01","hd":"55","v_score":"0","decile":"1","lat":40.394861288059,"lng":-111.757079054847},{"id":"88055","name":"Karren Barton","party":"Dem","address":"1468 W 3500 N, Pleasant Grove, UT 84062","precinct":"25PG01","hd":"55","v_score":"0","decile":"1","lat":40.401389448235,"lng":-111.762201454183},{"id":"89393","name":"Dr. Kirstin Brakus","party":"Dem","address":"857 W Faraday Ln, Pleasant Grove, UT 84062","precinct":"25PG01","hd":"55","v_score":"2.817000428","decile":"6","lat":40.396048638098,"lng":-111.753117792321},{"id":"90611","name":"Terra Wyman","party":"Rep","address":"1158 W 2850 N, Pleasant Grove, UT 84062","precinct":"25PG01","hd":"55","v_score":"0","decile":"1","lat":40.394621897783,"lng":-111.757863399288},{"id":"91546","name":"Rossie Maggio-Shanahan","party":"Dem","address":"3641 N 1150 W, Pleasant Grove, UT 84062","precinct":"25PG01","hd":"55","v_score":"0","decile":"1","lat":40.4020935284,"lng":-111.757396378073},{"id":"92705","name":"Zora Botsford","party":"Rep","address":"3084 Millcreek Rd, Pleasant Grove, UT 84062","precinct":"25PG01","hd":"55","v_score":"1.193887297","decile":"4","lat":40.397080299468,"lng":-111.746668837635},{"id":"93088","name":"Ida Stokes-Braun","party":"","address":"1499 W 3500 N, Pleasant Grove, UT 84062","precinct":"25PG01","hd":"55","v_score":"0","decile":"1","lat":40.40127692588,"lng":-111.76252588354},{"id":"93144","name":"Annetta Collier","party":"Rep","address":"1047 W 2760 N, Pleasant Grove, UT 84062","precinct":"25PG01","hd":"55","v_score":"9.119914795","decile":"8","lat":40.393568977469,"lng":-111.755962487954},{"id":"93789","name":"Mr. Jerome Hyatt Jr.","party":"Rep","address":"1047 W 2760 N, Pleasant Grove, UT 84062","precinct":"25PG01","hd":"55","v_score":"0","decile":"1","lat":40.393568977469,"lng":-111.755962487954},{"id":"93791","name":"Kaitlin Hayes","party":"","address":"1544 W 3600 N, Pleasant Grove, UT 84062","precinct":"25PG01","hd":"55","v_score":"5.407962308","decile":"7","lat":40.40242968211,"lng":-111.763148826382},{"id":"94611","name":"Mr. Chris Fisher","party":"","address":"1158 W 2850 N, Pleasant Grove, UT 84062","precinct":"25PG01","hd":"55","v_score":"0","decile":"1","lat":40.394621897783,"lng":-111.757863399288},{"id":"94796","name":"Dorsey Bahringer V","party":"Rep","address":"1262 W 3150 N, Pleasant Grove, UT 84062","precinct":"25PG01","hd":"55","v_score":"0","decile":"1","lat":40.397867703321,"lng":-111.758788244109},{"id":"94817","name":"Dr. Rosamond Pfannerstill MD","party":"","address":"621 W 2760 N, Pleasant Grove, UT 84062","precinct":"25PG01","hd":"55","v_score":"0","decile":"1","lat":40.393592697496,"lng":-111.750205667487},{"id":"95482","name":"Dr. Alton Dooley Jr.","party":"","address":"367 Millcreek Rd, Pleasant Grove, UT 84062","precinct":"25PG01","hd":"55","v_score":"2.817000428","decile":"6","lat":40.396041337826,"lng":-111.746855176426},{"id":"96568","name":"Myrtie Fisher-Kihn","party":"Rep","address":"1211 W 2850 N, Pleasant Grove, UT 84062","precinct":"25PG01","hd":"55","v_score":"1.193887297","decile":"4","lat":40.394504238379,"lng":-111.757684061879},{"id":"98233","name":"Dr. Kory Zieme DVM","party":"Dem","address":"2785 N 1450 W, Pleasant Grove, UT 84062","precinct":"25PG01","hd":"55","v_score":"2.817000428","decile":"6","lat":40.394129297321,"lng":-111.761404661323},{"id":"99610","name":"Benji Carter-Hodkiewicz","party":"Rep","address":"2844 N 1130 W, Pleasant Grove, UT 84062","precinct":"25PG01","hd":"55","v_score":"1.193887297","decile":"4","lat":40.394441957504,"lng":-111.756927819431},{"id":"99889","name":"Miss Reba Bernier","party":"","address":"3008 N 1450 W, Pleasant Grove, UT 84062","precinct":"25PG01","hd":"55","v_score":"0","decile":"1","lat":40.39566603577,"lng":-111.76126106724},{"id":"100062","name":"Pamala Nicolas","party":"","address":"1463 W 3400 N, Pleasant Grove, UT 84062","precinct":"25PG01","hd":"55","v_score":"0","decile":"1","lat":40.400261697625,"lng":-111.76171245752},{"id":"100240","name":"Silvio O'Conner","party":"","address":"3632 N 1450 W, Pleasant Grove, UT 84062","precinct":"25PG01","hd":"55","v_score":"2.876042565","decile":"6","lat":40.403350505369,"lng":-111.761334086338},{"id":"100522","name":"Mr. Early Mosciski I","party":"","address":"1485 W 2730 N, Pleasant Grove, UT 84062","precinct":"25PG01","hd":"55","v_score":"4.732607667","decile":"7","lat":40.393236538754,"lng":-111.762642139185},{"id":"100629","name":"Ridge Balistreri","party":"Rep","address":"1501 W 3600 N, Pleasant Grove, UT 84062","precinct":"25PG01","hd":"55","v_score":"0","decile":"1","lat":40.402316163506,"lng":-111.762773870446},{"id":"100935","name":"Shanon Armstrong","party":"","address":"3443 N 1270 W, Pleasant Grove, UT 84062","precinct":"25PG01","hd":"55","v_score":"1.193887297","decile":"4","lat":40.401062216061,"lng":-111.759092667353},{"id":"101826","name":"Gilmore Rath Sr.","party":"","address":"3008 N 1450 W, Pleasant Grove, UT 84062","precinct":"25PG01","hd":"55","v_score":"0","decile":"2","lat":40.39566603577,"lng":-111.76126106724},{"id":"104632","name":"Miss Kaliyah Stehr","party":"Rep","address":"3220 Millcreek Rd, Pleasant Grove, UT 84062","precinct":"25PG01","hd":"55","v_score":"1.193887297","decile":"4","lat":40.398142128068,"lng":-111.747387472378},{"id":"106044","name":"Tessa Jacobi","party":"Dem","address":"1265 W 2850 N, Pleasant Grove, UT 84062","precinct":"25PG01","hd":"55","v_score":"7.781882349","decile":"8","lat":40.394509828858,"lng":-111.758774515915},{"id":"106455","name":"Evita Flatley","party":"Dem","address":"1179 W 3420 N, Pleasant Grove, UT 84062","precinct":"25PG01","hd":"55","v_score":"2.876042565","decile":"6","lat":40.400459697338,"lng":-111.758277889607},{"id":"106815","name":"Dr. Grover Barton","party":"Rep","address":"1464 W 3400 N, Pleasant Grove, UT 84062","precinct":"25PG01","hd":"55","v_score":"0","decile":"2","lat":40.40037628901,"lng":-111.761720437561},{"id":"106986","name":"Dr. Daquan Lindgren Sr.","party":"","address":"2992 N 1350 W, Pleasant Grove, UT 84062","precinct":"25PG01","hd":"55","v_score":"0","decile":"2","lat":40.396108593645,"lng":-111.759820606674},{"id":"107045","name":"Dr. Pascal Considine","party":"","address":"2651 N 1550 W, Pleasant Grove, UT 84062","precinct":"25PG01","hd":"55","v_score":"0","decile":"2","lat":40.392183896852,"lng":-111.763016973011},{"id":"107419","name":"Dr. Cyril Hoppe II","party":"","address":"3088 N 1550 W, Pleasant Grove, UT 84062","precinct":"25PG01","hd":"55","v_score":"0","decile":"2","lat":40.397086690062,"lng":-111.762703174609},{"id":"107600","name":"Bethzy Stehr","party":"Dem","address":"3058 Millcreek Rd, Pleasant Grove, UT 84062","precinct":"25PG01","hd":"55","v_score":"0","decile":"2","lat":40.396837445045,"lng":-111.746585872396},{"id":"107630","name":"Braxton Yundt","party":"","address":"752 W 2600 N, Pleasant Grove, UT 84062","precinct":"25PG01","hd":"55","v_score":"1.193887297","decile":"4","lat":40.392080241777,"lng":-111.751732166622},{"id":"107746","name":"Margy Kulas","party":"Rep","address":"3116 N 1450 W, Pleasant Grove, UT 84062","precinct":"25PG01","hd":"55","v_score":"7.331846577","decile":"8","lat":40.396728488384,"lng":-111.761269092454},{"id":"108631","name":"Britny Marks","party":"Dem","address":"652 W 3300 N, Pleasant Grove, UT 84062","precinct":"25PG01","hd":"55","v_score":"0","decile":"2","lat":40.39937033273,"lng":-111.749782681522},{"id":"109079","name":"Miss Lilah Stroman","party":"Dem","address":"2735 N 900 W, Pleasant Grove, UT 84062","precinct":"25PG01","hd":"55","v_score":"0","decile":"2","lat":40.393200188124,"lng":-111.754114669404},{"id":"109122","name":"Marius Kuhic","party":"","address":"3220 Millcreek Rd, Pleasant Grove, UT 84062","precinct":"25PG01","hd":"55","v_score":"0","decile":"2","lat":40.398142128068,"lng":-111.747387472378},{"id":"110396","name":"Janie Stark","party":"Rep","address":"3284 N 1450 W, Pleasant Grove, UT 84062","precinct":"25PG01","hd":"55","v_score":"1.193887297","decile":"4","lat":40.398960356115,"lng":-111.761302021354},{"id":"110669","name":"Stonewall Bogisich","party":"Rep","address":"1432 W 3040 N, Pleasant Grove, UT 84062","precinct":"25PG01","hd":"55","v_score":"0","decile":"2","lat":40.396515289381,"lng":-111.760855328876},{"id":"111844","name":"Collin Hansen","party":"Rep","address":"3611 N 1590 W, Pleasant Grove, UT 84062","precinct":"25PG01","hd":"55","v_score":"0","decile":"2","lat":40.402469749187,"lng":-111.763755577477},{"id":"112513","name":"Mr. Atha Tremblay PhD","party":"","address":"816 W 3100 N, Pleasant Grove, UT 84062","precinct":"25PG01","hd":"55","v_score":"0","decile":"2","lat":40.397722961879,"lng":-111.752295282368},{"id":"112809","name":"Arly Mohr","party":"","address":"838 W 3300 N, Pleasant Grove, UT 84062","precinct":"25PG01","hd":"55","v_score":"1.193887297","decile":"4","lat":40.399342451147,"lng":-111.751558746895},{"id":"113066","name":"Ismael Schuster-Stanton","party":"Rep","address":"2784 N 1020 W, Pleasant Grove, UT 84062","precinct":"25PG01","hd":"55","v_score":"0","decile":"2","lat":40.394000973507,"lng":-111.755476364725},{"id":"113252","name":"Zillah Reilly","party":"Dem","address":"3039 N Cullen Ct, Pleasant Grove, UT 84062","precinct":"25PG01","hd":"55","v_score":"4.069929862","decile":"7","lat":40.39643996641,"lng":-111.75334982209},{"id":"113492","name":"Hayward Stiedemann","party":"Rep","address":"2837 N 550 W, Pleasant Grove, UT 84062","precinct":"25PG01","hd":"55","v_score":"0","decile":"2","lat":40.39420573896,"lng":-111.749011236018},{"id":"114377","name":"Finley Schuppe-Miller","party":"Dem","address":"1501 W 3600 N, Pleasant Grove, UT 84062","precinct":"25PG01","hd":"55","v_score":"0","decile":"2","lat":40.402316163506,"lng":-111.762773870446},{"id":"114464","name":"Rahul Kutch","party":"Dem","address":"3034 Millcreek Rd, Pleasant Grove, UT 84062","precinct":"25PG01","hd":"55","v_score":"0","decile":"2","lat":40.396627327036,"lng":-111.746550708215},{"id":"114621","name":"Darian Boyer","party":"","address":"3039 N Cullen Ct, Pleasant Grove, UT 84062","precinct":"25PG01","hd":"55","v_score":"1.193887297","decile":"4","lat":40.39643996641,"lng":-111.75334982209},{"id":"115513","name":"Kane Jacobson","party":"","address":"1206 W 3300 N, Pleasant Grove, UT 84062","precinct":"25PG01","hd":"55","v_score":"1.193887297","decile":"4","lat":40.399283197591,"lng":-111.757160527666},{"id":"115673","name":"Abdul Connelly","party":"Rep","address":"2737 N 1550 W, Pleasant Grove, UT 84062","precinct":"25PG01","hd":"55","v_score":"0","decile":"2","lat":40.392561600322,"lng":-111.763020425117},{"id":"116338","name":"Ed Schumm","party":"Dem","address":"777 W 3100 N, Pleasant Grove, UT 84062","precinct":"25PG01","hd":"55","v_score":"0","decile":"2","lat":40.397605133598,"lng":-111.751595480568},{"id":"116878","name":"Mrs. Nautica Sanford DVM","party":"","address":"3478 N 1450 W, Pleasant Grove, UT 84062","precinct":"25PG01","hd":"55","v_score":"0","decile":"2","lat":40.40107980554,"lng":-111.761317996324},{"id":"116910","name":"Lucille Renner","party":"Dem","address":"776 W 2760 N, Pleasant Grove, UT 84062","precinct":"25PG01","hd":"55","v_score":"1.193887297","decile":"4","lat":40.393982996449,"lng":-111.752408971665},{"id":"117131","name":"Mrs. Ansley Ferry","party":"Rep","address":"3033 Millcreek Rd, Pleasant Grove, UT 84062","precinct":"25PG01","hd":"55","v_score":"1.193887297","decile":"4","lat":40.396406630484,"lng":-111.747650074753},{"id":"117150","name":"Betha Steuber","party":"","address":"3033 Millcreek Rd, Pleasant Grove, UT 84062","precinct":"25PG01","hd":"55","v_score":"1.193887297","decile":"4","lat":40.396406630484,"lng":-111.747650074753},{"id":"118029","name":"Ms. Melinda Balistreri","party":"Dem","address":"688 W 3300 N, Pleasant Grove, UT 84062","precinct":"25PG01","hd":"55","v_score":"1.193887297","decile":"4","lat":40.399364936295,"lng":-111.75012643611},{"id":"118464","name":"Nira Lubowitz","party":"Rep","address":"1463 W 3400 N, Pleasant Grove, UT 84062","precinct":"25PG01","hd":"55","v_score":"1.193887297","decile":"4","lat":40.400261697625,"lng":-111.76171245752},{"id":"120435","name":"Hillery Rowe-Batz","party":"Rep","address":"3598 N 1450 W, Pleasant Grove, UT 84062","precinct":"25PG01","hd":"55","v_score":"1.193887297","decile":"4","lat":40.402716116424,"lng":-111.761330170441},{"id":"121679","name":"Marylee Tremblay","party":"","address":"3067 N 550 W, Pleasant Grove, UT 84062","precinct":"25PG01","hd":"55","v_score":"1.193887297","decile":"4","lat":40.396782774549,"lng":-111.749401808582},{"id":"122955","name":"Spurgeon Sipes DDS","party":"","address":"3197 N 1550 W, Pleasant Grove, UT 84062","precinct":"25PG01","hd":"55","v_score":"5.83359168","decile":"7","lat":40.396972460494,"lng":-111.762848251199},{"id":"126264","name":"Adamaris Rath MD","party":"","address":"2848 N 1020 W, Pleasant Grove, UT 84062","precinct":"25PG01","hd":"55","v_score":"0","decile":"2","lat":40.394237399319,"lng":-111.755483910198},{"id":"127142","name":"Kaela Zemlak","party":"Rep","address":"3220 Millcreek Rd, Pleasant Grove, UT 84062","precinct":"25PG01","hd":"55","v_score":"2.876042565","decile":"6","lat":40.398142128068,"lng":-111.747387472378},{"id":"128339","name":"Elle Parisian","party":"Rep","address":"1495 W 3400 N, Pleasant Grove, UT 84062","precinct":"25PG01","hd":"55","v_score":"0","decile":"2","lat":40.400261697634,"lng":-111.761840138414},{"id":"130814","name":"Kori Bergstrom-Cartwright","party":"Dem","address":"2784 N 1020 W, Pleasant Grove, UT 84062","precinct":"25PG01","hd":"55","v_score":"0","decile":"2","lat":40.394000973507,"lng":-111.755476364725},{"id":"131700","name":"Vina Osinski","party":"Rep","address":"1262 W 3150 N, Pleasant Grove, UT 84062","precinct":"25PG01","hd":"55","v_score":"0","decile":"2","lat":40.397867703321,"lng":-111.758788244109},{"id":"131807","name":"Asbury Kling","party":"","address":"1365 W 3420 N, Pleasant Grove, UT 84062","precinct":"25PG01","hd":"55","v_score":"0","decile":"2","lat":40.400459697435,"lng":-111.759540541842},{"id":"131827","name":"Ceasar Lubowitz","party":"","address":"367 Millcreek Rd, Pleasant Grove, UT 84062","precinct":"25PG01","hd":"55","v_score":"0","decile":"2","lat":40.396041337826,"lng":-111.746855176426},{"id":"132448","name":"Rodrick Turcotte","party":"Dem","address":"1275 W 3040 N, Pleasant Grove, UT 84062","precinct":"25PG01","hd":"55","v_score":"0","decile":"2","lat":40.396395673434,"lng":-111.759026899309},{"id":"132503","name":"Durwood Graham-Parker","party":"Rep","address":"1463 W 3400 N, Pleasant Grove, UT 84062","precinct":"25PG01","hd":"55","v_score":"0","decile":"2","lat":40.400261697625,"lng":-111.76171245752},{"id":"134075","name":"Mrs. Alida Gusikowski","party":"","address":"1328 W 3040 N, Pleasant Grove, UT 84062","precinct":"25PG01","hd":"55","v_score":"0","decile":"2","lat":40.396513754087,"lng":-111.759629965041},{"id":"134574","name":"Desiree Kirlin-Padberg","party":"","address":"752 W 2600 N, Pleasant Grove, UT 84062","precinct":"25PG01","hd":"55","v_score":"2.315214949","decile":"5","lat":40.392080241777,"lng":-111.751732166622},{"id":"135020","name":"Ronan Larson","party":"Dem","address":"347 Millcreek Rd, Pleasant Grove, UT 84062","precinct":"25PG01","hd":"55","v_score":"8.449410566","decile":"8","lat":40.396074577438,"lng":-111.746766894152},{"id":"135234","name":"Shanell Brown PhD","party":"","address":"2832 N 1550 W, Pleasant Grove, UT 84062","precinct":"25PG01","hd":"55","v_score":"2.315214949","decile":"5","lat":40.394537832789,"lng":-111.762682252093},{"id":"135321","name":"Darleen Schumm","party":"Dem","address":"864 W 3100 N, Pleasant Grove, UT 84062","precinct":"25PG01","hd":"55","v_score":"2.587603312","decile":"5","lat":40.397727072352,"lng":-111.753312604805},{"id":"136183","name":"Fredric Dickinson","party":"Rep","address":"3008 N 1450 W, Pleasant Grove, UT 84062","precinct":"25PG01","hd":"55","v_score":"0","decile":"2","lat":40.39566603577,"lng":-111.76126106724},{"id":"137611","name":"Carole Runolfsdottir-Beier","party":"Dem","address":"522 W 2900 N, Pleasant Grove, UT 84062","precinct":"25PG01","hd":"55","v_score":"1.193887297","decile":"4","lat":40.395201288575,"lng":-111.748437903182},{"id":"138119","name":"Arely Zulauf","party":"Dem","address":"1475 W 3040 N, Pleasant Grove, UT 84062","precinct":"25PG01","hd":"55","v_score":"5.407962308","decile":"7","lat":40.396369132453,"lng":-111.762356256799},{"id":"139404","name":"Royce Morar-Rath","party":"Dem","address":"688 W 2760 N, Pleasant Grove, UT 84062","precinct":"25PG01","hd":"55","v_score":"5.40460374","decile":"7","lat":40.393707288966,"lng":-111.751315153968},{"id":"139406","name":"Dr. Octa Veum","party":"Dem","address":"688 W 2760 N, Pleasant Grove, UT 84062","precinct":"25PG01","hd":"55","v_score":"5.40460374","decile":"7","lat":40.393707288966,"lng":-111.751315153968},{"id":"139771","name":"Kaylen Stroman DVM","party":"Rep","address":"3088 N 1550 W, Pleasant Grove, UT 84062","precinct":"25PG01","hd":"55","v_score":"3.93832808","decile":"6","lat":40.397086690062,"lng":-111.762703174609},{"id":"140302","name":"Celesta Gislason","party":"","address":"697 W 2900 N, Pleasant Grove, UT 84062","precinct":"25PG01","hd":"55","v_score":"8.280646305","decile":"8","lat":40.394859941982,"lng":-111.751562713477},{"id":"140305","name":"Dillon Collins","party":"Dem","address":"1361 W 3540 N, Pleasant Grove, UT 84062","precinct":"25PG01","hd":"55","v_score":"7.282185415","decile":"8","lat":40.401713954409,"lng":-111.760119332847},{"id":"140783","name":"Cyril Hilll","party":"Dem","address":"833 W Faraday Ln, Pleasant Grove, UT 84062","precinct":"25PG01","hd":"55","v_score":"2.817000428","decile":"6","lat":40.396047365704,"lng":-111.752937750479},{"id":"140910","name":"Douglas Dare","party":"Rep","address":"1358 W 3150 N, Pleasant Grove, UT 84062","precinct":"25PG01","hd":"55","v_score":"7.086759008","decile":"8","lat":40.397874289114,"lng":-111.759394140223},{"id":"141213","name":"Mignon Welch","party":"Rep","address":"2698 N 1550 W, Pleasant Grove, UT 84062","precinct":"25PG01","hd":"55","v_score":"1.193887297","decile":"4","lat":40.393258006391,"lng":-111.762840607136},{"id":"143667","name":"Deja Grady","party":"Rep","address":"743 W 2760 N, Pleasant Grove, UT 84062","precinct":"25PG01","hd":"55","v_score":"11.36410258","decile":"9","lat":40.393592697591,"lng":-111.751440506492},{"id":"143817","name":"Neil Stehr","party":"","address":"3034 Millcreek Rd, Pleasant Grove, UT 84062","precinct":"25PG01","hd":"55","v_score":"9.240377438","decile":"8","lat":40.396627327036,"lng":-111.746550708215},{"id":"144296","name":"Miss Brianne Parisian","party":"Rep","address":"3058 Millcreek Rd, Pleasant Grove, UT 84062","precinct":"25PG01","hd":"55","v_score":"12.45599156","decile":"9","lat":40.396837445045,"lng":-111.746585872396},{"id":"145730","name":"Dr. Arvil Hammes II","party":"","address":"697 W 2900 N, Pleasant Grove, UT 84062","precinct":"25PG01","hd":"55","v_score":"8.280646305","decile":"8","lat":40.394859941982,"lng":-111.751562713477},{"id":"146262","name":"Deron Lakin-Keeling","party":"","address":"3065 N Adams Way, Pleasant Grove, UT 84062","precinct":"25PG01","hd":"55","v_score":"38.00020808","decile":"10","lat":40.397111306755,"lng":-111.751945953086},{"id":"146471","name":"Marcie Lowe","party":"Dem","address":"1047 W 2760 N, Pleasant Grove, UT 84062","precinct":"25PG01","hd":"55","v_score":"14.74039814","decile":"9","lat":40.393568977469,"lng":-111.755962487954},{"id":"146567","name":"Ollie Collier","party":"Rep","address":"1499 W 3500 N, Pleasant Grove, UT 84062","precinct":"25PG01","hd":"55","v_score":"2.315214949","decile":"5","lat":40.40127692588,"lng":-111.76252588354},{"id":"148071","name":"Nelie Rutherford","party":"Dem","address":"1434 W 3300 N, Pleasant Grove, UT 84062","precinct":"25PG01","hd":"55","v_score":"34.18580567","decile":"10","lat":40.399266252525,"lng":-111.76059850804},{"id":"148326","name":"Macey Steuber-Wunsch","party":"Rep","address":"3037 N 550 W, Pleasant Grove, UT 84062","precinct":"25PG01","hd":"55","v_score":"32.354273739999996","decile":"10","lat":40.396068040915,"lng":-111.74907515311},{"id":"148492","name":"Kaylah Pouros","party":"","address":"1368 W 2600 N, Pleasant Grove, UT 84062","precinct":"25PG01","hd":"55","v_score":"5.40460374","decile":"7","lat":40.391993416257,"lng":-111.760639342809},{"id":"148912","name":"Tristan Hayes","party":"Rep","address":"2681 N 1550 W, Pleasant Grove, UT 84062","precinct":"25PG01","hd":"55","v_score":"36.52229901","decile":"10","lat":40.392313724394,"lng":-111.763020947306},{"id":"149263","name":"Josef Hessel","party":"","address":"3027 N 650 W, Pleasant Grove, UT 84062","precinct":"25PG01","hd":"55","v_score":"2.744440783","decile":"6","lat":40.396019514816,"lng":-111.750484008809},{"id":"149876","name":"Icey Wuckert","party":"","address":"3349 N 1270 W, Pleasant Grove, UT 84062","precinct":"25PG01","hd":"55","v_score":"6.814370645","decile":"8","lat":40.399834094343,"lng":-111.759095704184},{"id":"149935","name":"Blain Rempel-Cummerata","party":"","address":"998 W 2600 N, Pleasant Grove, UT 84062","precinct":"25PG01","hd":"55","v_score":"5.40460374","decile":"7","lat":40.392048777923,"lng":-111.755030015398},{"id":"150014","name":"Lucian Conroy","party":"Rep","address":"998 W 2600 N, Pleasant Grove, UT 84062","precinct":"25PG01","hd":"55","v_score":"5.40460374","decile":"7","lat":40.392048777923,"lng":-111.755030015398},{"id":"150224","name":"Dr. Jaunita Gusikowski","party":"Dem","address":"3349 N 1270 W, Pleasant Grove, UT 84062","precinct":"25PG01","hd":"55","v_score":"9.917069994","decile":"9","lat":40.399834094343,"lng":-111.759095704184},{"id":"150380","name":"Rutha Lind","party":"Rep","address":"632 W 2600 N, Pleasant Grove, UT 84062","precinct":"25PG01","hd":"55","v_score":"27.6006495","decile":"10","lat":40.392084114789,"lng":-111.750302147401},{"id":"150473","name":"Halley Gislason DVM","party":"Dem","address":"882 W 2800 N, Pleasant Grove, UT 84062","precinct":"25PG01","hd":"55","v_score":"38.00020808","decile":"10","lat":40.394193289102,"lng":-111.753802961433},{"id":"150580","name":"Tyquan Boehm","party":"","address":"591 W 2900 N, Pleasant Grove, UT 84062","precinct":"25PG01","hd":"55","v_score":"6.881235673","decile":"8","lat":40.395056669323,"lng":-111.749457567145},{"id":"151175","name":"Jose Murray-Cartwright","party":"Dem","address":"2841 N 1020 W, Pleasant Grove, UT 84062","precinct":"25PG01","hd":"55","v_score":"3.93832808","decile":"6","lat":40.393986428023,"lng":-111.755626404284},{"id":"151221","name":"Miss Jazlyn Fahey","party":"","address":"2947 N 1450 W, Pleasant Grove, UT 84062","precinct":"25PG01","hd":"55","v_score":"5.40460374","decile":"7","lat":40.395525279078,"lng":-111.761410811956},{"id":"151499","name":"Mr. Berkley Schmeler","party":"","address":"1186 W 3540 N, Pleasant Grove, UT 84062","precinct":"25PG01","hd":"55","v_score":"5.40460374","decile":"7","lat":40.401869122378,"lng":-111.757720036026},{"id":"151501","name":"Vera Prosacco","party":"Dem","address":"2816 N 1020 W, Pleasant Grove, UT 84062","precinct":"25PG01","hd":"55","v_score":"12.70314012","decile":"9","lat":40.394119186413,"lng":-111.755480137461},{"id":"151743","name":"Felisha Rohan","party":"Rep","address":"1328 W 3040 N, Pleasant Grove, UT 84062","precinct":"25PG01","hd":"55","v_score":"16.19849064","decile":"9","lat":40.396513754087,"lng":-111.759629965041},{"id":"151757","name":"Hughie Haley","party":"","address":"3323 N 1270 W, Pleasant Grove, UT 84062","precinct":"25PG01","hd":"55","v_score":"14.92072811","decile":"9","lat":40.399532950905,"lng":-111.759094658587},{"id":"152372","name":"Renard Powlowski","party":"Dem","address":"3084 N Millcreek Rd, Pleasant Grove, UT 84062","precinct":"25PG01","hd":"55","v_score":"5.530510904","decile":"7","lat":40.397080299468,"lng":-111.746668837635},{"id":"153377","name":"Rebekah Gibson","party":"Rep","address":"2737 N 1550 W, Pleasant Grove, UT 84062","precinct":"25PG01","hd":"55","v_score":"3.781490609","decile":"6","lat":40.392561600322,"lng":-111.763020425117},{"id":"153445","name":"Brenton D'Amore","party":"Dem","address":"1207 W 3420 N, Pleasant Grove, UT 84062","precinct":"25PG01","hd":"55","v_score":"22.17625138","decile":"10","lat":40.40045969735,"lng":-111.758434155772},{"id":"153869","name":"Lurline Gibson","party":"","address":"1328 W 3040 N, Pleasant Grove, UT 84062","precinct":"25PG01","hd":"55","v_score":"17.0013843","decile":"9","lat":40.396513754087,"lng":-111.759629965041},{"id":"154613","name":"Mrs. Marnie Block DVM","party":"Rep","address":"1206 W 3300 N, Pleasant Grove, UT 84062","precinct":"25PG01","hd":"55","v_score":"1.121327652","decile":"3","lat":40.399283197591,"lng":-111.757160527666},{"id":"154670","name":"Nina Denesik","party":"","address":"1105 W 3540 N, Pleasant Grove, UT 84062","precinct":"25PG01","hd":"55","v_score":"9.116556227","decile":"8","lat":40.401670181823,"lng":-111.756690886955},{"id":"154673","name":"Lorinda Borer","party":"","address":"1285 W 3150 N, Pleasant Grove, UT 84062","precinct":"25PG01","hd":"55","v_score":"3.93832808","decile":"6","lat":40.397750697695,"lng":-111.758921364664},{"id":"154724","name":"Essence Sipes","party":"Dem","address":"1285 W 3150 N, Pleasant Grove, UT 84062","precinct":"25PG01","hd":"55","v_score":"3.93832808","decile":"6","lat":40.397750697695,"lng":-111.758921364664},{"id":"155675","name":"Junious Blanda","party":"","address":"993 W 2760 N, Pleasant Grove, UT 84062","precinct":"25PG01","hd":"55","v_score":"28.59627151","decile":"10","lat":40.393576604839,"lng":-111.755381443754},{"id":"156091","name":"Mr. Russell Rohan PhD","party":"Rep","address":"3001 N Millcreek Rd, Pleasant Grove, UT 84062","precinct":"25PG01","hd":"55","v_score":"8.347511332","decile":"8","lat":40.396100402585,"lng":-111.747648079712},{"id":"156642","name":"Harvey Stark","party":"Dem","address":"838 W 3300 N, Pleasant Grove, UT 84062","precinct":"25PG01","hd":"55","v_score":"5.40460374","decile":"7","lat":40.399342451147,"lng":-111.751558746895},{"id":"156661","name":"Angel Brekke","party":"Rep","address":"626 W 2760 N, Pleasant Grove, UT 84062","precinct":"25PG01","hd":"55","v_score":"2.315214949","decile":"5","lat":40.393707288892,"lng":-111.750354533309},{"id":"156777","name":"Will VonRueden-Littel","party":"","address":"2786 N 1130 W, Pleasant Grove, UT 84062","precinct":"25PG01","hd":"55","v_score":"5.40460374","decile":"7","lat":40.394232933588,"lng":-111.756929194616},{"id":"156964","name":"Kamryn Leffler","party":"","address":"1468 W 2850 N, Pleasant Grove, UT 84062","precinct":"25PG01","hd":"55","v_score":"26.2609852","decile":"10","lat":40.394742452851,"lng":-111.761797682491},{"id":"156967","name":"Rolland Dicki","party":"","address":"1468 W 2850 N, Pleasant Grove, UT 84062","precinct":"25PG01","hd":"55","v_score":"26.2609852","decile":"10","lat":40.394742452851,"lng":-111.761797682491},{"id":"157011","name":"Ms. Margarete Donnelly PhD","party":"Dem","address":"838 W 3300 N, Pleasant Grove, UT 84062","precinct":"25PG01","hd":"55","v_score":"5.40460374","decile":"7","lat":40.399342451147,"lng":-111.751558746895},{"id":"157042","name":"Dr. Conley Kub","party":"Rep","address":"1047 W 2760 N, Pleasant Grove, UT 84062","precinct":"25PG01","hd":"55","v_score":"13.11728501","decile":"9","lat":40.393568977469,"lng":-111.755962487954},{"id":"157412","name":"Nelia Roob","party":"","address":"1244 W 3040 N, Pleasant Grove, UT 84062","precinct":"25PG01","hd":"55","v_score":"9.116556227","decile":"8","lat":40.396509139542,"lng":-111.758831659475},{"id":"157554","name":"Miss Marilynn Kautzer","party":"Rep","address":"1378 W 2600 N, Pleasant Grove, UT 84062","precinct":"25PG01","hd":"55","v_score":"15.85056678","decile":"9","lat":40.39199162222,"lng":-111.760840725181},{"id":"157613","name":"Huy Greenholt","party":"","address":"1464 W 3400 N, Pleasant Grove, UT 84062","precinct":"25PG01","hd":"55","v_score":"12.51600754","decile":"9","lat":40.40037628901,"lng":-111.761720437561},{"id":"158008","name":"Mr. Boone Haag","party":"Dem","address":"2959 N 1550 W, Pleasant Grove, UT 84062","precinct":"25PG01","hd":"55","v_score":"2.587603312","decile":"5","lat":40.395894485783,"lng":-111.762822111803},{"id":"158156","name":"Tabatha Runolfsson","party":"Rep","address":"628 W 3300 N, Pleasant Grove, UT 84062","precinct":"25PG01","hd":"55","v_score":"15.12746977","decile":"9","lat":40.399373930354,"lng":-111.749553511796},{"id":"158456","name":"Author Adams","party":"","address":"1262 W 3150 N, Pleasant Grove, UT 84062","precinct":"25PG01","hd":"55","v_score":"12.90602733","decile":"9","lat":40.397867703321,"lng":-111.758788244109},{"id":"158895","name":"Dr. Hiroshi Murray Jr.","party":"Rep","address":"3196 N Millcreek Rd, Pleasant Grove, UT 84062","precinct":"25PG01","hd":"55","v_score":"36.52229901","decile":"10","lat":40.397936941344,"lng":-111.747306550493},{"id":"158896","name":"Haden Durgan","party":"","address":"3196 N Millcreek Rd, Pleasant Grove, UT 84062","precinct":"25PG01","hd":"55","v_score":"29.20552465","decile":"10","lat":40.397936941344,"lng":-111.747306550493},{"id":"158899","name":"Ethie Bosco","party":"Dem","address":"3154 N 1450 W, Pleasant Grove, UT 84062","precinct":"25PG01","hd":"55","v_score":"8.363183621","decile":"8","lat":40.397233315609,"lng":-111.761276540658},{"id":"158941","name":"Fiona Little","party":"Dem","address":"3349 N 1270 W, Pleasant Grove, UT 84062","precinct":"25PG01","hd":"55","v_score":"33.7623751","decile":"10","lat":40.399834094343,"lng":-111.759095704184},{"id":"160252","name":"Jolette Wilderman","party":"Dem","address":"626 W 2760 N, Pleasant Grove, UT 84062","precinct":"25PG01","hd":"55","v_score":"11.99259879","decile":"9","lat":40.393707288892,"lng":-111.750354533309},{"id":"160464","name":"Carmelita Grimes-Collier","party":"","address":"3116 N 1450 W, Pleasant Grove, UT 84062","precinct":"25PG01","hd":"55","v_score":"3.781490609","decile":"6","lat":40.396728488384,"lng":-111.761269092454},{"id":"160475","name":"Sanford Vandervort","party":"","address":"3642 N 1270 W, Pleasant Grove, UT 84062","precinct":"25PG01","hd":"55","v_score":"1.193887297","decile":"4","lat":40.402545936282,"lng":-111.758754219027},{"id":"161076","name":"Harl Russel","party":"","address":"3438 N 1450 W, Pleasant Grove, UT 84062","precinct":"25PG01","hd":"55","v_score":"3.781490609","decile":"6","lat":40.400699631427,"lng":-111.761316299168},{"id":"162138","name":"Wayne Beier","party":"Rep","address":"3568 N 1450 W, Pleasant Grove, UT 84062","precinct":"25PG01","hd":"55","v_score":"0","decile":"3","lat":40.402156361473,"lng":-111.761326715237},{"id":"162575","name":"Kristen Cummings","party":"","address":"664 W 2600 N, Pleasant Grove, UT 84062","precinct":"25PG01","hd":"55","v_score":"6.814370645","decile":"8","lat":40.392086495922,"lng":-111.750683123937},{"id":"162602","name":"Sharif Kunde","party":"Rep","address":"1244 W 3040 N, Pleasant Grove, UT 84062","precinct":"25PG01","hd":"55","v_score":"3.93832808","decile":"6","lat":40.396509139542,"lng":-111.758831659475},{"id":"162969","name":"Mr. Montana Herman","party":"","address":"2737 N 550 W, Pleasant Grove, UT 84062","precinct":"25PG01","hd":"55","v_score":"1.193887297","decile":"4","lat":40.393123153155,"lng":-111.748979307942},{"id":"163081","name":"Tiffani Ledner MD","party":"Dem","address":"3478 N 1450 W, Pleasant Grove, UT 84062","precinct":"25PG01","hd":"55","v_score":"7.282185415","decile":"8","lat":40.40107980554,"lng":-111.761317996324},{"id":"163490","name":"Ezequiel Schuppe","party":"Dem","address":"2932 N 1130 W, Pleasant Grove, UT 84062","precinct":"25PG01","hd":"55","v_score":"18.887149139999998","decile":"10","lat":40.395040753713,"lng":-111.756929444935},{"id":"163802","name":"Aura Koch","party":"Dem","address":"2837 N 550 W, Pleasant Grove, UT 84062","precinct":"25PG01","hd":"55","v_score":"11.38334565","decile":"9","lat":40.39420573896,"lng":-111.749011236018},{"id":"164122","name":"Bilal Schmidt","party":"","address":"2966 N 1450 W, Pleasant Grove, UT 84062","precinct":"25PG01","hd":"55","v_score":"5.40460374","decile":"7","lat":40.395323089285,"lng":-111.761259317559},{"id":"166362","name":"Ernie Willms","party":"","address":"1161 W 3540 N, Pleasant Grove, UT 84062","precinct":"25PG01","hd":"55","v_score":"9.785090964","decile":"8","lat":40.40175137847,"lng":-111.757513991915},{"id":"166414","name":"Loretta Reinger","party":"","address":"3512 N 1270 W, Pleasant Grove, UT 84062","precinct":"25PG01","hd":"55","v_score":"12.31618552","decile":"9","lat":40.401746697228,"lng":-111.758745100247},{"id":"166738","name":"Lott Mills","party":"Dem","address":"3284 N 1450 W, Pleasant Grove, UT 84062","precinct":"25PG01","hd":"55","v_score":"1.623113131","decile":"5","lat":40.398960356115,"lng":-111.761302021354},{"id":"167166","name":"Akeem Kshlerin","party":"","address":"704 W 2600 N, Pleasant Grove, UT 84062","precinct":"25PG01","hd":"55","v_score":"2.315214949","decile":"5","lat":40.392084612328,"lng":-111.751160711427},{"id":"167317","name":"Miss Dinah Goyette","party":"","address":"3641 N 1150 W, Pleasant Grove, UT 84062","precinct":"25PG01","hd":"55","v_score":"6.724398202","decile":"8","lat":40.4020935284,"lng":-111.757396378073},{"id":"168257","name":"Ines Gaylord","party":"","address":"3008 N 550 W, Pleasant Grove, UT 84062","precinct":"25PG01","hd":"55","v_score":"11.99259879","decile":"9","lat":40.395386031908,"lng":-111.748868877445},{"id":"168936","name":"Heyward Rogahn","party":"","address":"2897 N 900 W, Pleasant Grove, UT 84062","precinct":"25PG01","hd":"55","v_score":"3.93832808","decile":"6","lat":40.394994004988,"lng":-111.754143943077},{"id":"169182","name":"Ridge Bednar","party":"Rep","address":"2904 N 1230 W, Pleasant Grove, UT 84062","precinct":"25PG01","hd":"55","v_score":"3.93832808","decile":"6","lat":40.394828498653,"lng":-111.758405275425},{"id":"169248","name":"Aili Harber","party":"","address":"3039 N Cullen Ct, Pleasant Grove, UT 84062","precinct":"25PG01","hd":"55","v_score":"13.02656453","decile":"9","lat":40.39643996641,"lng":-111.75334982209},{"id":"169385","name":"Miss Yaretzi Leannon DDS","party":"Dem","address":"3642 N 1270 W, Pleasant Grove, UT 84062","precinct":"25PG01","hd":"55","v_score":"1.193887297","decile":"4","lat":40.402545936282,"lng":-111.758754219027},{"id":"169641","name":"Lawerence Sawayn","party":"Rep","address":"3478 N 1450 W, Pleasant Grove, UT 84062","precinct":"25PG01","hd":"55","v_score":"7.282185415","decile":"8","lat":40.40107980554,"lng":-111.761317996324},{"id":"170823","name":"Kieran Hackett-Effertz","party":"Rep","address":"3641 N 1150 W, Pleasant Grove, UT 84062","precinct":"25PG01","hd":"55","v_score":"3.781490609","decile":"6","lat":40.4020935284,"lng":-111.757396378073},{"id":"170860","name":"Amira Nader-Franecki","party":"","address":"1483 W 2850 N, Pleasant Grove, UT 84062","precinct":"25PG01","hd":"55","v_score":"5.40460374","decile":"7","lat":40.39463134617,"lng":-111.761612277558},{"id":"171389","name":"Clarke Jakubowski-Hartmann","party":"","address":"2844 N 1130 W, Pleasant Grove, UT 84062","precinct":"25PG01","hd":"55","v_score":"3.781490609","decile":"6","lat":40.394441957504,"lng":-111.756927819431},{"id":"171881","name":"Noble Zboncak II","party":"Rep","address":"1532 W 3500 N, Pleasant Grove, UT 84062","precinct":"25PG01","hd":"55","v_score":"3.93832808","decile":"6","lat":40.401403479455,"lng":-111.762871821457},{"id":"173796","name":"Shay Smitham","party":"Rep","address":"998 W 2600 N, Pleasant Grove, UT 84062","precinct":"25PG01","hd":"55","v_score":"5.40460374","decile":"7","lat":40.392048777923,"lng":-111.755030015398},{"id":"174274","name":"Leanna Johns","party":"Rep","address":"2610 N 1450 W, Pleasant Grove, UT 84062","precinct":"25PG01","hd":"55","v_score":"8.507303088","decile":"8","lat":40.392083955729,"lng":-111.761243573131},{"id":"174709","name":"Miss Amirah Jacobi","party":"Rep","address":"2610 N 1450 W, Pleasant Grove, UT 84062","precinct":"25PG01","hd":"55","v_score":"5.40460374","decile":"7","lat":40.392083955729,"lng":-111.761243573131},{"id":"174898","name":"Dr. Jarvis Rau I","party":"Dem","address":"3008 N 550 W, Pleasant Grove, UT 84062","precinct":"25PG01","hd":"55","v_score":"8.280646305","decile":"8","lat":40.395386031908,"lng":-111.748868877445},{"id":"175950","name":"Dr. Lylah Yost DDS","party":"Dem","address":"857 W Faraday Ln, Pleasant Grove, UT 84062","precinct":"25PG01","hd":"55","v_score":"3.93832808","decile":"6","lat":40.396048638098,"lng":-111.753117792321},{"id":"175973","name":"Isabela Casper-Schinner","party":"","address":"3001 N Millcreek Rd, Pleasant Grove, UT 84062","precinct":"25PG01","hd":"55","v_score":"8.347511332","decile":"8","lat":40.396100402585,"lng":-111.747648079712},{"id":"176942","name":"Mr. Pierce Beatty","party":"Dem","address":"3037 N 550 W, Pleasant Grove, UT 84062","precinct":"25PG01","hd":"55","v_score":"5.40460374","decile":"7","lat":40.396068040915,"lng":-111.74907515311},{"id":"177120","name":"Dr. Unknown Schowalter DDS","party":"Rep","address":"803 W 2760 N, Pleasant Grove, UT 84062","precinct":"25PG01","hd":"55","v_score":"5.191257514","decile":"7","lat":40.393595685355,"lng":-111.752054711061},{"id":"178130","name":"Flavia Monahan-Hegmann","party":"Dem","address":"3148 Millcreek Rd, Pleasant Grove, UT 84062","precinct":"25PG01","hd":"55","v_score":"1.193887297","decile":"4","lat":40.397564300577,"lng":-111.747087009334},{"id":"178139","name":"Niki Dooley","party":"Dem","address":"3631 N 1450 W, Pleasant Grove, UT 84062","precinct":"25PG01","hd":"55","v_score":"0","decile":"3","lat":40.403594600391,"lng":-111.761486078501},{"id":"179234","name":"Dr. Merrily Huels MD","party":"Rep","address":"1105 W 3540 N, Pleasant Grove, UT 84062","precinct":"25PG01","hd":"55","v_score":"9.116556227","decile":"8","lat":40.401670181823,"lng":-111.756690886955},{"id":"179653","name":"Mr. Trevion Langworth II","party":"Rep","address":"3474 N 1270 W, Pleasant Grove, UT 84062","precinct":"25PG01","hd":"55","v_score":"5.40460374","decile":"7","lat":40.40130090156,"lng":-111.758856377043},{"id":"179764","name":"Susan Anderson","party":"Rep","address":"391 W Millcreek Rd, Pleasant Grove, UT 84062","precinct":"25PG01","hd":"55","v_score":"10.22509301","decile":"9","lat":40.396164151126,"lng":-111.746516869057},{"id":"180260","name":"Teressa VonRueden-Tillman","party":"Dem","address":"3137 N 1550 W, Pleasant Grove, UT 84062","precinct":"25PG01","hd":"55","v_score":"2.660162957","decile":"5","lat":40.39680706078,"lng":-111.762840299312}]