[{"vid":"803408","name":"Dr. Julien Harris I","party":"","address":"3511 N 1590 W, Pleasant Grove, UT 84062","precinct":"25PG01","hd":"55","v_score":"2.315214949","decile":"5","lat":40.40134499679388,"lng":-111.76396326459847,"phone":"(678) 833-3009","sd":"21","ssbd":"11","lsbd":"School Board Timpanogos 1"},{"vid":"831766","name":"Davey Walter DVM","party":"","address":"576 W 2900 N, Pleasant Grove, UT 84062","precinct":"25PG01","hd":"55","v_score":"5.40460374","decile":"7","lat":40.39525976390729,"lng":-111.7491955918315,"phone":"(438) 211-8933","sd":"21","ssbd":"11","lsbd":"School Board Timpanogos 1"},{"vid":"833778","name":"Jermain Heaney-Haag","party":"","address":"576 W 2900 N, Pleasant Grove, UT 84062","precinct":"25PG01","hd":"55","v_score":"5.40460374","decile":"7","lat":40.39525976390729,"lng":-111.7491955918315,"phone":"(799) 576-9563","sd":"21","ssbd":"11","lsbd":"School Board Timpanogos 1"},{"vid":"1013015","name":"Ronan Stehr","party":"","address":"3611 N 1590 W, Pleasant Grove, UT 84062","precinct":"25PG01","hd":"55","v_score":"20.99678562","decile":"10","lat":40.40262383569919,"lng":-111.76406642919268,"phone":"(254) 631-3458","sd":"21","ssbd":"11","lsbd":"School Board Timpanogos 1"},{"vid":"1237023","name":"Cathrine Keeling-Rosenbaum","party":"","address":"1464 W 3400 N, Pleasant Grove, UT 84062","precinct":"25PG01","hd":"55","v_score":"12.51600754","decile":"9","lat":40.400532059194596,"lng":-111.76165192487186,"phone":"(229) 902-5963","sd":"21","ssbd":"11","lsbd":"School Board Timpanogos 1"},{"vid":"1241663","name":"Barnie Quitzon","party":"Dem","address":"1596 W 3250 N, Pleasant Grove, UT 84062","precinct":"25PG01","hd":"55","v_score":"3.93832808","decile":"6","lat":40.398919989453034,"lng":-111.7633926540721,"phone":"(943) 076-1536","sd":"21","ssbd":"11","lsbd":"School Board Timpanogos 1"},{"vid":"1247226","name":"Randolph Feeney","party":"Dem","address":"796 W 3000 N, Pleasant Grove, UT 84062","precinct":"25PG01","hd":"55","v_score":"1.623113131","decile":"4","lat":40.396266097395404,"lng":-111.75208216124894,"phone":"(144) 415-9351","sd":"21","ssbd":"11","lsbd":"School Board Timpanogos 1"},{"vid":"1250195","name":"Mrs. Delphine Emmerich","party":"Dem","address":"3197 N 1550 W, Pleasant Grove, UT 84062","precinct":"25PG01","hd":"55","v_score":"1.193887297","decile":"3","lat":40.398001024333624,"lng":-111.76313144985896,"phone":"(168) 633-0503","sd":"21","ssbd":"11","lsbd":"School Board Timpanogos 1"},{"vid":"1260606","name":"Zollie Block","party":"Dem","address":"3028 N 550 W, Pleasant Grove, UT 84062","precinct":"25PG01","hd":"55","v_score":"17.638635","decile":"9","lat":40.39617480500449,"lng":-111.7487960120913,"phone":"(572) 961-6218","sd":"21","ssbd":"11","lsbd":"School Board Timpanogos 1"},{"vid":"1286790","name":"Mr. Sol Rosenbaum","party":"Dem","address":"3391 N 750 W, Pleasant Grove, UT 84062","precinct":"25PG01","hd":"55","v_score":"1.193887297","decile":"3","lat":40.40016612026385,"lng":-111.75263011705849,"phone":"(981) 673-1219","sd":"21","ssbd":"11","lsbd":"School Board Timpanogos 1"},{"vid":"1296622","name":"Piper Ankunding-O'Reilly","party":"Dem","address":"3586 N 1270 W, Pleasant Grove, UT 84062","precinct":"25PG01","hd":"55","v_score":"9.834558359","decile":"8","lat":40.40199465164482,"lng":-111.75860578132723,"phone":"(332) 733-1569","sd":"21","ssbd":"11","lsbd":"School Board Timpanogos 1"},{"vid":"1317042","name":"Kamilah Bins-Brown","party":"","address":"1244 W 3040 N, Pleasant Grove, UT 84062","precinct":"25PG01","hd":"55","v_score":"1.121327652","decile":"3","lat":40.396857506106166,"lng":-111.75856603695259,"phone":"(762) 188-5967","sd":"21","ssbd":"11","lsbd":"School Board Timpanogos 1"},{"vid":"1320805","name":"Christian Stokes","party":"","address":"3107 N 1650 W, Pleasant Grove, UT 84062","precinct":"25PG01","hd":"55","v_score":"2.315214949","decile":"5","lat":40.39716525065004,"lng":-111.76467334534173,"phone":"(390) 397-2553","sd":"21","ssbd":"11","lsbd":"School Board Timpanogos 1"},{"vid":"1340227","name":"Ayanna Konopelski","party":"","address":"3291 N 1650 W, Pleasant Grove, UT 84062","precinct":"25PG01","hd":"55","v_score":"10.38488476","decile":"9","lat":40.39902967238164,"lng":-111.76446761576744,"phone":"(600) 737-0707","sd":"21","ssbd":"11","lsbd":"School Board Timpanogos 1"},{"vid":"1345081","name":"Tyler Hilll","party":"Rep","address":"3118 N 1550 W, Pleasant Grove, UT 84062","precinct":"25PG01","hd":"55","v_score":"8.758817347","decile":"8","lat":40.39729261358061,"lng":-111.76244348208301,"phone":"(297) 331-6158","sd":"21","ssbd":"11","lsbd":"School Board Timpanogos 1"},{"vid":"1380134","name":"Delwin Ebert","party":"Rep","address":"3077 N 1550 W, Pleasant Grove, UT 84062","precinct":"25PG01","hd":"55","v_score":"3.93832808","decile":"6","lat":40.396841494006864,"lng":-111.76308190648348,"phone":"(555) 430-1161","sd":"21","ssbd":"11","lsbd":"School Board Timpanogos 1"},{"vid":"1426833","name":"Simona Goyette","party":"Dem","address":"3126 N Millcreek Rd, Pleasant Grove, UT 84062","precinct":"25PG01","hd":"55","v_score":"1.121327652","decile":"3","lat":40.39763008418404,"lng":-111.746871968704,"phone":"(507) 371-5101","sd":"21","ssbd":"11","lsbd":"School Board Timpanogos 1"},{"vid":"1489357","name":"Dr. Ola Hansen III","party":"Dem","address":"2737 N 550 W, Pleasant Grove, UT 84062","precinct":"25PG01","hd":"55","v_score":"2.744440783","decile":"5","lat":40.3935443188791,"lng":-111.74924189638581,"phone":"(333) 444-6127","sd":"21","ssbd":"11","lsbd":"School Board Timpanogos 1"},{"vid":"1490778","name":"Birdella Corkery-Rogahn","party":"Dem","address":"1543 W 3600 N, Pleasant Grove, UT 84062","precinct":"25PG01","hd":"55","v_score":"0","decile":"1","lat":40.40215243877784,"lng":-111.76290512288418,"phone":"(817) 923-0028","sd":"21","ssbd":"11","lsbd":"School Board Timpanogos 1"},{"vid":"1493499","name":"Luisa Hessel","party":"Dem","address":"2651 N 1550 W, Pleasant Grove, UT 84062","precinct":"25PG01","hd":"55","v_score":"5.40460374","decile":"7","lat":40.392559682056515,"lng":-111.76314180248512,"phone":"(756) 285-7187","sd":"21","ssbd":"11","lsbd":"School Board Timpanogos 1"},{"vid":"1552664","name":"Dr. Page Boyer","party":"","address":"2848 N 1020 W, Pleasant Grove, UT 84062","precinct":"25PG01","hd":"55","v_score":"20.66133924","decile":"10","lat":40.39466222790424,"lng":-111.75555049184075,"phone":"(491) 486-2496","sd":"21","ssbd":"11","lsbd":"School Board Timpanogos 1"},{"vid":"1564136","name":"Ritchie Jakubowski V","party":"Dem","address":"3043 N 650 W, Pleasant Grove, UT 84062","precinct":"25PG01","hd":"55","v_score":"3.781490609","decile":"6","lat":40.39659246954989,"lng":-111.75068363086952,"phone":"(411) 454-2075","sd":"21","ssbd":"11","lsbd":"School Board Timpanogos 1"},{"vid":"1586822","name":"Ellis Wolf","party":"Rep","address":"3375 N 1270 W, Pleasant Grove, UT 84062","precinct":"25PG01","hd":"55","v_score":"3.93832808","decile":"6","lat":40.400058671220044,"lng":-111.75957356114444,"phone":"(725) 264-3051","sd":"21","ssbd":"11","lsbd":"School Board Timpanogos 1"},{"vid":"1587499","name":"Mrs. Oma Kutch","party":"Dem","address":"2691 N 1450 W, Pleasant Grove, UT 84062","precinct":"25PG01","hd":"55","v_score":"2.315214949","decile":"5","lat":40.39254051300668,"lng":-111.76175641171764,"phone":"(351) 987-0974","sd":"21","ssbd":"11","lsbd":"School Board Timpanogos 1"},{"vid":"1609527","name":"Gus Pouros","party":"Rep","address":"1361 W 3540 N, Pleasant Grove, UT 84062","precinct":"25PG01","hd":"55","v_score":"1.121327652","decile":"3","lat":40.401498341733856,"lng":-111.76022863885048,"phone":"(907) 574-4492","sd":"21","ssbd":"11","lsbd":"School Board Timpanogos 1"},{"vid":"1612851","name":"Ms. Ruie Bins DVM","party":"Dem","address":"3148 N Millcreek Rd, Pleasant Grove, UT 84062","precinct":"25PG01","hd":"55","v_score":"12.51600754","decile":"9","lat":40.397860048679554,"lng":-111.74710116115308,"phone":"(403) 801-5261","sd":"21","ssbd":"11","lsbd":"School Board Timpanogos 1"},{"vid":"1615026","name":"Fidencio Ferry-Trantow","party":"Rep","address":"1373 W 3040 N, Pleasant Grove, UT 84062","precinct":"25PG01","hd":"55","v_score":"10.38488476","decile":"9","lat":40.396337009653415,"lng":-111.7601278523802,"phone":"(864) 361-9996","sd":"21","ssbd":"11","lsbd":"School Board Timpanogos 1"},{"vid":"412e3bc9bb4bcb9ac5501baa32b2cdecaf5418cce20872cfb3840f70dab55835","name":"Ms. Tennessee Lakin DDS","party":"Rep","address":"2980 N Adams Way, Pleasant Grove, UT 84062","precinct":"25PG01","hd":"55","v_score":"10.75297992","decile":"9","lat":40.39587066884051,"lng":-111.75171396634371,"phone":"(371) 872-9859","sd":"21","ssbd":"11","lsbd":"School Board Timpanogos 1"},{"vid":"1637821","name":"Mr. Teagan Schimmel II","party":"Dem","address":"1442 W 3300 N, Pleasant Grove, UT 84062","precinct":"25PG01","hd":"55","v_score":"5.40460374","decile":"7","lat":40.39941845482494,"lng":-111.76118126501098,"phone":"(566) 188-3598","sd":"21","ssbd":"11","lsbd":"School Board Timpanogos 1"},{"vid":"1652303","name":"Mr. Marquis Collier","party":"Dem","address":"3253 N 1650 W, Pleasant Grove, UT 84062","precinct":"25PG01","hd":"55","v_score":"3.781490609","decile":"6","lat":40.39856354689136,"lng":-111.76455578623413,"phone":"(551) 113-8707","sd":"21","ssbd":"11","lsbd":"School Board Timpanogos 1"},{"vid":"1653251","name":"Armond Grady I","party":"","address":"1432 W 3040 N, Pleasant Grove, UT 84062","precinct":"25PG01","hd":"55","v_score":"0","decile":"1","lat":40.39668569848566,"lng":-111.76114374583993,"phone":"(953) 571-7097","sd":"21","ssbd":"11","lsbd":"School Board Timpanogos 1"},{"vid":"1663828","name":"Ronny Abernathy","party":"Rep","address":"1358 W 3150 N, Pleasant Grove, UT 84062","precinct":"25PG01","hd":"55","v_score":"3.93832808","decile":"6","lat":40.39808481715484,"lng":-111.7598687440209,"phone":"(198) 669-5702","sd":"21","ssbd":"11","lsbd":"School Board Timpanogos 1"},{"vid":"1678280","name":"Tess Oberbrunner","party":"Rep","address":"1582 W 2600 N, Pleasant Grove, UT 84062","precinct":"25PG01","hd":"55","v_score":"21.53000939","decile":"10","lat":40.39211209518607,"lng":-111.76317207927346,"phone":"(844) 645-8722","sd":"21","ssbd":"11","lsbd":"School Board Timpanogos 1"},{"vid":"1678587","name":"Ruben Buckridge","party":"","address":"2687 N 1070 W, Pleasant Grove, UT 84062","precinct":"25PG01","hd":"55","v_score":"8.363183621","decile":"8","lat":40.39292498516261,"lng":-111.75660493322488,"phone":"(553) 004-2729","sd":"21","ssbd":"11","lsbd":"School Board Timpanogos 1"},{"vid":"1685263","name":"Dr. Derald D'Amore","party":"","address":"799 W Faraday Ln, Pleasant Grove, UT 84062","precinct":"25PG01","hd":"55","v_score":"1.121327652","decile":"3","lat":40.39593977915552,"lng":-111.75212153717693,"phone":"(810) 807-7683","sd":"21","ssbd":"11","lsbd":"School Board Timpanogos 1"},{"vid":"1694556","name":"Estefania Murazik","party":"Dem","address":"1575 W 3600 N, Pleasant Grove, UT 84062","precinct":"25PG01","hd":"55","v_score":"6.027167436","decile":"7","lat":40.40220203409614,"lng":-111.76348865674824,"phone":"(317) 016-3883","sd":"21","ssbd":"11","lsbd":"School Board Timpanogos 1"},{"vid":"1760071","name":"Robyn Kirlin","party":"Rep","address":"2832 N 1550 W, Pleasant Grove, UT 84062","precinct":"25PG01","hd":"55","v_score":"2.315214949","decile":"5","lat":40.39443785090267,"lng":-111.76251533097795,"phone":"(189) 345-8837","sd":"21","ssbd":"11","lsbd":"School Board Timpanogos 1"},{"vid":"fb626ce6e093bb98200ebb0ba2c767fb723abaa671449380785a96109906fb44","name":"Elizabeth Monahan PhD","party":"","address":"3659 N 900 W, Pleasant Grove, UT 84062","precinct":"25PG01","hd":"55","v_score":"9.40499548","decile":"8","lat":40.402754919856136,"lng":-111.75548186806681,"phone":"(375) 341-4078","sd":"21","ssbd":"11","lsbd":"School Board Timpanogos 1"},{"vid":"1782646","name":"Augustin D'Amore","party":"","address":"3037 N 550 W, Pleasant Grove, UT 84062","precinct":"25PG01","hd":"55","v_score":"2.315214949","decile":"5","lat":40.39624361464325,"lng":-111.7495231028462,"phone":"(108) 011-5607","sd":"21","ssbd":"11","lsbd":"School Board Timpanogos 1"},{"vid":"1799636","name":"Artelia Daniel","party":"","address":"1501 W 3600 N, Pleasant Grove, UT 84062","precinct":"25PG01","hd":"55","v_score":"8.761771632","decile":"8","lat":40.402361352801606,"lng":-111.76237353643117,"phone":"(345) 378-1135","sd":"21","ssbd":"11","lsbd":"School Board Timpanogos 1"},{"vid":"1802660","name":"Leisa Kreiger-Jast","party":"","address":"688 W 3300 N, Pleasant Grove, UT 84062","precinct":"25PG01","hd":"55","v_score":"1.193887297","decile":"3","lat":40.39972874318492,"lng":-111.75117261632035,"phone":"(322) 655-9559","sd":"21","ssbd":"11","lsbd":"School Board Timpanogos 1"},{"vid":"1815331","name":"Clayton Treutel","party":"Dem","address":"838 W 3300 N, Pleasant Grove, UT 84062","precinct":"25PG01","hd":"55","v_score":"5.40460374","decile":"7","lat":40.3996164773412,"lng":-111.75335845887376,"phone":"(221) 960-1506","sd":"21","ssbd":"11","lsbd":"School Board Timpanogos 1"},{"vid":"1817208","name":"Dr. Guido Boyle","party":"Rep","address":"2991 N 1350 W, Pleasant Grove, UT 84062","precinct":"25PG01","hd":"55","v_score":"0","decile":"1","lat":40.395958409241416,"lng":-111.76017109417637,"phone":"(629) 345-1328","sd":"21","ssbd":"11","lsbd":"School Board Timpanogos 1"},{"vid":"1850745","name":"Ivana Rau-Littel","party":"","address":"1468 W 2850 N, Pleasant Grove, UT 84062","precinct":"25PG01","hd":"55","v_score":"4.210716443","decile":"7","lat":40.39487521318968,"lng":-111.76162013929888,"phone":"(809) 588-0298","sd":"21","ssbd":"11","lsbd":"School Board Timpanogos 1"},{"vid":"1854973","name":"Corie Smitham","party":"","address":"3391 N 750 W, Pleasant Grove, UT 84062","precinct":"25PG01","hd":"55","v_score":"1.193887297","decile":"3","lat":40.40016612026385,"lng":-111.75263011705849,"phone":"(469) 776-0196","sd":"21","ssbd":"11","lsbd":"School Board Timpanogos 1"},{"vid":"bf6701e2ecbd82b683f6593495a8529169e2865496d4d612b4e346686805b7ea","name":"Nautica Watsica","party":"Rep","address":"3378 N 1270 W, Pleasant Grove, UT 84062","precinct":"25PG01","hd":"55","v_score":"10.90677536","decile":"9","lat":40.40006073227922,"lng":-111.75865509143827,"phone":"(923) 497-9977","sd":"21","ssbd":"11","lsbd":"School Board Timpanogos 1"},{"vid":"1877557","name":"Jaelynn Schowalter-Beer","party":"Rep","address":"1243 W 3040 N, Pleasant Grove, UT 84062","precinct":"25PG01","hd":"55","v_score":"23.02311981","decile":"10","lat":40.39605025446543,"lng":-111.75848088349085,"phone":"(755) 094-9682","sd":"21","ssbd":"11","lsbd":"School Board Timpanogos 1"},{"vid":"1887372","name":"Rohan Gusikowski","party":"Rep","address":"664 W 2600 N, Pleasant Grove, UT 84062","precinct":"25PG01","hd":"55","v_score":"1.193887297","decile":"3","lat":40.39230558575925,"lng":-111.75056570963784,"phone":"(771) 680-7082","sd":"21","ssbd":"11","lsbd":"School Board Timpanogos 1"},{"vid":"1888149","name":"Jazlene Wuckert","party":"Dem","address":"3659 N 900 W, Pleasant Grove, UT 84062","precinct":"25PG01","hd":"55","v_score":"7.781882349","decile":"8","lat":40.402754919856136,"lng":-111.75548186806681,"phone":"(317) 301-8779","sd":"21","ssbd":"11","lsbd":"School Board Timpanogos 1"},{"vid":"1890723","name":"Ellsworth Lehner","party":"","address":"1596 W 3250 N, Pleasant Grove, UT 84062","precinct":"25PG01","hd":"55","v_score":"3.93832808","decile":"6","lat":40.398919989453034,"lng":-111.7633926540721,"phone":"(394) 906-4098","sd":"21","ssbd":"11","lsbd":"School Board Timpanogos 1"},{"vid":"1893735","name":"Avie Runolfsdottir-Wuckert","party":"","address":"1116 W 3540 N, Pleasant Grove, UT 84062","precinct":"25PG01","hd":"55","v_score":"2.315214949","decile":"5","lat":40.40192829481566,"lng":-111.75703232113545,"phone":"(140) 954-6008","sd":"21","ssbd":"11","lsbd":"School Board Timpanogos 1"},{"vid":"1904481","name":"Hattie Krajcik-Wehner","party":"","address":"3686 N 900 W, Pleasant Grove, UT 84062","precinct":"25PG01","hd":"55","v_score":"9.839815554","decile":"8","lat":40.4030094963238,"lng":-111.75359594711426,"phone":"(510) 825-7065","sd":"21","ssbd":"11","lsbd":"School Board Timpanogos 1"},{"vid":"1910459","name":"Tayshaun Borer","party":"Dem","address":"1206 W 3300 N, Pleasant Grove, UT 84062","precinct":"25PG01","hd":"55","v_score":"2.315214949","decile":"5","lat":40.39957091896195,"lng":-111.7580430150069,"phone":"(518) 597-4155","sd":"21","ssbd":"11","lsbd":"School Board Timpanogos 1"},{"vid":"1919061","name":"Royal Runolfsdottir","party":"","address":"888 W 2800 N, Pleasant Grove, UT 84062","precinct":"25PG01","hd":"55","v_score":"3.781490609","decile":"6","lat":40.39433079336036,"lng":-111.75376419639211,"phone":"(835) 800-6958","sd":"21","ssbd":"11","lsbd":"School Board Timpanogos 1"},{"vid":"1967808","name":"Dr. Ian Blick","party":"Rep","address":"591 W 2900 N, Pleasant Grove, UT 84062","precinct":"25PG01","hd":"55","v_score":"6.881235673","decile":"8","lat":40.39499073581834,"lng":-111.74927693133948,"phone":"(597) 052-3613","sd":"21","ssbd":"11","lsbd":"School Board Timpanogos 1"},{"vid":"1992470","name":"Cash Hammes","party":"Rep","address":"3284 N 1450 W, Pleasant Grove, UT 84062","precinct":"25PG01","hd":"55","v_score":"1.121327652","decile":"3","lat":40.39896389413555,"lng":-111.76103912857415,"phone":"(365) 720-9604","sd":"21","ssbd":"11","lsbd":"School Board Timpanogos 1"},{"vid":"2009301","name":"Elmore Yost","party":"Dem","address":"1161 W 3540 N, Pleasant Grove, UT 84062","precinct":"25PG01","hd":"55","v_score":"1.121327652","decile":"3","lat":40.40150200698645,"lng":-111.75748803444912,"phone":"(880) 710-1553","sd":"21","ssbd":"11","lsbd":"School Board Timpanogos 1"},{"vid":"2027819","name":"Ms. Risa Heidenreich","party":"Dem","address":"2784 N 1020 W, Pleasant Grove, UT 84062","precinct":"25PG01","hd":"55","v_score":"3.781490609","decile":"6","lat":40.393845996911956,"lng":-111.75529993097423,"phone":"(994) 349-9105","sd":"21","ssbd":"11","lsbd":"School Board Timpanogos 1"},{"vid":"2031644","name":"Mallory Yost","party":"Dem","address":"3632 N 1450 W, Pleasant Grove, UT 84062","precinct":"25PG01","hd":"55","v_score":"2.876042565","decile":"6","lat":40.40274713505068,"lng":-111.76112668125636,"phone":"(419) 275-1743","sd":"21","ssbd":"11","lsbd":"School Board Timpanogos 1"},{"vid":"2034558","name":"Alvena Labadie","party":"Rep","address":"3116 N 1450 W, Pleasant Grove, UT 84062","precinct":"25PG01","hd":"55","v_score":"11.54256302","decile":"9","lat":40.39724020036714,"lng":-111.7608454386835,"phone":"(228) 751-5851","sd":"21","ssbd":"11","lsbd":"School Board Timpanogos 1"},{"vid":"2037323","name":"Adriana DuBuque-Cassin","party":"","address":"688 W 3300 N, Pleasant Grove, UT 84062","precinct":"25PG01","hd":"55","v_score":"1.121327652","decile":"3","lat":40.39972874318492,"lng":-111.75117261632035,"phone":"(902) 860-6659","sd":"21","ssbd":"11","lsbd":"School Board Timpanogos 1"},{"vid":"2045438","name":"Gordon Reinger","party":"","address":"3088 N 1550 W, Pleasant Grove, UT 84062","precinct":"25PG01","hd":"55","v_score":"1.121327652","decile":"3","lat":40.39700708227406,"lng":-111.76242632374456,"phone":"(909) 258-5068","sd":"21","ssbd":"11","lsbd":"School Board Timpanogos 1"},{"vid":"2059202","name":"Birtha Bosco","party":"Dem","address":"3611 N 1590 W, Pleasant Grove, UT 84062","precinct":"25PG01","hd":"55","v_score":"1.121327652","decile":"3","lat":40.40262383569919,"lng":-111.76406642919268,"phone":"(924) 040-9631","sd":"21","ssbd":"11","lsbd":"School Board Timpanogos 1"},{"vid":"2069248","name":"Mireya Hackett DVM","party":"Dem","address":"3474 N 1270 W, Pleasant Grove, UT 84062","precinct":"25PG01","hd":"55","v_score":"3.93832808","decile":"6","lat":40.40105922207836,"lng":-111.75871971837182,"phone":"(792) 992-2831","sd":"21","ssbd":"11","lsbd":"School Board Timpanogos 1"},{"vid":"2072610","name":"Faye Brakus","party":"","address":"1508 W 2730 N, Pleasant Grove, UT 84062","precinct":"25PG01","hd":"55","v_score":"21.17591559","decile":"10","lat":40.393496572140634,"lng":-111.76238466773465,"phone":"(835) 596-4953","sd":"21","ssbd":"11","lsbd":"School Board Timpanogos 1"},{"vid":"51688750b45a72d34782c03f3325ed31a6a632bbc98f0d907129589e929902f1","name":"Hallie Christiansen-Kutch","party":"","address":"1265 W 2850 N, Pleasant Grove, UT 84062","precinct":"25PG01","hd":"55","v_score":"7.212647293","decile":"8","lat":40.394186812565025,"lng":-111.75897552316512,"phone":"(979) 902-3802","sd":"21","ssbd":"11","lsbd":"School Board Timpanogos 1"},{"vid":"2093693","name":"Coolidge Altenwerth Jr.","party":"Dem","address":"1527 W 3400 N, Pleasant Grove, UT 84062","precinct":"25PG01","hd":"55","v_score":"2.660162957","decile":"5","lat":40.40012798397492,"lng":-111.76254801027434,"phone":"(873) 337-2807","sd":"21","ssbd":"11","lsbd":"School Board Timpanogos 1"},{"vid":"2097114","name":"Peyton Barrows-Ortiz","party":"","address":"2691 N 1450 W, Pleasant Grove, UT 84062","precinct":"25PG01","hd":"55","v_score":"1.121327652","decile":"3","lat":40.39254051300668,"lng":-111.76175641171764,"phone":"(970) 878-6730","sd":"21","ssbd":"11","lsbd":"School Board Timpanogos 1"},{"vid":"2126094","name":"Codie Champlin-Kassulke","party":"Rep","address":"1567 W 3500 N, Pleasant Grove, UT 84062","precinct":"25PG01","hd":"55","v_score":"5.170447576","decile":"7","lat":40.40128667322353,"lng":-111.763161578785,"phone":"(399) 767-8484","sd":"21","ssbd":"11","lsbd":"School Board Timpanogos 1"},{"vid":"c2045f99446cf8861c1a1046b247752554dc45546135f47db9bdf437629c7f80","name":"Miss Virgie Smitham DDS","party":"","address":"414 W 2900 N, Pleasant Grove, UT 84062","precinct":"25PG01","hd":"55","v_score":"1.623113131","decile":"5","lat":40.39547392150742,"lng":-111.74698859897819,"phone":"(644) 561-2633","sd":"21","ssbd":"11","lsbd":"School Board Timpanogos 1"},{"vid":"2135068","name":"Brigitte Kutch-Beatty","party":"Dem","address":"3058 N 650 W, Pleasant Grove, UT 84062","precinct":"25PG01","hd":"55","v_score":"1.193887297","decile":"3","lat":40.3969233785298,"lng":-111.75034556530807,"phone":"(872) 989-0407","sd":"21","ssbd":"11","lsbd":"School Board Timpanogos 1"},{"vid":"2135603","name":"Travis Johns","party":"Dem","address":"993 W 2760 N, Pleasant Grove, UT 84062","precinct":"25PG01","hd":"55","v_score":"10.89289441","decile":"9","lat":40.39329443880411,"lng":-111.75511898363546,"phone":"(570) 968-4936","sd":"21","ssbd":"11","lsbd":"School Board Timpanogos 1"},{"vid":"2139640","name":"Josefina O'Keefe-Hessel","party":"","address":"3375 N 1270 W, Pleasant Grove, UT 84062","precinct":"25PG01","hd":"55","v_score":"1.193887297","decile":"3","lat":40.400058671220044,"lng":-111.75957356114444,"phone":"(583) 939-5215","sd":"21","ssbd":"11","lsbd":"School Board Timpanogos 1"},{"vid":"1be340722b0db6acb4711fd464009dea97ea94971245d5d02c4fef120163ea29","name":"Mr. Kevon Dickinson V","party":"","address":"3291 N 1650 W, Pleasant Grove, UT 84062","precinct":"25PG01","hd":"55","v_score":"5.40460374","decile":"7","lat":40.39902967238164,"lng":-111.76446761576744,"phone":"(339) 042-0030","sd":"21","ssbd":"11","lsbd":"School Board Timpanogos 1"},{"vid":"2165113","name":"Raheem Weber-Larson","party":"Dem","address":"414 W 2900 N, Pleasant Grove, UT 84062","precinct":"25PG01","hd":"55","v_score":"1.46627566","decile":"4","lat":40.39547392150742,"lng":-111.74698859897819,"phone":"(999) 935-8550","sd":"21","ssbd":"11","lsbd":"School Board Timpanogos 1"},{"vid":"97e7c2fe49fe390b831970d9d717090611bf5b5871e5880c10c7ef453b1f9e4e","name":"Lindsay Hoeger","party":"Rep","address":"3284 N 1450 W, Pleasant Grove, UT 84062","precinct":"25PG01","hd":"55","v_score":"1.46627566","decile":"4","lat":40.39896389413555,"lng":-111.76103912857415,"phone":"(646) 137-9125","sd":"21","ssbd":"11","lsbd":"School Board Timpanogos 1"},{"vid":"a3a3258de052d042b90b1649d000b4b303ed9ae70dae2d2d366aaba62df0f959","name":"Dr. Judah Auer","party":"","address":"1361 W 3540 N, Pleasant Grove, UT 84062","precinct":"25PG01","hd":"55","v_score":"1.121327652","decile":"3","lat":40.401498341733856,"lng":-111.76022863885048,"phone":"(284) 485-6634","sd":"21","ssbd":"11","lsbd":"School Board Timpanogos 1"},{"vid":"853534479d830b0bea001354662009041949c4ad38b7e05231b52714fd8923e8","name":"Miss Prudence Pouros DVM","party":"","address":"598 W 2760 N, Pleasant Grove, UT 84062","precinct":"25PG01","hd":"55","v_score":"8.2936455","decile":"8","lat":40.39400891632877,"lng":-111.74963909166877,"phone":"(758) 853-1517","sd":"21","ssbd":"11","lsbd":"School Board Timpanogos 1"},{"vid":"2d53b8534119dbe02fee92e888d92e1de35a54c6ea41a0940b0681999b2fe37d","name":"Miss Cristen Smitham","party":"","address":"3611 N 1590 W, Pleasant Grove, UT 84062","precinct":"25PG01","hd":"55","v_score":"0","decile":"1","lat":40.40262383569919,"lng":-111.76406642919268,"phone":"(887) 875-4065","sd":"21","ssbd":"11","lsbd":"School Board Timpanogos 1"},{"vid":"e997fc0bb263a05829fbf4bceea2bc6eea92b91996f69f1a01fb3637bb73918f","name":"May Gibson-Jacobi","party":"Dem","address":"1495 W 3400 N, Pleasant Grove, UT 84062","precinct":"25PG01","hd":"55","v_score":"1.193887297","decile":"3","lat":40.40010986700667,"lng":-111.76224569067061,"phone":"(961) 645-0146","sd":"21","ssbd":"11","lsbd":"School Board Timpanogos 1"},{"vid":"48b8e375dfd14f19db2e44d6adff9a761196c47de4b1553b75c09a573553d23b","name":"Izayah O'Reilly PhD","party":"Dem","address":"3568 N 1450 W, Pleasant Grove, UT 84062","precinct":"25PG01","hd":"55","v_score":"1.193887297","decile":"3","lat":40.40191895296475,"lng":-111.76123966396055,"phone":"(151) 635-5934","sd":"21","ssbd":"11","lsbd":"School Board Timpanogos 1"},{"vid":"2195751","name":"Sherie O'Kon-Schroeder","party":"Rep","address":"2969 N 1350 W, Pleasant Grove, UT 84062","precinct":"25PG01","hd":"55","v_score":"0","decile":"1","lat":40.395747635608416,"lng":-111.76010384191264,"phone":"(968) 880-7038","sd":"21","ssbd":"11","lsbd":"School Board Timpanogos 1"},{"vid":"279e0275b940eee69becd5dfd87d21bb7a2b8b6f85f2e0c81cdda290c7aada28","name":"Leonore Wyman","party":"Rep","address":"1161 W 3540 N, Pleasant Grove, UT 84062","precinct":"25PG01","hd":"55","v_score":"1.623113131","decile":"5","lat":40.40150200698645,"lng":-111.75748803444912,"phone":"(826) 487-6698","sd":"21","ssbd":"11","lsbd":"School Board Timpanogos 1"},{"vid":"88407c2f6848e4da2010ffde538878773a3fe18821e11f10780393c2fe8d2486","name":"Ms. Treva Nikolaus MD","party":"","address":"2844 N 1130 W, Pleasant Grove, UT 84062","precinct":"25PG01","hd":"55","v_score":"1.121327652","decile":"3","lat":40.39451986794784,"lng":-111.75661450505893,"phone":"(919) 831-1519","sd":"21","ssbd":"11","lsbd":"School Board Timpanogos 1"},{"vid":"2219733","name":"Long Hudson IV","party":"Rep","address":"3688 N 1270 W, Pleasant Grove, UT 84062","precinct":"25PG01","hd":"55","v_score":"7.047822616","decile":"8","lat":40.402778900957834,"lng":-111.75851460319234,"phone":"(792) 444-7401","sd":"21","ssbd":"11","lsbd":"School Board Timpanogos 1"},{"vid":"2219837","name":"Dr. Keshawn Schimmel III","party":"Dem","address":"1204 W 3420 N, Pleasant Grove, UT 84062","precinct":"25PG01","hd":"55","v_score":"3.93832808","decile":"6","lat":40.400742410936964,"lng":-111.75801853786066,"phone":"(963) 134-2797","sd":"21","ssbd":"11","lsbd":"School Board Timpanogos 1"},{"vid":"2223421","name":"Alfonse Wolff","party":"","address":"752 W 2600 N, Pleasant Grove, UT 84062","precinct":"25PG01","hd":"55","v_score":"11.54697831","decile":"9","lat":40.392227596267574,"lng":-111.75174363363898,"phone":"(380) 018-8570","sd":"21","ssbd":"11","lsbd":"School Board Timpanogos 1"},{"vid":"2229515","name":"Dr. Clint Pagac DVM","party":"Rep","address":"836 W 2900 N, Pleasant Grove, UT 84062","precinct":"25PG01","hd":"55","v_score":"6.814370645","decile":"8","lat":40.395371429156945,"lng":-111.75301178804617,"phone":"(746) 571-7393","sd":"21","ssbd":"11","lsbd":"School Board Timpanogos 1"},{"vid":"7c1a01ca0798138c291f9b4c1281ed6e49798b672d054a88a0abff1f21f019c1","name":"Hadley Leannon DVM","party":"Rep","address":"836 W 2900 N, Pleasant Grove, UT 84062","precinct":"25PG01","hd":"55","v_score":"3.93832808","decile":"6","lat":40.395371429156945,"lng":-111.75301178804617,"phone":"(948) 549-3451","sd":"21","ssbd":"11","lsbd":"School Board Timpanogos 1"},{"vid":"42fb618836f57bb54d0689459dfbc42afdf266855c847af402824915829e32c4","name":"Germaine Dickinson","party":"","address":"836 W 2900 N, Pleasant Grove, UT 84062","precinct":"25PG01","hd":"55","v_score":"6.814370645","decile":"8","lat":40.395371429156945,"lng":-111.75301178804617,"phone":"(164) 654-3861","sd":"21","ssbd":"11","lsbd":"School Board Timpanogos 1"},{"vid":"30e2b0167367800bd2b73b074ba1bd5ba1dec690dbee80dd1daafb347509fdd2","name":"Miss Ozella Bernier","party":"","address":"1356 W 3040 N, Pleasant Grove, UT 84062","precinct":"25PG01","hd":"55","v_score":"0","decile":"1","lat":40.39690987061654,"lng":-111.76002613537896,"phone":"(844) 287-3710","sd":"21","ssbd":"11","lsbd":"School Board Timpanogos 1"},{"vid":"df986d7b83054640b3afb2e3fa0b0448b53dc3e2de144567efd9816f7b33a10f","name":"Lillian Stracke","party":"","address":"391 W Millcreek Rd, Pleasant Grove, UT 84062","precinct":"25PG01","hd":"55","v_score":"0","decile":"1","lat":40.39605254076454,"lng":-111.74663060817346,"phone":"(708) 882-1305","sd":"21","ssbd":"11","lsbd":"School Board Timpanogos 1"},{"vid":"90b3ef5a183edf2bd5a9276be6f5e045b135e097bf693e11b687293fa2f8bf62","name":"Adelia Barrows","party":"Rep","address":"3511 N 1590 W, Pleasant Grove, UT 84062","precinct":"25PG01","hd":"55","v_score":"2.315214949","decile":"5","lat":40.40134499679388,"lng":-111.76396326459847,"phone":"(196) 736-6172","sd":"21","ssbd":"11","lsbd":"School Board Timpanogos 1"},{"vid":"093e55983978950882109f719d177f49fffea12541e5ed72bde6e0283b81950f","name":"Haden Windler","party":"Dem","address":"1361 W 3540 N, Pleasant Grove, UT 84062","precinct":"25PG01","hd":"55","v_score":"1.193887297","decile":"3","lat":40.401498341733856,"lng":-111.76022863885048,"phone":"(929) 621-2715","sd":"21","ssbd":"11","lsbd":"School Board Timpanogos 1"},{"vid":"f480fb9fcadb0d796c9c40e2afe3c597e5d03169f26ef4b9301b049507976177","name":"Brenden Strosin-Barton","party":"Dem","address":"803 W 2760 N, Pleasant Grove, UT 84062","precinct":"25PG01","hd":"55","v_score":"5.191257514","decile":"7","lat":40.39354983304169,"lng":-111.75248263826707,"phone":"(895) 103-1654","sd":"21","ssbd":"11","lsbd":"School Board Timpanogos 1"},{"vid":"e6564dfb59c26256551a6734d2f1fb3c4c99c9e78c7c7fef69915a64cf73e7f6","name":"Miss Marybelle Roob DDS","party":"Rep","address":"1532 W 3500 N, Pleasant Grove, UT 84062","precinct":"25PG01","hd":"55","v_score":"1.193887297","decile":"3","lat":40.40155192800078,"lng":-111.76278522774749,"phone":"(616) 608-8947","sd":"21","ssbd":"11","lsbd":"School Board Timpanogos 1"},{"vid":"2278573","name":"Scottie Weber","party":"Rep","address":"3284 N 1450 W, Pleasant Grove, UT 84062","precinct":"25PG01","hd":"55","v_score":"0","decile":"1","lat":40.39896389413555,"lng":-111.76103912857415,"phone":"(699) 886-8095","sd":"21","ssbd":"11","lsbd":"School Board Timpanogos 1"},{"vid":"d191d5ddf85f7a0b1ff1280d3776ed21826d6ecbecbba50d26a149e9e92dca57","name":"Ms. Jerica Tillman","party":"","address":"1328 W 3040 N, Pleasant Grove, UT 84062","precinct":"25PG01","hd":"55","v_score":"2.315214949","decile":"5","lat":40.3969071661251,"lng":-111.75962599101656,"phone":"(260) 175-7331","sd":"21","ssbd":"11","lsbd":"School Board Timpanogos 1"},{"vid":"8b0fedd37b7db62fc485ae270a3b02ca63e6ce4bce58c7f8f3732a624acfbbd9","name":"Cam Wuckert DDS","party":"Rep","address":"3349 N 1270 W, Pleasant Grove, UT 84062","precinct":"25PG01","hd":"55","v_score":"3.93832808","decile":"6","lat":40.399783833804584,"lng":-111.75957251802073,"phone":"(646) 996-0918","sd":"21","ssbd":"11","lsbd":"School Board Timpanogos 1"},{"vid":"1562e230ed91a4d5e7781843286b4413c4e5d69803740481b6d79f72b4061f81","name":"Antonia Krajcik PhD","party":"Rep","address":"2832 N 1550 W, Pleasant Grove, UT 84062","precinct":"25PG01","hd":"55","v_score":"2.315214949","decile":"5","lat":40.39443785090267,"lng":-111.76251533097795,"phone":"(141) 565-3590","sd":"21","ssbd":"11","lsbd":"School Board Timpanogos 1"},{"vid":"2315028","name":"Sheldon Legros","party":"","address":"3474 N 1270 W, Pleasant Grove, UT 84062","precinct":"25PG01","hd":"55","v_score":"1.121327652","decile":"3","lat":40.40105922207836,"lng":-111.75871971837182,"phone":"(671) 022-1295","sd":"21","ssbd":"11","lsbd":"School Board Timpanogos 1"},{"vid":"2320262","name":"Hung Bode","party":"","address":"3037 N 550 W, Pleasant Grove, UT 84062","precinct":"25PG01","hd":"55","v_score":"3.93832808","decile":"6","lat":40.39624361464325,"lng":-111.7495231028462,"phone":"(879) 453-4391","sd":"21","ssbd":"11","lsbd":"School Board Timpanogos 1"},{"vid":"2330286","name":"Mrs. Rylie Harvey PhD","party":"","address":"864 W 2900 N, Pleasant Grove, UT 84062","precinct":"25PG01","hd":"55","v_score":"1.121327652","decile":"3","lat":40.395191002724815,"lng":-111.75341229046295,"phone":"(983) 031-6743","sd":"21","ssbd":"11","lsbd":"School Board Timpanogos 1"},{"vid":"2330695","name":"Ivory Greenholt","party":"Rep","address":"1285 W 3150 N, Pleasant Grove, UT 84062","precinct":"25PG01","hd":"55","v_score":"3.93832808","decile":"6","lat":40.39746225900999,"lng":-111.7590675007987,"phone":"(321) 723-9938","sd":"21","ssbd":"11","lsbd":"School Board Timpanogos 1"},{"vid":"2332635","name":"Krish Beier-Crist","party":"Rep","address":"1047 W 2760 N, Pleasant Grove, UT 84062","precinct":"25PG01","hd":"55","v_score":"5.407962308","decile":"7","lat":40.39334420223251,"lng":-111.7560793736955,"phone":"(294) 936-3995","sd":"21","ssbd":"11","lsbd":"School Board Timpanogos 1"},{"vid":"2336266","name":"Lee Sauer","party":"Rep","address":"1576 W 3600 N, Pleasant Grove, UT 84062","precinct":"25PG01","hd":"55","v_score":"1.121327652","decile":"3","lat":40.40258210814449,"lng":-111.76350948390791,"phone":"(810) 379-7517","sd":"21","ssbd":"11","lsbd":"School Board Timpanogos 1"},{"vid":"2345812","name":"Ms. Alysia Hessel","party":"Rep","address":"3688 N 1270 W, Pleasant Grove, UT 84062","precinct":"25PG01","hd":"55","v_score":"1.121327652","decile":"3","lat":40.402778900957834,"lng":-111.75851460319234,"phone":"(383) 771-1949","sd":"21","ssbd":"11","lsbd":"School Board Timpanogos 1"},{"vid":"2348377","name":"Dr. Virgel Langworth","party":"","address":"1544 W 3600 N, Pleasant Grove, UT 84062","precinct":"25PG01","hd":"55","v_score":"5.243007221","decile":"7","lat":40.40264873622326,"lng":-111.76275581953394,"phone":"(558) 471-7468","sd":"21","ssbd":"11","lsbd":"School Board Timpanogos 1"},{"vid":"2354528","name":"Amaris Flatley MD","party":"","address":"3611 N 1590 W, Pleasant Grove, UT 84062","precinct":"25PG01","hd":"55","v_score":"0","decile":"1","lat":40.40262383569919,"lng":-111.76406642919268,"phone":"(249) 702-3501","sd":"21","ssbd":"11","lsbd":"School Board Timpanogos 1"},{"vid":"2355720","name":"Zack Lakin-Cormier","party":"Rep","address":"3512 N 1270 W, Pleasant Grove, UT 84062","precinct":"25PG01","hd":"55","v_score":"4.069929862","decile":"6","lat":40.40161520140153,"lng":-111.75870220095142,"phone":"(162) 832-1804","sd":"21","ssbd":"11","lsbd":"School Board Timpanogos 1"},{"vid":"2378171","name":"Dr. Michael O'Reilly","party":"Rep","address":"1328 W 3040 N, Pleasant Grove, UT 84062","precinct":"25PG01","hd":"55","v_score":"1.121327652","decile":"3","lat":40.3969071661251,"lng":-111.75962599101656,"phone":"(299) 336-7144","sd":"21","ssbd":"11","lsbd":"School Board Timpanogos 1"},{"vid":"2385266","name":"Odalis Jacobi DDS","party":"","address":"3345 N 750 W, Pleasant Grove, UT 84062","precinct":"25PG01","hd":"55","v_score":"5.170447576","decile":"7","lat":40.399538717648205,"lng":-111.75245721057213,"phone":"(678) 039-3499","sd":"21","ssbd":"11","lsbd":"School Board Timpanogos 1"},{"vid":"2385702","name":"Susie Dicki III","party":"Rep","address":"1538 W 3400 N, Pleasant Grove, UT 84062","precinct":"25PG01","hd":"55","v_score":"2.315214949","decile":"5","lat":40.40029469648191,"lng":-111.76271190052579,"phone":"(540) 349-3609","sd":"21","ssbd":"11","lsbd":"School Board Timpanogos 1"},{"vid":"2387549","name":"Ezekiel Deckow","party":"Rep","address":"1285 W 3150 N, Pleasant Grove, UT 84062","precinct":"25PG01","hd":"55","v_score":"1.121327652","decile":"3","lat":40.39746225900999,"lng":-111.7590675007987,"phone":"(347) 523-7603","sd":"21","ssbd":"11","lsbd":"School Board Timpanogos 1"},{"vid":"2390423","name":"Daisey Ernser","party":"Dem","address":"1189 W 3540 N, Pleasant Grove, UT 84062","precinct":"25PG01","hd":"55","v_score":"1.121327652","decile":"3","lat":40.40152011339175,"lng":-111.7578719293938,"phone":"(779) 180-6292","sd":"21","ssbd":"11","lsbd":"School Board Timpanogos 1"},{"vid":"2395661","name":"Hallie Bayer-Reynolds","party":"Rep","address":"1462 W 2730 N, Pleasant Grove, UT 84062","precinct":"25PG01","hd":"55","v_score":"2.744440783","decile":"5","lat":40.39351754972022,"lng":-111.76170163078487,"phone":"(980) 406-7555","sd":"21","ssbd":"11","lsbd":"School Board Timpanogos 1"},{"vid":"2397175","name":"Carmella Fahey","party":"Rep","address":"3043 N 650 W, Pleasant Grove, UT 84062","precinct":"25PG01","hd":"55","v_score":"2.315214949","decile":"5","lat":40.39659246954989,"lng":-111.75068363086952,"phone":"(530) 323-7617","sd":"21","ssbd":"11","lsbd":"School Board Timpanogos 1"},{"vid":"2401755","name":"Trina Kassulke","party":"","address":"2837 N 550 W, Pleasant Grove, UT 84062","precinct":"25PG01","hd":"55","v_score":"2.744440783","decile":"5","lat":40.39448412590221,"lng":-111.74939268471458,"phone":"(418) 644-2651","sd":"21","ssbd":"11","lsbd":"School Board Timpanogos 1"},{"vid":"2404704","name":"America Sanford","party":"Dem","address":"3688 N 1270 W, Pleasant Grove, UT 84062","precinct":"25PG01","hd":"55","v_score":"11.09694254","decile":"9","lat":40.402778900957834,"lng":-111.75851460319234,"phone":"(951) 775-2589","sd":"21","ssbd":"11","lsbd":"School Board Timpanogos 1"},{"vid":"2418035","name":"Pat Reichert","party":"Dem","address":"3007 N 650 W, Pleasant Grove, UT 84062","precinct":"25PG01","hd":"55","v_score":"2.315214949","decile":"5","lat":40.39584087642364,"lng":-111.75087134239465,"phone":"(849) 850-1064","sd":"21","ssbd":"11","lsbd":"School Board Timpanogos 1"},{"vid":"2431906","name":"Sincere Johns-Mueller","party":"Rep","address":"3611 N 1590 W, Pleasant Grove, UT 84062","precinct":"25PG01","hd":"55","v_score":"0","decile":"1","lat":40.40262383569919,"lng":-111.76406642919268,"phone":"(496) 208-1481","sd":"21","ssbd":"11","lsbd":"School Board Timpanogos 1"},{"vid":"2444917","name":"Tevin Kshlerin-Auer","party":"Dem","address":"1483 W 2850 N, Pleasant Grove, UT 84062","precinct":"25PG01","hd":"55","v_score":"1.121327652","decile":"3","lat":40.39439108232705,"lng":-111.76202595863616,"phone":"(951) 929-0754","sd":"21","ssbd":"11","lsbd":"School Board Timpanogos 1"},{"vid":"2445245","name":"Orilla Hoppe","party":"","address":"1389 W 3540 N, Pleasant Grove, UT 84062","precinct":"25PG01","hd":"55","v_score":"2.315214949","decile":"5","lat":40.40150781872959,"lng":-111.76053535088427,"phone":"(925) 165-5847","sd":"21","ssbd":"11","lsbd":"School Board Timpanogos 1"},{"vid":"2452111","name":"Jep Schneider","party":"","address":"1576 W 3600 N, Pleasant Grove, UT 84062","precinct":"25PG01","hd":"55","v_score":"8.570402431","decile":"8","lat":40.40258210814449,"lng":-111.76350948390791,"phone":"(512) 574-2328","sd":"21","ssbd":"11","lsbd":"School Board Timpanogos 1"},{"vid":"2455651","name":"Mrs. Martina Beier","party":"Dem","address":"1245 W 3150 N, Pleasant Grove, UT 84062","precinct":"25PG01","hd":"55","v_score":"1.121327652","decile":"3","lat":40.39745875080518,"lng":-111.75862349751006,"phone":"(228) 815-3468","sd":"21","ssbd":"11","lsbd":"School Board Timpanogos 1"},{"vid":"2459374","name":"Ms. Ebba Zemlak","party":"Rep","address":"2711 N 1550 W, Pleasant Grove, UT 84062","precinct":"25PG01","hd":"55","v_score":"16.04507728","decile":"9","lat":40.3932039737931,"lng":-111.76314167381365,"phone":"(562) 252-4549","sd":"21","ssbd":"11","lsbd":"School Board Timpanogos 1"},{"vid":"2464650","name":"Venus Bartoletti-Schowalter","party":"","address":"1275 W 3040 N, Pleasant Grove, UT 84062","precinct":"25PG01","hd":"55","v_score":"0","decile":"1","lat":40.39602003848326,"lng":-111.75890095886858,"phone":"(646) 030-3029","sd":"21","ssbd":"11","lsbd":"School Board Timpanogos 1"},{"vid":"2470958","name":"Billie Abbott-Cassin","party":"","address":"1369 W 3300 N, Pleasant Grove, UT 84062","precinct":"25PG01","hd":"55","v_score":"0","decile":"1","lat":40.39868633941625,"lng":-111.7597301860075,"phone":"(679) 223-7343","sd":"21","ssbd":"11","lsbd":"School Board Timpanogos 1"},{"vid":"2474490","name":"Loris Pacocha","party":"Rep","address":"775 W 2760 N, Pleasant Grove, UT 84062","precinct":"25PG01","hd":"55","v_score":"1.193887297","decile":"3","lat":40.39351887390218,"lng":-111.7521362652802,"phone":"(861) 042-4885","sd":"21","ssbd":"11","lsbd":"School Board Timpanogos 1"},{"vid":"2477243","name":"Sharron Barton","party":"Dem","address":"2737 N 1550 W, Pleasant Grove, UT 84062","precinct":"25PG01","hd":"55","v_score":"0","decile":"1","lat":40.39347520066568,"lng":-111.7632456448144,"phone":"(236) 412-0189","sd":"21","ssbd":"11","lsbd":"School Board Timpanogos 1"},{"vid":"2480893","name":"Mrs. Izabelle Veum","party":"Dem","address":"1567 W 3500 N, Pleasant Grove, UT 84062","precinct":"25PG01","hd":"55","v_score":"2.426006793","decile":"5","lat":40.40128667322353,"lng":-111.763161578785,"phone":"(502) 560-1284","sd":"21","ssbd":"11","lsbd":"School Board Timpanogos 1"},{"vid":"2482218","name":"Sena Lemke MD","party":"Rep","address":"3632 N 1450 W, Pleasant Grove, UT 84062","precinct":"25PG01","hd":"55","v_score":"0","decile":"1","lat":40.40274713505068,"lng":-111.76112668125636,"phone":"(833) 384-4007","sd":"21","ssbd":"11","lsbd":"School Board Timpanogos 1"},{"vid":"2488051","name":"Mr. Everett Bednar DDS","party":"Dem","address":"1492 W 2600 N, Pleasant Grove, UT 84062","precinct":"25PG01","hd":"55","v_score":"1.193887297","decile":"3","lat":40.392349178155875,"lng":-111.76205266144724,"phone":"(626) 242-7308","sd":"21","ssbd":"11","lsbd":"School Board Timpanogos 1"},{"vid":"2489907","name":"Corinne Ernser","party":"","address":"1495 W 3400 N, Pleasant Grove, UT 84062","precinct":"25PG01","hd":"55","v_score":"0","decile":"1","lat":40.40010986700667,"lng":-111.76224569067061,"phone":"(762) 336-8317","sd":"21","ssbd":"11","lsbd":"School Board Timpanogos 1"},{"vid":"2490036","name":"Phoenix Conn-Hyatt","party":"Dem","address":"2698 N 1550 W, Pleasant Grove, UT 84062","precinct":"25PG01","hd":"55","v_score":"0","decile":"1","lat":40.39310013037646,"lng":-111.76268715208224,"phone":"(205) 321-1464","sd":"21","ssbd":"11","lsbd":"School Board Timpanogos 1"},{"vid":"2493641","name":"Alda Koepp","party":"Dem","address":"3375 N 1270 W, Pleasant Grove, UT 84062","precinct":"25PG01","hd":"55","v_score":"6.528952915","decile":"7","lat":40.400058671220044,"lng":-111.75957356114444,"phone":"(654) 271-0333","sd":"21","ssbd":"11","lsbd":"School Board Timpanogos 1"},{"vid":"2500201","name":"Wendy Zemlak","party":"","address":"1485 W 2730 N, Pleasant Grove, UT 84062","precinct":"25PG01","hd":"55","v_score":"1.193887297","decile":"3","lat":40.393153519594755,"lng":-111.76206832977029,"phone":"(273) 386-0305","sd":"21","ssbd":"11","lsbd":"School Board Timpanogos 1"},{"vid":"2503122","name":"Tommie Heaney V","party":"","address":"1326 W 3150 N, Pleasant Grove, UT 84062","precinct":"25PG01","hd":"55","v_score":"0","decile":"1","lat":40.39807355373408,"lng":-111.75956131968047,"phone":"(668) 101-3909","sd":"21","ssbd":"11","lsbd":"School Board Timpanogos 1"},{"vid":"2510573","name":"Ramiro Kling","party":"","address":"3688 N 1270 W, Pleasant Grove, UT 84062","precinct":"25PG01","hd":"55","v_score":"7.549608095","decile":"8","lat":40.402778900957834,"lng":-111.75851460319234,"phone":"(306) 726-1529","sd":"21","ssbd":"11","lsbd":"School Board Timpanogos 1"},{"vid":"2511828","name":"Mr. Jermey Carroll","party":"Dem","address":"2832 N 1550 W, Pleasant Grove, UT 84062","precinct":"25PG01","hd":"55","v_score":"0","decile":"1","lat":40.39443785090267,"lng":-111.76251533097795,"phone":"(754) 386-8490","sd":"21","ssbd":"11","lsbd":"School Board Timpanogos 1"},{"vid":"2512039","name":"Rupert Smitham DDS","party":"Rep","address":"636 W 3100 N, Pleasant Grove, UT 84062","precinct":"25PG01","hd":"55","v_score":"4.905839784","decile":"7","lat":40.39781476297155,"lng":-111.75026220206082,"phone":"(104) 524-0341","sd":"21","ssbd":"11","lsbd":"School Board Timpanogos 1"},{"vid":"2513132","name":"Mr. Orland Bartell PhD","party":"Dem","address":"1501 W 3600 N, Pleasant Grove, UT 84062","precinct":"25PG01","hd":"55","v_score":"1.193887297","decile":"4","lat":40.402361352801606,"lng":-111.76237353643117,"phone":"(368) 843-3688","sd":"21","ssbd":"11","lsbd":"School Board Timpanogos 1"},{"vid":"2516986","name":"Lexi Rau","party":"","address":"1294 W 3150 N, Pleasant Grove, UT 84062","precinct":"25PG01","hd":"55","v_score":"7.781882349","decile":"8","lat":40.398374333179525,"lng":-111.75911825543257,"phone":"(563) 403-1160","sd":"21","ssbd":"11","lsbd":"School Board Timpanogos 1"},{"vid":"2526078","name":"Quiana O'Conner","party":"","address":"2931 N 1130 W, Pleasant Grove, UT 84062","precinct":"25PG01","hd":"55","v_score":"0","decile":"1","lat":40.395484197470374,"lng":-111.7574772097777,"phone":"(483) 417-9729","sd":"21","ssbd":"11","lsbd":"School Board Timpanogos 1"},{"vid":"2527915","name":"Karren Barton","party":"Dem","address":"1468 W 3500 N, Pleasant Grove, UT 84062","precinct":"25PG01","hd":"55","v_score":"0","decile":"1","lat":40.40154103719996,"lng":-111.76163450727842,"phone":"(760) 264-7990","sd":"21","ssbd":"11","lsbd":"School Board Timpanogos 1"},{"vid":"2541786","name":"Dr. Kirstin Brakus","party":"Dem","address":"857 W Faraday Ln, Pleasant Grove, UT 84062","precinct":"25PG01","hd":"55","v_score":"2.817000428","decile":"6","lat":40.395871250073746,"lng":-111.75326666290948,"phone":"(374) 606-8548","sd":"21","ssbd":"11","lsbd":"School Board Timpanogos 1"},{"vid":"2562663","name":"Rossie Maggio-Shanahan","party":"Dem","address":"3641 N 1150 W, Pleasant Grove, UT 84062","precinct":"25PG01","hd":"55","v_score":"0","decile":"1","lat":40.402323037099194,"lng":-111.75761521732254,"phone":"(105) 090-4268","sd":"21","ssbd":"11","lsbd":"School Board Timpanogos 1"},{"vid":"2589820","name":"Ida Stokes-Braun","party":"","address":"1499 W 3500 N, Pleasant Grove, UT 84062","precinct":"25PG01","hd":"55","v_score":"0","decile":"1","lat":40.401013882843806,"lng":-111.76230095837978,"phone":"(463) 892-7353","sd":"21","ssbd":"11","lsbd":"School Board Timpanogos 1"},{"vid":"2590261","name":"Annetta Collier","party":"Rep","address":"1047 W 2760 N, Pleasant Grove, UT 84062","precinct":"25PG01","hd":"55","v_score":"9.119914795","decile":"8","lat":40.39334420223251,"lng":-111.7560793736955,"phone":"(794) 691-5323","sd":"21","ssbd":"11","lsbd":"School Board Timpanogos 1"},{"vid":"2598073","name":"Mr. Jerome Hyatt Jr.","party":"Rep","address":"1047 W 2760 N, Pleasant Grove, UT 84062","precinct":"25PG01","hd":"55","v_score":"0","decile":"1","lat":40.39334420223251,"lng":-111.7560793736955,"phone":"(664) 337-1990","sd":"21","ssbd":"11","lsbd":"School Board Timpanogos 1"},{"vid":"2598182","name":"Kaitlin Hayes","party":"","address":"1544 W 3600 N, Pleasant Grove, UT 84062","precinct":"25PG01","hd":"55","v_score":"5.407962308","decile":"7","lat":40.40264873622326,"lng":-111.76275581953394,"phone":"(434) 602-9292","sd":"21","ssbd":"11","lsbd":"School Board Timpanogos 1"},{"vid":"2610222","name":"Dorsey Bahringer V","party":"Rep","address":"1262 W 3150 N, Pleasant Grove, UT 84062","precinct":"25PG01","hd":"55","v_score":"0","decile":"1","lat":40.398019968993474,"lng":-111.7585912249153,"phone":"(779) 483-1384","sd":"21","ssbd":"11","lsbd":"School Board Timpanogos 1"},{"vid":"2610350","name":"Dr. Rosamond Pfannerstill MD","party":"","address":"621 W 2760 N, Pleasant Grove, UT 84062","precinct":"25PG01","hd":"55","v_score":"0","decile":"1","lat":40.393380242173855,"lng":-111.7499777542851,"phone":"(640) 489-5008","sd":"21","ssbd":"11","lsbd":"School Board Timpanogos 1"},{"vid":"2630298","name":"Myrtie Fisher-Kihn","party":"Rep","address":"1211 W 2850 N, Pleasant Grove, UT 84062","precinct":"25PG01","hd":"55","v_score":"1.193887297","decile":"4","lat":40.39422186153168,"lng":-111.75817485359207,"phone":"(406) 381-3314","sd":"21","ssbd":"11","lsbd":"School Board Timpanogos 1"},{"vid":"2637738","name":"Dr. Westley Runolfsdottir","party":"Rep","address":"796 W 3000 N, Pleasant Grove, UT 84062","precinct":"25PG01","hd":"55","v_score":"1.623113131","decile":"5","lat":40.396266097395404,"lng":-111.75208216124894,"phone":"(646) 373-9989","sd":"21","ssbd":"11","lsbd":"School Board Timpanogos 1"},{"vid":"2645020","name":"Dr. Kory Zieme DVM","party":"Dem","address":"2785 N 1450 W, Pleasant Grove, UT 84062","precinct":"25PG01","hd":"55","v_score":"2.817000428","decile":"6","lat":40.39388194757648,"lng":-111.76185092226234,"phone":"(504) 708-6631","sd":"21","ssbd":"11","lsbd":"School Board Timpanogos 1"},{"vid":"2658883","name":"Benji Carter-Hodkiewicz","party":"Rep","address":"2844 N 1130 W, Pleasant Grove, UT 84062","precinct":"25PG01","hd":"55","v_score":"1.193887297","decile":"4","lat":40.39451986794784,"lng":-111.75661450505893,"phone":"(197) 222-2037","sd":"21","ssbd":"11","lsbd":"School Board Timpanogos 1"},{"vid":"2661163","name":"Miss Reba Bernier","party":"","address":"3008 N 1450 W, Pleasant Grove, UT 84062","precinct":"25PG01","hd":"55","v_score":"0","decile":"1","lat":40.3963043911053,"lng":-111.76107917546804,"phone":"(182) 477-7625","sd":"21","ssbd":"11","lsbd":"School Board Timpanogos 1"},{"vid":"2662811","name":"Pamala Nicolas","party":"","address":"1463 W 3400 N, Pleasant Grove, UT 84062","precinct":"25PG01","hd":"55","v_score":"0","decile":"1","lat":40.40009300347018,"lng":-111.76163935738843,"phone":"(315) 645-2930","sd":"21","ssbd":"11","lsbd":"School Board Timpanogos 1"},{"vid":"2664646","name":"Silvio O'Conner","party":"","address":"3632 N 1450 W, Pleasant Grove, UT 84062","precinct":"25PG01","hd":"55","v_score":"2.876042565","decile":"6","lat":40.40274713505068,"lng":-111.76112668125636,"phone":"(840) 250-6432","sd":"21","ssbd":"11","lsbd":"School Board Timpanogos 1"},{"vid":"2667180","name":"Mr. Early Mosciski I","party":"","address":"1485 W 2730 N, Pleasant Grove, UT 84062","precinct":"25PG01","hd":"55","v_score":"4.732607667","decile":"7","lat":40.393153519594755,"lng":-111.76206832977029,"phone":"(516) 702-3074","sd":"21","ssbd":"11","lsbd":"School Board Timpanogos 1"},{"vid":"2668124","name":"Ridge Balistreri","party":"Rep","address":"1501 W 3600 N, Pleasant Grove, UT 84062","precinct":"25PG01","hd":"55","v_score":"0","decile":"1","lat":40.402361352801606,"lng":-111.76237353643117,"phone":"(338) 570-5534","sd":"21","ssbd":"11","lsbd":"School Board Timpanogos 1"},{"vid":"2670710","name":"Shanon Armstrong","party":"","address":"3443 N 1270 W, Pleasant Grove, UT 84062","precinct":"25PG01","hd":"55","v_score":"1.193887297","decile":"4","lat":40.40066016446388,"lng":-111.75927418054225,"phone":"(821) 936-2642","sd":"21","ssbd":"11","lsbd":"School Board Timpanogos 1"},{"vid":"2678727","name":"Gilmore Rath Sr.","party":"","address":"3008 N 1450 W, Pleasant Grove, UT 84062","precinct":"25PG01","hd":"55","v_score":"0","decile":"2","lat":40.3963043911053,"lng":-111.76107917546804,"phone":"(223) 900-0024","sd":"21","ssbd":"11","lsbd":"School Board Timpanogos 1"},{"vid":"2681559","name":"Shreya Heller","party":"Rep","address":"1532 W 3500 N, Pleasant Grove, UT 84062","precinct":"25PG01","hd":"55","v_score":"0","decile":"2","lat":40.40155192800078,"lng":-111.76278522774749,"phone":"(185) 168-0986","sd":"21","ssbd":"11","lsbd":"School Board Timpanogos 1"},{"vid":"2686942","name":"Khadijah Keebler","party":"","address":"1302 W 3040 N, Pleasant Grove, UT 84062","precinct":"25PG01","hd":"55","v_score":"0","decile":"2","lat":40.396866591534376,"lng":-111.75928656899444,"phone":"(314) 303-3529","sd":"21","ssbd":"11","lsbd":"School Board Timpanogos 1"},{"vid":"2690156","name":"Caroline Weber PhD","party":"","address":"3227 N 1650 W, Pleasant Grove, UT 84062","precinct":"25PG01","hd":"55","v_score":"0","decile":"2","lat":40.398331681622814,"lng":-111.7646785789266,"phone":"(315) 670-6109","sd":"21","ssbd":"11","lsbd":"School Board Timpanogos 1"},{"vid":"2713136","name":"Tessa Jacobi","party":"Dem","address":"1265 W 2850 N, Pleasant Grove, UT 84062","precinct":"25PG01","hd":"55","v_score":"7.781882349","decile":"8","lat":40.394186812565025,"lng":-111.75897552316512,"phone":"(384) 784-8953","sd":"21","ssbd":"11","lsbd":"School Board Timpanogos 1"},{"vid":"2715373","name":"Dr. Brodie Considine II","party":"Dem","address":"3167 N 1650 W, Pleasant Grove, UT 84062","precinct":"25PG01","hd":"55","v_score":"1.193887297","decile":"4","lat":40.397695581585545,"lng":-111.76455167554339,"phone":"(874) 600-5154","sd":"21","ssbd":"11","lsbd":"School Board Timpanogos 1"},{"vid":"2717030","name":"Evita Flatley","party":"Dem","address":"1179 W 3420 N, Pleasant Grove, UT 84062","precinct":"25PG01","hd":"55","v_score":"2.876042565","decile":"6","lat":40.40032494919109,"lng":-111.75770645976348,"phone":"(983) 091-3565","sd":"21","ssbd":"11","lsbd":"School Board Timpanogos 1"},{"vid":"2724162","name":"Dr. Grover Barton","party":"Rep","address":"1464 W 3400 N, Pleasant Grove, UT 84062","precinct":"25PG01","hd":"55","v_score":"0","decile":"2","lat":40.400532059194596,"lng":-111.76165192487186,"phone":"(494) 148-9134","sd":"21","ssbd":"11","lsbd":"School Board Timpanogos 1"},{"vid":"2725254","name":"Dr. Daquan Lindgren Sr.","party":"","address":"2992 N 1350 W, Pleasant Grove, UT 84062","precinct":"25PG01","hd":"55","v_score":"0","decile":"2","lat":40.395973513242026,"lng":-111.75961583498238,"phone":"(348) 692-1997","sd":"21","ssbd":"11","lsbd":"School Board Timpanogos 1"},{"vid":"2725827","name":"Dr. Pascal Considine","party":"","address":"2651 N 1550 W, Pleasant Grove, UT 84062","precinct":"25PG01","hd":"55","v_score":"0","decile":"2","lat":40.392559682056515,"lng":-111.76314180248512,"phone":"(936) 214-5286","sd":"21","ssbd":"11","lsbd":"School Board Timpanogos 1"},{"vid":"2729419","name":"Dr. Cyril Hoppe II","party":"","address":"3088 N 1550 W, Pleasant Grove, UT 84062","precinct":"25PG01","hd":"55","v_score":"0","decile":"2","lat":40.39700708227406,"lng":-111.76242632374456,"phone":"(586) 016-1212","sd":"21","ssbd":"11","lsbd":"School Board Timpanogos 1"},{"vid":"2731608","name":"Braxton Yundt","party":"","address":"752 W 2600 N, Pleasant Grove, UT 84062","precinct":"25PG01","hd":"55","v_score":"1.193887297","decile":"4","lat":40.392227596267574,"lng":-111.75174363363898,"phone":"(272) 194-3008","sd":"21","ssbd":"11","lsbd":"School Board Timpanogos 1"},{"vid":"2733002","name":"Margy Kulas","party":"Rep","address":"3116 N 1450 W, Pleasant Grove, UT 84062","precinct":"25PG01","hd":"55","v_score":"7.331846577","decile":"8","lat":40.39724020036714,"lng":-111.7608454386835,"phone":"(760) 219-7191","sd":"21","ssbd":"11","lsbd":"School Board Timpanogos 1"},{"vid":"2741106","name":"Britny Marks","party":"Dem","address":"652 W 3300 N, Pleasant Grove, UT 84062","precinct":"25PG01","hd":"55","v_score":"0","decile":"2","lat":40.39973118119563,"lng":-111.75077778034252,"phone":"(815) 676-2578","sd":"21","ssbd":"11","lsbd":"School Board Timpanogos 1"},{"vid":"2744538","name":"Miss Lilah Stroman","party":"Dem","address":"2735 N 900 W, Pleasant Grove, UT 84062","precinct":"25PG01","hd":"55","v_score":"0","decile":"2","lat":40.39348119520149,"lng":-111.75426270598638,"phone":"(714) 089-4818","sd":"21","ssbd":"11","lsbd":"School Board Timpanogos 1"},{"vid":"2757989","name":"Janie Stark","party":"Rep","address":"3284 N 1450 W, Pleasant Grove, UT 84062","precinct":"25PG01","hd":"55","v_score":"1.193887297","decile":"4","lat":40.39896389413555,"lng":-111.76103912857415,"phone":"(263) 337-9687","sd":"21","ssbd":"11","lsbd":"School Board Timpanogos 1"},{"vid":"2760200","name":"Stonewall Bogisich","party":"Rep","address":"1432 W 3040 N, Pleasant Grove, UT 84062","precinct":"25PG01","hd":"55","v_score":"0","decile":"2","lat":40.39668569848566,"lng":-111.76114374583993,"phone":"(347) 012-5179","sd":"21","ssbd":"11","lsbd":"School Board Timpanogos 1"},{"vid":"2760766","name":"Dr. Edythe Kirlin DVM","party":"Rep","address":"1663 W 3040 N, Pleasant Grove, UT 84062","precinct":"25PG01","hd":"55","v_score":"0","decile":"2","lat":40.39573403908063,"lng":-111.76424656626057,"phone":"(634) 307-9658","sd":"21","ssbd":"11","lsbd":"School Board Timpanogos 1"},{"vid":"2773635","name":"Collin Hansen","party":"Rep","address":"3611 N 1590 W, Pleasant Grove, UT 84062","precinct":"25PG01","hd":"55","v_score":"0","decile":"2","lat":40.40262383569919,"lng":-111.76406642919268,"phone":"(900) 081-9983","sd":"21","ssbd":"11","lsbd":"School Board Timpanogos 1"},{"vid":"2779955","name":"Mr. Atha Tremblay PhD","party":"","address":"816 W 3100 N, Pleasant Grove, UT 84062","precinct":"25PG01","hd":"55","v_score":"0","decile":"2","lat":40.397955456560496,"lng":-111.75209254447134,"phone":"(373) 761-7414","sd":"21","ssbd":"11","lsbd":"School Board Timpanogos 1"},{"vid":"2782511","name":"Arly Mohr","party":"","address":"838 W 3300 N, Pleasant Grove, UT 84062","precinct":"25PG01","hd":"55","v_score":"1.193887297","decile":"4","lat":40.3996164773412,"lng":-111.75335845887376,"phone":"(418) 821-1431","sd":"21","ssbd":"11","lsbd":"School Board Timpanogos 1"},{"vid":"2784675","name":"Ismael Schuster-Stanton","party":"Rep","address":"2784 N 1020 W, Pleasant Grove, UT 84062","precinct":"25PG01","hd":"55","v_score":"0","decile":"2","lat":40.393845996911956,"lng":-111.75529993097423,"phone":"(833) 228-3368","sd":"21","ssbd":"11","lsbd":"School Board Timpanogos 1"},{"vid":"2786732","name":"Zillah Reilly","party":"Dem","address":"3039 N Cullen Ct, Pleasant Grove, UT 84062","precinct":"25PG01","hd":"55","v_score":"4.069929862","decile":"7","lat":40.396794964880954,"lng":-111.753507497508,"phone":"(504) 408-3990","sd":"21","ssbd":"11","lsbd":"School Board Timpanogos 1"},{"vid":"2789812","name":"Hayward Stiedemann","party":"Rep","address":"2837 N 550 W, Pleasant Grove, UT 84062","precinct":"25PG01","hd":"55","v_score":"0","decile":"2","lat":40.39448412590221,"lng":-111.74939268471458,"phone":"(695) 594-0537","sd":"21","ssbd":"11","lsbd":"School Board Timpanogos 1"},{"vid":"2794784","name":"Finley Schuppe-Miller","party":"Dem","address":"1501 W 3600 N, Pleasant Grove, UT 84062","precinct":"25PG01","hd":"55","v_score":"0","decile":"2","lat":40.402361352801606,"lng":-111.76237353643117,"phone":"(823) 360-1049","sd":"21","ssbd":"11","lsbd":"School Board Timpanogos 1"},{"vid":"2796474","name":"Darian Boyer","party":"","address":"3039 N Cullen Ct, Pleasant Grove, UT 84062","precinct":"25PG01","hd":"55","v_score":"1.193887297","decile":"4","lat":40.396794964880954,"lng":-111.753507497508,"phone":"(852) 872-9648","sd":"21","ssbd":"11","lsbd":"School Board Timpanogos 1"},{"vid":"2804390","name":"Kane Jacobson","party":"","address":"1206 W 3300 N, Pleasant Grove, UT 84062","precinct":"25PG01","hd":"55","v_score":"1.193887297","decile":"4","lat":40.39957091896195,"lng":-111.7580430150069,"phone":"(519) 435-3570","sd":"21","ssbd":"11","lsbd":"School Board Timpanogos 1"},{"vid":"2806157","name":"Abdul Connelly","party":"Rep","address":"2737 N 1550 W, Pleasant Grove, UT 84062","precinct":"25PG01","hd":"55","v_score":"0","decile":"2","lat":40.39347520066568,"lng":-111.7632456448144,"phone":"(785) 624-6817","sd":"21","ssbd":"11","lsbd":"School Board Timpanogos 1"},{"vid":"2813246","name":"Ed Schumm","party":"Dem","address":"777 W 3100 N, Pleasant Grove, UT 84062","precinct":"25PG01","hd":"55","v_score":"0","decile":"2","lat":40.39751353448905,"lng":-111.75157735610478,"phone":"(386) 678-5362","sd":"21","ssbd":"11","lsbd":"School Board Timpanogos 1"},{"vid":"2818855","name":"Mrs. Nautica Sanford DVM","party":"","address":"3478 N 1450 W, Pleasant Grove, UT 84062","precinct":"25PG01","hd":"55","v_score":"0","decile":"2","lat":40.40111847701662,"lng":-111.7610547975583,"phone":"(455) 628-0118","sd":"21","ssbd":"11","lsbd":"School Board Timpanogos 1"},{"vid":"2819035","name":"Lucille Renner","party":"Dem","address":"776 W 2760 N, Pleasant Grove, UT 84062","precinct":"25PG01","hd":"55","v_score":"1.193887297","decile":"4","lat":40.39394297374908,"lng":-111.7522671996065,"phone":"(169) 216-8723","sd":"21","ssbd":"11","lsbd":"School Board Timpanogos 1"},{"vid":"2825591","name":"Dr. Adamaris Kuphal","party":"Dem","address":"1596 W 3250 N, Pleasant Grove, UT 84062","precinct":"25PG01","hd":"55","v_score":"0","decile":"2","lat":40.398919989453034,"lng":-111.7633926540721,"phone":"(438) 911-9085","sd":"21","ssbd":"11","lsbd":"School Board Timpanogos 1"},{"vid":"2828666","name":"Ms. Melinda Balistreri","party":"Dem","address":"688 W 3300 N, Pleasant Grove, UT 84062","precinct":"25PG01","hd":"55","v_score":"1.193887297","decile":"4","lat":40.39972874318492,"lng":-111.75117261632035,"phone":"(695) 614-7240","sd":"21","ssbd":"11","lsbd":"School Board Timpanogos 1"},{"vid":"2833073","name":"Nira Lubowitz","party":"Rep","address":"1463 W 3400 N, Pleasant Grove, UT 84062","precinct":"25PG01","hd":"55","v_score":"1.193887297","decile":"4","lat":40.40009300347018,"lng":-111.76163935738843,"phone":"(404) 729-5232","sd":"21","ssbd":"11","lsbd":"School Board Timpanogos 1"},{"vid":"2854194","name":"Hallie Nicolas","party":"","address":"3222 N 1550 W, Pleasant Grove, UT 84062","precinct":"25PG01","hd":"55","v_score":"1.193887297","decile":"4","lat":40.39846471240352,"lng":-111.76253618353887,"phone":"(140) 892-6417","sd":"21","ssbd":"11","lsbd":"School Board Timpanogos 1"},{"vid":"2856037","name":"Hillery Rowe-Batz","party":"Rep","address":"3598 N 1450 W, Pleasant Grove, UT 84062","precinct":"25PG01","hd":"55","v_score":"1.193887297","decile":"4","lat":40.4023907833488,"lng":-111.76112324933266,"phone":"(981) 913-0150","sd":"21","ssbd":"11","lsbd":"School Board Timpanogos 1"},{"vid":"2871601","name":"Marylee Tremblay","party":"","address":"3067 N 550 W, Pleasant Grove, UT 84062","precinct":"25PG01","hd":"55","v_score":"1.193887297","decile":"4","lat":40.39727627922214,"lng":-111.7497974454855,"phone":"(815) 128-9697","sd":"21","ssbd":"11","lsbd":"School Board Timpanogos 1"},{"vid":"2884817","name":"Spurgeon Sipes DDS","party":"","address":"3197 N 1550 W, Pleasant Grove, UT 84062","precinct":"25PG01","hd":"55","v_score":"5.83359168","decile":"7","lat":40.398001024333624,"lng":-111.76313144985896,"phone":"(448) 091-4732","sd":"21","ssbd":"11","lsbd":"School Board Timpanogos 1"},{"vid":"2908303","name":"Adamaris Rath MD","party":"","address":"2848 N 1020 W, Pleasant Grove, UT 84062","precinct":"25PG01","hd":"55","v_score":"0","decile":"2","lat":40.39466222790424,"lng":-111.75555049184075,"phone":"(102) 010-9085","sd":"21","ssbd":"11","lsbd":"School Board Timpanogos 1"},{"vid":"2927292","name":"Elle Parisian","party":"Rep","address":"1495 W 3400 N, Pleasant Grove, UT 84062","precinct":"25PG01","hd":"55","v_score":"0","decile":"2","lat":40.40010986700667,"lng":-111.76224569067061,"phone":"(574) 422-3728","sd":"21","ssbd":"11","lsbd":"School Board Timpanogos 1"},{"vid":"2950887","name":"Kori Bergstrom-Cartwright","party":"Dem","address":"2784 N 1020 W, Pleasant Grove, UT 84062","precinct":"25PG01","hd":"55","v_score":"0","decile":"2","lat":40.393845996911956,"lng":-111.75529993097423,"phone":"(272) 014-1292","sd":"21","ssbd":"11","lsbd":"School Board Timpanogos 1"},{"vid":"2959262","name":"Vina Osinski","party":"Rep","address":"1262 W 3150 N, Pleasant Grove, UT 84062","precinct":"25PG01","hd":"55","v_score":"0","decile":"2","lat":40.398019968993474,"lng":-111.7585912249153,"phone":"(539) 578-7888","sd":"21","ssbd":"11","lsbd":"School Board Timpanogos 1"},{"vid":"2959841","name":"Asbury Kling","party":"","address":"1365 W 3420 N, Pleasant Grove, UT 84062","precinct":"25PG01","hd":"55","v_score":"0","decile":"2","lat":40.40045696778307,"lng":-111.76044088816795,"phone":"(556) 254-3972","sd":"21","ssbd":"11","lsbd":"School Board Timpanogos 1"},{"vid":"2965983","name":"Rodrick Turcotte","party":"Dem","address":"1275 W 3040 N, Pleasant Grove, UT 84062","precinct":"25PG01","hd":"55","v_score":"0","decile":"2","lat":40.39602003848326,"lng":-111.75890095886858,"phone":"(213) 883-1613","sd":"21","ssbd":"11","lsbd":"School Board Timpanogos 1"},{"vid":"2966317","name":"Durwood Graham-Parker","party":"Rep","address":"1463 W 3400 N, Pleasant Grove, UT 84062","precinct":"25PG01","hd":"55","v_score":"0","decile":"2","lat":40.40009300347018,"lng":-111.76163935738843,"phone":"(821) 962-4127","sd":"21","ssbd":"11","lsbd":"School Board Timpanogos 1"},{"vid":"2981850","name":"Mrs. Alida Gusikowski","party":"","address":"1328 W 3040 N, Pleasant Grove, UT 84062","precinct":"25PG01","hd":"55","v_score":"0","decile":"2","lat":40.3969071661251,"lng":-111.75962599101656,"phone":"(190) 725-8429","sd":"21","ssbd":"11","lsbd":"School Board Timpanogos 1"},{"vid":"3001974","name":"Desiree Kirlin-Padberg","party":"","address":"752 W 2600 N, Pleasant Grove, UT 84062","precinct":"25PG01","hd":"55","v_score":"2.315214949","decile":"5","lat":40.392227596267574,"lng":-111.75174363363898,"phone":"(389) 572-0233","sd":"21","ssbd":"11","lsbd":"School Board Timpanogos 1"},{"vid":"3060245","name":"Shanell Brown PhD","party":"","address":"2832 N 1550 W, Pleasant Grove, UT 84062","precinct":"25PG01","hd":"55","v_score":"2.315214949","decile":"5","lat":40.39443785090267,"lng":-111.76251533097795,"phone":"(188) 597-4367","sd":"21","ssbd":"11","lsbd":"School Board Timpanogos 1"},{"vid":"3067878","name":"Darleen Schumm","party":"Dem","address":"864 W 3100 N, Pleasant Grove, UT 84062","precinct":"25PG01","hd":"55","v_score":"2.587603312","decile":"5","lat":40.39786565030991,"lng":-111.75308773251861,"phone":"(974) 878-6392","sd":"21","ssbd":"11","lsbd":"School Board Timpanogos 1"},{"vid":"3140396","name":"Fredric Dickinson","party":"Rep","address":"3008 N 1450 W, Pleasant Grove, UT 84062","precinct":"25PG01","hd":"55","v_score":"0","decile":"2","lat":40.3963043911053,"lng":-111.76107917546804,"phone":"(175) 417-5458","sd":"21","ssbd":"11","lsbd":"School Board Timpanogos 1"},{"vid":"3264916","name":"Carole Runolfsdottir-Beier","party":"Dem","address":"522 W 2900 N, Pleasant Grove, UT 84062","precinct":"25PG01","hd":"55","v_score":"1.193887297","decile":"4","lat":40.395339664262686,"lng":-111.74874343517311,"phone":"(619) 841-4999","sd":"21","ssbd":"11","lsbd":"School Board Timpanogos 1"},{"vid":"3312036","name":"Arely Zulauf","party":"Dem","address":"1475 W 3040 N, Pleasant Grove, UT 84062","precinct":"25PG01","hd":"55","v_score":"5.407962308","decile":"7","lat":40.3963357426532,"lng":-111.76158480055537,"phone":"(910) 159-5308","sd":"21","ssbd":"11","lsbd":"School Board Timpanogos 1"},{"vid":"3425833","name":"Royce Morar-Rath","party":"Dem","address":"688 W 2760 N, Pleasant Grove, UT 84062","precinct":"25PG01","hd":"55","v_score":"5.40460374","decile":"7","lat":40.39404863714267,"lng":-111.75095345793375,"phone":"(484) 335-8175","sd":"21","ssbd":"11","lsbd":"School Board Timpanogos 1"},{"vid":"3425937","name":"Dr. Octa Veum","party":"Dem","address":"688 W 2760 N, Pleasant Grove, UT 84062","precinct":"25PG01","hd":"55","v_score":"5.40460374","decile":"7","lat":40.39404863714267,"lng":-111.75095345793375,"phone":"(639) 316-4713","sd":"21","ssbd":"11","lsbd":"School Board Timpanogos 1"},{"vid":"3461066","name":"Kaylen Stroman DVM","party":"Rep","address":"3088 N 1550 W, Pleasant Grove, UT 84062","precinct":"25PG01","hd":"55","v_score":"3.93832808","decile":"6","lat":40.39700708227406,"lng":-111.76242632374456,"phone":"(634) 489-2386","sd":"21","ssbd":"11","lsbd":"School Board Timpanogos 1"},{"vid":"3508374","name":"Celesta Gislason","party":"","address":"697 W 2900 N, Pleasant Grove, UT 84062","precinct":"25PG01","hd":"55","v_score":"8.280646305","decile":"8","lat":40.39449701282939,"lng":-111.75096411410897,"phone":"(820) 818-3335","sd":"21","ssbd":"11","lsbd":"School Board Timpanogos 1"},{"vid":"3508411","name":"Dillon Collins","party":"Dem","address":"1361 W 3540 N, Pleasant Grove, UT 84062","precinct":"25PG01","hd":"55","v_score":"7.282185415","decile":"8","lat":40.401498341733856,"lng":-111.76022863885048,"phone":"(397) 438-4197","sd":"21","ssbd":"11","lsbd":"School Board Timpanogos 1"},{"vid":"3562228","name":"Douglas Dare","party":"Rep","address":"1358 W 3150 N, Pleasant Grove, UT 84062","precinct":"25PG01","hd":"55","v_score":"7.086759008","decile":"8","lat":40.39808481715484,"lng":-111.7598687440209,"phone":"(484) 052-2782","sd":"21","ssbd":"11","lsbd":"School Board Timpanogos 1"},{"vid":"3589352","name":"Mignon Welch","party":"Rep","address":"2698 N 1550 W, Pleasant Grove, UT 84062","precinct":"25PG01","hd":"55","v_score":"1.193887297","decile":"4","lat":40.39310013037646,"lng":-111.76268715208224,"phone":"(460) 462-4746","sd":"21","ssbd":"11","lsbd":"School Board Timpanogos 1"},{"vid":"4306728","name":"Dr. Dallas Brown","party":"Rep","address":"3227 N 1650 W, Pleasant Grove, UT 84062","precinct":"25PG01","hd":"55","v_score":"2.998909327","decile":"6","lat":40.398331681622814,"lng":-111.7646785789266,"phone":"(463) 182-2247","sd":"21","ssbd":"11","lsbd":"School Board Timpanogos 1"},{"vid":"5857554","name":"Earlean Shanahan-VonRueden","party":"","address":"3073 N 1650 W, Pleasant Grove, UT 84062","precinct":"25PG01","hd":"55","v_score":"4.069929862","decile":"7","lat":40.39681883914708,"lng":-111.7645475154453,"phone":"(981) 310-8490","sd":"21","ssbd":"11","lsbd":"School Board Timpanogos 1"},{"vid":"5865906","name":"Deja Grady","party":"Rep","address":"743 W 2760 N, Pleasant Grove, UT 84062","precinct":"25PG01","hd":"55","v_score":"11.36410258","decile":"9","lat":40.39337690386351,"lng":-111.75174194123863,"phone":"(737) 151-0340","sd":"21","ssbd":"11","lsbd":"School Board Timpanogos 1"},{"vid":"5932501","name":"Alethea Steuber DDS","party":"","address":"3212 N 1550 W, Pleasant Grove, UT 84062","precinct":"25PG01","hd":"55","v_score":"8.363183621","decile":"8","lat":40.39820578247918,"lng":-111.76236968409752,"phone":"(983) 164-4988","sd":"21","ssbd":"11","lsbd":"School Board Timpanogos 1"},{"vid":"6153139","name":"Dr. Arvil Hammes II","party":"","address":"697 W 2900 N, Pleasant Grove, UT 84062","precinct":"25PG01","hd":"55","v_score":"8.280646305","decile":"8","lat":40.39449701282939,"lng":-111.75096411410897,"phone":"(354) 833-3730","sd":"21","ssbd":"11","lsbd":"School Board Timpanogos 1"},{"vid":"6166459","name":"Deron Lakin-Keeling","party":"","address":"3065 N Adams Way, Pleasant Grove, UT 84062","precinct":"25PG01","hd":"55","v_score":"38.00020808","decile":"10","lat":40.39712171258327,"lng":-111.75233903955025,"phone":"(824) 461-5091","sd":"21","ssbd":"11","lsbd":"School Board Timpanogos 1"},{"vid":"6171292","name":"Marcie Lowe","party":"Dem","address":"1047 W 2760 N, Pleasant Grove, UT 84062","precinct":"25PG01","hd":"55","v_score":"14.74039814","decile":"9","lat":40.39334420223251,"lng":-111.7560793736955,"phone":"(787) 493-6387","sd":"21","ssbd":"11","lsbd":"School Board Timpanogos 1"},{"vid":"6172750","name":"Ollie Collier","party":"Rep","address":"1499 W 3500 N, Pleasant Grove, UT 84062","precinct":"25PG01","hd":"55","v_score":"2.315214949","decile":"5","lat":40.401013882843806,"lng":-111.76230095837978,"phone":"(638) 807-3338","sd":"21","ssbd":"11","lsbd":"School Board Timpanogos 1"},{"vid":"6207270","name":"Nelie Rutherford","party":"Dem","address":"1434 W 3300 N, Pleasant Grove, UT 84062","precinct":"25PG01","hd":"55","v_score":"34.18580567","decile":"10","lat":40.399610786952245,"lng":-111.76021874878849,"phone":"(643) 792-9255","sd":"21","ssbd":"11","lsbd":"School Board Timpanogos 1"},{"vid":"d07b2b633c458418464359333bdb8336bbe23deccab85d9256dbf9c2045c320a","name":"Macey Steuber-Wunsch","party":"Rep","address":"3037 N 550 W, Pleasant Grove, UT 84062","precinct":"25PG01","hd":"55","v_score":"32.354273739999996","decile":"10","lat":40.39624361464325,"lng":-111.7495231028462,"phone":"(839) 381-3458","sd":"21","ssbd":"11","lsbd":"School Board Timpanogos 1"},{"vid":"6211224","name":"Kaylah Pouros","party":"","address":"1368 W 2600 N, Pleasant Grove, UT 84062","precinct":"25PG01","hd":"55","v_score":"5.40460374","decile":"7","lat":40.392544171845564,"lng":-111.76008056490092,"phone":"(502) 593-9243","sd":"21","ssbd":"11","lsbd":"School Board Timpanogos 1"},{"vid":"6215636","name":"Tristan Hayes","party":"Rep","address":"2681 N 1550 W, Pleasant Grove, UT 84062","precinct":"25PG01","hd":"55","v_score":"36.52229901","decile":"10","lat":40.39284754979645,"lng":-111.76316441564772,"phone":"(284) 801-2729","sd":"21","ssbd":"11","lsbd":"School Board Timpanogos 1"},{"vid":"4f27406f4e633d26d447c65d56cafacbbc5dd1610442e03ac7dd91cd09dd0639","name":"Josef Hessel","party":"","address":"3027 N 650 W, Pleasant Grove, UT 84062","precinct":"25PG01","hd":"55","v_score":"2.744440783","decile":"6","lat":40.396204883980246,"lng":-111.75087827056144,"phone":"(281) 243-8970","sd":"21","ssbd":"11","lsbd":"School Board Timpanogos 1"},{"vid":"6225933","name":"Icey Wuckert","party":"","address":"3349 N 1270 W, Pleasant Grove, UT 84062","precinct":"25PG01","hd":"55","v_score":"6.814370645","decile":"8","lat":40.399783833804584,"lng":-111.75957251802073,"phone":"(805) 080-0607","sd":"21","ssbd":"11","lsbd":"School Board Timpanogos 1"},{"vid":"6226561","name":"Blain Rempel-Cummerata","party":"","address":"998 W 2600 N, Pleasant Grove, UT 84062","precinct":"25PG01","hd":"55","v_score":"5.40460374","decile":"7","lat":40.39266354598053,"lng":-111.75528088789741,"phone":"(941) 653-5677","sd":"21","ssbd":"11","lsbd":"School Board Timpanogos 1"},{"vid":"6227432","name":"Lucian Conroy","party":"Rep","address":"998 W 2600 N, Pleasant Grove, UT 84062","precinct":"25PG01","hd":"55","v_score":"5.40460374","decile":"7","lat":40.39266354598053,"lng":-111.75528088789741,"phone":"(575) 806-1083","sd":"21","ssbd":"11","lsbd":"School Board Timpanogos 1"},{"vid":"6229070","name":"Dr. Jaunita Gusikowski","party":"Dem","address":"3349 N 1270 W, Pleasant Grove, UT 84062","precinct":"25PG01","hd":"55","v_score":"9.917069994","decile":"9","lat":40.399783833804584,"lng":-111.75957251802073,"phone":"(378) 751-8532","sd":"21","ssbd":"11","lsbd":"School Board Timpanogos 1"},{"vid":"6230971","name":"Rutha Lind","party":"Rep","address":"632 W 2600 N, Pleasant Grove, UT 84062","precinct":"25PG01","hd":"55","v_score":"27.6006495","decile":"10","lat":40.39239382676601,"lng":-111.75000248565347,"phone":"(912) 829-8531","sd":"21","ssbd":"11","lsbd":"School Board Timpanogos 1"},{"vid":"6232271","name":"Halley Gislason DVM","party":"Dem","address":"882 W 2800 N, Pleasant Grove, UT 84062","precinct":"25PG01","hd":"55","v_score":"38.00020808","decile":"10","lat":40.394469197283975,"lng":-111.75291562218469,"phone":"(222) 259-4355","sd":"21","ssbd":"11","lsbd":"School Board Timpanogos 1"},{"vid":"6233773","name":"Tyquan Boehm","party":"","address":"591 W 2900 N, Pleasant Grove, UT 84062","precinct":"25PG01","hd":"55","v_score":"6.881235673","decile":"8","lat":40.39499073581834,"lng":-111.74927693133948,"phone":"(428) 984-9268","sd":"21","ssbd":"11","lsbd":"School Board Timpanogos 1"},{"vid":"6240734","name":"Jose Murray-Cartwright","party":"Dem","address":"2841 N 1020 W, Pleasant Grove, UT 84062","precinct":"25PG01","hd":"55","v_score":"3.93832808","decile":"6","lat":40.394611596196164,"lng":-111.75592358982753,"phone":"(527) 947-7047","sd":"21","ssbd":"11","lsbd":"School Board Timpanogos 1"},{"vid":"6241291","name":"Miss Jazlyn Fahey","party":"","address":"2947 N 1450 W, Pleasant Grove, UT 84062","precinct":"25PG01","hd":"55","v_score":"5.40460374","decile":"7","lat":40.395593006748385,"lng":-111.76182432489854,"phone":"(523) 932-5310","sd":"21","ssbd":"11","lsbd":"School Board Timpanogos 1"},{"vid":"6244853","name":"Mr. Berkley Schmeler","party":"","address":"1186 W 3540 N, Pleasant Grove, UT 84062","precinct":"25PG01","hd":"55","v_score":"5.40460374","decile":"7","lat":40.401954249100555,"lng":-111.75761529965325,"phone":"(252) 340-1685","sd":"21","ssbd":"11","lsbd":"School Board Timpanogos 1"},{"vid":"6244866","name":"Vera Prosacco","party":"Dem","address":"2816 N 1020 W, Pleasant Grove, UT 84062","precinct":"25PG01","hd":"55","v_score":"12.70314012","decile":"9","lat":40.394331747562056,"lng":-111.7553135322281,"phone":"(602) 412-4859","sd":"21","ssbd":"11","lsbd":"School Board Timpanogos 1"},{"vid":"6a3e7d2baeb82ae32fd6cda6b60f8dd0b14b8fef7d914b6998eaf9cd56d4fcd3","name":"Felisha Rohan","party":"Rep","address":"1328 W 3040 N, Pleasant Grove, UT 84062","precinct":"25PG01","hd":"55","v_score":"16.19849064","decile":"9","lat":40.3969071661251,"lng":-111.75962599101656,"phone":"(812) 175-3736","sd":"21","ssbd":"11","lsbd":"School Board Timpanogos 1"},{"vid":"6247945","name":"Hughie Haley","party":"","address":"3323 N 1270 W, Pleasant Grove, UT 84062","precinct":"25PG01","hd":"55","v_score":"14.92072811","decile":"9","lat":40.39942350484493,"lng":-111.7593588785215,"phone":"(768) 710-9309","sd":"21","ssbd":"11","lsbd":"School Board Timpanogos 1"},{"vid":"6255737","name":"Renard Powlowski","party":"Dem","address":"3084 N Millcreek Rd, Pleasant Grove, UT 84062","precinct":"25PG01","hd":"55","v_score":"5.530510904","decile":"7","lat":40.397091429888434,"lng":-111.74654267507233,"phone":"(625) 566-0952","sd":"21","ssbd":"11","lsbd":"School Board Timpanogos 1"},{"vid":"6267312","name":"Rebekah Gibson","party":"Rep","address":"2737 N 1550 W, Pleasant Grove, UT 84062","precinct":"25PG01","hd":"55","v_score":"3.781490609","decile":"6","lat":40.39347520066568,"lng":-111.7632456448144,"phone":"(816) 340-9611","sd":"21","ssbd":"11","lsbd":"School Board Timpanogos 1"},{"vid":"6267978","name":"Brenton D'Amore","party":"Dem","address":"1207 W 3420 N, Pleasant Grove, UT 84062","precinct":"25PG01","hd":"55","v_score":"22.17625138","decile":"10","lat":40.40032153422187,"lng":-111.75799698534021,"phone":"(959) 075-6646","sd":"21","ssbd":"11","lsbd":"School Board Timpanogos 1"},{"vid":"6272421","name":"Lurline Gibson","party":"","address":"1328 W 3040 N, Pleasant Grove, UT 84062","precinct":"25PG01","hd":"55","v_score":"17.0013843","decile":"9","lat":40.3969071661251,"lng":-111.75962599101656,"phone":"(768) 926-2743","sd":"21","ssbd":"11","lsbd":"School Board Timpanogos 1"},{"vid":"751dfee558be05f38e8181a7ed0bba6dc5de02f5072d4fcaacecf94e424c07ed","name":"Valentina Cruickshank","party":"","address":"2657 N 1070 W, Pleasant Grove, UT 84062","precinct":"25PG01","hd":"55","v_score":"6.814370645","decile":"8","lat":40.39260557964131,"lng":-111.75658321109702,"phone":"(610) 223-8626","sd":"21","ssbd":"11","lsbd":"School Board Timpanogos 1"},{"vid":"2408276faa72d3872910d06a0d1c24adfeef6fc57a78802f5a76d763d135237e","name":"Mrs. Marnie Block DVM","party":"Rep","address":"1206 W 3300 N, Pleasant Grove, UT 84062","precinct":"25PG01","hd":"55","v_score":"1.121327652","decile":"3","lat":40.39957091896195,"lng":-111.7580430150069,"phone":"(619) 578-7098","sd":"21","ssbd":"11","lsbd":"School Board Timpanogos 1"},{"vid":"6282156","name":"Nina Denesik","party":"","address":"1105 W 3540 N, Pleasant Grove, UT 84062","precinct":"25PG01","hd":"55","v_score":"9.116556227","decile":"8","lat":40.401519268039806,"lng":-111.75680927385557,"phone":"(747) 622-6049","sd":"21","ssbd":"11","lsbd":"School Board Timpanogos 1"},{"vid":"6282192","name":"Lorinda Borer","party":"","address":"1285 W 3150 N, Pleasant Grove, UT 84062","precinct":"25PG01","hd":"55","v_score":"3.93832808","decile":"6","lat":40.39746225900999,"lng":-111.7590675007987,"phone":"(825) 391-3115","sd":"21","ssbd":"11","lsbd":"School Board Timpanogos 1"},{"vid":"6282881","name":"Essence Sipes","party":"Dem","address":"1285 W 3150 N, Pleasant Grove, UT 84062","precinct":"25PG01","hd":"55","v_score":"3.93832808","decile":"6","lat":40.39746225900999,"lng":-111.7590675007987,"phone":"(668) 120-5179","sd":"21","ssbd":"11","lsbd":"School Board Timpanogos 1"},{"vid":"59a2eb10a79e77d8ce3d2f898432f1b06d1005b26eeda264747dbfda281e469d","name":"Junious Blanda","party":"","address":"993 W 2760 N, Pleasant Grove, UT 84062","precinct":"25PG01","hd":"55","v_score":"28.59627151","decile":"10","lat":40.39329443880411,"lng":-111.75511898363546,"phone":"(996) 084-7663","sd":"21","ssbd":"11","lsbd":"School Board Timpanogos 1"},{"vid":"6305277","name":"Harvey Stark","party":"Dem","address":"838 W 3300 N, Pleasant Grove, UT 84062","precinct":"25PG01","hd":"55","v_score":"5.40460374","decile":"7","lat":40.3996164773412,"lng":-111.75335845887376,"phone":"(744) 487-6076","sd":"21","ssbd":"11","lsbd":"School Board Timpanogos 1"},{"vid":"6305482","name":"Angel Brekke","party":"Rep","address":"626 W 2760 N, Pleasant Grove, UT 84062","precinct":"25PG01","hd":"55","v_score":"2.315214949","decile":"5","lat":40.39405636092038,"lng":-111.75012103263842,"phone":"(919) 267-0839","sd":"21","ssbd":"11","lsbd":"School Board Timpanogos 1"},{"vid":"6306795","name":"Will VonRueden-Littel","party":"","address":"2786 N 1130 W, Pleasant Grove, UT 84062","precinct":"25PG01","hd":"55","v_score":"5.40460374","decile":"7","lat":40.3938184671593,"lng":-111.75667138661989,"phone":"(537) 070-8925","sd":"21","ssbd":"11","lsbd":"School Board Timpanogos 1"},{"vid":"6307096","name":"Charls Grady","party":"","address":"3253 N 1650 W, Pleasant Grove, UT 84062","precinct":"25PG01","hd":"55","v_score":"25.97538828","decile":"10","lat":40.39856354689136,"lng":-111.76455578623413,"phone":"(168) 336-8023","sd":"21","ssbd":"11","lsbd":"School Board Timpanogos 1"},{"vid":"6308665","name":"Kamryn Leffler","party":"","address":"1468 W 2850 N, Pleasant Grove, UT 84062","precinct":"25PG01","hd":"55","v_score":"26.2609852","decile":"10","lat":40.39487521318968,"lng":-111.76162013929888,"phone":"(281) 012-8770","sd":"21","ssbd":"11","lsbd":"School Board Timpanogos 1"},{"vid":"6308673","name":"Rolland Dicki","party":"","address":"1468 W 2850 N, Pleasant Grove, UT 84062","precinct":"25PG01","hd":"55","v_score":"26.2609852","decile":"10","lat":40.39487521318968,"lng":-111.76162013929888,"phone":"(775) 471-9755","sd":"21","ssbd":"11","lsbd":"School Board Timpanogos 1"},{"vid":"6309340","name":"Ms. Margarete Donnelly PhD","party":"Dem","address":"838 W 3300 N, Pleasant Grove, UT 84062","precinct":"25PG01","hd":"55","v_score":"5.40460374","decile":"7","lat":40.3996164773412,"lng":-111.75335845887376,"phone":"(103) 851-5009","sd":"21","ssbd":"11","lsbd":"School Board Timpanogos 1"},{"vid":"6309786","name":"Dr. Conley Kub","party":"Rep","address":"1047 W 2760 N, Pleasant Grove, UT 84062","precinct":"25PG01","hd":"55","v_score":"13.11728501","decile":"9","lat":40.39334420223251,"lng":-111.7560793736955,"phone":"(445) 738-2670","sd":"21","ssbd":"11","lsbd":"School Board Timpanogos 1"},{"vid":"6901c86b68662e321eded810e65f3a61522ad2187c1b5a22de6084d06fb1b199","name":"Nelia Roob","party":"","address":"1244 W 3040 N, Pleasant Grove, UT 84062","precinct":"25PG01","hd":"55","v_score":"9.116556227","decile":"8","lat":40.396857506106166,"lng":-111.75856603695259,"phone":"(531) 445-5700","sd":"21","ssbd":"11","lsbd":"School Board Timpanogos 1"},{"vid":"6315423","name":"Miss Marilynn Kautzer","party":"Rep","address":"1378 W 2600 N, Pleasant Grove, UT 84062","precinct":"25PG01","hd":"55","v_score":"15.85056678","decile":"9","lat":40.39227093824615,"lng":-111.76040456566432,"phone":"(743) 118-8372","sd":"21","ssbd":"11","lsbd":"School Board Timpanogos 1"},{"vid":"aa7ae00e055caf5593a570864a85edbaee8e04aa20aa526b24367f21f71f7b46","name":"Huy Greenholt","party":"","address":"1464 W 3400 N, Pleasant Grove, UT 84062","precinct":"25PG01","hd":"55","v_score":"12.51600754","decile":"9","lat":40.400532059194596,"lng":-111.76165192487186,"phone":"(528) 403-1126","sd":"21","ssbd":"11","lsbd":"School Board Timpanogos 1"},{"vid":"6319923","name":"Mr. Boone Haag","party":"Dem","address":"2959 N 1550 W, Pleasant Grove, UT 84062","precinct":"25PG01","hd":"55","v_score":"2.587603312","decile":"5","lat":40.39571409750963,"lng":-111.76322381619357,"phone":"(455) 374-3767","sd":"21","ssbd":"11","lsbd":"School Board Timpanogos 1"},{"vid":"6321723","name":"Tabatha Runolfsson","party":"Rep","address":"628 W 3300 N, Pleasant Grove, UT 84062","precinct":"25PG01","hd":"55","v_score":"15.12746977","decile":"9","lat":40.399733646023115,"lng":-111.75038294418502,"phone":"(579) 615-4982","sd":"21","ssbd":"11","lsbd":"School Board Timpanogos 1"},{"vid":"6325118","name":"Author Adams","party":"","address":"1262 W 3150 N, Pleasant Grove, UT 84062","precinct":"25PG01","hd":"55","v_score":"12.90602733","decile":"9","lat":40.398019968993474,"lng":-111.7585912249153,"phone":"(600) 348-5286","sd":"21","ssbd":"11","lsbd":"School Board Timpanogos 1"},{"vid":"6330287","name":"Dr. Hiroshi Murray Jr.","party":"Rep","address":"3196 N Millcreek Rd, Pleasant Grove, UT 84062","precinct":"25PG01","hd":"55","v_score":"36.52229901","decile":"10","lat":40.398446902327635,"lng":-111.74731912402585,"phone":"(136) 060-5207","sd":"21","ssbd":"11","lsbd":"School Board Timpanogos 1"},{"vid":"6330288","name":"Haden Durgan","party":"","address":"3196 N Millcreek Rd, Pleasant Grove, UT 84062","precinct":"25PG01","hd":"55","v_score":"29.20552465","decile":"10","lat":40.398446902327635,"lng":-111.74731912402585,"phone":"(530) 351-1476","sd":"21","ssbd":"11","lsbd":"School Board Timpanogos 1"},{"vid":"6330301","name":"Ethie Bosco","party":"Dem","address":"3154 N 1450 W, Pleasant Grove, UT 84062","precinct":"25PG01","hd":"55","v_score":"8.363183621","decile":"8","lat":40.397692660645724,"lng":-111.76081129156358,"phone":"(417) 445-9744","sd":"21","ssbd":"11","lsbd":"School Board Timpanogos 1"},{"vid":"6330884","name":"Fiona Little","party":"Dem","address":"3349 N 1270 W, Pleasant Grove, UT 84062","precinct":"25PG01","hd":"55","v_score":"33.7623751","decile":"10","lat":40.399783833804584,"lng":-111.75957251802073,"phone":"(722) 255-6195","sd":"21","ssbd":"11","lsbd":"School Board Timpanogos 1"},{"vid":"6350170","name":"Jolette Wilderman","party":"Dem","address":"626 W 2760 N, Pleasant Grove, UT 84062","precinct":"25PG01","hd":"55","v_score":"11.99259879","decile":"9","lat":40.39405636092038,"lng":-111.75012103263842,"phone":"(507) 579-1829","sd":"21","ssbd":"11","lsbd":"School Board Timpanogos 1"},{"vid":"6352228","name":"Carmelita Grimes-Collier","party":"","address":"3116 N 1450 W, Pleasant Grove, UT 84062","precinct":"25PG01","hd":"55","v_score":"3.781490609","decile":"6","lat":40.39724020036714,"lng":-111.7608454386835,"phone":"(550) 253-5600","sd":"21","ssbd":"11","lsbd":"School Board Timpanogos 1"},{"vid":"6352353","name":"Sanford Vandervort","party":"","address":"3642 N 1270 W, Pleasant Grove, UT 84062","precinct":"25PG01","hd":"55","v_score":"1.193887297","decile":"4","lat":40.402439868287544,"lng":-111.7584555285719,"phone":"(931) 672-3920","sd":"21","ssbd":"11","lsbd":"School Board Timpanogos 1"},{"vid":"6358260","name":"Harl Russel","party":"","address":"3438 N 1450 W, Pleasant Grove, UT 84062","precinct":"25PG01","hd":"55","v_score":"3.781490609","decile":"6","lat":40.40071602289619,"lng":-111.76110680297644,"phone":"(851) 017-3251","sd":"21","ssbd":"11","lsbd":"School Board Timpanogos 1"},{"vid":"6368769","name":"Wayne Beier","party":"Rep","address":"3568 N 1450 W, Pleasant Grove, UT 84062","precinct":"25PG01","hd":"55","v_score":"0","decile":"3","lat":40.40191895296475,"lng":-111.76123966396055,"phone":"(709) 132-1044","sd":"21","ssbd":"11","lsbd":"School Board Timpanogos 1"},{"vid":"6373288","name":"Kristen Cummings","party":"","address":"664 W 2600 N, Pleasant Grove, UT 84062","precinct":"25PG01","hd":"55","v_score":"6.814370645","decile":"8","lat":40.39230558575925,"lng":-111.75056570963784,"phone":"(892) 549-9677","sd":"21","ssbd":"11","lsbd":"School Board Timpanogos 1"},{"vid":"b742b7a6051089ce072638b38f894215de7777a16b9e8849ca9ff12a2da83898","name":"Sharif Kunde","party":"Rep","address":"1244 W 3040 N, Pleasant Grove, UT 84062","precinct":"25PG01","hd":"55","v_score":"3.93832808","decile":"6","lat":40.396857506106166,"lng":-111.75856603695259,"phone":"(232) 680-4710","sd":"21","ssbd":"11","lsbd":"School Board Timpanogos 1"},{"vid":"6377112","name":"Mr. Montana Herman","party":"","address":"2737 N 550 W, Pleasant Grove, UT 84062","precinct":"25PG01","hd":"55","v_score":"1.193887297","decile":"4","lat":40.3935443188791,"lng":-111.74924189638581,"phone":"(978) 687-1150","sd":"21","ssbd":"11","lsbd":"School Board Timpanogos 1"},{"vid":"6378265","name":"Tiffani Ledner MD","party":"Dem","address":"3478 N 1450 W, Pleasant Grove, UT 84062","precinct":"25PG01","hd":"55","v_score":"7.282185415","decile":"8","lat":40.40111847701662,"lng":-111.7610547975583,"phone":"(136) 433-2973","sd":"21","ssbd":"11","lsbd":"School Board Timpanogos 1"},{"vid":"ff0fa4810e2620b5a37fb340458f865fcf2c725135796a2198929d94269f039e","name":"Mr. Abel Glover Jr.","party":"","address":"3222 N 1550 W, Pleasant Grove, UT 84062","precinct":"25PG01","hd":"55","v_score":"10.81035709","decile":"9","lat":40.39846471240352,"lng":-111.76253618353887,"phone":"(692) 753-7874","sd":"21","ssbd":"11","lsbd":"School Board Timpanogos 1"},{"vid":"6381908","name":"Ezequiel Schuppe","party":"Dem","address":"2932 N 1130 W, Pleasant Grove, UT 84062","precinct":"25PG01","hd":"55","v_score":"18.887149139999998","decile":"10","lat":40.39543302117396,"lng":-111.75656538338258,"phone":"(117) 361-2190","sd":"21","ssbd":"11","lsbd":"School Board Timpanogos 1"},{"vid":"6384773","name":"Aura Koch","party":"Dem","address":"2837 N 550 W, Pleasant Grove, UT 84062","precinct":"25PG01","hd":"55","v_score":"11.38334565","decile":"9","lat":40.39448412590221,"lng":-111.74939268471458,"phone":"(589) 103-8849","sd":"21","ssbd":"11","lsbd":"School Board Timpanogos 1"},{"vid":"6387979","name":"Bilal Schmidt","party":"","address":"2966 N 1450 W, Pleasant Grove, UT 84062","precinct":"25PG01","hd":"55","v_score":"5.40460374","decile":"7","lat":40.39581326494584,"lng":-111.76097815719093,"phone":"(776) 314-4923","sd":"21","ssbd":"11","lsbd":"School Board Timpanogos 1"},{"vid":"6408317","name":"Ernie Willms","party":"","address":"1161 W 3540 N, Pleasant Grove, UT 84062","precinct":"25PG01","hd":"55","v_score":"9.785090964","decile":"8","lat":40.40150200698645,"lng":-111.75748803444912,"phone":"(352) 834-7158","sd":"21","ssbd":"11","lsbd":"School Board Timpanogos 1"},{"vid":"6408766","name":"Loretta Reinger","party":"","address":"3512 N 1270 W, Pleasant Grove, UT 84062","precinct":"25PG01","hd":"55","v_score":"12.31618552","decile":"9","lat":40.40161520140153,"lng":-111.75870220095142,"phone":"(439) 210-5994","sd":"21","ssbd":"11","lsbd":"School Board Timpanogos 1"},{"vid":"6409143","name":"Ms. Patsy Rice","party":"Rep","address":"1596 W 3250 N, Pleasant Grove, UT 84062","precinct":"25PG01","hd":"55","v_score":"0","decile":"3","lat":40.398919989453034,"lng":-111.7633926540721,"phone":"(429) 734-7890","sd":"21","ssbd":"11","lsbd":"School Board Timpanogos 1"},{"vid":"6411243","name":"Lott Mills","party":"Dem","address":"3284 N 1450 W, Pleasant Grove, UT 84062","precinct":"25PG01","hd":"55","v_score":"1.623113131","decile":"5","lat":40.39896389413555,"lng":-111.76103912857415,"phone":"(957) 254-8126","sd":"21","ssbd":"11","lsbd":"School Board Timpanogos 1"},{"vid":"5ce60d20598a0fd89302c0e43636bfc50a12d95d9c3a614dbce94d95e27ccb5e","name":"Miss Dinah Goyette","party":"","address":"3641 N 1150 W, Pleasant Grove, UT 84062","precinct":"25PG01","hd":"55","v_score":"6.724398202","decile":"8","lat":40.402323037099194,"lng":-111.75761521732254,"phone":"(907) 045-2826","sd":"21","ssbd":"11","lsbd":"School Board Timpanogos 1"},{"vid":"9fe213cbe60fd0e1660fcf09ee7cf29fc890dcc2c94f3dbfba2eb4c411e5623f","name":"Ines Gaylord","party":"","address":"3008 N 550 W, Pleasant Grove, UT 84062","precinct":"25PG01","hd":"55","v_score":"11.99259879","decile":"9","lat":40.395806803409165,"lng":-111.74856242046422,"phone":"(973) 417-5833","sd":"21","ssbd":"11","lsbd":"School Board Timpanogos 1"},{"vid":"6430365","name":"Heyward Rogahn","party":"","address":"2897 N 900 W, Pleasant Grove, UT 84062","precinct":"25PG01","hd":"55","v_score":"3.93832808","decile":"6","lat":40.395109410705565,"lng":-111.75555457617773,"phone":"(285) 565-1396","sd":"21","ssbd":"11","lsbd":"School Board Timpanogos 1"},{"vid":"6432458","name":"Ridge Bednar","party":"Rep","address":"2904 N 1230 W, Pleasant Grove, UT 84062","precinct":"25PG01","hd":"55","v_score":"3.93832808","decile":"6","lat":40.39518343515453,"lng":-111.75816324263344,"phone":"(632) 336-0786","sd":"21","ssbd":"11","lsbd":"School Board Timpanogos 1"},{"vid":"6433018","name":"Aili Harber","party":"","address":"3039 N Cullen Ct, Pleasant Grove, UT 84062","precinct":"25PG01","hd":"55","v_score":"13.02656453","decile":"9","lat":40.396794964880954,"lng":-111.753507497508,"phone":"(951) 015-9147","sd":"21","ssbd":"11","lsbd":"School Board Timpanogos 1"},{"vid":"6434134","name":"Miss Yaretzi Leannon DDS","party":"Dem","address":"3642 N 1270 W, Pleasant Grove, UT 84062","precinct":"25PG01","hd":"55","v_score":"1.193887297","decile":"4","lat":40.402439868287544,"lng":-111.7584555285719,"phone":"(946) 434-3660","sd":"21","ssbd":"11","lsbd":"School Board Timpanogos 1"},{"vid":"6436431","name":"Lawerence Sawayn","party":"Rep","address":"3478 N 1450 W, Pleasant Grove, UT 84062","precinct":"25PG01","hd":"55","v_score":"7.282185415","decile":"8","lat":40.40111847701662,"lng":-111.7610547975583,"phone":"(693) 949-8361","sd":"21","ssbd":"11","lsbd":"School Board Timpanogos 1"},{"vid":"6439270","name":"Dr. Parrish Dickinson","party":"Rep","address":"3167 N 1650 W, Pleasant Grove, UT 84062","precinct":"25PG01","hd":"55","v_score":"6.814370645","decile":"8","lat":40.397695581585545,"lng":-111.76455167554339,"phone":"(498) 473-6688","sd":"21","ssbd":"11","lsbd":"School Board Timpanogos 1"},{"vid":"6441326","name":"Dr. Jana Treutel DDS","party":"Dem","address":"3167 N 1650 W, Pleasant Grove, UT 84062","precinct":"25PG01","hd":"55","v_score":"2.315214949","decile":"5","lat":40.397695581585545,"lng":-111.76455167554339,"phone":"(300) 319-0839","sd":"21","ssbd":"11","lsbd":"School Board Timpanogos 1"},{"vid":"6445860","name":"Kieran Hackett-Effertz","party":"Rep","address":"3641 N 1150 W, Pleasant Grove, UT 84062","precinct":"25PG01","hd":"55","v_score":"3.781490609","decile":"6","lat":40.402323037099194,"lng":-111.75761521732254,"phone":"(931) 663-1171","sd":"21","ssbd":"11","lsbd":"School Board Timpanogos 1"},{"vid":"6446094","name":"Amira Nader-Franecki","party":"","address":"1483 W 2850 N, Pleasant Grove, UT 84062","precinct":"25PG01","hd":"55","v_score":"5.40460374","decile":"7","lat":40.39439108232705,"lng":-111.76202595863616,"phone":"(805) 663-1069","sd":"21","ssbd":"11","lsbd":"School Board Timpanogos 1"},{"vid":"6450787","name":"Clarke Jakubowski-Hartmann","party":"","address":"2844 N 1130 W, Pleasant Grove, UT 84062","precinct":"25PG01","hd":"55","v_score":"3.781490609","decile":"6","lat":40.39451986794784,"lng":-111.75661450505893,"phone":"(232) 593-9828","sd":"21","ssbd":"11","lsbd":"School Board Timpanogos 1"},{"vid":"3056d02ae3cefc0824a8bbdcf76e678ec7adc47c03f035d28f70e29691e60938","name":"Noble Zboncak II","party":"Rep","address":"1532 W 3500 N, Pleasant Grove, UT 84062","precinct":"25PG01","hd":"55","v_score":"3.93832808","decile":"6","lat":40.40155192800078,"lng":-111.76278522774749,"phone":"(650) 729-8188","sd":"21","ssbd":"11","lsbd":"School Board Timpanogos 1"},{"vid":"6456596","name":"Frederick Tillman DDS","party":"Rep","address":"3227 N 1650 W, Pleasant Grove, UT 84062","precinct":"25PG01","hd":"55","v_score":"10.54851742","decile":"9","lat":40.398331681622814,"lng":-111.7646785789266,"phone":"(351) 501-1114","sd":"21","ssbd":"11","lsbd":"School Board Timpanogos 1"},{"vid":"029a3fad175612d4abcb7234da06881e81138e7408a20050eaec76f34c92835f","name":"Ms. Kierra Brown","party":"","address":"2657 N 1070 W, Pleasant Grove, UT 84062","precinct":"25PG01","hd":"55","v_score":"2.587603312","decile":"5","lat":40.39260557964131,"lng":-111.75658321109702,"phone":"(499) 567-4022","sd":"21","ssbd":"11","lsbd":"School Board Timpanogos 1"},{"vid":"6469382","name":"Nena Hartmann","party":"","address":"3073 N 1650 W, Pleasant Grove, UT 84062","precinct":"25PG01","hd":"55","v_score":"16.56360994","decile":"9","lat":40.39681883914708,"lng":-111.7645475154453,"phone":"(479) 279-7745","sd":"21","ssbd":"11","lsbd":"School Board Timpanogos 1"},{"vid":"6470311","name":"Shay Smitham","party":"Rep","address":"998 W 2600 N, Pleasant Grove, UT 84062","precinct":"25PG01","hd":"55","v_score":"5.40460374","decile":"7","lat":40.39266354598053,"lng":-111.75528088789741,"phone":"(890) 535-3087","sd":"21","ssbd":"11","lsbd":"School Board Timpanogos 1"},{"vid":"87ca566234ce34b027eaa2af4a27c804a4a28345174390b08cc627a196cdf0cb","name":"Leanna Johns","party":"Rep","address":"2610 N 1450 W, Pleasant Grove, UT 84062","precinct":"25PG01","hd":"55","v_score":"8.507303088","decile":"8","lat":40.39223875986026,"lng":-111.76095315213583,"phone":"(237) 114-1562","sd":"21","ssbd":"11","lsbd":"School Board Timpanogos 1"},{"vid":"6477677","name":"Miss Amirah Jacobi","party":"Rep","address":"2610 N 1450 W, Pleasant Grove, UT 84062","precinct":"25PG01","hd":"55","v_score":"5.40460374","decile":"7","lat":40.39223875986026,"lng":-111.76095315213583,"phone":"(262) 320-3808","sd":"21","ssbd":"11","lsbd":"School Board Timpanogos 1"},{"vid":"b510f2a52e080cf9f06bf7163b9207093b603db12ae8724324962772012df933","name":"Dr. Jarvis Rau I","party":"Dem","address":"3008 N 550 W, Pleasant Grove, UT 84062","precinct":"25PG01","hd":"55","v_score":"8.280646305","decile":"8","lat":40.395806803409165,"lng":-111.74856242046422,"phone":"(334) 028-3332","sd":"21","ssbd":"11","lsbd":"School Board Timpanogos 1"},{"vid":"6489150","name":"Dr. Lylah Yost DDS","party":"Dem","address":"857 W Faraday Ln, Pleasant Grove, UT 84062","precinct":"25PG01","hd":"55","v_score":"3.93832808","decile":"6","lat":40.395871250073746,"lng":-111.75326666290948,"phone":"(664) 851-7904","sd":"21","ssbd":"11","lsbd":"School Board Timpanogos 1"},{"vid":"89e29b38815f2500016ab3a08415f16ea077684261300650d1084c8b3bfd1401","name":"Mossie Donnelly-Bechtelar","party":"Dem","address":"3042 N 1650 W, Pleasant Grove, UT 84062","precinct":"25PG01","hd":"55","v_score":"6.801678322","decile":"8","lat":40.39645199913835,"lng":-111.7639880584066,"phone":"(654) 682-1103","sd":"21","ssbd":"11","lsbd":"School Board Timpanogos 1"},{"vid":"72554e1da0d54f23d51667ec10b16dbb3f30c0d02fe4966e1c39be7f032db9f5","name":"Mr. Pierce Beatty","party":"Dem","address":"3037 N 550 W, Pleasant Grove, UT 84062","precinct":"25PG01","hd":"55","v_score":"5.40460374","decile":"7","lat":40.39624361464325,"lng":-111.7495231028462,"phone":"(173) 561-5505","sd":"21","ssbd":"11","lsbd":"School Board Timpanogos 1"},{"vid":"820e1824f927da1d96bba0e6e07bf98b42bc288c84c915153c9a11e113785866","name":"Dr. Unknown Schowalter DDS","party":"Rep","address":"803 W 2760 N, Pleasant Grove, UT 84062","precinct":"25PG01","hd":"55","v_score":"5.191257514","decile":"7","lat":40.39354983304169,"lng":-111.75248263826707,"phone":"(445) 228-7858","sd":"21","ssbd":"11","lsbd":"School Board Timpanogos 1"},{"vid":"6504850","name":"Niki Dooley","party":"Dem","address":"3631 N 1450 W, Pleasant Grove, UT 84062","precinct":"25PG01","hd":"55","v_score":"0","decile":"3","lat":40.40275516834132,"lng":-111.76195431904456,"phone":"(240) 131-4952","sd":"21","ssbd":"11","lsbd":"School Board Timpanogos 1"},