[{"id":"27","name":"Gaither Emard","party":"Rep","address":"641 S 350 E, Apt I101, Pleasant Grove, UT 84062","precinct":"25PG22","hd":"55","v_score":"14.58356067","decile":"9","lat":40.356755414882,"lng":-111.734647820539},{"id":"362","name":"Ennis Boyer-Kovacek","party":"","address":"406 E 600 S, Pleasant Grove, UT 84062","precinct":"25PG22","hd":"55","v_score":"5.40460374","decile":"7","lat":40.356291620729,"lng":-111.733499283829},{"id":"373","name":"Siena Roberts","party":"Rep","address":"575 S 400 E, Pleasant Grove, UT 84062","precinct":"25PG22","hd":"55","v_score":"0","decile":"1","lat":40.356744188561,"lng":-111.733567403977},{"id":"1265","name":"Clifton Kutch","party":"","address":"524 E Apple Blossom Dr, Pleasant Grove, UT 84062","precinct":"25PG22","hd":"55","v_score":"5.40460374","decile":"7","lat":40.356121719308,"lng":-111.730862568786},{"id":"1991","name":"Cierra Hayes-Moore","party":"","address":"555 S 300 E, Pleasant Grove, UT 84062","precinct":"25PG22","hd":"55","v_score":"8.363183621","decile":"8","lat":40.357284553975,"lng":-111.735730215695},{"id":"3929","name":"Aiyanna Gottlieb","party":"Rep","address":"641 S 350 E, Apt J201, Pleasant Grove, UT 84062","precinct":"25PG22","hd":"55","v_score":"1.193887297","decile":"3","lat":40.356755414882,"lng":-111.734647820539},{"id":"4184","name":"Earnest Halvorson-King","party":"","address":"533 Harvest Moon Dr, Pleasant Grove, UT 84062","precinct":"25PG22","hd":"55","v_score":"2.315214949","decile":"5","lat":40.355784466199,"lng":-111.729507938749},{"id":"6229","name":"Dr. Jamarcus Hickle","party":"","address":"641 S 350 E, Apt F103, Pleasant Grove, UT 84062","precinct":"25PG22","hd":"55","v_score":"9.600440767","decile":"8","lat":40.356755414882,"lng":-111.734647820539},{"id":"6707","name":"Media Lindgren-Bruen","party":"Dem","address":"415 E Apple Grove Ln, Pleasant Grove, UT 84062","precinct":"25PG22","hd":"55","v_score":"7.153624035","decile":"8","lat":40.356925489521,"lng":-111.73038248716},{"id":"7054","name":"Haylie Kshlerin","party":"","address":"567 S 430 E, Pleasant Grove, UT 84062","precinct":"25PG22","hd":"55","v_score":"0","decile":"1","lat":40.357069119682,"lng":-111.732352165459},{"id":"7508","name":"Hanson Johnston MD","party":"Rep","address":"510 S Locust Ave, Pleasant Grove, UT 84062","precinct":"25PG22","hd":"55","v_score":"1.121327652","decile":"3","lat":40.357706895669,"lng":-111.728789978898},{"id":"8237","name":"Worley Botsford-Harber","party":"Dem","address":"406 E 600 S, Pleasant Grove, UT 84062","precinct":"25PG22","hd":"55","v_score":"16.80774378","decile":"9","lat":40.356291620729,"lng":-111.733499283829},{"id":"9373","name":"Shiela Hodkiewicz","party":"","address":"423 E 790 S, Pleasant Grove, UT 84062","precinct":"25PG22","hd":"55","v_score":"17.98301199","decile":"10","lat":40.354734747943,"lng":-111.733656198131},{"id":"9524","name":"Oneal Bashirian MD","party":"Dem","address":"545 S 350 E, Pleasant Grove, UT 84062","precinct":"25PG22","hd":"55","v_score":"36.52229901","decile":"10","lat":40.357494656477,"lng":-111.734399637908},{"id":"9898","name":"Jerald Considine","party":"","address":"566 S 400 E, Pleasant Grove, UT 84062","precinct":"25PG22","hd":"55","v_score":"3.781490609","decile":"6","lat":40.356886279148,"lng":-111.733691089435},{"id":"10976","name":"Miss Myranda Kertzmann","party":"","address":"523 Harvest Moon Dr, Pleasant Grove, UT 84062","precinct":"25PG22","hd":"55","v_score":"2.315214949","decile":"5","lat":40.355723562834,"lng":-111.729682190075},{"id":"11330","name":"Ellsworth Bergnaum","party":"Dem","address":"482 E Apple Grove Ln, Pleasant Grove, UT 84062","precinct":"25PG22","hd":"55","v_score":"6.881235673","decile":"8","lat":40.356546939385,"lng":-111.730203643276},{"id":"11505","name":"Mr. Ervin Zboncak DDS","party":"Rep","address":"493 E Apple Blossom Dr, Pleasant Grove, UT 84062","precinct":"25PG22","hd":"55","v_score":"2.315214949","decile":"5","lat":40.356112188043,"lng":-111.73126638623},{"id":"12730","name":"Delma Torp","party":"","address":"641 S 350 E, Apt G102, Pleasant Grove, UT 84062","precinct":"25PG22","hd":"55","v_score":"0","decile":"1","lat":40.356755414882,"lng":-111.734647820539},{"id":"13242","name":"Assunta Goldner","party":"Dem","address":"641 S 350 E, Apt C102, Pleasant Grove, UT 84062","precinct":"25PG22","hd":"55","v_score":"10.7066531","decile":"9","lat":40.356755414882,"lng":-111.734647820539},{"id":"13557","name":"Mrs. Cathey Smitham DVM","party":"Dem","address":"506 S 350 E, Pleasant Grove, UT 84062","precinct":"25PG22","hd":"55","v_score":"2.315214949","decile":"5","lat":40.357750048746,"lng":-111.734541911093},{"id":"15122","name":"Ciji Hegmann-Bahringer","party":"Dem","address":"641 S 350 E, Apt J202, Pleasant Grove, UT 84062","precinct":"25PG22","hd":"55","v_score":"2.315214949","decile":"5","lat":40.356755414882,"lng":-111.734647820539},{"id":"16596","name":"Averi Stiedemann","party":"Dem","address":"536 S 350 E, Pleasant Grove, UT 84062","precinct":"25PG22","hd":"55","v_score":"2.744440783","decile":"5","lat":40.357283232693,"lng":-111.73459558359},{"id":"16679","name":"Elgin Bode","party":"Dem","address":"641 S 350 E, Apt F202, Pleasant Grove, UT 84062","precinct":"25PG22","hd":"55","v_score":"2.744440783","decile":"5","lat":40.356755414882,"lng":-111.734647820539},{"id":"18378","name":"Shoji Quitzon","party":"","address":"641 S 350 E, Apt G201, Pleasant Grove, UT 84062","precinct":"25PG22","hd":"55","v_score":"0","decile":"1","lat":40.356755414882,"lng":-111.734647820539},{"id":"19430","name":"Dr. Loyal Mayert","party":"Rep","address":"530 S Locust Ave, Pleasant Grove, UT 84062","precinct":"25PG22","hd":"55","v_score":"3.93832808","decile":"6","lat":40.357496259037,"lng":-111.728553654941},{"id":"19848","name":"Sydnie Bernhard","party":"","address":"575 S 350 E, Pleasant Grove, UT 84062","precinct":"25PG22","hd":"55","v_score":"2.587603312","decile":"5","lat":40.357249690457,"lng":-111.734451190644},{"id":"20313","name":"Lucky Konopelski","party":"Dem","address":"467 E Apple Grove Ln, Pleasant Grove, UT 84062","precinct":"25PG22","hd":"55","v_score":"7.282185415","decile":"8","lat":40.356686827855,"lng":-111.730151365178},{"id":"22581","name":"Selmer Hickle-Greenholt","party":"Dem","address":"452 E Apple Grove Ln, Pleasant Grove, UT 84062","precinct":"25PG22","hd":"55","v_score":"7.650280567","decile":"8","lat":40.356682672449,"lng":-111.730333474865},{"id":"22909","name":"Miss Alexandr Bradtke","party":"Dem","address":"641 S 350 E, Apt A102, Pleasant Grove, UT 84062","precinct":"25PG22","hd":"55","v_score":"13.84916389","decile":"9","lat":40.356755414882,"lng":-111.734647820539},{"id":"23906","name":"Dovie Littel","party":"Dem","address":"641 S 350 E, Apt J102, Pleasant Grove, UT 84062","precinct":"25PG22","hd":"55","v_score":"2.315214949","decile":"5","lat":40.356755414882,"lng":-111.734647820539},{"id":"25212","name":"Namon Hintz","party":"Dem","address":"641 S 350 E, Apt J202, Pleasant Grove, UT 84062","precinct":"25PG22","hd":"55","v_score":"2.315214949","decile":"5","lat":40.356755414882,"lng":-111.734647820539},{"id":"26546","name":"Diane McKenzie","party":"","address":"555 S 430 E, Pleasant Grove, UT 84062","precinct":"25PG22","hd":"55","v_score":"1.121327652","decile":"3","lat":40.357210614469,"lng":-111.732358903287},{"id":"27711","name":"Verner Batz","party":"","address":"510 E 500 S, Apt 1, Pleasant Grove, UT 84062","precinct":"25PG22","hd":"55","v_score":"0","decile":"1","lat":40.357840151991,"lng":-111.7306317804},{"id":"28628","name":"Mr. Curt Spinka","party":"Rep","address":"511 E Apple Blossom Dr, Pleasant Grove, UT 84062","precinct":"25PG22","hd":"55","v_score":"3.93832808","decile":"6","lat":40.356176604094,"lng":-111.731073138039},{"id":"29181","name":"Coleman Hilpert","party":"","address":"641 S 350 E, Apt J101, Pleasant Grove, UT 84062","precinct":"25PG22","hd":"55","v_score":"2.660162957","decile":"5","lat":40.356755414882,"lng":-111.734647820539},{"id":"29260","name":"Tiffany Lemke DDS","party":"","address":"641 S 350 E, Apt H203, Pleasant Grove, UT 84062","precinct":"25PG22","hd":"55","v_score":"29.15109729","decile":"10","lat":40.356755414882,"lng":-111.734647820539},{"id":"29326","name":"Artis Macejkovic","party":"Dem","address":"435 E 790 S, Pleasant Grove, UT 84062","precinct":"25PG22","hd":"55","v_score":"2.744440783","decile":"5","lat":40.35476707118,"lng":-111.73357351868},{"id":"29582","name":"Ariana Anderson","party":"Rep","address":"641 S 350 E, Apt E202, Pleasant Grove, UT 84062","precinct":"25PG22","hd":"55","v_score":"8.347511332","decile":"8","lat":40.356755414882,"lng":-111.734647820539},{"id":"30486","name":"Elmo Stanton","party":"","address":"641 S 350 E, Apt A101, Pleasant Grove, UT 84062","precinct":"25PG22","hd":"55","v_score":"3.781490609","decile":"6","lat":40.356755414882,"lng":-111.734647820539},{"id":"30832","name":"Jettie Donnelly","party":"Rep","address":"416 E Apple Grove Ln, Pleasant Grove, UT 84062","precinct":"25PG22","hd":"55","v_score":"11.02844566","decile":"9","lat":40.356840983855,"lng":-111.730485109395},{"id":"31077","name":"Mallie Mueller","party":"","address":"627 S 300 E, Pleasant Grove, UT 84062","precinct":"25PG22","hd":"55","v_score":"3.102699348","decile":"6","lat":40.356563663948,"lng":-111.735754967376},{"id":"32294","name":"Cosmo Wisozk PhD","party":"Rep","address":"453 E Apple Blossom Dr, Pleasant Grove, UT 84062","precinct":"25PG22","hd":"55","v_score":"5.901487474","decile":"7","lat":40.355969041261,"lng":-111.731695826654},{"id":"32831","name":"Argie Dooley DVM","party":"Dem","address":"641 S 350 E, Apt C203, Pleasant Grove, UT 84062","precinct":"25PG22","hd":"55","v_score":"1.193887297","decile":"3","lat":40.356755414882,"lng":-111.734647820539},{"id":"34558","name":"Mr. Camron Heathcote DVM","party":"","address":"521 E Apple Blossom Dr, Pleasant Grove, UT 84062","precinct":"25PG22","hd":"55","v_score":"0","decile":"1","lat":40.35621239079,"lng":-111.730965777933},{"id":"34573","name":"Cara Hirthe","party":"Dem","address":"416 E Apple Grove Ln, Pleasant Grove, UT 84062","precinct":"25PG22","hd":"55","v_score":"13.45445245","decile":"9","lat":40.356840983855,"lng":-111.730485109395},{"id":"36325","name":"Rhys Jaskolski","party":"Rep","address":"641 S 350 E, Apt 1102, Pleasant Grove, UT 84062","precinct":"25PG22","hd":"55","v_score":"2.587603312","decile":"5","lat":40.356755414882,"lng":-111.734647820539},{"id":"36730","name":"Dr. Chancey Ratke","party":"Rep","address":"567 S 430 E, Pleasant Grove, UT 84062","precinct":"25PG22","hd":"55","v_score":"2.315214949","decile":"5","lat":40.357069119682,"lng":-111.732352165459},{"id":"38580","name":"Rondal McLaughlin","party":"","address":"524 E Apple Blossom Dr, Pleasant Grove, UT 84062","precinct":"25PG22","hd":"55","v_score":"8.347511332","decile":"8","lat":40.356121719308,"lng":-111.730862568786},{"id":"38751","name":"Miss Indiana Ryan","party":"Dem","address":"560 S Locust Ave, Pleasant Grove, UT 84062","precinct":"25PG22","hd":"55","v_score":"0","decile":"1","lat":40.357177733954,"lng":-111.728204547174},{"id":"40649","name":"Ms. Francisquita Howe","party":"","address":"432 E Apple Grove Ln, Pleasant Grove, UT 84062","precinct":"25PG22","hd":"55","v_score":"1.193887297","decile":"3","lat":40.356773161159,"lng":-111.730420029257},{"id":"41391","name":"Miss Annice Schinner PhD","party":"Rep","address":"524 E Apple Blossom Dr, Pleasant Grove, UT 84062","precinct":"25PG22","hd":"55","v_score":"8.347511332","decile":"8","lat":40.356121719308,"lng":-111.730862568786},{"id":"42863","name":"Christeen Weimann DDS","party":"Dem","address":"532 S Locust Ave, Pleasant Grove, UT 84062","precinct":"25PG22","hd":"55","v_score":"2.315214949","decile":"5","lat":40.357475598552,"lng":-111.728530779734},{"id":"43110","name":"Chaim Pagac","party":"Dem","address":"565 S 300 E, Pleasant Grove, UT 84062","precinct":"25PG22","hd":"55","v_score":"1.193887297","decile":"3","lat":40.35718443036,"lng":-111.735733653429},{"id":"44350","name":"Valencia Pfannerstill","party":"","address":"641 S 350 E, Apt G203, Pleasant Grove, UT 84062","precinct":"25PG22","hd":"55","v_score":"1.121327652","decile":"3","lat":40.356755414882,"lng":-111.734647820539},{"id":"45237","name":"Jase Ryan","party":"","address":"563 Harvest Moon Dr, Pleasant Grove, UT 84062","precinct":"25PG22","hd":"55","v_score":"0","decile":"1","lat":40.356067159967,"lng":-111.729013551494},{"id":"46970","name":"Nelie Dibbert","party":"","address":"641 S 350 E, Apt H102, Pleasant Grove, UT 84062","precinct":"25PG22","hd":"55","v_score":"0","decile":"1","lat":40.356755414882,"lng":-111.734647820539},{"id":"48257","name":"Miss Angelic Johnson DDS","party":"","address":"641 S 350 E, Apt G203, Pleasant Grove, UT 84062","precinct":"25PG22","hd":"55","v_score":"4.210716443","decile":"7","lat":40.356755414882,"lng":-111.734647820539},{"id":"48336","name":"Mr. Raynard Shanahan","party":"Dem","address":"641 S 350 E, Apt E201, Pleasant Grove, UT 84062","precinct":"25PG22","hd":"55","v_score":"4.741221742","decile":"7","lat":40.356755414882,"lng":-111.734647820539},{"id":"49196","name":"Miss Orelia Gleichner","party":"","address":"543 S 430 E, Pleasant Grove, UT 84062","precinct":"25PG22","hd":"55","v_score":"6.814370645","decile":"8","lat":40.357352109257,"lng":-111.732365641115},{"id":"50197","name":"Annice Schowalter-Breitenberg","party":"Rep","address":"495 E Apple Grove Ln, Pleasant Grove, UT 84062","precinct":"25PG22","hd":"55","v_score":"3.781490609","decile":"6","lat":40.356560143661,"lng":-111.730030189029},{"id":"51172","name":"Cecil Kuvalis","party":"","address":"498 E Apple Blossom Dr, Pleasant Grove, UT 84062","precinct":"25PG22","hd":"55","v_score":"27.36282474","decile":"10","lat":40.3560286739,"lng":-111.731141705062},{"id":"51195","name":"Dr. Floy Zboncak","party":"","address":"641 S 350 E, Apt F101, Pleasant Grove, UT 84062","precinct":"25PG22","hd":"55","v_score":"9.07218791","decile":"8","lat":40.356755414882,"lng":-111.734647820539},{"id":"51585","name":"Aurora Hackett","party":"","address":"428 E Apple Grove Ln, Pleasant Grove, UT 84062","precinct":"25PG22","hd":"55","v_score":"4.210716443","decile":"7","lat":40.356791258901,"lng":-111.730437340135},{"id":"51926","name":"Louis Schuster","party":"Dem","address":"414 E Apple Grove Ln, Pleasant Grove, UT 84062","precinct":"25PG22","hd":"55","v_score":"6.740427232","decile":"8","lat":40.356849352424,"lng":-111.730494872723},{"id":"52195","name":"Dr. Alexandria Bernier PhD","party":"Dem","address":"574 S 400 E, Pleasant Grove, UT 84062","precinct":"25PG22","hd":"55","v_score":"3.93832808","decile":"6","lat":40.356756589827,"lng":-111.733716897981},{"id":"52655","name":"Dixon Champlin V","party":"","address":"641 S 350 E, Apt C103, Pleasant Grove, UT 84062","precinct":"25PG22","hd":"55","v_score":"5.40460374","decile":"7","lat":40.356755414882,"lng":-111.734647820539},{"id":"52980","name":"Lena Ryan V","party":"Dem","address":"641 S 350 E, Apt C202, Pleasant Grove, UT 84062","precinct":"25PG22","hd":"55","v_score":"4.210716443","decile":"7","lat":40.356755414882,"lng":-111.734647820539},{"id":"55900","name":"Zaid Bogisich","party":"Rep","address":"411 E 790 S, Pleasant Grove, UT 84062","precinct":"25PG22","hd":"55","v_score":"1.193887297","decile":"3","lat":40.354702424706,"lng":-111.733738877581},{"id":"57817","name":"Renaldo Reinger","party":"Rep","address":"574 S 400 E, Pleasant Grove, UT 84062","precinct":"25PG22","hd":"55","v_score":"0","decile":"1","lat":40.356756589827,"lng":-111.733716897981},{"id":"58928","name":"Leander Kertzmann","party":"Rep","address":"471 E Apple Blossom Dr, Pleasant Grove, UT 84062","precinct":"25PG22","hd":"55","v_score":"6.814370645","decile":"8","lat":40.356033457313,"lng":-111.731502578463},{"id":"60285","name":"Furman Sauer","party":"Dem","address":"613 S 300 E, Pleasant Grove, UT 84062","precinct":"25PG22","hd":"55","v_score":"5.258122542","decile":"7","lat":40.356703837009,"lng":-111.73575015455},{"id":"61401","name":"Mr. Mat Rippin V","party":"Rep","address":"575 S 300 E, Pleasant Grove, UT 84062","precinct":"25PG22","hd":"55","v_score":"1.121327652","decile":"3","lat":40.357084306745,"lng":-111.735737091162},{"id":"64129","name":"Hershell Glover","party":"","address":"482 E Apple Grove Ln, Pleasant Grove, UT 84062","precinct":"25PG22","hd":"55","v_score":"6.364334873","decile":"7","lat":40.356546939385,"lng":-111.730203643276},{"id":"64713","name":"Madden Sipes","party":"Dem","address":"494 E Apple Blossom Dr, Pleasant Grove, UT 84062","precinct":"25PG22","hd":"55","v_score":"10.78079168","decile":"9","lat":40.356014359221,"lng":-111.731184649104},{"id":"64981","name":"Dwyane McCullough Jr.","party":"","address":"524 E Apple Blossom Dr, Pleasant Grove, UT 84062","precinct":"25PG22","hd":"55","v_score":"3.93832808","decile":"6","lat":40.356121719308,"lng":-111.730862568786},{"id":"65378","name":"Brett Cole-Mueller","party":"Dem","address":"641 S 350 E, Apt A203, Pleasant Grove, UT 84062","precinct":"25PG22","hd":"55","v_score":"2.744440783","decile":"5","lat":40.356755414882,"lng":-111.734647820539},{"id":"65415","name":"Allean D'Amore","party":"","address":"498 E 500 S, Pleasant Grove, UT 84062","precinct":"25PG22","hd":"55","v_score":"0","decile":"1","lat":40.357840732688,"lng":-111.730857664933},{"id":"66206","name":"Faron Kassulke","party":"Rep","address":"466 E Apple Grove Ln, Pleasant Grove, UT 84062","precinct":"25PG22","hd":"55","v_score":"0","decile":"1","lat":40.356619330352,"lng":-111.73027288679},{"id":"67100","name":"Mrs. Paloma Fritsch","party":"","address":"588 S 350 E, Pleasant Grove, UT 84062","precinct":"25PG22","hd":"55","v_score":"1.193887297","decile":"3","lat":40.35644679228,"lng":-111.734773208795},{"id":"69671","name":"Sina Gusikowski","party":"Rep","address":"641 S 350 E, Apt I201, Pleasant Grove, UT 84062","precinct":"25PG22","hd":"55","v_score":"2.315214949","decile":"5","lat":40.356755414882,"lng":-111.734647820539},{"id":"70238","name":"Dorene Langosh","party":"","address":"536 S 350 E, Pleasant Grove, UT 84062","precinct":"25PG22","hd":"55","v_score":"2.744440783","decile":"5","lat":40.357283232693,"lng":-111.73459558359},{"id":"70843","name":"Marilynn Marquardt","party":"Dem","address":"566 S 350 E, Pleasant Grove, UT 84062","precinct":"25PG22","hd":"55","v_score":"0","decile":"1","lat":40.356823568486,"lng":-111.734787117497},{"id":"71425","name":"Mr. Sean Lemke","party":"","address":"596 S 350 E, Apt 103, Pleasant Grove, UT 84062","precinct":"25PG22","hd":"55","v_score":"3.93832808","decile":"6","lat":40.356327068304,"lng":-111.73471334683},{"id":"72580","name":"Linnea Hoppe PhD","party":"Rep","address":"536 S 350 E, Pleasant Grove, UT 84062","precinct":"25PG22","hd":"55","v_score":"1.121327652","decile":"3","lat":40.357283232693,"lng":-111.73459558359},{"id":"72616","name":"Orilla Cole","party":"Rep","address":"471 E Apple Blossom Dr, Pleasant Grove, UT 84062","precinct":"25PG22","hd":"55","v_score":"6.814370645","decile":"8","lat":40.356033457313,"lng":-111.731502578463},{"id":"73039","name":"Monika Kuhlman","party":"Rep","address":"641 S 350 E, Apt B101, Pleasant Grove, UT 84062","precinct":"25PG22","hd":"55","v_score":"0","decile":"1","lat":40.356755414882,"lng":-111.734647820539},{"id":"73076","name":"Valentin Jacobson","party":"Dem","address":"627 S 300 E, Pleasant Grove, UT 84062","precinct":"25PG22","hd":"55","v_score":"4.166348126","decile":"7","lat":40.356563663948,"lng":-111.735754967376},{"id":"73527","name":"Mr. Francesco Wisoky DVM","party":"","address":"641 S 350 E, Apt G203, Pleasant Grove, UT 84062","precinct":"25PG22","hd":"55","v_score":"0","decile":"1","lat":40.356755414882,"lng":-111.734647820539},{"id":"73806","name":"Christophe Kessler","party":"Dem","address":"524 E Apple Blossom Dr, Pleasant Grove, UT 84062","precinct":"25PG22","hd":"55","v_score":"3.93832808","decile":"6","lat":40.356121719308,"lng":-111.730862568786},{"id":"74174","name":"Firman Gislason-Bogisich","party":"","address":"471 E Apple Blossom Dr, Pleasant Grove, UT 84062","precinct":"25PG22","hd":"55","v_score":"6.814370645","decile":"8","lat":40.356033457313,"lng":-111.731502578463},{"id":"75210","name":"Cheyanne Bradtke","party":"Dem","address":"575 S 300 E, Pleasant Grove, UT 84062","precinct":"25PG22","hd":"55","v_score":"2.315214949","decile":"5","lat":40.357084306745,"lng":-111.735737091162},{"id":"75387","name":"Dr. Lige Cremin","party":"Dem","address":"555 S 300 E, Pleasant Grove, UT 84062","precinct":"25PG22","hd":"55","v_score":"8.363183621","decile":"8","lat":40.357284553975,"lng":-111.735730215695},{"id":"76112","name":"Sheryl Braun","party":"","address":"641 S 350 E, Apt G202, Pleasant Grove, UT 84062","precinct":"25PG22","hd":"55","v_score":"1.623113131","decile":"5","lat":40.356755414882,"lng":-111.734647820539},{"id":"76509","name":"Dr. Kathern Wolf DDS","party":"Rep","address":"536 S 350 E, Pleasant Grove, UT 84062","precinct":"25PG22","hd":"55","v_score":"2.744440783","decile":"5","lat":40.357283232693,"lng":-111.73459558359},{"id":"77565","name":"Evette Gottlieb MD","party":"Rep","address":"530 S Locust Ave, Pleasant Grove, UT 84062","precinct":"25PG22","hd":"55","v_score":"3.93832808","decile":"6","lat":40.357496259037,"lng":-111.728553654941},{"id":"78777","name":"Scottie Heathcote III","party":"","address":"605 S 300 E, Pleasant Grove, UT 84062","precinct":"25PG22","hd":"55","v_score":"1.121327652","decile":"3","lat":40.356783935901,"lng":-111.735747404363},{"id":"80444","name":"Taurean Mayert II","party":"Rep","address":"493 E Apple Blossom Dr, Pleasant Grove, UT 84062","precinct":"25PG22","hd":"55","v_score":"2.315214949","decile":"5","lat":40.356112188043,"lng":-111.73126638623},{"id":"80636","name":"Mrs. Anahi Kunde","party":"Dem","address":"468 E Apple Blossom Dr, Pleasant Grove, UT 84062","precinct":"25PG22","hd":"55","v_score":"1.121327652","decile":"3","lat":40.355921313813,"lng":-111.73146378538},{"id":"81506","name":"Miss Charley Hessel","party":"","address":"504 S 400 E, Pleasant Grove, UT 84062","precinct":"25PG22","hd":"55","v_score":"0","decile":"1","lat":40.357778234835,"lng":-111.733441487553},{"id":"82256","name":"Tinnie Pagac","party":"","address":"641 S 350 E, Apt K203, Pleasant Grove, UT 84062","precinct":"25PG22","hd":"55","v_score":"0","decile":"1","lat":40.356755414882,"lng":-111.734647820539},{"id":"82655","name":"Epifanio Kemmer","party":"Rep","address":"459 E Apple Blossom Dr, Pleasant Grove, UT 84062","precinct":"25PG22","hd":"55","v_score":"0","decile":"1","lat":40.355990513278,"lng":-111.73163141059},{"id":"83599","name":"Mozelle Mosciski","party":"Rep","address":"444 E Apple Grove Ln, Pleasant Grove, UT 84062","precinct":"25PG22","hd":"55","v_score":"8.376826675","decile":"8","lat":40.356718867933,"lng":-111.730368096622},{"id":"84132","name":"Gregoria Lockman-Moore","party":"Rep","address":"452 E Apple Grove Ln, Pleasant Grove, UT 84062","precinct":"25PG22","hd":"55","v_score":"0","decile":"1","lat":40.356682672449,"lng":-111.730333474865},{"id":"85123","name":"Adolphus Wiegand","party":"Dem","address":"425 E 790 S, Pleasant Grove, UT 84062","precinct":"25PG22","hd":"55","v_score":"1.193887297","decile":"3","lat":40.354740135149,"lng":-111.733642418222},{"id":"86145","name":"Mrs. Nedra Franecki DVM","party":"Dem","address":"641 S 350 E, Apt A202, Pleasant Grove, UT 84062","precinct":"25PG22","hd":"55","v_score":"0","decile":"1","lat":40.356755414882,"lng":-111.734647820539},{"id":"88989","name":"Cliffie Dach MD","party":"Rep","address":"524 E Apple Blossom Dr, Pleasant Grove, UT 84062","precinct":"25PG22","hd":"55","v_score":"1.193887297","decile":"4","lat":40.356121719308,"lng":-111.730862568786},{"id":"89508","name":"Winford Runolfsson","party":"","address":"565 S 350 E, Pleasant Grove, UT 84062","precinct":"25PG22","hd":"55","v_score":"1.193887297","decile":"4","lat":40.357330351586,"lng":-111.734429844007},{"id":"93250","name":"Aurore Lehner","party":"","address":"521 E Apple Blossom Dr, # B, Pleasant Grove, UT 84062","precinct":"25PG22","hd":"55","v_score":"0","decile":"1","lat":40.35621239079,"lng":-111.730965777933},{"id":"93493","name":"Eppie Morissette","party":"","address":"498 E 500 S, Pleasant Grove, UT 84062","precinct":"25PG22","hd":"55","v_score":"0","decile":"1","lat":40.357840732688,"lng":-111.730857664933},{"id":"93692","name":"Dorthey Becker-Lynch","party":"","address":"541 Harvest Moon Dr, Pleasant Grove, UT 84062","precinct":"25PG22","hd":"55","v_score":"0","decile":"1","lat":40.355833188892,"lng":-111.729368537688},{"id":"95263","name":"Archibald Kessler","party":"Rep","address":"641 S 350 E, Apt I103, Pleasant Grove, UT 84062","precinct":"25PG22","hd":"55","v_score":"0","decile":"1","lat":40.356755414882,"lng":-111.734647820539},{"id":"95715","name":"Corina Collins","party":"Rep","address":"576 S Locust Ave, Pleasant Grove, UT 84062","precinct":"25PG22","hd":"55","v_score":"9.638447451","decile":"8","lat":40.357009211087,"lng":-111.728011146302},{"id":"96339","name":"Marcelino Koch","party":"Rep","address":"587 S 400 E, Pleasant Grove, UT 84062","precinct":"25PG22","hd":"55","v_score":"5.693042993","decile":"7","lat":40.356576268094,"lng":-111.733566485029},{"id":"96369","name":"Irva Dicki","party":"Rep","address":"452 E 500 S, Pleasant Grove, UT 84062","precinct":"25PG22","hd":"55","v_score":"2.817000428","decile":"6","lat":40.357842958695,"lng":-111.731723555646},{"id":"96971","name":"Waino Zemlak","party":"","address":"432 E Apple Grove Ln, Pleasant Grove, UT 84062","precinct":"25PG22","hd":"55","v_score":"0","decile":"1","lat":40.356773161159,"lng":-111.730420029257},{"id":"98906","name":"Victoriano Runolfsdottir","party":"","address":"340 E 500 S, Pleasant Grove, UT 84062","precinct":"25PG22","hd":"55","v_score":"0","decile":"1","lat":40.357841027603,"lng":-111.734731125899},{"id":"101302","name":"Bena Torp-Monahan","party":"","address":"483 E Apple Blossom Dr, Pleasant Grove, UT 84062","precinct":"25PG22","hd":"55","v_score":"1.193887297","decile":"4","lat":40.356076401347,"lng":-111.731373746336},{"id":"102978","name":"Jalisa Skiles","party":"Rep","address":"453 E Apple Blossom Dr, Pleasant Grove, UT 84062","precinct":"25PG22","hd":"55","v_score":"0","decile":"2","lat":40.355969041261,"lng":-111.731695826654},{"id":"103387","name":"Dr. Thea Ryan MD","party":"Dem","address":"555 S 300 E, Pleasant Grove, UT 84062","precinct":"25PG22","hd":"55","v_score":"0","decile":"2","lat":40.357284553975,"lng":-111.735730215695},{"id":"104572","name":"Mrs. Frankie Hermiston","party":"Dem","address":"414 E Apple Grove Ln, Pleasant Grove, UT 84062","precinct":"25PG22","hd":"55","v_score":"0","decile":"2","lat":40.356849352424,"lng":-111.730494872723},{"id":"106134","name":"Juan Kuvalis","party":"","address":"428 E Apple Grove Ln, Pleasant Grove, UT 84062","precinct":"25PG22","hd":"55","v_score":"0","decile":"2","lat":40.356791258901,"lng":-111.730437340135},{"id":"107986","name":"Diane Blick","party":"","address":"501 E Apple Blossom Dr, Pleasant Grove, UT 84062","precinct":"25PG22","hd":"55","v_score":"1.193887297","decile":"4","lat":40.356140817399,"lng":-111.731180498145},{"id":"112634","name":"Marley Rosenbaum","party":"","address":"453 E Apple Blossom Dr, Pleasant Grove, UT 84062","precinct":"25PG22","hd":"55","v_score":"0","decile":"2","lat":40.355969041261,"lng":-111.731695826654},{"id":"114077","name":"Michael McDermott","party":"Rep","address":"565 S 300 E, Pleasant Grove, UT 84062","precinct":"25PG22","hd":"55","v_score":"0","decile":"2","lat":40.35718443036,"lng":-111.735733653429},{"id":"119087","name":"Ester Cruickshank","party":"Rep","address":"533 Harvest Moon Dr, Pleasant Grove, UT 84062","precinct":"25PG22","hd":"55","v_score":"1.193887297","decile":"4","lat":40.355784466199,"lng":-111.729507938749},{"id":"121028","name":"Manilla Wunsch","party":"Rep","address":"545 S 400 E, Pleasant Grove, UT 84062","precinct":"25PG22","hd":"55","v_score":"1.193887297","decile":"4","lat":40.357159926476,"lng":-111.733377712007},{"id":"121220","name":"Dosha Haley","party":"Dem","address":"586 S 400 E, Pleasant Grove, UT 84062","precinct":"25PG22","hd":"55","v_score":"1.193887297","decile":"4","lat":40.356557135609,"lng":-111.733714750881},{"id":"121260","name":"Rashida Ondricka","party":"Rep","address":"641 S 350 E, Apt D201, Pleasant Grove, UT 84062","precinct":"25PG22","hd":"55","v_score":"0","decile":"2","lat":40.356755414882,"lng":-111.734647820539},{"id":"127368","name":"Tianna Herzog DDS","party":"","address":"501 E Apple Blossom Dr, Pleasant Grove, UT 84062","precinct":"25PG22","hd":"55","v_score":"7.090117576","decile":"8","lat":40.356140817399,"lng":-111.731180498145},{"id":"127872","name":"Reginal Bernier","party":"Rep","address":"581 Harvest Moon Dr, Pleasant Grove, UT 84062","precinct":"25PG22","hd":"55","v_score":"0","decile":"2","lat":40.3562554335,"lng":-111.728645202939},{"id":"128104","name":"Gretchen Zieme","party":"","address":"340 E 500 S, Pleasant Grove, UT 84062","precinct":"25PG22","hd":"55","v_score":"0","decile":"2","lat":40.357841027603,"lng":-111.734731125899},{"id":"131463","name":"Mrs. Exie Metz","party":"Rep","address":"602 S Apple Grove Ln, Pleasant Grove, UT 84062","precinct":"25PG22","hd":"55","v_score":"0","decile":"2","lat":40.356474548417,"lng":-111.730134399763},{"id":"133615","name":"Libby O'Reilly","party":"Rep","address":"596 S 350 E, Apt 104, Pleasant Grove, UT 84062","precinct":"25PG22","hd":"55","v_score":"0","decile":"2","lat":40.356327068304,"lng":-111.73471334683},{"id":"133795","name":"Molly Hodkiewicz","party":"Rep","address":"466 E Apple Grove Ln, Pleasant Grove, UT 84062","precinct":"25PG22","hd":"55","v_score":"0","decile":"2","lat":40.356619330352,"lng":-111.73027288679},{"id":"134087","name":"Guthrie Cormier","party":"","address":"565 S 300 E, Pleasant Grove, UT 84062","precinct":"25PG22","hd":"55","v_score":"0","decile":"2","lat":40.35718443036,"lng":-111.735733653429},{"id":"134270","name":"Josefa Collier","party":"Rep","address":"412 E Apple Grove Ln, Pleasant Grove, UT 84062","precinct":"25PG22","hd":"55","v_score":"0","decile":"2","lat":40.356857720994,"lng":-111.730504636052},{"id":"134320","name":"Brandy Marvin","party":"","address":"414 E Apple Grove Ln, Pleasant Grove, UT 84062","precinct":"25PG22","hd":"55","v_score":"0","decile":"2","lat":40.356849352424,"lng":-111.730494872723},{"id":"134984","name":"Deneen Stanton","party":"","address":"510 S Locust Ave, Pleasant Grove, UT 84062","precinct":"25PG22","hd":"55","v_score":"6.881235673","decile":"8","lat":40.357706895669,"lng":-111.728789978898},{"id":"135491","name":"Dylan Armstrong","party":"Dem","address":"641 S 350 E, Apt J101, Pleasant Grove, UT 84062","precinct":"25PG22","hd":"55","v_score":"3.781490609","decile":"6","lat":40.356755414882,"lng":-111.734647820539},{"id":"137083","name":"Miss Trinity Grady","party":"Dem","address":"497 Harvest Moon Dr, Pleasant Grove, UT 84062","precinct":"25PG22","hd":"55","v_score":"6.027167436","decile":"7","lat":40.355565214084,"lng":-111.730135243522},{"id":"137124","name":"Miss Albertha Reichel DVM","party":"","address":"423 E 790 S, Pleasant Grove, UT 84062","precinct":"25PG22","hd":"55","v_score":"19.60612512","decile":"10","lat":40.354734747943,"lng":-111.733656198131},{"id":"137962","name":"Shannon Hamill","party":"","address":"563 E Harvest Moon Dr, Pleasant Grove, UT 84062","precinct":"25PG22","hd":"55","v_score":"7.282185415","decile":"8","lat":40.356067159967,"lng":-111.729013551494},{"id":"138668","name":"Dr. Clarnce Hahn","party":"","address":"483 E Apple Blossom Dr, Pleasant Grove, UT 84062","precinct":"25PG22","hd":"55","v_score":"4.192796624","decile":"7","lat":40.356076401347,"lng":-111.731373746336},{"id":"138705","name":"Dr. Kaelynn Breitenberg MD","party":"","address":"641 S 350 E, Apt E103, Pleasant Grove, UT 84062","precinct":"25PG22","hd":"55","v_score":"0","decile":"2","lat":40.356755414882,"lng":-111.734647820539},{"id":"139368","name":"Wardell Ortiz PhD","party":"Rep","address":"641 S 350 E, Apt B201, Pleasant Grove, UT 84062","precinct":"25PG22","hd":"55","v_score":"0","decile":"2","lat":40.356755414882,"lng":-111.734647820539},{"id":"140618","name":"Charline Schuster","party":"","address":"512 E Apple Blossom Dr, Pleasant Grove, UT 84062","precinct":"25PG22","hd":"55","v_score":"27.96029183","decile":"10","lat":40.356078775273,"lng":-111.730991400913},{"id":"141808","name":"Tavaris Buckridge DVM","party":"","address":"538 S Locust Ave, Pleasant Grove, UT 84062","precinct":"25PG22","hd":"55","v_score":"5.762862305","decile":"7","lat":40.357411770424,"lng":-111.728460872756},{"id":"145851","name":"Cam Langworth","party":"Rep","address":"602 S Apple Grove Ln, Pleasant Grove, UT 84062","precinct":"25PG22","hd":"55","v_score":"26.32386814","decile":"10","lat":40.356474548417,"lng":-111.730134399763},{"id":"146039","name":"Celine Baumbach","party":"","address":"641 S 350 E, Apt C102, Pleasant Grove, UT 84062","precinct":"25PG22","hd":"55","v_score":"10.7066531","decile":"9","lat":40.356755414882,"lng":-111.734647820539},{"id":"147287","name":"Dr. Cindi Daugherty","party":"Rep","address":"565 S 400 E, Pleasant Grove, UT 84062","precinct":"25PG22","hd":"55","v_score":"15.43762891","decile":"9","lat":40.356886758348,"lng":-111.733535402528},{"id":"147422","name":"Ms. Verdell Hoeger DVM","party":"Rep","address":"563 E Harvest Moon Dr, Pleasant Grove, UT 84062","precinct":"25PG22","hd":"55","v_score":"23.83661026","decile":"10","lat":40.356067159967,"lng":-111.729013551494},{"id":"147734","name":"Mrs. Myrl Koelpin PhD","party":"Dem","address":"482 E Apple Grove Ln, Pleasant Grove, UT 84062","precinct":"25PG22","hd":"55","v_score":"1.121327652","decile":"3","lat":40.356546939385,"lng":-111.730203643276},{"id":"148826","name":"Oneida Reilly","party":"Rep","address":"576 S Locust Ave, Pleasant Grove, UT 84062","precinct":"25PG22","hd":"55","v_score":"33.57939141","decile":"10","lat":40.357009211087,"lng":-111.728011146302},{"id":"148827","name":"Shepherd Aufderhar","party":"","address":"576 S Locust Ave, Pleasant Grove, UT 84062","precinct":"25PG22","hd":"55","v_score":"33.57939141","decile":"10","lat":40.357009211087,"lng":-111.728011146302},{"id":"149726","name":"Tal Will","party":"Dem","address":"507 E Harvest Moon Dr, Pleasant Grove, UT 84062","precinct":"25PG22","hd":"55","v_score":"11.2235539","decile":"9","lat":40.35562611745,"lng":-111.729960992196},{"id":"154392","name":"Mikayla Waters","party":"Rep","address":"546 S 400 E, Pleasant Grove, UT 84062","precinct":"25PG22","hd":"55","v_score":"30.72436542","decile":"10","lat":40.357175249187,"lng":-111.733532096838},{"id":"155170","name":"Kaley Schuster MD","party":"Dem","address":"501 E Apple Blossom Dr, Pleasant Grove, UT 84062","precinct":"25PG22","hd":"55","v_score":"6.52928996","decile":"7","lat":40.356140817399,"lng":-111.731180498145},{"id":"156455","name":"Derl Haag","party":"","address":"641 S 350 E, Apt C203, Pleasant Grove, UT 84062","precinct":"25PG22","hd":"55","v_score":"6.207497402","decile":"7","lat":40.356755414882,"lng":-111.734647820539},{"id":"156474","name":"Alesia Casper","party":"Rep","address":"576 S Locust Ave, Pleasant Grove, UT 84062","precinct":"25PG22","hd":"55","v_score":"36.67865218","decile":"10","lat":40.357009211087,"lng":-111.728011146302},{"id":"157503","name":"Donn Witting","party":"Rep","address":"641 S 350 E, Apt I103, Pleasant Grove, UT 84062","precinct":"25PG22","hd":"55","v_score":"8.805720013","decile":"8","lat":40.356755414882,"lng":-111.734647820539},{"id":"158086","name":"Hayden Kub","party":"Rep","address":"510 E 500 S, Apt 1, Pleasant Grove, UT 84062","precinct":"25PG22","hd":"55","v_score":"0","decile":"3","lat":40.357840151991,"lng":-111.7306317804},{"id":"158383","name":"Khalil Rowe-Corkery","party":"Dem","address":"594 S Locust Ave, Pleasant Grove, UT 84062","precinct":"25PG22","hd":"55","v_score":"34.33292633","decile":"10","lat":40.356819097052,"lng":-111.727796317685},{"id":"158384","name":"Nestor Friesen II","party":"Dem","address":"594 S Locust Ave, Pleasant Grove, UT 84062","precinct":"25PG22","hd":"55","v_score":"46.21181957","decile":"10","lat":40.356819097052,"lng":-111.727796317685},{"id":"160266","name":"Orlena Kiehn","party":"Dem","address":"457 E Apple Blossom Ln, Pleasant Grove, UT 84062","precinct":"25PG22","hd":"55","v_score":"29.3653164","decile":"10","lat":40.355983355939,"lng":-111.731652882612},{"id":"160812","name":"Antonio Lemke","party":"Rep","address":"641 S 350 E, Apt G103, Pleasant Grove, UT 84062","precinct":"25PG22","hd":"55","v_score":"9.116556227","decile":"8","lat":40.356755414882,"lng":-111.734647820539},{"id":"161377","name":"Keila Boyer-Bergstrom","party":"Dem","address":"419 E Apple Grove Ln, Pleasant Grove, UT 84062","precinct":"25PG22","hd":"55","v_score":"9.682978083","decile":"8","lat":40.356904000759,"lng":-111.73035909572},{"id":"167785","name":"Dr. Graydon Hermiston IV","party":"Dem","address":"488 E Apple Blossom Dr, Pleasant Grove, UT 84062","precinct":"25PG22","hd":"55","v_score":"13.83018807","decile":"9","lat":40.355992887204,"lng":-111.731249065168},{"id":"168073","name":"Love Wisozk-Kiehn","party":"","address":"641 S 350 E, Apt C203, Pleasant Grove, UT 84062","precinct":"25PG22","hd":"55","v_score":"12.70479765","decile":"9","lat":40.356755414882,"lng":-111.734647820539},{"id":"169624","name":"Kamron Emard","party":"Dem","address":"563 E Harvest Moon Dr, Pleasant Grove, UT 84062","precinct":"25PG22","hd":"55","v_score":"2.315214949","decile":"5","lat":40.356067159967,"lng":-111.729013551494},{"id":"169756","name":"Ms. Ashlynn Kirlin","party":"","address":"545 S 350 E, Pleasant Grove, UT 84062","precinct":"25PG22","hd":"55","v_score":"34.18580567","decile":"10","lat":40.357494656477,"lng":-111.734399637908},{"id":"170898","name":"Ramiro Towne-Turner","party":"Dem","address":"412 E Apple Grove Ln, Pleasant Grove, UT 84062","precinct":"25PG22","hd":"55","v_score":"6.364334873","decile":"7","lat":40.356857720994,"lng":-111.730504636052},{"id":"171250","name":"Guthrie Wyman","party":"Dem","address":"488 E Apple Blossom Ln, Pleasant Grove, UT 84062","precinct":"25PG22","hd":"55","v_score":"16.93288741","decile":"9","lat":40.355992887204,"lng":-111.731249065168},{"id":"171946","name":"Jade Waelchi III","party":"Dem","address":"433 E 790 S, Pleasant Grove, UT 84062","precinct":"25PG22","hd":"55","v_score":"2.817000428","decile":"6","lat":40.354761683974,"lng":-111.733587298588},{"id":"172334","name":"Vennie Berge","party":"","address":"641 S 350 E, Apt H202, Pleasant Grove, UT 84062","precinct":"25PG22","hd":"55","v_score":"6.814370645","decile":"8","lat":40.356755414882,"lng":-111.734647820539},{"id":"172391","name":"Allyson Harber PhD","party":"Dem","address":"586 S 350 E, Pleasant Grove, UT 84062","precinct":"25PG22","hd":"55","v_score":"1.121327652","decile":"3","lat":40.356476723275,"lng":-111.734788174286},{"id":"172700","name":"Marquis Smitham","party":"","address":"510 E 500 S, Apt 4, Pleasant Grove, UT 84062","precinct":"25PG22","hd":"55","v_score":"6.364334873","decile":"7","lat":40.357840151991,"lng":-111.7306317804},{"id":"173014","name":"Doyle Koepp","party":"","address":"498 E Apple Blossom Dr, Pleasant Grove, UT 84062","precinct":"25PG22","hd":"55","v_score":"31.57689975","decile":"10","lat":40.3560286739,"lng":-111.731141705062},{"id":"173528","name":"Deedee O'Kon","party":"","address":"575 S 350 E, Pleasant Grove, UT 84062","precinct":"25PG22","hd":"55","v_score":"2.587603312","decile":"5","lat":40.357249690457,"lng":-111.734451190644},{"id":"173863","name":"Mr. Loyal Cummerata DVM","party":"Dem","address":"602 S Apple Grove Ln, Pleasant Grove, UT 84062","precinct":"25PG22","hd":"55","v_score":"26.32386814","decile":"10","lat":40.356474548417,"lng":-111.730134399763},{"id":"175215","name":"Doctor Halvorson","party":"Dem","address":"596 S 350 E, Apt 103, Pleasant Grove, UT 84062","precinct":"25PG22","hd":"55","v_score":"5.40460374","decile":"7","lat":40.356327068304,"lng":-111.73471334683},{"id":"175468","name":"Newt Kunze","party":"Rep","address":"641 S 350 E, Apt K102, Pleasant Grove, UT 84062","precinct":"25PG22","hd":"55","v_score":"18.56161448","decile":"10","lat":40.356755414882,"lng":-111.734647820539},{"id":"175748","name":"Layne Hoeger","party":"Rep","address":"587 S 400 E, Pleasant Grove, UT 84062","precinct":"25PG22","hd":"55","v_score":"9.757278238","decile":"8","lat":40.356576268094,"lng":-111.733566485029},{"id":"175749","name":"Derwin Hansen","party":"","address":"587 S 400 E, Pleasant Grove, UT 84062","precinct":"25PG22","hd":"55","v_score":"11.2235539","decile":"9","lat":40.356576268094,"lng":-111.733566485029},{"id":"176538","name":"Lona Parker","party":"Dem","address":"565 S 350 E, Pleasant Grove, UT 84062","precinct":"25PG22","hd":"55","v_score":"3.781490609","decile":"6","lat":40.357330351586,"lng":-111.734429844007},{"id":"177880","name":"Adolf Emmerich-Daugherty","party":"Rep","address":"412 E Apple Grove Ln, Pleasant Grove, UT 84062","precinct":"25PG22","hd":"55","v_score":"3.93832808","decile":"6","lat":40.356857720994,"lng":-111.730504636052},{"id":"180428","name":"Arden Gutmann-Halvorson","party":"","address":"510 S Locust Ave, Pleasant Grove, UT 84062","precinct":"25PG22","hd":"55","v_score":"8.347511332","decile":"8","lat":40.357706895669,"lng":-111.728789978898},{"id":"180503","name":"Allena Kuhic","party":"Rep","address":"641 S 350 E, Apt C103, Pleasant Grove, UT 84062","precinct":"25PG22","hd":"55","v_score":"1.193887297","decile":"4","lat":40.356755414882,"lng":-111.734647820539}]