[{"vid":"701255","name":"Ludwig Schulist V","party":"","address":"1642 W 1400 N, Provo, UT 84604","precinct":"25PR23","hd":"61","v_score":"35.12606409","decile":"10","lat":40.252849046941535,"lng":-111.68722390123666,"phone":"(564) 734-0402","sd":"23","ssbd":"13","lsbd":"School Board Provo 6"},{"vid":"1225889","name":"Bobbie Farrell","party":"Dem","address":"1665 W 1050 N, Provo, UT 84604","precinct":"25PR23","hd":"61","v_score":"2.660162957","decile":"5","lat":40.24824073622994,"lng":-111.68787464606866,"phone":"(213) 638-3230","sd":"23","ssbd":"13","lsbd":"School Board Provo 6"},{"vid":"46eab85fec79c33b5ea6ab1c2362e1f8ae45e07216bc4e83260d8dd51d465526","name":"Mr. Yahir Wolff","party":"Rep","address":"1952 W 820 N, Provo, UT 84601","precinct":"25PR23","hd":"61","v_score":"9.405332525","decile":"8","lat":40.246723009047514,"lng":-111.6940019217084,"phone":"(445) 394-9619","sd":"23","ssbd":"13","lsbd":"School Board Provo 6"},{"vid":"1238762","name":"Gayla Hirthe MD","party":"Rep","address":"2066 W 1080 N, Provo, UT 84604","precinct":"25PR23","hd":"61","v_score":"4.079907534","decile":"7","lat":40.24801022529518,"lng":-111.69390067234569,"phone":"(847) 737-4546","sd":"23","ssbd":"13","lsbd":"School Board Provo 6"},{"vid":"1240113","name":"Maria Hahn","party":"Dem","address":"1003 N Grand Ave, Provo, UT 84604","precinct":"25PR23","hd":"61","v_score":"0","decile":"1","lat":40.24754258022247,"lng":-111.68958958004211,"phone":"(494) 278-4295","sd":"23","ssbd":"13","lsbd":"School Board Provo 6"},{"vid":"c7eff646a18b2d2fbf1a5d9aa5ec0820ddb4449a170cc293f13207f66835bd20","name":"Katharina Lueilwitz","party":"","address":"1608 W 1170 N, Provo, UT 84604","precinct":"25PR23","hd":"61","v_score":"5.40460374","decile":"7","lat":40.25033651957767,"lng":-111.68687920221114,"phone":"(738) 369-6775","sd":"23","ssbd":"13","lsbd":"School Board Provo 6"},{"vid":"1307428","name":"Arlyne Christiansen","party":"Dem","address":"1034 N 1760 W, Provo, UT 84604","precinct":"25PR23","hd":"61","v_score":"0","decile":"1","lat":40.24821377555502,"lng":-111.69119264253122,"phone":"(543) 603-7308","sd":"23","ssbd":"13","lsbd":"School Board Provo 6"},{"vid":"1317882","name":"Dr. Syed Considine MD","party":"","address":"965 N 1760 W, Provo, UT 84604","precinct":"25PR23","hd":"61","v_score":"0","decile":"1","lat":40.24715132541575,"lng":-111.6910315763974,"phone":"(141) 803-1314","sd":"23","ssbd":"13","lsbd":"School Board Provo 6"},{"vid":"1386162","name":"Holland Stamm","party":"","address":"1145 N 1880 W, Provo, UT 84604","precinct":"25PR23","hd":"61","v_score":"5.546183193","decile":"7","lat":40.249166072087576,"lng":-111.69451270982012,"phone":"(560) 568-5483","sd":"23","ssbd":"13","lsbd":"School Board Provo 6"},{"vid":"1466575","name":"Squire Jaskolski DDS","party":"","address":"1128 N Independence Ave, Provo, UT 84604","precinct":"25PR23","hd":"61","v_score":"3.781490609","decile":"6","lat":40.24939909162087,"lng":-111.69342507746448,"phone":"(204) 106-1404","sd":"23","ssbd":"13","lsbd":"School Board Provo 6"},{"vid":"1466646","name":"Teela Crist","party":"Rep","address":"1912 W 960 N, Provo, UT 84604","precinct":"25PR23","hd":"61","v_score":"11.37977487","decile":"9","lat":40.246548133737114,"lng":-111.69262245216176,"phone":"(513) 081-3485","sd":"23","ssbd":"13","lsbd":"School Board Provo 6"},{"vid":"1483494","name":"Cordelia Toy","party":"","address":"1405 N 1750 W, Provo, UT 84604","precinct":"25PR23","hd":"61","v_score":"6.881235673","decile":"8","lat":40.25277498246667,"lng":-111.68905935699148,"phone":"(840) 556-6019","sd":"23","ssbd":"13","lsbd":"School Board Provo 6"},{"vid":"5d4b1fe999a94c07dc15cbfe0d8aae6efeb1a0761deec29c874c68400ac9ca67","name":"Sterling Heaney","party":"","address":"1149 N 1880 W, Provo, UT 84604","precinct":"25PR23","hd":"61","v_score":"2.315214949","decile":"5","lat":40.249212774158536,"lng":-111.694550342044,"phone":"(484) 067-3701","sd":"23","ssbd":"13","lsbd":"School Board Provo 6"},{"vid":"1485811","name":"Treena Batz","party":"Dem","address":"1267 N Wasatch Dr, Provo, UT 84604","precinct":"25PR23","hd":"61","v_score":"12.59867706","decile":"9","lat":40.25083431899247,"lng":-111.69021268817443,"phone":"(862) 030-5416","sd":"23","ssbd":"13","lsbd":"School Board Provo 6"},{"vid":"1485963","name":"Ms. Sheila Baumbach","party":"Rep","address":"1897 W 960 N, Provo, UT 84604","precinct":"25PR23","hd":"61","v_score":"29.27087773","decile":"10","lat":40.24633264811299,"lng":-111.69220528747954,"phone":"(688) 048-4878","sd":"23","ssbd":"13","lsbd":"School Board Provo 6"},{"vid":"1493496","name":"Dr. Kole Ferry Jr.","party":"","address":"1909 W 1020 N, Provo, UT 84604","precinct":"25PR23","hd":"61","v_score":"1.46627566","decile":"4","lat":40.247006334355945,"lng":-111.6930374382497,"phone":"(602) 828-1816","sd":"23","ssbd":"13","lsbd":"School Board Provo 6"},{"vid":"1494731","name":"Mrs. Celia Schamberger PhD","party":"","address":"1615 W 1100 N, Provo, UT 84604","precinct":"25PR23","hd":"61","v_score":"35.39065156","decile":"10","lat":40.24894636635552,"lng":-111.68690078890707,"phone":"(976) 864-0209","sd":"23","ssbd":"13","lsbd":"School Board Provo 6"},{"vid":"1501247","name":"Marylin Wuckert","party":"Dem","address":"1143 N Independence Ave, Provo, UT 84604","precinct":"25PR23","hd":"61","v_score":"8.363183621","decile":"8","lat":40.24931750440604,"lng":-111.69411849242219,"phone":"(685) 405-7383","sd":"23","ssbd":"13","lsbd":"School Board Provo 6"},{"vid":"a51da51483a993a6a466f109235bef1ed3b7b52d3c5ff924c69c3c1374e25cae","name":"Evalyn Kris-Reilly","party":"Rep","address":"1720 W 1320 N, Provo, UT 84604","precinct":"25PR23","hd":"61","v_score":"6.088298118","decile":"7","lat":40.25189630095549,"lng":-111.68835252133177,"phone":"(921) 024-2531","sd":"23","ssbd":"13","lsbd":"School Board Provo 6"},{"vid":"1513848","name":"Shelly Davis MD","party":"","address":"990 N Independence Ave, Provo, UT 84604","precinct":"25PR23","hd":"61","v_score":"2.315214949","decile":"5","lat":40.24730631350119,"lng":-111.69157335196222,"phone":"(259) 690-9426","sd":"23","ssbd":"13","lsbd":"School Board Provo 6"},{"vid":"1541320","name":"Everet Kuphal","party":"Rep","address":"1235 N 1500 W, Provo, UT 84604","precinct":"25PR23","hd":"61","v_score":"6.881235673","decile":"8","lat":40.250650362062,"lng":-111.68529966969967,"phone":"(675) 327-1019","sd":"23","ssbd":"13","lsbd":"School Board Provo 6"},{"vid":"1551991","name":"Jerry Treutel Jr.","party":"Rep","address":"1597 W 1050 N, Provo, UT 84604","precinct":"25PR23","hd":"61","v_score":"2.817000428","decile":"6","lat":40.248210728838416,"lng":-111.6870197296236,"phone":"(604) 944-1277","sd":"23","ssbd":"13","lsbd":"School Board Provo 6"},{"vid":"1558915","name":"Caryl Wisozk-Marvin","party":"Rep","address":"1897 W 1020 N, Provo, UT 84604","precinct":"25PR23","hd":"61","v_score":"2.315214949","decile":"5","lat":40.24709283651096,"lng":-111.69285459551611,"phone":"(496) 645-5038","sd":"23","ssbd":"13","lsbd":"School Board Provo 6"},{"vid":"1559729","name":"Lennie Rowe","party":"Rep","address":"1897 W 1020 N, Provo, UT 84604","precinct":"25PR23","hd":"61","v_score":"2.315214949","decile":"5","lat":40.24709283651096,"lng":-111.69285459551611,"phone":"(707) 116-8525","sd":"23","ssbd":"13","lsbd":"School Board Provo 6"},{"vid":"1562566","name":"Kamden Kuhlman","party":"Dem","address":"1898 W 830 N, Provo, UT 84604","precinct":"25PR23","hd":"61","v_score":"8.535114849","decile":"8","lat":40.24552796253894,"lng":-111.69150903851676,"phone":"(120) 447-8890","sd":"23","ssbd":"13","lsbd":"School Board Provo 6"},{"vid":"1562741","name":"Glinda Mills MD","party":"","address":"966 N 1760 W, Provo, UT 84604","precinct":"25PR23","hd":"61","v_score":"0","decile":"1","lat":40.247544484816245,"lng":-111.69046072039055,"phone":"(823) 594-8021","sd":"23","ssbd":"13","lsbd":"School Board Provo 6"},{"vid":"1564197","name":"Collis Franecki","party":"","address":"1645 W 1000 N, Provo, UT 84604","precinct":"25PR23","hd":"61","v_score":"2.587603312","decile":"5","lat":40.24743411647318,"lng":-111.68744990676204,"phone":"(747) 252-9802","sd":"23","ssbd":"13","lsbd":"School Board Provo 6"},{"vid":"1575017","name":"Ms. Annis Conn","party":"","address":"1349 N 1750 W, Provo, UT 84604","precinct":"25PR23","hd":"61","v_score":"0","decile":"1","lat":40.25213753881944,"lng":-111.68917705839227,"phone":"(859) 524-2932","sd":"23","ssbd":"13","lsbd":"School Board Provo 6"},{"vid":"1577194","name":"Desi Ratke-Dicki","party":"Rep","address":"1128 N Independence Ave, Provo, UT 84604","precinct":"25PR23","hd":"61","v_score":"12.49472132","decile":"9","lat":40.24939909162087,"lng":-111.69342507746448,"phone":"(561) 777-6687","sd":"23","ssbd":"13","lsbd":"School Board Provo 6"},{"vid":"90a54002f232c4a86a6b61bb7a8989144567be45512af5ddb20966a5e2864855","name":"Sigrid Daugherty","party":"","address":"1445 N 1750 W, Provo, UT 84604","precinct":"25PR23","hd":"61","v_score":"9.600440767","decile":"8","lat":40.2532584783687,"lng":-111.68914891022182,"phone":"(159) 883-0145","sd":"23","ssbd":"13","lsbd":"School Board Provo 6"},{"vid":"5ad93d7d109cace93553100f430908756ceefc793ee6a13533cc5a44be862bb8","name":"Ferd Tillman","party":"","address":"1993 W 1460 N, Provo, UT 84604","precinct":"25PR23","hd":"61","v_score":"1.121327652","decile":"3","lat":40.25321261640159,"lng":-111.69300550163669,"phone":"(446) 483-1755","sd":"23","ssbd":"13","lsbd":"School Board Provo 6"},{"vid":"1587252","name":"Thalia Effertz","party":"","address":"1046 N 1760 W, Provo, UT 84604","precinct":"25PR23","hd":"61","v_score":"3.93832808","decile":"6","lat":40.248310532252674,"lng":-111.69129845940043,"phone":"(112) 714-7223","sd":"23","ssbd":"13","lsbd":"School Board Provo 6"},{"vid":"1590469","name":"Mr. Colbert O'Reilly","party":"","address":"1585 W 1250 N, Provo, UT 84604","precinct":"25PR23","hd":"61","v_score":"5.40460374","decile":"7","lat":40.25069681737827,"lng":-111.68636830799397,"phone":"(670) 467-5185","sd":"23","ssbd":"13","lsbd":"School Board Provo 6"},{"vid":"1601220","name":"Consuela Gusikowski","party":"","address":"952 N 1760 W, Provo, UT 84604","precinct":"25PR23","hd":"61","v_score":"9.640097175","decile":"8","lat":40.24733310817591,"lng":-111.69022952062656,"phone":"(187) 722-0209","sd":"23","ssbd":"13","lsbd":"School Board Provo 6"},{"vid":"c0730f39852940b786088260a2e61bcda3387544a1c18b968f3e0250d7f98cd2","name":"Deandre Kreiger","party":"","address":"1587 W 1170 N, Provo, UT 84604","precinct":"25PR23","hd":"61","v_score":"1.121327652","decile":"3","lat":40.24991312844169,"lng":-111.68641654432766,"phone":"(547) 421-0893","sd":"23","ssbd":"13","lsbd":"School Board Provo 6"},{"vid":"1628003","name":"Nobie Deckow MD","party":"","address":"1169 N Grand Ave, Provo, UT 84604","precinct":"25PR23","hd":"61","v_score":"6.798081861","decile":"8","lat":40.249289704651076,"lng":-111.69173504670714,"phone":"(146) 438-9909","sd":"23","ssbd":"13","lsbd":"School Board Provo 6"},{"vid":"1629875","name":"Zaiden Keeling","party":"Dem","address":"1608 W 1320 N, Provo, UT 84604","precinct":"25PR23","hd":"61","v_score":"1.121327652","decile":"3","lat":40.251878175047636,"lng":-111.6862161203063,"phone":"(282) 907-9495","sd":"23","ssbd":"13","lsbd":"School Board Provo 6"},{"vid":"1629989","name":"Ossie Wiegand","party":"","address":"1445 N 1750 W, Provo, UT 84604","precinct":"25PR23","hd":"61","v_score":"13.75326469","decile":"9","lat":40.2532584783687,"lng":-111.68914891022182,"phone":"(280) 105-5491","sd":"23","ssbd":"13","lsbd":"School Board Provo 6"},{"vid":"1630677","name":"Tyriq Rosenbaum DVM","party":"Rep","address":"1815 W 1460 N, Provo, UT 84604","precinct":"25PR23","hd":"61","v_score":"0","decile":"1","lat":40.25257046541255,"lng":-111.68981966563848,"phone":"(976) 985-3287","sd":"23","ssbd":"13","lsbd":"School Board Provo 6"},{"vid":"1647496","name":"Mrs. Hester Streich DDS","party":"Dem","address":"1559 W 1050 N, Provo, UT 84604","precinct":"25PR23","hd":"61","v_score":"5.40460374","decile":"7","lat":40.24821873507394,"lng":-111.68621753048163,"phone":"(769) 040-9733","sd":"23","ssbd":"13","lsbd":"School Board Provo 6"},{"vid":"1651234","name":"Angelina Brakus","party":"Dem","address":"1777 W 1060 N, Provo, UT 84604","precinct":"25PR23","hd":"61","v_score":"9.682978083","decile":"8","lat":40.24808607155353,"lng":-111.6918754158664,"phone":"(259) 546-2000","sd":"23","ssbd":"13","lsbd":"School Board Provo 6"},{"vid":"1651570","name":"Oddie Johns V","party":"Dem","address":"1120 N 1750 W, Provo, UT 84604","precinct":"25PR23","hd":"61","v_score":"8.149837396","decile":"8","lat":40.25007636084903,"lng":-111.68846633086287,"phone":"(571) 003-7135","sd":"23","ssbd":"13","lsbd":"School Board Provo 6"},{"vid":"1652315","name":"Birt Daniel","party":"","address":"1904 W 960 N, Provo, UT 84604","precinct":"25PR23","hd":"61","v_score":"1.121327652","decile":"3","lat":40.246605802106,"lng":-111.69250055652691,"phone":"(581) 382-0730","sd":"23","ssbd":"13","lsbd":"School Board Provo 6"},{"vid":"1662966","name":"Opal Erdman","party":"Rep","address":"1425 N 2100 W, Provo, UT 84604","precinct":"25PR23","hd":"61","v_score":"8.436100008","decile":"8","lat":40.25275349720699,"lng":-111.69513011955837,"phone":"(265) 723-9240","sd":"23","ssbd":"13","lsbd":"School Board Provo 6"},{"vid":"1669733","name":"Miss Tennessee Williamson","party":"","address":"1904 W 960 N, Provo, UT 84604","precinct":"25PR23","hd":"61","v_score":"2.315214949","decile":"5","lat":40.246605802106,"lng":-111.69250055652691,"phone":"(990) 392-4969","sd":"23","ssbd":"13","lsbd":"School Board Provo 6"},{"vid":"1680413","name":"Dillan Steuber","party":"Dem","address":"1235 N 1500 W, Provo, UT 84604","precinct":"25PR23","hd":"61","v_score":"7.159318653","decile":"8","lat":40.250650362062,"lng":-111.68529966969967,"phone":"(989) 350-3392","sd":"23","ssbd":"13","lsbd":"School Board Provo 6"},{"vid":"437ffcc5767992c40b9513a31a96080d3ebffbf0d235984df6320ac3a3e4cfcd","name":"Mr. Jett Carroll DDS","party":"Dem","address":"1796 W 1010 N, Provo, UT 84604","precinct":"25PR23","hd":"61","v_score":"12.49472132","decile":"9","lat":40.24777025616391,"lng":-111.69163149745518,"phone":"(756) 121-1959","sd":"23","ssbd":"13","lsbd":"School Board Provo 6"},{"vid":"1687568","name":"Izola Ondricka","party":"","address":"1891 W 1020 N, Provo, UT 84604","precinct":"25PR23","hd":"61","v_score":"1.193887297","decile":"3","lat":40.24712167136085,"lng":-111.6927936482377,"phone":"(527) 992-0290","sd":"23","ssbd":"13","lsbd":"School Board Provo 6"},{"vid":"1692191","name":"Eura Keebler PhD","party":"Dem","address":"1615 W 1100 N, Provo, UT 84604","precinct":"25PR23","hd":"61","v_score":"35.39065156","decile":"10","lat":40.24894636635552,"lng":-111.68690078890707,"phone":"(199) 654-2405","sd":"23","ssbd":"13","lsbd":"School Board Provo 6"},{"vid":"1697801","name":"Cherryl Bergnaum","party":"Rep","address":"905 N 1760 W, Provo, UT 84604","precinct":"25PR23","hd":"61","v_score":"12.43347023","decile":"9","lat":40.24649051564649,"lng":-111.69032107512368,"phone":"(554) 709-1001","sd":"23","ssbd":"13","lsbd":"School Board Provo 6"},{"vid":"9368082ac92fd178a1dca807a1d38f4f483537bd0697b80bbd41112223d86423","name":"Vanesa Bode","party":"Rep","address":"2054 W 1080 N, Provo, UT 84604","precinct":"25PR23","hd":"61","v_score":"1.121327652","decile":"3","lat":40.24808662322168,"lng":-111.69373914232187,"phone":"(989) 766-0596","sd":"23","ssbd":"13","lsbd":"School Board Provo 6"},{"vid":"1704900","name":"Lashawn Parisian","party":"Dem","address":"836 N 1760 W, Provo, UT 84604","precinct":"25PR23","hd":"61","v_score":"5.40460374","decile":"7","lat":40.245604552922906,"lng":-111.68918149334915,"phone":"(980) 709-1811","sd":"23","ssbd":"13","lsbd":"School Board Provo 6"},{"vid":"1705034","name":"Dr. Tavaris Quigley","party":"Rep","address":"887 N 1760 W, Provo, UT 84604","precinct":"25PR23","hd":"61","v_score":"2.315214949","decile":"5","lat":40.24634720633031,"lng":-111.69013716429322,"phone":"(238) 444-9991","sd":"23","ssbd":"13","lsbd":"School Board Provo 6"},{"vid":"1707937","name":"Rubye Wuckert","party":"Dem","address":"1617 W 1050 N, Provo, UT 84604","precinct":"25PR23","hd":"61","v_score":"1.193887297","decile":"3","lat":40.248207854491966,"lng":-111.68730624656483,"phone":"(459) 960-0468","sd":"23","ssbd":"13","lsbd":"School Board Provo 6"},{"vid":"1709725","name":"Ida Jacobi DVM","party":"","address":"947 N 1760 W, Provo, UT 84604","precinct":"25PR23","hd":"61","v_score":"1.193887297","decile":"3","lat":40.24697361810659,"lng":-111.6908371806106,"phone":"(320) 652-9767","sd":"23","ssbd":"13","lsbd":"School Board Provo 6"},{"vid":"1713446","name":"Vella Huels MD","party":"Rep","address":"1903 W 890 N, Provo, UT 84604","precinct":"25PR23","hd":"61","v_score":"2.315214949","decile":"5","lat":40.24574525430187,"lng":-111.69188555263574,"phone":"(109) 508-9955","sd":"23","ssbd":"13","lsbd":"School Board Provo 6"},{"vid":"1728097","name":"Madaline Kulas","party":"","address":"1717 W 1460 N, Provo, UT 84604","precinct":"25PR23","hd":"61","v_score":"1.623113131","decile":"4","lat":40.25322801716984,"lng":-111.68837273958553,"phone":"(316) 600-4950","sd":"23","ssbd":"13","lsbd":"School Board Provo 6"},{"vid":"1738374","name":"Dr. Kraig Crona Jr.","party":"Dem","address":"1085 N Independence Ave, Provo, UT 84604","precinct":"25PR23","hd":"61","v_score":"35.30276996","decile":"10","lat":40.24834840345837,"lng":-111.69336992378065,"phone":"(559) 661-6412","sd":"23","ssbd":"13","lsbd":"School Board Provo 6"},{"vid":"1759304","name":"Royal Rau","party":"Rep","address":"1157 N 1650 W, Provo, UT 84604","precinct":"25PR23","hd":"61","v_score":"3.93832808","decile":"6","lat":40.250198889237936,"lng":-111.68795883209191,"phone":"(736) 282-0519","sd":"23","ssbd":"13","lsbd":"School Board Provo 6"},{"vid":"1765054","name":"Rashaan Runolfsson","party":"Dem","address":"1081 N 1500 W, Provo, UT 84604","precinct":"25PR23","hd":"61","v_score":"5.331806201","decile":"7","lat":40.24898395385233,"lng":-111.68528981416648,"phone":"(674) 425-8208","sd":"23","ssbd":"13","lsbd":"School Board Provo 6"},{"vid":"a289f02a94c46c26c277722dc45aacae946981d0aaf26993c4a9f2f9c06e1bb7","name":"Kristin Frami","party":"Rep","address":"1897 W 960 N, Provo, UT 84604","precinct":"25PR23","hd":"61","v_score":"28.57110921","decile":"10","lat":40.24633264811299,"lng":-111.69220528747954,"phone":"(586) 825-6750","sd":"23","ssbd":"13","lsbd":"School Board Provo 6"},{"vid":"575d8fc065f6129d9e23de61c039f372fdb0a0db150187c0d321ea346323f198","name":"Alaina Gibson","party":"Dem","address":"2046 W 1080 N, Provo, UT 84604","precinct":"25PR23","hd":"61","v_score":"8.149837396","decile":"8","lat":40.248144294256555,"lng":-111.6936172434531,"phone":"(525) 707-2052","sd":"23","ssbd":"13","lsbd":"School Board Provo 6"},{"vid":"1789713","name":"Frankie Oberbrunner","party":"","address":"2071 W 1080 N, Provo, UT 84604","precinct":"25PR23","hd":"61","v_score":"2.315214949","decile":"5","lat":40.247651638665474,"lng":-111.69378547706489,"phone":"(585) 424-4198","sd":"23","ssbd":"13","lsbd":"School Board Provo 6"},{"vid":"1802993","name":"Dr. Octavia Bernier DDS","party":"","address":"985 N 1550 W, Provo, UT 84604","precinct":"25PR23","hd":"61","v_score":"2.587603312","decile":"5","lat":40.24743400862027,"lng":-111.68611262044502,"phone":"(755) 420-3065","sd":"23","ssbd":"13","lsbd":"School Board Provo 6"},{"vid":"1807395","name":"Dani Senger-Wintheiser","party":"Rep","address":"1784 W 1060 N, Provo, UT 84604","precinct":"25PR23","hd":"61","v_score":"8.211445228","decile":"8","lat":40.248318992370365,"lng":-111.69237628951939,"phone":"(525) 035-8247","sd":"23","ssbd":"13","lsbd":"School Board Provo 6"},{"vid":"1808222","name":"Hjalmar Wolff","party":"Rep","address":"1602 W 900 N, Provo, UT 84604","precinct":"25PR23","hd":"61","v_score":"8.347511332","decile":"8","lat":40.24638606733341,"lng":-111.6866765253947,"phone":"(563) 925-7774","sd":"23","ssbd":"13","lsbd":"School Board Provo 6"},{"vid":"1811831","name":"Lalla Harvey","party":"","address":"1270 N 1750 W, Provo, UT 84604","precinct":"25PR23","hd":"61","v_score":"2.315214949","decile":"5","lat":40.25101708956525,"lng":-111.68838619288354,"phone":"(784) 655-4810","sd":"23","ssbd":"13","lsbd":"School Board Provo 6"},{"vid":"1812138","name":"Jarrell Reinger","party":"","address":"2051 W 1100 N, Provo, UT 84604","precinct":"25PR23","hd":"61","v_score":"1.193887297","decile":"3","lat":40.248410908988646,"lng":-111.69393482808943,"phone":"(912) 963-2002","sd":"23","ssbd":"13","lsbd":"School Board Provo 6"},{"vid":"c6e72f383e4b21dda7979ef4a98ae3d8ecb6bc7d3789d9592ea13b508a751252","name":"Douglas Bergnaum","party":"Dem","address":"2067 W 1100 N, Provo, UT 84604","precinct":"25PR23","hd":"61","v_score":"0","decile":"1","lat":40.24830713380686,"lng":-111.69415426854701,"phone":"(942) 870-6435","sd":"23","ssbd":"13","lsbd":"School Board Provo 6"},{"vid":"1817135","name":"Vernon Rolfson","party":"Rep","address":"932 N 1760 W, Provo, UT 84604","precinct":"25PR23","hd":"61","v_score":"3.781490609","decile":"6","lat":40.247121731561144,"lng":-111.6899982870859,"phone":"(346) 272-4221","sd":"23","ssbd":"13","lsbd":"School Board Provo 6"},{"vid":"ab4d81496b9a0f12eeaf4dfb791c1bbdce0514eb7047da72c5ce5ac316f8ce95","name":"Obed Streich","party":"","address":"935 Grand Ave, Provo, UT 84604","precinct":"25PR23","hd":"61","v_score":"5.60307055","decile":"7","lat":40.2463180077357,"lng":-111.68806300897278,"phone":"(827) 711-2870","sd":"23","ssbd":"13","lsbd":"School Board Provo 6"},{"vid":"1836412","name":"Miss Erykah Hessel","party":"Dem","address":"1241 N Wasatch Dr, Provo, UT 84604","precinct":"25PR23","hd":"61","v_score":"1.46627566","decile":"4","lat":40.25058747632086,"lng":-111.69020161679786,"phone":"(177) 680-0506","sd":"23","ssbd":"13","lsbd":"School Board Provo 6"},{"vid":"c8873d4cf0ca0f175f54e8602c47620dcf2c93b4491ee93771a42c71042307f9","name":"Aurthur Kshlerin","party":"","address":"1536 W 1170 N, Provo, UT 84604","precinct":"25PR23","hd":"61","v_score":"2.587603312","decile":"5","lat":40.250354637768936,"lng":-111.68581758973735,"phone":"(914) 129-0561","sd":"23","ssbd":"13","lsbd":"School Board Provo 6"},{"vid":"1853421","name":"Aaliyah Nolan","party":"","address":"2062 W 1100 N, Provo, UT 84604","precinct":"25PR23","hd":"61","v_score":"2.315214949","decile":"5","lat":40.2485671526097,"lng":-111.6942297176884,"phone":"(114) 994-1599","sd":"23","ssbd":"13","lsbd":"School Board Provo 6"},{"vid":"1859495","name":"Tabitha Prosacco-Watsica","party":"","address":"2075 W 1080 N, Provo, UT 84604","precinct":"25PR23","hd":"61","v_score":"2.744440783","decile":"5","lat":40.24762280239578,"lng":-111.6938464615336,"phone":"(170) 240-3018","sd":"23","ssbd":"13","lsbd":"School Board Provo 6"},{"vid":"1859498","name":"Miss Dove Little","party":"Dem","address":"2075 W 1080 N, Provo, UT 84604","precinct":"25PR23","hd":"61","v_score":"2.744440783","decile":"5","lat":40.24762280239578,"lng":-111.6938464615336,"phone":"(966) 267-0515","sd":"23","ssbd":"13","lsbd":"School Board Provo 6"},{"vid":"1867648","name":"Demetrius Schulist","party":"Rep","address":"1786 W 1060 N, Provo, UT 84604","precinct":"25PR23","hd":"61","v_score":"5.191257514","decile":"7","lat":40.24829334886523,"lng":-111.69243054147431,"phone":"(715) 658-3076","sd":"23","ssbd":"13","lsbd":"School Board Provo 6"},{"vid":"1877735","name":"Dr. Stevie Cummings","party":"Dem","address":"836 N 1760 W, Provo, UT 84604","precinct":"25PR23","hd":"61","v_score":"5.40460374","decile":"7","lat":40.245604552922906,"lng":-111.68918149334915,"phone":"(156) 740-0214","sd":"23","ssbd":"13","lsbd":"School Board Provo 6"},{"vid":"85f49675276068e82c57e767870a37be1fe7a58481c76db5c3777defd3faa184","name":"Jerald Labadie","party":"Rep","address":"1902 W 890 N, Provo, UT 84604","precinct":"25PR23","hd":"61","v_score":"10.15822798","decile":"9","lat":40.24604975138698,"lng":-111.6921168765469,"phone":"(694) 717-1054","sd":"23","ssbd":"13","lsbd":"School Board Provo 6"},{"vid":"1889836","name":"Wesley O'Reilly","party":"Rep","address":"1551 W 1100 N, Provo, UT 84604","precinct":"25PR23","hd":"61","v_score":"1.193887297","decile":"3","lat":40.24895410181574,"lng":-111.68600339852836,"phone":"(660) 550-7330","sd":"23","ssbd":"13","lsbd":"School Board Provo 6"},{"vid":"1891045","name":"Lynette Kuphal","party":"Rep","address":"1794 W 1010 N, Provo, UT 84604","precinct":"25PR23","hd":"61","v_score":"0","decile":"1","lat":40.24780305956233,"lng":-111.69158600886524,"phone":"(365) 185-8407","sd":"23","ssbd":"13","lsbd":"School Board Provo 6"},{"vid":"1894251","name":"Mrs. Maralyn Schaden MD","party":"","address":"874 N 1760 W, Provo, UT 84604","precinct":"25PR23","hd":"61","v_score":"5.40460374","decile":"7","lat":40.246455559784565,"lng":-111.68936405008483,"phone":"(340) 445-4087","sd":"23","ssbd":"13","lsbd":"School Board Provo 6"},{"vid":"1894939","name":"Mr. Raynard Gaylord","party":"","address":"1151 N Independence Ave, Provo, UT 84604","precinct":"25PR23","hd":"61","v_score":"2.587603312","decile":"5","lat":40.249417605122666,"lng":-111.69417730135092,"phone":"(952) 878-5052","sd":"23","ssbd":"13","lsbd":"School Board Provo 6"},{"vid":"1900275","name":"Domingo Walter","party":"","address":"1233 N 1650 W, Provo, UT 84604","precinct":"25PR23","hd":"61","v_score":"1.121327652","decile":"3","lat":40.25076180253094,"lng":-111.68780037293556,"phone":"(943) 191-2703","sd":"23","ssbd":"13","lsbd":"School Board Provo 6"},{"vid":"1901528","name":"Dorr Gutmann IV","party":"","address":"1637 W 1050 N, Provo, UT 84604","precinct":"25PR23","hd":"61","v_score":"29.68367038","decile":"10","lat":40.248205006748314,"lng":-111.6875927627874,"phone":"(403) 090-9775","sd":"23","ssbd":"13","lsbd":"School Board Provo 6"},{"vid":"af99c24bc8351bdfe3871807601b0ec77c0bb0000eb84077eedbd0dc06cc1e02","name":"Levie Leannon","party":"Rep","address":"1897 W 1020 N, Provo, UT 84604","precinct":"25PR23","hd":"61","v_score":"3.781490609","decile":"6","lat":40.24709283651096,"lng":-111.69285459551611,"phone":"(259) 970-4913","sd":"23","ssbd":"13","lsbd":"School Board Provo 6"},{"vid":"1906547","name":"Brook Schoen-Windler","party":"Rep","address":"1665 W 1400 N, Provo, UT 84604","precinct":"25PR23","hd":"61","v_score":"11.6505322","decile":"9","lat":40.252300302944626,"lng":-111.68751788856778,"phone":"(802) 747-5159","sd":"23","ssbd":"13","lsbd":"School Board Provo 6"},{"vid":"1916563","name":"Dr. Jarred Marquardt DDS","party":"Dem","address":"986 N 1750 W, Provo, UT 84604","precinct":"25PR23","hd":"61","v_score":"4.192796624","decile":"7","lat":40.24759582623322,"lng":-111.68904893302751,"phone":"(575) 155-2166","sd":"23","ssbd":"13","lsbd":"School Board Provo 6"},{"vid":"1921357","name":"Jenni Emmerich","party":"","address":"1115 N 1575 W, Provo, UT 84604","precinct":"25PR23","hd":"61","v_score":"9.839687999","decile":"8","lat":40.249311158985535,"lng":-111.68647992373612,"phone":"(444) 978-0709","sd":"23","ssbd":"13","lsbd":"School Board Provo 6"},{"vid":"1922250","name":"Dewayne Conn","party":"","address":"1597 W 1050 N, Provo, UT 84604","precinct":"25PR23","hd":"61","v_score":"0","decile":"1","lat":40.248210728838416,"lng":-111.6870197296236,"phone":"(810) 224-1515","sd":"23","ssbd":"13","lsbd":"School Board Provo 6"},{"vid":"566ff7f8e88e0fbd5eabdf0e7a7bc2692ec4f578c723752c682bcd494668134f","name":"Elzy Parisian","party":"Rep","address":"1905 W 960 N, Provo, UT 84604","precinct":"25PR23","hd":"61","v_score":"13.81451578","decile":"9","lat":40.24627497992281,"lng":-111.69232721635204,"phone":"(540) 508-5303","sd":"23","ssbd":"13","lsbd":"School Board Provo 6"},{"vid":"1931390","name":"Ms. Brooklyn Bailey","party":"","address":"1145 N 1880 W, Provo, UT 84604","precinct":"25PR23","hd":"61","v_score":"5.546183193","decile":"7","lat":40.249166072087576,"lng":-111.69451270982012,"phone":"(975) 174-9669","sd":"23","ssbd":"13","lsbd":"School Board Provo 6"},{"vid":"1967339","name":"Tyrique Kunde","party":"","address":"1358 N 1850 W, Provo, UT 84604","precinct":"25PR23","hd":"61","v_score":"2.660162957","decile":"5","lat":40.252035047200955,"lng":-111.6902063121721,"phone":"(759) 974-4333","sd":"23","ssbd":"13","lsbd":"School Board Provo 6"},{"vid":"1969111","name":"Ms. Tanika Roberts DDS","party":"","address":"1077 N Independence Ave, Provo, UT 84604","precinct":"25PR23","hd":"61","v_score":"15.4533012","decile":"9","lat":40.248015152466685,"lng":-111.6930710388346,"phone":"(755) 805-9402","sd":"23","ssbd":"13","lsbd":"School Board Provo 6"},{"vid":"1971741","name":"Estie Champlin-Koepp","party":"","address":"1169 N Grand Ave, Provo, UT 84604","precinct":"25PR23","hd":"61","v_score":"6.798081861","decile":"8","lat":40.249289704651076,"lng":-111.69173504670714,"phone":"(292) 682-9922","sd":"23","ssbd":"13","lsbd":"School Board Provo 6"},{"vid":"1972237","name":"Latricia Morissette","party":"","address":"1584 W 1170 N, Provo, UT 84604","precinct":"25PR23","hd":"61","v_score":"14.63972567","decile":"9","lat":40.25028599251987,"lng":-111.68644799919666,"phone":"(698) 986-5363","sd":"23","ssbd":"13","lsbd":"School Board Provo 6"},{"vid":"1973125","name":"Alba Schamberger PhD","party":"Dem","address":"1892 W 890 N, Provo, UT 84604","precinct":"25PR23","hd":"61","v_score":"1.193887297","decile":"3","lat":40.246107420728954,"lng":-111.69199494300317,"phone":"(589) 022-3453","sd":"23","ssbd":"13","lsbd":"School Board Provo 6"},{"vid":"2014574","name":"Dr. Antwan Jast","party":"","address":"2078 W 1100 N, Provo, UT 84604","precinct":"25PR23","hd":"61","v_score":"10.87160818","decile":"9","lat":40.24845183767716,"lng":-111.69447351578529,"phone":"(167) 946-2902","sd":"23","ssbd":"13","lsbd":"School Board Provo 6"},{"vid":"2017973","name":"Frida Bashirian","party":"Dem","address":"2050 W 1080 N, Provo, UT 84604","precinct":"25PR23","hd":"61","v_score":"6.814370645","decile":"8","lat":40.24811545901952,"lng":-111.69367819306716,"phone":"(751) 200-1840","sd":"23","ssbd":"13","lsbd":"School Board Provo 6"},{"vid":"2023414","name":"Miss Karie Miller","party":"Rep","address":"1602 W 900 N, Provo, UT 84604","precinct":"25PR23","hd":"61","v_score":"3.93832808","decile":"6","lat":40.24638606733341,"lng":-111.6866765253947,"phone":"(242) 296-8368","sd":"23","ssbd":"13","lsbd":"School Board Provo 6"},{"vid":"bd61c4946831ac68aa02d8959528f086d1aa8d63062257ed2294541f2f7663b3","name":"Ernie Gusikowski V","party":"Rep","address":"1608 W 1320 N, Provo, UT 84604","precinct":"25PR23","hd":"61","v_score":"12.50803187","decile":"9","lat":40.251878175047636,"lng":-111.6862161203063,"phone":"(309) 461-4131","sd":"23","ssbd":"13","lsbd":"School Board Provo 6"},{"vid":"2037043","name":"Dr. Winnie Becker V","party":"","address":"1015 N 1550 W, Provo, UT 84604","precinct":"25PR23","hd":"61","v_score":"2.958579882","decile":"6","lat":40.24786308143519,"lng":-111.68595630510524,"phone":"(620) 936-3726","sd":"23","ssbd":"13","lsbd":"School Board Provo 6"},{"vid":"2038431","name":"Amasa Hartmann MD","party":"Dem","address":"1854 W 1380 N, Provo, UT 84604","precinct":"25PR23","hd":"61","v_score":"25.93792919","decile":"10","lat":40.25246444331025,"lng":-111.6905764693052,"phone":"(252) 322-3144","sd":"23","ssbd":"13","lsbd":"School Board Provo 6"},{"vid":"2045600","name":"Dr. Adolphus Lowe","party":"","address":"1076 N 1760 W, Provo, UT 84604","precinct":"25PR23","hd":"61","v_score":"3.93832808","decile":"6","lat":40.2486728673337,"lng":-111.69168032837683,"phone":"(506) 963-1819","sd":"23","ssbd":"13","lsbd":"School Board Provo 6"},{"vid":"2057950","name":"Therese Mills","party":"","address":"1151 N Independence Ave, Provo, UT 84604","precinct":"25PR23","hd":"61","v_score":"2.587603312","decile":"5","lat":40.249417605122666,"lng":-111.69417730135092,"phone":"(495) 719-4217","sd":"23","ssbd":"13","lsbd":"School Board Provo 6"},{"vid":"2067665","name":"Chelsy Dietrich","party":"","address":"1893 W 960 N, Provo, UT 84604","precinct":"25PR23","hd":"61","v_score":"2.315214949","decile":"5","lat":40.246361481366876,"lng":-111.69214433966212,"phone":"(832) 995-2442","sd":"23","ssbd":"13","lsbd":"School Board Provo 6"},{"vid":"e3a6e767cf81cb719a7e52391bca85ec442dae92d5bd9676143be1564eb40973","name":"Krissy Erdman","party":"Dem","address":"902 N Independence Ave, Provo, UT 84604","precinct":"25PR23","hd":"61","v_score":"2.315214949","decile":"5","lat":40.24629883365782,"lng":-111.69077093938054,"phone":"(431) 876-0217","sd":"23","ssbd":"13","lsbd":"School Board Provo 6"},{"vid":"c81f740dda392be91c3df8b6e8138f99ad9810ef529c8c19a32da5437aa0e046","name":"Lissie Kihn-Botsford","party":"Dem","address":"1093 N Independence Ave, Provo, UT 84604","precinct":"25PR23","hd":"61","v_score":"1.121327652","decile":"3","lat":40.24853521435424,"lng":-111.69352045034056,"phone":"(912) 769-6560","sd":"23","ssbd":"13","lsbd":"School Board Provo 6"},{"vid":"2082944","name":"Coraima Little","party":"","address":"1897 W 1020 N, Provo, UT 84604","precinct":"25PR23","hd":"61","v_score":"3.781490609","decile":"6","lat":40.24709283651096,"lng":-111.69285459551611,"phone":"(469) 902-4217","sd":"23","ssbd":"13","lsbd":"School Board Provo 6"},{"vid":"2083310","name":"Nelda Raynor","party":"Dem","address":"1584 W 1170 N, Provo, UT 84604","precinct":"25PR23","hd":"61","v_score":"6.52928996","decile":"7","lat":40.25028599251987,"lng":-111.68644799919666,"phone":"(964) 831-2445","sd":"23","ssbd":"13","lsbd":"School Board Provo 6"},{"vid":"1178a9bae3bd9eaa38899d5db6c77247672a64f9ca4487d294c251dd361d0cf9","name":"Arielle Feil","party":"Rep","address":"1898 W 830 N, Provo, UT 84604","precinct":"25PR23","hd":"61","v_score":"2.315214949","decile":"5","lat":40.24552796253894,"lng":-111.69150903851676,"phone":"(591) 263-6744","sd":"23","ssbd":"13","lsbd":"School Board Provo 6"},{"vid":"2098682","name":"Dr. Zelia Price","party":"","address":"1775 W 1060 N, Provo, UT 84604","precinct":"25PR23","hd":"61","v_score":"1.193887297","decile":"3","lat":40.248111946747244,"lng":-111.69182136729003,"phone":"(146) 899-0927","sd":"23","ssbd":"13","lsbd":"School Board Provo 6"},{"vid":"15c50af87c2c952641516960aa7c231f6a8e3868334fdf7016222da7c9e132c6","name":"Seamus Fay-Crist","party":"Dem","address":"1682 W 900 N, Provo, UT 84604","precinct":"25PR23","hd":"61","v_score":"33.03314165","decile":"10","lat":40.246290278225814,"lng":-111.68761810597513,"phone":"(538) 896-3193","sd":"23","ssbd":"13","lsbd":"School Board Provo 6"},{"vid":"2102181","name":"Mrs. Permelia Waters","party":"Rep","address":"1425 N 1750 W, Provo, UT 84604","precinct":"25PR23","hd":"61","v_score":"1.193887297","decile":"3","lat":40.25298073896452,"lng":-111.68908908350188,"phone":"(299) 469-8212","sd":"23","ssbd":"13","lsbd":"School Board Provo 6"},{"vid":"755cde8474ed85519d5b179e170efa9eef0597b378b0e4e48f8adc4ae2f7afb0","name":"Ely Monahan","party":"Dem","address":"2055 W 1100 N, Provo, UT 84604","precinct":"25PR23","hd":"61","v_score":"1.121327652","decile":"3","lat":40.24838210060515,"lng":-111.69399577842213,"phone":"(270) 980-9348","sd":"23","ssbd":"13","lsbd":"School Board Provo 6"},{"vid":"2107226","name":"Seward Haag","party":"Dem","address":"2054 W 1080 N, Provo, UT 84604","precinct":"25PR23","hd":"61","v_score":"12.79826788","decile":"9","lat":40.24808662322168,"lng":-111.69373914232187,"phone":"(935) 835-2791","sd":"23","ssbd":"13","lsbd":"School Board Provo 6"},{"vid":"2116898","name":"Ms. Frona Howe DVM","party":"","address":"1784 W 820 N, Provo, UT 84601","precinct":"25PR23","hd":"61","v_score":"1.121327652","decile":"3","lat":40.24558604427489,"lng":-111.68989562617793,"phone":"(606) 958-5991","sd":"23","ssbd":"13","lsbd":"School Board Provo 6"},{"vid":"2120058","name":"Kenisha Medhurst-Mueller","party":"","address":"1442 Grand Ave, Provo, UT 84604","precinct":"25PR23","hd":"61","v_score":"8.347511332","decile":"8","lat":40.253309836598724,"lng":-111.69338693094784,"phone":"(432) 301-0985","sd":"23","ssbd":"13","lsbd":"School Board Provo 6"},{"vid":"94a7b65b703eb6f46d597719e327f4661d3f535e7a0c61358b4078e0a3a18925","name":"Sena Kub DVM","party":"Rep","address":"842 N 1760 W, Provo, UT 84604","precinct":"25PR23","hd":"61","v_score":"9.640097175","decile":"8","lat":40.245729467495124,"lng":-111.68911119927985,"phone":"(545) 596-0299","sd":"23","ssbd":"13","lsbd":"School Board Provo 6"},{"vid":"f7dacfb4a1f9dbaf39e1ed56fb623f8d5312e5a51b9ca87123f0b054c33ae586","name":"Burrel Lesch","party":"Dem","address":"1149 N 1880 W, Provo, UT 84604","precinct":"25PR23","hd":"61","v_score":"3.781490609","decile":"6","lat":40.249212774158536,"lng":-111.694550342044,"phone":"(565) 459-4724","sd":"23","ssbd":"13","lsbd":"School Board Provo 6"},{"vid":"2132011","name":"Jordy Pagac","party":"","address":"1909 W 960 N, Provo, UT 84604","precinct":"25PR23","hd":"61","v_score":"1.121327652","decile":"3","lat":40.246246173784264,"lng":-111.69238816345079,"phone":"(437) 583-9786","sd":"23","ssbd":"13","lsbd":"School Board Provo 6"},{"vid":"01f51775d6f32381b12d423db5a9424b8b7676526730f07bbc22690b922066b3","name":"Phoenix Luettgen","party":"Dem","address":"1536 W 1170 N, Provo, UT 84604","precinct":"25PR23","hd":"61","v_score":"7.934314529","decile":"8","lat":40.250354637768936,"lng":-111.68581758973735,"phone":"(170) 611-3013","sd":"23","ssbd":"13","lsbd":"School Board Provo 6"},{"vid":"fcc7cbfe9cdeea6a06eef46c49b6a655637e43007e000780045d8aa4f42d0871","name":"Rolla Jerde","party":"Dem","address":"1385 N 1900 W, Provo, UT 84604","precinct":"25PR23","hd":"61","v_score":"12.43077743","decile":"9","lat":40.25236591843168,"lng":-111.69141068080326,"phone":"(452) 713-6349","sd":"23","ssbd":"13","lsbd":"School Board Provo 6"},{"vid":"046a8a3491c8be19abd21a618566059846fc58f5d9f95c13a2230898633114b8","name":"Kara Anderson","party":"","address":"1076 N 1760 W, Provo, UT 84604","precinct":"25PR23","hd":"61","v_score":"3.93832808","decile":"6","lat":40.2486728673337,"lng":-111.69168032837683,"phone":"(608) 030-7218","sd":"23","ssbd":"13","lsbd":"School Board Provo 6"},{"vid":"b0580690e1f54c7479feb31de5eaca6504c34e70baba0bcce76cdd9117bc5d8a","name":"Mrs. Wendi O'Reilly DDS","party":"Dem","address":"1952 W 820 N, Provo, UT 84601","precinct":"25PR23","hd":"61","v_score":"6.657533174","decile":"7","lat":40.246723009047514,"lng":-111.6940019217084,"phone":"(702) 947-0666","sd":"23","ssbd":"13","lsbd":"School Board Provo 6"},{"vid":"2151534","name":"Timothy Grimes","party":"","address":"1701 W 1100 N, Provo, UT 84604","precinct":"25PR23","hd":"61","v_score":"12.64191471","decile":"9","lat":40.24896164640011,"lng":-111.68803540393974,"phone":"(502) 379-4808","sd":"23","ssbd":"13","lsbd":"School Board Provo 6"},{"vid":"2154460","name":"Travon Gusikowski","party":"Rep","address":"1129 N 1880 W, Provo, UT 84604","precinct":"25PR23","hd":"61","v_score":"7.159318653","decile":"8","lat":40.248979235096165,"lng":-111.69436221434192,"phone":"(189) 002-9211","sd":"23","ssbd":"13","lsbd":"School Board Provo 6"},{"vid":"2166987","name":"Arabella Crooks","party":"","address":"898 N Independence Ave, Provo, UT 84604","precinct":"25PR23","hd":"61","v_score":"26.89878031","decile":"10","lat":40.246258675722025,"lng":-111.69073856517569,"phone":"(630) 407-8439","sd":"23","ssbd":"13","lsbd":"School Board Provo 6"},{"vid":"a0ada256983f42ef3f3de7988a93986a29d6490984baf50635471ad02a0f3fd3","name":"Mr. Darcy Schaefer","party":"Dem","address":"1901 W 960 N, Provo, UT 84604","precinct":"25PR23","hd":"61","v_score":"11.30609121","decile":"9","lat":40.246303813886925,"lng":-111.69226626979226,"phone":"(113) 929-2418","sd":"23","ssbd":"13","lsbd":"School Board Provo 6"},{"vid":"d074fb03cf81cf551784fb3e2f1bdc6227956b3d5035f18f4998a95c107e58a1","name":"Mrs. Marybeth Fisher DVM","party":"","address":"1875 W 1380 N, Provo, UT 84604","precinct":"25PR23","hd":"61","v_score":"2.744440783","decile":"5","lat":40.252194744315254,"lng":-111.69076624340194,"phone":"(168) 349-2376","sd":"23","ssbd":"13","lsbd":"School Board Provo 6"},{"vid":"6174ae8cf18a06eab4e7625eabde91a5375676fae814dc484731db05b154eb01","name":"Dr. Trish Barrows","party":"Rep","address":"1705 W 1400 N, Provo, UT 84604","precinct":"25PR23","hd":"61","v_score":"3.711952487","decile":"6","lat":40.25227799580588,"lng":-111.68822795041135,"phone":"(789) 863-5075","sd":"23","ssbd":"13","lsbd":"School Board Provo 6"},{"vid":"2180131","name":"Devyn Kling","party":"","address":"1405 N 1750 W, Provo, UT 84604","precinct":"25PR23","hd":"61","v_score":"1.121327652","decile":"3","lat":40.25277498246667,"lng":-111.68905935699148,"phone":"(102) 850-7551","sd":"23","ssbd":"13","lsbd":"School Board Provo 6"},{"vid":"505dcec2fe325827e2513ca6b1165e0fee252e849cf0f7932e8ae182ee5b4dc7","name":"Reggie Nienow","party":"Rep","address":"2062 W 1100 N, Provo, UT 84604","precinct":"25PR23","hd":"61","v_score":"1.193887297","decile":"3","lat":40.2485671526097,"lng":-111.6942297176884,"phone":"(121) 576-6960","sd":"23","ssbd":"13","lsbd":"School Board Provo 6"},{"vid":"3e2a97a2a801e3bcf933ae4af055eaf6e8f6a18f6145f111aa2b23f1e5dbde81","name":"Chelsey Gerhold","party":"Dem","address":"1111 N Independence Ave, Provo, UT 84604","precinct":"25PR23","hd":"61","v_score":"0","decile":"1","lat":40.248934416164055,"lng":-111.69381889205783,"phone":"(459) 191-6763","sd":"23","ssbd":"13","lsbd":"School Board Provo 6"},{"vid":"2191742","name":"Hunt Hickle","party":"Dem","address":"1802 W 1010 N, Provo, UT 84604","precinct":"25PR23","hd":"61","v_score":"1.121327652","decile":"3","lat":40.24772523242858,"lng":-111.69175058040497,"phone":"(301) 780-6542","sd":"23","ssbd":"13","lsbd":"School Board Provo 6"},{"vid":"120be4b5a853e7e0c54f2b4b6beeb5df9202a8ef99093a257e276c1c21098c70","name":"Mr. Jalon Kirlin DVM","party":"Dem","address":"894 N 1760 W, Provo, UT 84604","precinct":"25PR23","hd":"61","v_score":"2.958579882","decile":"6","lat":40.24668271778028,"lng":-111.68961247738004,"phone":"(653) 762-4213","sd":"23","ssbd":"13","lsbd":"School Board Provo 6"},{"vid":"2224988","name":"Lucie Gusikowski","party":"Dem","address":"1616 W 1100 N, Provo, UT 84604","precinct":"25PR23","hd":"61","v_score":"16.48582198","decile":"9","lat":40.24939268788691,"lng":-111.68691685377873,"phone":"(471) 159-2996","sd":"23","ssbd":"13","lsbd":"School Board Provo 6"},{"vid":"5e375a3829ce3698908cddd986c15c31762d276091bbb83aae2b3ae389bdef30","name":"Darren Brakus","party":"","address":"1993 W 1460 N, Provo, UT 84604","precinct":"25PR23","hd":"61","v_score":"1.121327652","decile":"3","lat":40.25321261640159,"lng":-111.69300550163669,"phone":"(381) 072-4980","sd":"23","ssbd":"13","lsbd":"School Board Provo 6"},{"vid":"a64b3c55da4d6a95dfe4288817841f12ba155bccf0e6e322caecaad11f7265b2","name":"Roe Predovic II","party":"Dem","address":"905 N 1760 W, Provo, UT 84604","precinct":"25PR23","hd":"61","v_score":"6.814370645","decile":"8","lat":40.24649051564649,"lng":-111.69032107512368,"phone":"(644) 975-8130","sd":"23","ssbd":"13","lsbd":"School Board Provo 6"},{"vid":"f1189bc3d02d57973cc6be19c46f8e3a67f5b70e218b8e966a0b621d2d90e08f","name":"Ms. Leesa Huel","party":"Rep","address":"894 N 1760 W, Provo, UT 84604","precinct":"25PR23","hd":"61","v_score":"2.315214949","decile":"5","lat":40.24668271778028,"lng":-111.68961247738004,"phone":"(758) 595-7375","sd":"23","ssbd":"13","lsbd":"School Board Provo 6"},{"vid":"2246084","name":"Pheobe Rath DVM","party":"Rep","address":"855 N 1760 W, Provo, UT 84604","precinct":"25PR23","hd":"61","v_score":"2.315214949","decile":"5","lat":40.24591254163476,"lng":-111.68989871404689,"phone":"(664) 817-1190","sd":"23","ssbd":"13","lsbd":"School Board Provo 6"},{"vid":"4faba6ba70ca67f6df392a06152b18ea14d3f601e45c2baab55bf1066c131ffa","name":"Mabelle DuBuque","party":"","address":"1599 W 1460 N, Provo, UT 84604","precinct":"25PR23","hd":"61","v_score":"21.39966551","decile":"10","lat":40.25320993894074,"lng":-111.68627692526165,"phone":"(680) 400-4467","sd":"23","ssbd":"13","lsbd":"School Board Provo 6"},{"vid":"d013b7a182ff2a7e60eede68d9564d35c6cf0a1fcfe816f3c9ee0f2855b1edc1","name":"Azul Nikolaus PhD","party":"Rep","address":"1637 W 1050 N, Provo, UT 84604","precinct":"25PR23","hd":"61","v_score":"29.68367038","decile":"10","lat":40.248205006748314,"lng":-111.6875927627874,"phone":"(615) 976-7545","sd":"23","ssbd":"13","lsbd":"School Board Provo 6"},{"vid":"72427b26611d5ee82f08b8896c84cb9f389c1843fb68e2cf9ac615180e1c96e4","name":"Kenney Mayert","party":"Dem","address":"1585 W 1250 N, Provo, UT 84604","precinct":"25PR23","hd":"61","v_score":"0","decile":"1","lat":40.25069681737827,"lng":-111.68636830799397,"phone":"(896) 655-8820","sd":"23","ssbd":"13","lsbd":"School Board Provo 6"},{"vid":"1ce838de876d9dc7dd40244b3226b0edbcce6253658c58f921d95c884d1f54fb","name":"Frieda Trantow","party":"","address":"1605 W 950 N, Provo, UT 84604","precinct":"25PR23","hd":"61","v_score":"2.315214949","decile":"5","lat":40.24664251397318,"lng":-111.68687523123835,"phone":"(922) 501-0975","sd":"23","ssbd":"13","lsbd":"School Board Provo 6"},{"vid":"2262508","name":"Cleva White","party":"Dem","address":"1680 W 1000 N, Provo, UT 84604","precinct":"25PR23","hd":"61","v_score":"2.744440783","decile":"5","lat":40.24825399066607,"lng":-111.68839027433383,"phone":"(615) 168-4368","sd":"23","ssbd":"13","lsbd":"School Board Provo 6"},{"vid":"976312e9810f3ac16abe3aa11a86907ba5f2aa7460d819290747cdd17aea9f46","name":"Dr. Anderson Blick","party":"Rep","address":"2078 W 1100 N, Provo, UT 84604","precinct":"25PR23","hd":"61","v_score":"3.997370217","decile":"6","lat":40.24845183767716,"lng":-111.69447351578529,"phone":"(393) 366-1223","sd":"23","ssbd":"13","lsbd":"School Board Provo 6"},{"vid":"2266653","name":"Mr. Jamir Rohan MD","party":"Dem","address":"1055 N 1880 W, Provo, UT 84604","precinct":"25PR23","hd":"61","v_score":"6.52928996","decile":"7","lat":40.247586753921695,"lng":-111.69320499794539,"phone":"(296) 146-1105","sd":"23","ssbd":"13","lsbd":"School Board Provo 6"},{"vid":"2267584","name":"Dr. Alonza Jakubowski","party":"Rep","address":"1637 W 1050 N, Provo, UT 84604","precinct":"25PR23","hd":"61","v_score":"34.93670199","decile":"10","lat":40.248205006748314,"lng":-111.6875927627874,"phone":"(330) 318-3184","sd":"23","ssbd":"13","lsbd":"School Board Provo 6"},{"vid":"c3afab35ca88241811883eb92bff09124f3f4b4f5c8b22724c8404bb0a258905","name":"Verdie Okuneva","party":"","address":"1167 N Independence Ave, Provo, UT 84604","precinct":"25PR23","hd":"61","v_score":"2.315214949","decile":"5","lat":40.24961780707166,"lng":-111.69429491831006,"phone":"(901) 959-3234","sd":"23","ssbd":"13","lsbd":"School Board Provo 6"},{"vid":"329e590b9b904563da01c7e93af606acf0b61fccd4605ce32fcafa6940f604b8","name":"Jenelle Leuschke","party":"","address":"1536 W 1050 N, Provo, UT 84604","precinct":"25PR23","hd":"61","v_score":"2.315214949","decile":"5","lat":40.24867558368969,"lng":-111.68587213005151,"phone":"(140) 290-9263","sd":"23","ssbd":"13","lsbd":"School Board Provo 6"},{"vid":"2316748","name":"Algernon Koelpin","party":"","address":"1675 W 1000 N, Provo, UT 84604","precinct":"25PR23","hd":"61","v_score":"1.121327652","decile":"3","lat":40.24766478243209,"lng":-111.68818839115949,"phone":"(692) 697-4119","sd":"23","ssbd":"13","lsbd":"School Board Provo 6"},{"vid":"2318556","name":"Dr. Jaleel Jast","party":"Dem","address":"1797 W 1110 N, Provo, UT 84604","precinct":"25PR23","hd":"61","v_score":"2.315214949","decile":"5","lat":40.24865941979997,"lng":-111.69255232430643,"phone":"(950) 038-6193","sd":"23","ssbd":"13","lsbd":"School Board Provo 6"},{"vid":"2327201","name":"Miss Jasmine Cruickshank","party":"","address":"2051 W Lakeview Dr, Provo, UT 84604","precinct":"25PR23","hd":"61","v_score":"11.86435558","decile":"9","lat":40.251920708732946,"lng":-111.69432877544976,"phone":"(991) 150-0967","sd":"23","ssbd":"13","lsbd":"School Board Provo 6"},{"vid":"2331936","name":"Cal Bernhard","party":"","address":"2047 W 1100 N, Provo, UT 84604","precinct":"25PR23","hd":"61","v_score":"0","decile":"1","lat":40.24843974437404,"lng":-111.69387387883468,"phone":"(164) 827-2888","sd":"23","ssbd":"13","lsbd":"School Board Provo 6"},{"vid":"2340605","name":"Jess Lebsack","party":"Rep","address":"1680 W 1000 N, Provo, UT 84604","precinct":"25PR23","hd":"61","v_score":"0","decile":"1","lat":40.24825399066607,"lng":-111.68839027433383,"phone":"(422) 183-3426","sd":"23","ssbd":"13","lsbd":"School Board Provo 6"},{"vid":"2342402","name":"Dr. Harvey Fritsch","party":"","address":"903 N 1760 W, Provo, UT 84604","precinct":"25PR23","hd":"61","v_score":"2.315214949","decile":"5","lat":40.24645435137861,"lng":-111.69028151044397,"phone":"(352) 694-5643","sd":"23","ssbd":"13","lsbd":"School Board Provo 6"},{"vid":"2342406","name":"Arminda Medhurst DDS","party":"Dem","address":"903 N 1760 W, Provo, UT 84604","precinct":"25PR23","hd":"61","v_score":"2.315214949","decile":"5","lat":40.24645435137861,"lng":-111.69028151044397,"phone":"(863) 883-6218","sd":"23","ssbd":"13","lsbd":"School Board Provo 6"},{"vid":"2350452","name":"Marlene Hoeger","party":"","address":"1425 N 2100 W, Provo, UT 84604","precinct":"25PR23","hd":"61","v_score":"1.121327652","decile":"3","lat":40.25275349720699,"lng":-111.69513011955837,"phone":"(790) 817-0794","sd":"23","ssbd":"13","lsbd":"School Board Provo 6"},{"vid":"2352741","name":"Ancel Daniel-McCullough","party":"","address":"1906 W 830 N, Provo, UT 84604","precinct":"25PR23","hd":"61","v_score":"0","decile":"1","lat":40.24552586850672,"lng":-111.69158059022747,"phone":"(819) 666-2332","sd":"23","ssbd":"13","lsbd":"School Board Provo 6"},{"vid":"2374505","name":"Hilario Spinka","party":"","address":"1545 W 1050 N, Provo, UT 84604","precinct":"25PR23","hd":"61","v_score":"1.121327652","decile":"3","lat":40.24825769022697,"lng":-111.68578499232169,"phone":"(949) 643-5502","sd":"23","ssbd":"13","lsbd":"School Board Provo 6"},{"vid":"2374817","name":"Jalissa Kertzmann","party":"Dem","address":"994 N 1760 W, Provo, UT 84604","precinct":"25PR23","hd":"61","v_score":"18.44108562","decile":"10","lat":40.24788148174631,"lng":-111.69082915919411,"phone":"(974) 666-0764","sd":"23","ssbd":"13","lsbd":"School Board Provo 6"},{"vid":"2387905","name":"Janiyah Stroman-Kreiger","party":"Rep","address":"1905 W 960 N, Provo, UT 84604","precinct":"25PR23","hd":"61","v_score":"0","decile":"1","lat":40.24627497992281,"lng":-111.69232721635204,"phone":"(222) 351-9181","sd":"23","ssbd":"13","lsbd":"School Board Provo 6"},{"vid":"2390427","name":"Griselda Fahey DDS","party":"Dem","address":"1046 N 1760 W, Provo, UT 84604","precinct":"25PR23","hd":"61","v_score":"3.93832808","decile":"6","lat":40.248310532252674,"lng":-111.69129845940043,"phone":"(375) 205-5012","sd":"23","ssbd":"13","lsbd":"School Board Provo 6"},{"vid":"2392168","name":"Ms. Ottie Heathcote MD","party":"","address":"1909 W 960 N, Provo, UT 84604","precinct":"25PR23","hd":"61","v_score":"1.193887297","decile":"3","lat":40.246246173784264,"lng":-111.69238816345079,"phone":"(199) 557-7104","sd":"23","ssbd":"13","lsbd":"School Board Provo 6"},{"vid":"2409335","name":"Violet Kozey","party":"","address":"883 N 1760 W, Provo, UT 84604","precinct":"25PR23","hd":"61","v_score":"2.315214949","decile":"5","lat":40.2462735969443,"lng":-111.69005662817202,"phone":"(671) 338-0814","sd":"23","ssbd":"13","lsbd":"School Board Provo 6"},{"vid":"2410585","name":"Mrs. Chimere Steuber MD","party":"Rep","address":"1792 W 1010 N, Provo, UT 84604","precinct":"25PR23","hd":"61","v_score":"1.121327652","decile":"3","lat":40.24783045919104,"lng":-111.69152810454001,"phone":"(683) 340-0738","sd":"23","ssbd":"13","lsbd":"School Board Provo 6"},{"vid":"2410604","name":"Dr. Kamari Ortiz","party":"","address":"1571 W 1460 N, Provo, UT 84604","precinct":"25PR23","hd":"61","v_score":"3.93832808","decile":"6","lat":40.25319933998249,"lng":-111.68590428339915,"phone":"(584) 249-9409","sd":"23","ssbd":"13","lsbd":"School Board Provo 6"},{"vid":"2414411","name":"Godfrey Waters III","party":"","address":"1802 W 1010 N, Provo, UT 84604","precinct":"25PR23","hd":"61","v_score":"1.121327652","decile":"3","lat":40.24772523242858,"lng":-111.69175058040497,"phone":"(951) 398-5309","sd":"23","ssbd":"13","lsbd":"School Board Provo 6"},{"vid":"2419494","name":"Devan Brown-Metz","party":"Rep","address":"1055 N 1880 W, Provo, UT 84604","precinct":"25PR23","hd":"61","v_score":"2.315214949","decile":"5","lat":40.247586753921695,"lng":-111.69320499794539,"phone":"(428) 137-7167","sd":"23","ssbd":"13","lsbd":"School Board Provo 6"},{"vid":"2422759","name":"Mr. Greyson Rutherford","party":"","address":"1141 N 1880 W, Provo, UT 84604","precinct":"25PR23","hd":"61","v_score":"0","decile":"1","lat":40.24911936971009,"lng":-111.69447511191191,"phone":"(210) 908-5667","sd":"23","ssbd":"13","lsbd":"School Board Provo 6"},{"vid":"2422951","name":"Chadrick Welch","party":"Dem","address":"1893 W 960 N, Provo, UT 84604","precinct":"25PR23","hd":"61","v_score":"3.781490609","decile":"6","lat":40.246361481366876,"lng":-111.69214433966212,"phone":"(679) 726-0997","sd":"23","ssbd":"13","lsbd":"School Board Provo 6"},{"vid":"2426276","name":"Tamra Grady","party":"Rep","address":"2074 W 1100 N, Provo, UT 84604","precinct":"25PR23","hd":"61","v_score":"1.121327652","decile":"3","lat":40.24848067277086,"lng":-111.69441256671023,"phone":"(835) 164-2607","sd":"23","ssbd":"13","lsbd":"School Board Provo 6"},{"vid":"2427058","name":"Ingram Leffler","party":"","address":"2074 W 1100 N, Provo, UT 84604","precinct":"25PR23","hd":"61","v_score":"1.121327652","decile":"3","lat":40.24848067277086,"lng":-111.69441256671023,"phone":"(953) 573-3286","sd":"23","ssbd":"13","lsbd":"School Board Provo 6"},{"vid":"2445487","name":"Orrie Hamill","party":"","address":"1068 N 1760 W, Provo, UT 84604","precinct":"25PR23","hd":"61","v_score":"1.121327652","decile":"3","lat":40.24855507112018,"lng":-111.69155149343608,"phone":"(221) 820-8601","sd":"23","ssbd":"13","lsbd":"School Board Provo 6"},{"vid":"2450084","name":"Zachariah Schmeler","party":"Dem","address":"1109 N 1750 W, Provo, UT 84604","precinct":"25PR23","hd":"61","v_score":"1.121327652","decile":"3","lat":40.24988594233682,"lng":-111.68905783883866,"phone":"(263) 587-0802","sd":"23","ssbd":"13","lsbd":"School Board Provo 6"},{"vid":"2452009","name":"Dewayne Rippin","party":"Dem","address":"2051 W 1100 N, Provo, UT 84604","precinct":"25PR23","hd":"61","v_score":"2.315214949","decile":"5","lat":40.248410908988646,"lng":-111.69393482808943,"phone":"(407) 725-6043","sd":"23","ssbd":"13","lsbd":"School Board Provo 6"},{"vid":"2453069","name":"Miss Traci Kling PhD","party":"Dem","address":"1616 W 1100 N, Provo, UT 84604","precinct":"25PR23","hd":"61","v_score":"13.54291438","decile":"9","lat":40.24939268788691,"lng":-111.68691685377873,"phone":"(305) 254-0610","sd":"23","ssbd":"13","lsbd":"School Board Provo 6"},{"vid":"2457946","name":"Damari Lebsack I","party":"","address":"1443 N 1900 W, Provo, UT 84604","precinct":"25PR23","hd":"61","v_score":"3.93832808","decile":"6","lat":40.25330657724463,"lng":-111.69145935512444,"phone":"(815) 423-7708","sd":"23","ssbd":"13","lsbd":"School Board Provo 6"},{"vid":"2458352","name":"Glennie Thiel","party":"Dem","address":"1297 N 1750 W, Provo, UT 84604","precinct":"25PR23","hd":"61","v_score":"5.191257514","decile":"7","lat":40.251337667225854,"lng":-111.68904398753561,"phone":"(704) 506-1925","sd":"23","ssbd":"13","lsbd":"School Board Provo 6"},{"vid":"2465427","name":"Mr. Thor Hermiston","party":"Dem","address":"1581 W 1320 N, Provo, UT 84604","precinct":"25PR23","hd":"61","v_score":"0","decile":"1","lat":40.25141675167277,"lng":-111.68531171664449,"phone":"(929) 271-6173","sd":"23","ssbd":"13","lsbd":"School Board Provo 6"},{"vid":"2470368","name":"Dr. Baylie Senger MD","party":"","address":"1551 W 1100 N, Provo, UT 84604","precinct":"25PR23","hd":"61","v_score":"1.193887297","decile":"3","lat":40.24895410181574,"lng":-111.68600339852836,"phone":"(325) 998-5230","sd":"23","ssbd":"13","lsbd":"School Board Provo 6"},{"vid":"2471792","name":"Valentine Hoeger","party":"","address":"1101 N Independence Ave, Provo, UT 84604","precinct":"25PR23","hd":"61","v_score":"1.623113131","decile":"5","lat":40.2486286468972,"lng":-111.69359571335102,"phone":"(493) 932-3953","sd":"23","ssbd":"13","lsbd":"School Board Provo 6"},{"vid":"2471957","name":"Mayra Mills","party":"Rep","address":"1582 W 1000 N, Provo, UT 84604","precinct":"25PR23","hd":"61","v_score":"0","decile":"1","lat":40.24789967286174,"lng":-111.68645484328114,"phone":"(770) 073-1425","sd":"23","ssbd":"13","lsbd":"School Board Provo 6"},{"vid":"2477965","name":"Gage Robel","party":"","address":"1344 N 1850 W, Provo, UT 84604","precinct":"25PR23","hd":"61","v_score":"0","decile":"1","lat":40.251669651763436,"lng":-111.69017347776673,"phone":"(649) 470-6660","sd":"23","ssbd":"13","lsbd":"School Board Provo 6"},{"vid":"2478460","name":"Landin Beier","party":"Dem","address":"1581 W 1320 N, Provo, UT 84604","precinct":"25PR23","hd":"61","v_score":"0","decile":"1","lat":40.25141675167277,"lng":-111.68531171664449,"phone":"(545) 228-9899","sd":"23","ssbd":"13","lsbd":"School Board Provo 6"},{"vid":"2479139","name":"Dr. Johney Klocko MD","party":"Rep","address":"1799 W 1460 N, Provo, UT 84604","precinct":"25PR23","hd":"61","v_score":"0","decile":"1","lat":40.253127829671214,"lng":-111.68950922448228,"phone":"(628) 815-6837","sd":"23","ssbd":"13","lsbd":"School Board Provo 6"},{"vid":"2483435","name":"Danyell Lindgren","party":"Rep","address":"1241 Grand Ave, Provo, UT 84604","precinct":"25PR23","hd":"61","v_score":"2.817000428","decile":"6","lat":40.249881802931874,"lng":-111.69227882354873,"phone":"(390) 326-5572","sd":"23","ssbd":"13","lsbd":"School Board Provo 6"},{"vid":"2501464","name":"Zavier Lebsack","party":"","address":"2067 W 1080 N, Provo, UT 84604","precinct":"25PR23","hd":"61","v_score":"2.817000428","decile":"6","lat":40.24768047368869,"lng":-111.69372452745084,"phone":"(377) 262-1083","sd":"23","ssbd":"13","lsbd":"School Board Provo 6"},{"vid":"2512058","name":"Dr. Storm Pfannerstill","party":"Rep","address":"1536 W 1100 N, Provo, UT 84604","precinct":"25PR23","hd":"61","v_score":"15.1758219","decile":"9","lat":40.249404558875796,"lng":-111.68565834565645,"phone":"(641) 652-4901","sd":"23","ssbd":"13","lsbd":"School Board Provo 6"},{"vid":"2516856","name":"Nels Olson","party":"Dem","address":"1273 N 1650 W, Provo, UT 84604","precinct":"25PR23","hd":"61","v_score":"0","decile":"1","lat":40.25092425699409,"lng":-111.68781445747179,"phone":"(799) 312-3347","sd":"23","ssbd":"13","lsbd":"School Board Provo 6"},{"vid":"2528800","name":"Pamella Watsica DVM","party":"Dem","address":"1917 W 960 N, Provo, UT 84604","precinct":"25PR23","hd":"61","v_score":"0","decile":"1","lat":40.24618850510901,"lng":-111.69251005854665,"phone":"(413) 763-5934","sd":"23","ssbd":"13","lsbd":"School Board Provo 6"},{"vid":"2531830","name":"Jane Morissette","party":"Dem","address":"1875 W 1380 N, Provo, UT 84604","precinct":"25PR23","hd":"61","v_score":"2.817000428","decile":"6","lat":40.252194744315254,"lng":-111.69076624340194,"phone":"(747) 756-2567","sd":"23","ssbd":"13","lsbd":"School Board Provo 6"},{"vid":"2538088","name":"Shea Hudson","party":"Dem","address":"1630 W 1170 N, Provo, UT 84604","precinct":"25PR23","hd":"61","v_score":"8.284004873","decile":"8","lat":40.25024182425293,"lng":-111.68730980840536,"phone":"(932) 707-0487","sd":"23","ssbd":"13","lsbd":"School Board Provo 6"},{"vid":"2538175","name":"Dr. Verlin Lowe I","party":"Dem","address":"1875 W 1380 N, Provo, UT 84604","precinct":"25PR23","hd":"61","v_score":"1.193887297","decile":"4","lat":40.252194744315254,"lng":-111.69076624340194,"phone":"(178) 610-5028","sd":"23","ssbd":"13","lsbd":"School Board Provo 6"},{"vid":"2540116","name":"Twyla Douglas","party":"","address":"2046 W 1100 N, Provo, UT 84604","precinct":"25PR23","hd":"61","v_score":"1.193887297","decile":"4","lat":40.2486752791298,"lng":-111.69400112160145,"phone":"(804) 147-8586","sd":"23","ssbd":"13","lsbd":"School Board Provo 6"},{"vid":"2544560","name":"Electa Wilderman","party":"Rep","address":"935 Grand Ave, Provo, UT 84604","precinct":"25PR23","hd":"61","v_score":"1.193887297","decile":"4","lat":40.2463180077357,"lng":-111.68806300897278,"phone":"(967) 129-5570","sd":"23","ssbd":"13","lsbd":"School Board Provo 6"},{"vid":"2545369","name":"Anner Zieme-Lebsack","party":"Dem","address":"958 N 1760 W, Provo, UT 84604","precinct":"25PR23","hd":"61","v_score":"0","decile":"1","lat":40.24742986626964,"lng":-111.69033533605847,"phone":"(749) 071-4915","sd":"23","ssbd":"13","lsbd":"School Board Provo 6"},{"vid":"2557954","name":"Devin Ferry-Crooks","party":"","address":"1707 W 1320 N, Provo, UT 84604","precinct":"25PR23","hd":"61","v_score":"0","decile":"1","lat":40.25123998256207,"lng":-111.68816191675629,"phone":"(625) 169-9648","sd":"23","ssbd":"13","lsbd":"School Board Provo 6"},{"vid":"2562537","name":"Jarvis Hills-Satterfield","party":"Dem","address":"1224 N 1650 W, Provo, UT 84604","precinct":"25PR23","hd":"61","v_score":"2.817000428","decile":"6","lat":40.25066725534687,"lng":-111.68724855959772,"phone":"(359) 511-2578","sd":"23","ssbd":"13","lsbd":"School Board Provo 6"},{"vid":"2575683","name":"Arkie Zemlak","party":"Dem","address":"1605 W 1170 N, Provo, UT 84604","precinct":"25PR23","hd":"61","v_score":"0","decile":"1","lat":40.24990209180977,"lng":-111.68673617263126,"phone":"(868) 951-7735","sd":"23","ssbd":"13","lsbd":"School Board Provo 6"},{"vid":"2578054","name":"Ellar Bogisich","party":"Rep","address":"1445 N 1500 W, Provo, UT 84604","precinct":"25PR23","hd":"61","v_score":"14.13760315","decile":"9","lat":40.25330340222141,"lng":-111.68544516113678,"phone":"(789) 939-7303","sd":"23","ssbd":"13","lsbd":"School Board Provo 6"},{"vid":"2578076","name":"Claus Reilly","party":"","address":"1793 W 1060 N, Provo, UT 84604","precinct":"25PR23","hd":"61","v_score":"5.693042993","decile":"7","lat":40.247865594530424,"lng":-111.69234648862847,"phone":"(861) 417-1925","sd":"23","ssbd":"13","lsbd":"School Board Provo 6"},{"vid":"2590559","name":"Ms. Madison McCullough MD","party":"","address":"1645 W 1000 N, Provo, UT 84604","precinct":"25PR23","hd":"61","v_score":"0","decile":"1","lat":40.24743411647318,"lng":-111.68744990676204,"phone":"(754) 836-7135","sd":"23","ssbd":"13","lsbd":"School Board Provo 6"},{"vid":"2593872","name":"Johnathon Schmeler","party":"","address":"1141 N 1880 W, Provo, UT 84604","precinct":"25PR23","hd":"61","v_score":"0","decile":"1","lat":40.24911936971009,"lng":-111.69447511191191,"phone":"(635) 656-8005","sd":"23","ssbd":"13","lsbd":"School Board Provo 6"},{"vid":"2596618","name":"Marlin Aufderhar-Gulgowski","party":"","address":"1536 W 1250 N, Provo, UT 84604","precinct":"25PR23","hd":"61","v_score":"1.193887297","decile":"4","lat":40.25108960915395,"lng":-111.68583031473268,"phone":"(486) 285-9009","sd":"23","ssbd":"13","lsbd":"School Board Provo 6"},{"vid":"2609532","name":"Cloe Macejkovic","party":"Dem","address":"1510 W 1170 N, Provo, UT 84604","precinct":"25PR23","hd":"61","v_score":"7.781882349","decile":"8","lat":40.25024285222373,"lng":-111.6853200713397,"phone":"(163) 161-0586","sd":"23","ssbd":"13","lsbd":"School Board Provo 6"},{"vid":"2610520","name":"Zaria Brakus","party":"Rep","address":"1794 W 1010 N, Provo, UT 84604","precinct":"25PR23","hd":"61","v_score":"18.35167816","decile":"10","lat":40.24780305956233,"lng":-111.69158600886524,"phone":"(169) 035-8776","sd":"23","ssbd":"13","lsbd":"School Board Provo 6"},{"vid":"2611205","name":"Israel Bayer","party":"Dem","address":"1280 N 1750 W, Provo, UT 84604","precinct":"25PR23","hd":"61","v_score":"1.193887297","decile":"4","lat":40.25114144683467,"lng":-111.68855650306665,"phone":"(296) 622-8000","sd":"23","ssbd":"13","lsbd":"School Board Provo 6"},{"vid":"2615309","name":"Maryann Zboncak","party":"","address":"1663 W 1100 N, Provo, UT 84604","precinct":"25PR23","hd":"61","v_score":"0","decile":"1","lat":40.24893768087972,"lng":-111.68777435973736,"phone":"(892) 789-6485","sd":"23","ssbd":"13","lsbd":"School Board Provo 6"},{"vid":"2619085","name":"Birtha Jakubowski","party":"","address":"1581 W 1320 N, Provo, UT 84604","precinct":"25PR23","hd":"61","v_score":"18.88777439","decile":"10","lat":40.25141675167277,"lng":-111.68531171664449,"phone":"(356) 014-2855","sd":"23","ssbd":"13","lsbd":"School Board Provo 6"},{"vid":"2622496","name":"Terrell Daugherty","party":"Rep","address":"1445 N 1500 W, Provo, UT 84604","precinct":"25PR23","hd":"61","v_score":"14.13760315","decile":"9","lat":40.25330340222141,"lng":-111.68544516113678,"phone":"(757) 166-0682","sd":"23","ssbd":"13","lsbd":"School Board Provo 6"},{"vid":"2623047","name":"Kirby Pouros V","party":"Rep","address":"1081 N Independence Ave, Provo, UT 84604","precinct":"25PR23","hd":"61","v_score":"4.499155696","decile":"7","lat":40.24825497093997,"lng":-111.69329469598415,"phone":"(321) 039-1718","sd":"23","ssbd":"13","lsbd":"School Board Provo 6"},{"vid":"2631024","name":"Gannon Wisozk MD","party":"","address":"1116 N 1760 W, Provo, UT 84604","precinct":"25PR23","hd":"61","v_score":"13.61907049","decile":"9","lat":40.24923138305975,"lng":-111.69306888380619,"phone":"(874) 613-0019","sd":"23","ssbd":"13","lsbd":"School Board Provo 6"},{"vid":"2631304","name":"Lindbergh Hills","party":"","address":"901 N 1760 W, Provo, UT 84604","precinct":"25PR23","hd":"61","v_score":"5.693042993","decile":"7","lat":40.24641690641629,"lng":-111.69024053954148,"phone":"(429) 759-2504","sd":"23","ssbd":"13","lsbd":"School Board Provo 6"},{"vid":"2631307","name":"Bennett Ruecker DDS","party":"Dem","address":"901 N 1760 W, Provo, UT 84604","precinct":"25PR23","hd":"61","v_score":"5.693042993","decile":"7","lat":40.24641690641629,"lng":-111.69024053954148,"phone":"(812) 060-8258","sd":"23","ssbd":"13","lsbd":"School Board Provo 6"},{"vid":"2635693","name":"Rigoberto Rodriguez","party":"Dem","address":"1778 W 1060 N, Provo, UT 84604","precinct":"25PR23","hd":"61","v_score":"0","decile":"1","lat":40.24836698962834,"lng":-111.69226232154686,"phone":"(902) 876-1358","sd":"23","ssbd":"13","lsbd":"School Board Provo 6"},{"vid":"2639008","name":"Mr. Henry Turcotte PhD","party":"","address":"1786 W 1060 N, Provo, UT 84604","precinct":"25PR23","hd":"61","v_score":"5.693042993","decile":"7","lat":40.24829334886523,"lng":-111.69243054147431,"phone":"(640) 855-4308","sd":"23","ssbd":"13","lsbd":"School Board Provo 6"},{"vid":"2644102","name":"Miss Margot Murray MD","party":"","address":"901 N 1760 W, Provo, UT 84604","precinct":"25PR23","hd":"61","v_score":"5.693042993","decile":"7","lat":40.24641690641629,"lng":-111.69024053954148,"phone":"(526) 197-7257","sd":"23","ssbd":"13","lsbd":"School Board Provo 6"},{"vid":"2647748","name":"Kathryne Mitchell-Parisian","party":"","address":"1898 W 1020 N, Provo, UT 84604","precinct":"25PR23","hd":"61","v_score":"4.069929862","decile":"6","lat":40.247359792176155,"lng":-111.69317197695352,"phone":"(702) 802-0466","sd":"23","ssbd":"13","lsbd":"School Board Provo 6"},{"vid":"2659752","name":"Ethelbert Johns DDS","party":"","address":"1885 W 1020 N, Provo, UT 84604","precinct":"25PR23","hd":"61","v_score":"0","decile":"1","lat":40.24715050537568,"lng":-111.69273266358934,"phone":"(408) 855-0205","sd":"23","ssbd":"13","lsbd":"School Board Provo 6"},{"vid":"2661546","name":"Leana Morar","party":"Dem","address":"1443 N 1900 W, Provo, UT 84604","precinct":"25PR23","hd":"61","v_score":"1.193887297","decile":"4","lat":40.25330657724463,"lng":-111.69145935512444,"phone":"(422) 856-2252","sd":"23","ssbd":"13","lsbd":"School Board Provo 6"},{"vid":"2663371","name":"Shawn Smitham DDS","party":"Dem","address":"1892 W 960 N, Provo, UT 84604","precinct":"25PR23","hd":"61","v_score":"0","decile":"1","lat":40.246663470151454,"lng":-111.69237866197004,"phone":"(389) 310-5480","sd":"23","ssbd":"13","lsbd":"School Board Provo 6"},{"vid":"2668550","name":"Sanders Ziemann","party":"Dem","address":"1444 N Timpanogos Dr, Provo, UT 84604","precinct":"25PR23","hd":"61","v_score":"1.193887297","decile":"4","lat":40.2532822338617,"lng":-111.69216969734283,"phone":"(519) 332-7209","sd":"23","ssbd":"13","lsbd":"School Board Provo 6"},{"vid":"2675161","name":"Marshall Tremblay","party":"Rep","address":"1905 W 960 N, Provo, UT 84604","precinct":"25PR23","hd":"61","v_score":"1.193887297","decile":"4","lat":40.24627497992281,"lng":-111.69232721635204,"phone":"(524) 534-9868","sd":"23","ssbd":"13","lsbd":"School Board Provo 6"},{"vid":"2684765","name":"Konner Conn Jr.","party":"","address":"907 N 1760 W, Provo, UT 84604","precinct":"25PR23","hd":"61","v_score":"5.926494964","decile":"7","lat":40.246527960979506,"lng":-111.69036201117152,"phone":"(774) 408-1065","sd":"23","ssbd":"13","lsbd":"School Board Provo 6"},{"vid":"2688439","name":"Janae Purdy-O'Connell","party":"","address":"1155 N Independence Ave, Provo, UT 84604","precinct":"25PR23","hd":"61","v_score":"0","decile":"2","lat":40.249467669618,"lng":-111.69420670536611,"phone":"(445) 274-8796","sd":"23","ssbd":"13","lsbd":"School Board Provo 6"},{"vid":"2689056","name":"Gray Kutch","party":"Rep","address":"1778 W 1060 N, Provo, UT 84604","precinct":"25PR23","hd":"61","v_score":"0","decile":"2","lat":40.24836698962834,"lng":-111.69226232154686,"phone":"(944) 420-0984","sd":"23","ssbd":"13","lsbd":"School Board Provo 6"},{"vid":"2696438","name":"Annis Feil","party":"Dem","address":"1270 N 1750 W, Provo, UT 84604","precinct":"25PR23","hd":"61","v_score":"1.193887297","decile":"4","lat":40.25101708956525,"lng":-111.68838619288354,"phone":"(885) 884-8212","sd":"23","ssbd":"13","lsbd":"School Board Provo 6"},{"vid":"2699167","name":"Cal Aufderhar","party":"Rep","address":"966 N 1760 W, Provo, UT 84604","precinct":"25PR23","hd":"61","v_score":"0","decile":"2","lat":40.247544484816245,"lng":-111.69046072039055,"phone":"(342) 442-4644","sd":"23","ssbd":"13","lsbd":"School Board Provo 6"},{"vid":"2701156","name":"Mrs. Epsie Wunsch","party":"","address":"1581 W 1320 N, Provo, UT 84604","precinct":"25PR23","hd":"61","v_score":"11.99595736","decile":"9","lat":40.25141675167277,"lng":-111.68531171664449,"phone":"(696) 514-8509","sd":"23","ssbd":"13","lsbd":"School Board Provo 6"},{"vid":"2701595","name":"Mr. Yahir Schowalter DVM","party":"Dem","address":"1581 W 1320 N, Provo, UT 84604","precinct":"25PR23","hd":"61","v_score":"8.284004873","decile":"8","lat":40.25141675167277,"lng":-111.68531171664449,"phone":"(405) 419-6660","sd":"23","ssbd":"13","lsbd":"School Board Provo 6"},{"vid":"2706021","name":"Dr. Stephanie Barton","party":"","address":"1899 W 890 N, Provo, UT 84604","precinct":"25PR23","hd":"61","v_score":"0","decile":"2","lat":40.24577406188779,"lng":-111.69182460517763,"phone":"(129) 455-2159","sd":"23","ssbd":"13","lsbd":"School Board Provo 6"},{"vid":"2711126","name":"Lindsey McClure IV","party":"Rep","address":"1518 W 1100 N, Provo, UT 84604","precinct":"25PR23","hd":"61","v_score":"0","decile":"2","lat":40.24932311119615,"lng":-111.68532362097302,"phone":"(680) 491-1963","sd":"23","ssbd":"13","lsbd":"School Board Provo 6"},{"vid":"2712062","name":"Modena Botsford-Marvin","party":"","address":"1118 N 1760 W, Provo, UT 84604","precinct":"25PR23","hd":"61","v_score":"0","decile":"2","lat":40.249143290457425,"lng":-111.69318800307785,"phone":"(429) 435-0822","sd":"23","ssbd":"13","lsbd":"School Board Provo 6"},{"vid":"2713451","name":"Wade Powlowski","party":"","address":"2074 W 1080 N, Provo, UT 84604","precinct":"25PR23","hd":"61","v_score":"1.193887297","decile":"4","lat":40.24795255483174,"lng":-111.69402257085514,"phone":"(729) 248-9657","sd":"23","ssbd":"13","lsbd":"School Board Provo 6"},{"vid":"2719142","name":"Glenwood Williamson-Donnelly","party":"Dem","address":"1787 W 1060 N, Provo, UT 84604","precinct":"25PR23","hd":"61","v_score":"1.193887297","decile":"4","lat":40.24794238809977,"lng":-111.69218610611259,"phone":"(337) 959-5946","sd":"23","ssbd":"13","lsbd":"School Board Provo 6"},{"vid":"2724338","name":"Shay Grimes","party":"","address":"909 N 1760 W, Provo, UT 84604","precinct":"25PR23","hd":"61","v_score":"0","decile":"2","lat":40.246564124933755,"lng":-111.69040161160419,"phone":"(214) 690-2397","sd":"23","ssbd":"13","lsbd":"School Board Provo 6"},{"vid":"2726703","name":"Ms. Elliana Hane","party":"","address":"1605 W 950 N, Provo, UT 84604","precinct":"25PR23","hd":"61","v_score":"28.76262624","decile":"10","lat":40.24664251397318,"lng":-111.68687523123835,"phone":"(241) 072-8625","sd":"23","ssbd":"13","lsbd":"School Board Provo 6"},{"vid":"2730841","name":"Esmeralda Littel","party":"","address":"1902 W 1020 N, Provo, UT 84604","precinct":"25PR23","hd":"61","v_score":"1.193887297","decile":"4","lat":40.247330957839075,"lng":-111.69323292530993,"phone":"(128) 782-7020","sd":"23","ssbd":"13","lsbd":"School Board Provo 6"},{"vid":"2735435","name":"Mr. Theophile Cormier","party":"","address":"1589 W 1050 N, Provo, UT 84604","precinct":"25PR23","hd":"61","v_score":"0","decile":"2","lat":40.24821301723553,"lng":-111.68679052986874,"phone":"(998) 523-9964","sd":"23","ssbd":"13","lsbd":"School Board Provo 6"},{"vid":"2738714","name":"Helmer Casper","party":"Rep","address":"1875 W 1380 N, Provo, UT 84604","precinct":"25PR23","hd":"61","v_score":"0","decile":"2","lat":40.252194744315254,"lng":-111.69076624340194,"phone":"(584) 591-0246","sd":"23","ssbd":"13","lsbd":"School Board Provo 6"},{"vid":"2750579","name":"Ms. Lyndsay Kuvalis","party":"Dem","address":"2071 W 1100 N, Provo, UT 84604","precinct":"25PR23","hd":"61","v_score":"1.193887297","decile":"4","lat":40.24827829891346,"lng":-111.69421521798144,"phone":"(483) 299-7646","sd":"23","ssbd":"13","lsbd":"School Board Provo 6"},{"vid":"2761582","name":"Jewel Goldner","party":"Rep","address":"1888 W 890 N, Provo, UT 84604","precinct":"25PR23","hd":"61","v_score":"0","decile":"2","lat":40.246136254764444,"lng":-111.69193399662304,"phone":"(723) 958-6555","sd":"23","ssbd":"13","lsbd":"School Board Provo 6"},{"vid":"2765207","name":"Dasia Price","party":"Rep","address":"1797 W 1110 N, Provo, UT 84604","precinct":"25PR23","hd":"61","v_score":"1.193887297","decile":"4","lat":40.24865941979997,"lng":-111.69255232430643,"phone":"(956) 883-4159","sd":"23","ssbd":"13","lsbd":"School Board Provo 6"},{"vid":"2765984","name":"Lena Gutkowski-Grady","party":"Rep","address":"1411 N 1900 W, Provo, UT 84604","precinct":"25PR23","hd":"61","v_score":"1.193887297","decile":"4","lat":40.25269952711063,"lng":-111.69159878542388,"phone":"(447) 125-0903","sd":"23","ssbd":"13","lsbd":"School Board Provo 6"},{"vid":"2768210","name":"Author Shields-Stracke","party":"Rep","address":"1787 W 1060 N, Provo, UT 84604","precinct":"25PR23","hd":"61","v_score":"1.193887297","decile":"4","lat":40.24794238809977,"lng":-111.69218610611259,"phone":"(420) 767-7313","sd":"23","ssbd":"13","lsbd":"School Board Provo 6"},{"vid":"2775949","name":"Mrs. Vella Leuschke","party":"Rep","address":"1134 N 1750 W, Provo, UT 84604","precinct":"25PR23","hd":"61","v_score":"1.193887297","decile":"4","lat":40.25046847181428,"lng":-111.68842797609403,"phone":"(975) 601-2084","sd":"23","ssbd":"13","lsbd":"School Board Provo 6"},{"vid":"2777434","name":"Miss Harriett Kozey DDS","party":"","address":"1137 N 1650 W, Provo, UT 84604","precinct":"25PR23","hd":"61","v_score":"0","decile":"2","lat":40.24963103474006,"lng":-111.68778263232282,"phone":"(116) 249-3693","sd":"23","ssbd":"13","lsbd":"School Board Provo 6"},{"vid":"2785172","name":"Ms. Tiarra Okuneva","party":"Dem","address":"1659 W 1000 N, Provo, UT 84604","precinct":"25PR23","hd":"61","v_score":"4.069929862","decile":"7","lat":40.24754478069768,"lng":-111.68784599572061,"phone":"(813) 806-8514","sd":"23","ssbd":"13","lsbd":"School Board Provo 6"},{"vid":"2788117","name":"Michale Schuster","party":"Dem","address":"958 N 1760 W, Provo, UT 84604","precinct":"25PR23","hd":"61","v_score":"1.193887297","decile":"4","lat":40.24742986626964,"lng":-111.69033533605847,"phone":"(469) 270-4526","sd":"23","ssbd":"13","lsbd":"School Board Provo 6"},{"vid":"2788122","name":"Archibald Kris","party":"Dem","address":"958 N 1760 W, Provo, UT 84604","precinct":"25PR23","hd":"61","v_score":"1.193887297","decile":"4","lat":40.24742986626964,"lng":-111.69033533605847,"phone":"(239) 121-7349","sd":"23","ssbd":"13","lsbd":"School Board Provo 6"},{"vid":"2800638","name":"Denisse Medhurst-Auer","party":"Dem","address":"1905 W 960 N, Provo, UT 84604","precinct":"25PR23","hd":"61","v_score":"5.407962308","decile":"7","lat":40.24627497992281,"lng":-111.69232721635204,"phone":"(236) 890-3379","sd":"23","ssbd":"13","lsbd":"School Board Provo 6"},{"vid":"2801013","name":"Benedict McLaughlin I","party":"Rep","address":"2074 W 1100 N, Provo, UT 84604","precinct":"25PR23","hd":"61","v_score":"5.407962308","decile":"7","lat":40.24848067277086,"lng":-111.69441256671023,"phone":"(285) 446-8853","sd":"23","ssbd":"13","lsbd":"School Board Provo 6"},{"vid":"2802983","name":"Bernard Deckow III","party":"","address":"958 N 1760 W, Provo, UT 84604","precinct":"25PR23","hd":"61","v_score":"1.193887297","decile":"4","lat":40.24742986626964,"lng":-111.69033533605847,"phone":"(530) 334-2580","sd":"23","ssbd":"13","lsbd":"School Board Provo 6"},{"vid":"2806196","name":"Kenisha Nienow","party":"","address":"1605 W 1170 N, Provo, UT 84604","precinct":"25PR23","hd":"61","v_score":"1.193887297","decile":"4","lat":40.24990209180977,"lng":-111.68673617263126,"phone":"(449) 633-7135","sd":"23","ssbd":"13","lsbd":"School Board Provo 6"},{"vid":"2817942","name":"Ms. Aaliyah Schroeder DDS","party":"Dem","address":"1280 N 1750 W, Provo, UT 84604","precinct":"25PR23","hd":"61","v_score":"1.193887297","decile":"4","lat":40.25114144683467,"lng":-111.68855650306665,"phone":"(516) 280-7689","sd":"23","ssbd":"13","lsbd":"School Board Provo 6"},{"vid":"2819123","name":"Dr. Perri Johnston","party":"","address":"1137 N 1650 W, Provo, UT 84604","precinct":"25PR23","hd":"61","v_score":"5.407962308","decile":"7","lat":40.24963103474006,"lng":-111.68778263232282,"phone":"(732) 642-7718","sd":"23","ssbd":"13","lsbd":"School Board Provo 6"},{"vid":"2822020","name":"Florrie Lueilwitz","party":"Dem","address":"1109 N 1750 W, Provo, UT 84604","precinct":"25PR23","hd":"61","v_score":"1.193887297","decile":"4","lat":40.24988594233682,"lng":-111.68905783883866,"phone":"(335) 930-8194","sd":"23","ssbd":"13","lsbd":"School Board Provo 6"},{"vid":"2822708","name":"Mr. Alfie Anderson","party":"Rep","address":"1128 N Independence Ave, Provo, UT 84604","precinct":"25PR23","hd":"61","v_score":"1.193887297","decile":"4","lat":40.24939909162087,"lng":-111.69342507746448,"phone":"(864) 843-1243","sd":"23","ssbd":"13","lsbd":"School Board Provo 6"},{"vid":"2829536","name":"Mr. Mikal Zboncak PhD","party":"Rep","address":"2071 W 1100 N, Provo, UT 84604","precinct":"25PR23","hd":"61","v_score":"0","decile":"2","lat":40.24827829891346,"lng":-111.69421521798144,"phone":"(100) 086-8040","sd":"23","ssbd":"13","lsbd":"School Board Provo 6"},{"vid":"2841775","name":"Dr. Luana Howell MD","party":"Rep","address":"1076 N 1760 W, Provo, UT 84604","precinct":"25PR23","hd":"61","v_score":"1.193887297","decile":"4","lat":40.2486728673337,"lng":-111.69168032837683,"phone":"(348) 196-4728","sd":"23","ssbd":"13","lsbd":"School Board Provo 6"},{"vid":"2842282","name":"Alisa Grimes","party":"","address":"1783 W 1060 N, Provo, UT 84604","precinct":"25PR23","hd":"61","v_score":"5.407962308","decile":"7","lat":40.24801013890409,"lng":-111.69203396815472,"phone":"(378) 083-4314","sd":"23","ssbd":"13","lsbd":"School Board Provo 6"},{"vid":"2844611","name":"Mr. Richard Christiansen II","party":"Rep","address":"1086 N 1750 W, Provo, UT 84604","precinct":"25PR23","hd":"61","v_score":"1.193887297","decile":"4","lat":40.2485564996094,"lng":-111.68849799088837,"phone":"(111) 573-3598","sd":"23","ssbd":"13","lsbd":"School Board Provo 6"},{"vid":"2859745","name":"Floy Ledner","party":"","address":"1411 N 1900 W, Provo, UT 84604","precinct":"25PR23","hd":"61","v_score":"4.069929862","decile":"7","lat":40.25269952711063,"lng":-111.69159878542388,"phone":"(822) 399-2520","sd":"23","ssbd":"13","lsbd":"School Board Provo 6"},{"vid":"2875544","name":"Dr. Jazmyn West","party":"Dem","address":"1913 W 960 N, Provo, UT 84604","precinct":"25PR23","hd":"61","v_score":"1.193887297","decile":"4","lat":40.24621733924709,"lng":-111.69244911072923,"phone":"(400) 772-3465","sd":"23","ssbd":"13","lsbd":"School Board Provo 6"},{"vid":"2878420","name":"Pearline Grady-Glover","party":"","address":"1797 W 1110 N, Provo, UT 84604","precinct":"25PR23","hd":"61","v_score":"1.193887297","decile":"4","lat":40.24865941979997,"lng":-111.69255232430643,"phone":"(314) 241-8839","sd":"23","ssbd":"13","lsbd":"School Board Provo 6"},{"vid":"2881054","name":"Shanda Botsford PhD","party":"","address":"1133 N 1880 W, Provo, UT 84604","precinct":"25PR23","hd":"61","v_score":"1.193887297","decile":"4","lat":40.249025937570295,"lng":-111.69439984710478,"phone":"(119) 664-3000","sd":"23","ssbd":"13","lsbd":"School Board Provo 6"},{"vid":"2881102","name":"Robin Berge","party":"Dem","address":"1588 W 1250 N, Provo, UT 84604","precinct":"25PR23","hd":"61","v_score":"1.193887297","decile":"4","lat":40.250949477263426,"lng":-111.68653803255124,"phone":"(539) 614-1883","sd":"23","ssbd":"13","lsbd":"School Board Provo 6"},{"vid":"2883401","name":"Dr. Hollie Douglas III","party":"","address":"1584 W 1170 N, Provo, UT 84604","precinct":"25PR23","hd":"61","v_score":"7.090117576","decile":"8","lat":40.25028599251987,"lng":-111.68644799919666,"phone":"(575) 175-2458","sd":"23","ssbd":"13","lsbd":"School Board Provo 6"},{"vid":"2886236","name":"Gertie Rice","party":"","address":"1375 N 1750 W, Provo, UT 84604","precinct":"25PR23","hd":"61","v_score":"1.193887297","decile":"4","lat":40.25219138499874,"lng":-111.68917376193448,"phone":"(730) 660-0029","sd":"23","ssbd":"13","lsbd":"School Board Provo 6"},{"vid":"2889435","name":"Derick Hamill","party":"Rep","address":"1899 W 890 N, Provo, UT 84604","precinct":"25PR23","hd":"61","v_score":"1.193887297","decile":"4","lat":40.24577406188779,"lng":-111.69182460517763,"phone":"(260) 191-4283","sd":"23","ssbd":"13","lsbd":"School Board Provo 6"},{"vid":"2889724","name":"Mr. Wood Lueilwitz","party":"Dem","address":"1675 W 1000 N, Provo, UT 84604","precinct":"25PR23","hd":"61","v_score":"1.193887297","decile":"4","lat":40.24766478243209,"lng":-111.68818839115949,"phone":"(423) 845-5357","sd":"23","ssbd":"13","lsbd":"School Board Provo 6"},{"vid":"2890898","name":"Courtney Hyatt","party":"","address":"1788 W 820 N, Provo, UT 84601","precinct":"25PR23","hd":"61","v_score":"0","decile":"2","lat":40.24558216202196,"lng":-111.69002730805946,"phone":"(461) 797-0809","sd":"23","ssbd":"13","lsbd":"School Board Provo 6"},{"vid":"2892414","name":"Tilden Schiller","party":"Dem","address":"1533 W 1100 N, Provo, UT 84604","precinct":"25PR23","hd":"61","v_score":"0","decile":"2","lat":40.24895760513105,"lng":-111.68569900726897,"phone":"(297) 361-5216","sd":"23","ssbd":"13","lsbd":"School Board Provo 6"},{"vid":"2896261","name":"Lauretta Wyman MD","party":"Rep","address":"1796 W 1010 N, Provo, UT 84604","precinct":"25PR23","hd":"61","v_score":"7.090117576","decile":"8","lat":40.24777025616391,"lng":-111.69163149745518,"phone":"(599) 058-2555","sd":"23","ssbd":"13","lsbd":"School Board Provo 6"},{"vid":"2906502","name":"Adison Runolfsson","party":"Rep","address":"1913 W 960 N, Provo, UT 84604","precinct":"25PR23","hd":"61","v_score":"0","decile":"2","lat":40.24621733924709,"lng":-111.69244911072923,"phone":"(169) 189-5125","sd":"23","ssbd":"13","lsbd":"School Board Provo 6"},{"vid":"2908175","name":"Burrel Collier","party":"Dem","address":"1536 W 1250 N, Provo, UT 84604","precinct":"25PR23","hd":"61","v_score":"0","decile":"2","lat":40.25108960915395,"lng":-111.68583031473268,"phone":"(633) 215-4923","sd":"23","ssbd":"13","lsbd":"School Board Provo 6"},{"vid":"2910104","name":"Mrs. Vicie Lakin","party":"Dem","address":"1918 W 1020 N, Provo, UT 84604","precinct":"25PR23","hd":"61","v_score":"0","decile":"2","lat":40.247222835068015,"lng":-111.69346151439005,"phone":"(854) 510-1910","sd":"23","ssbd":"13","lsbd":"School Board Provo 6"},{"vid":"2918068","name":"Evelyne Schaefer MD","party":"","address":"1401 N 1750 W, Provo, UT 84604","precinct":"25PR23","hd":"61","v_score":"2.876042565","decile":"6","lat":40.25232393579841,"lng":-111.68930977192154,"phone":"(703) 286-0628","sd":"23","ssbd":"13","lsbd":"School Board Provo 6"},{"vid":"2919649","name":"Talan Hills","party":"Dem","address":"1109 N 1750 W, Provo, UT 84604","precinct":"25PR23","hd":"61","v_score":"0","decile":"2","lat":40.24988594233682,"lng":-111.68905783883866,"phone":"(346) 218-7507","sd":"23","ssbd":"13","lsbd":"School Board Provo 6"},{"vid":"2926811","name":"Lockie Kshlerin-Harber","party":"Rep","address":"1913 W 960 N, Provo, UT 84604","precinct":"25PR23","hd":"61","v_score":"0","decile":"2","lat":40.24621733924709,"lng":-111.69244911072923,"phone":"(451) 225-8264","sd":"23","ssbd":"13","lsbd":"School Board Provo 6"},{"vid":"2928114","name":"Rita Hegmann MD","party":"Rep","address":"1063 N 1880 W, Provo, UT 84604","precinct":"25PR23","hd":"61","v_score":"0","decile":"2","lat":40.24768018420857,"lng":-111.6932802593389,"phone":"(288) 707-2761","sd":"23","ssbd":"13","lsbd":"School Board Provo 6"},{"vid":"2963302","name":"Isis Abshire","party":"","address":"1913 W 960 N, Provo, UT 84604","precinct":"25PR23","hd":"61","v_score":"0","decile":"2","lat":40.24621733924709,"lng":-111.69244911072923,"phone":"(805) 066-6659","sd":"23","ssbd":"13","lsbd":"School Board Provo 6"},{"vid":"2976956","name":"Clarke Beatty","party":"Dem","address":"1416 N 2100 W, Provo, UT 84604","precinct":"25PR23","hd":"61","v_score":"0","decile":"2","lat":40.25270137643741,"lng":-111.69451338894649,"phone":"(491) 674-6071","sd":"23","ssbd":"13","lsbd":"School Board Provo 6"},{"vid":"2984743","name":"Ab Ryan","party":"Dem","address":"1778 W 1060 N, Provo, UT 84604","precinct":"25PR23","hd":"61","v_score":"0","decile":"2","lat":40.24836698962834,"lng":-111.69226232154686,"phone":"(840) 150-1757","sd":"23","ssbd":"13","lsbd":"School Board Provo 6"},{"vid":"3034162","name":"Georgie Bauch","party":"Dem","address":"1685 W 1320 N, Provo, UT 84604","precinct":"25PR23","hd":"61","v_score":"34.62894986","decile":"10","lat":40.251365060624416,"lng":-111.68779538546536,"phone":"(862) 238-6737","sd":"23","ssbd":"13","lsbd":"School Board Provo 6"},{"vid":"3083812","name":"Douglas Gleason","party":"Dem","address":"1818 W 1010 N, Provo, UT 84604","precinct":"25PR23","hd":"61","v_score":"0","decile":"2","lat":40.24757266550273,"lng":-111.69207631581519,"phone":"(646) 617-2588","sd":"23","ssbd":"13","lsbd":"School Board Provo 6"},{"vid":"3151687","name":"Armando Bahringer PhD","party":"Dem","address":"1011 N Independence Ave, Provo, UT 84604","precinct":"25PR23","hd":"61","v_score":"4.833280139","decile":"7","lat":40.247221290569385,"lng":-111.69243125904858,"phone":"(756) 186-8261","sd":"23","ssbd":"13","lsbd":"School Board Provo 6"},{"vid":"97116608ee3fdf514c28225f7a595b802ce1e6a03de221cea38de4021757bce1","name":"Geo Grimes-Luettgen","party":"Dem","address":"2071 W 1080 N, Provo, UT 84604","precinct":"25PR23","hd":"61","v_score":"2.587603312","decile":"5","lat":40.247651638665474,"lng":-111.69378547706489,"phone":"(497) 183-0021","sd":"23","ssbd":"13","lsbd":"School Board Provo 6"},{"vid":"3300768","name":"Carla Shanahan","party":"","address":"1783 W 1060 N, Provo, UT 84604","precinct":"25PR23","hd":"61","v_score":"23.14124903","decile":"10","lat":40.24801013890409,"lng":-111.69203396815472,"phone":"(653) 652-3250","sd":"23","ssbd":"13","lsbd":"School Board Provo 6"},{"vid":"3319896","name":"Dr. Daniel Jacobson","party":"Dem","address":"1720 W 1320 N, Provo, UT 84604","precinct":"25PR23","hd":"61","v_score":"4.210716443","decile":"7","lat":40.25189630095549,"lng":-111.68835252133177,"phone":"(864) 804-1367","sd":"23","ssbd":"13","lsbd":"School Board Provo 6"},{"vid":"4110061","name":"Miss Ginger Carroll DVM","party":"","address":"1602 W 900 N, Provo, UT 84604","precinct":"25PR23","hd":"61","v_score":"8.347511332","decile":"8","lat":40.24638606733341,"lng":-111.6866765253947,"phone":"(343) 236-9285","sd":"23","ssbd":"13","lsbd":"School Board Provo 6"},{"vid":"4110062","name":"Dr. Bartley Prohaska MD","party":"Dem","address":"1602 W 900 N, Provo, UT 84604","precinct":"25PR23","hd":"61","v_score":"5.40460374","decile":"7","lat":40.24638606733341,"lng":-111.6866765253947,"phone":"(662) 619-4660","sd":"23","ssbd":"13","lsbd":"School Board Provo 6"},{"vid":"5341790499d33fac0ba1b170eaaddb0d4da95af9b15e0a08d0532aa9c0fa7495","name":"Jacque Grimes","party":"Rep","address":"1401 N 1750 W, Provo, UT 84604","precinct":"25PR23","hd":"61","v_score":"23.79624865","decile":"10","lat":40.25232393579841,"lng":-111.68930977192154,"phone":"(767) 399-4060","sd":"23","ssbd":"13","lsbd":"School Board Provo 6"},{"vid":"5525398","name":"Mrs. Clemma Hodkiewicz","party":"Dem","address":"1642 W 1400 N, Provo, UT 84604","precinct":"25PR23","hd":"61","v_score":"26.9144526","decile":"10","lat":40.252849046941535,"lng":-111.68722390123666,"phone":"(889) 023-6396","sd":"23","ssbd":"13","lsbd":"School Board Provo 6"},{"vid":"5856372","name":"Preston Ritchie","party":"Dem","address":"1904 W 960 N, Provo, UT 84604","precinct":"25PR23","hd":"61","v_score":"4.137918904","decile":"7","lat":40.246605802106,"lng":-111.69250055652691,"phone":"(582) 903-9745","sd":"23","ssbd":"13","lsbd":"School Board Provo 6"},{"vid":"6063698","name":"Ms. Khalilah Labadie DDS","party":"Rep","address":"1677 W 1460 N, Provo, UT 84604","precinct":"25PR23","hd":"61","v_score":"0","decile":"3","lat":40.25325621619466,"lng":-111.68749587337547,"phone":"(758) 208-7001","sd":"23","ssbd":"13","lsbd":"School Board Provo 6"},{"vid":"6090316","name":"Annabella Wolf MD","party":"Rep","address":"1574 W 1050 N, Provo, UT 84604","precinct":"25PR23","hd":"61","v_score":"22.20326336","decile":"10","lat":40.24866900664969,"lng":-111.68653105078027,"phone":"(951) 421-4894","sd":"23","ssbd":"13","lsbd":"School Board Provo 6"},{"vid":"6153538","name":"Dr. Garnet Gutmann","party":"Rep","address":"1442 Grand Ave, Provo, UT 84604","precinct":"25PR23","hd":"61","v_score":"3.781490609","decile":"6","lat":40.253309836598724,"lng":-111.69338693094784,"phone":"(606) 426-9532","sd":"23","ssbd":"13","lsbd":"School Board Provo 6"},{"vid":"6165384","name":"Lee Hagenes PhD","party":"Dem","address":"2067 W 1080 N, Provo, UT 84604","precinct":"25PR23","hd":"61","v_score":"2.315214949","decile":"5","lat":40.24768047368869,"lng":-111.69372452745084,"phone":"(242) 442-1697","sd":"23","ssbd":"13","lsbd":"School Board Provo 6"},{"vid":"6169372","name":"Lyndsey Price","party":"Dem","address":"885 N 1760 W, Provo, UT 84604","precinct":"25PR23","hd":"61","v_score":"0","decile":"3","lat":40.24630976144586,"lng":-111.69009622752671,"phone":"(142) 740-6826","sd":"23","ssbd":"13","lsbd":"School Board Provo 6"},{"vid":"6184088","name":"Dwaine Hammes","party":"Dem","address":"1408 N 1750 W, Provo, UT 84604","precinct":"25PR23","hd":"61","v_score":"21.68022572","decile":"10","lat":40.252770113163116,"lng":-111.68869596725882,"phone":"(356) 391-1874","sd":"23","ssbd":"13","lsbd":"School Board Provo 6"},{"vid":"6187490","name":"Aloys Schaefer","party":"","address":"1031 N 1750 W, Provo, UT 84604","precinct":"25PR23","hd":"61","v_score":"4.069929862","decile":"7","lat":40.24783787276544,"lng":-111.68924682836757,"phone":"(351) 236-3860","sd":"23","ssbd":"13","lsbd":"School Board Provo 6"},{"vid":"6204546","name":"Fallon Eichmann","party":"","address":"1932 W Teton Dr, Provo, UT 84604","precinct":"25PR23","hd":"61","v_score":"26.41733837","decile":"10","lat":40.25167532247435,"lng":-111.69212059903272,"phone":"(100) 032-7576","sd":"23","ssbd":"13","lsbd":"School Board Provo 6"},{"vid":"6208419","name":"Stormy Auer","party":"Dem","address":"1106 N 1750 W, Provo, UT 84604","precinct":"25PR23","hd":"61","v_score":"15.4533012","decile":"9","lat":40.24983058677074,"lng":-111.68832241937692,"phone":"(243) 650-8375","sd":"23","ssbd":"13","lsbd":"School Board Provo 6"},{"vid":"3468051ba771a047b19807bde3ede91bdd8f6c61b2f356212c762ef950b03165","name":"Cristopher Stiedemann","party":"","address":"2059 W 1080 N, Provo, UT 84604","precinct":"25PR23","hd":"61","v_score":"0","decile":"3","lat":40.24773811778083,"lng":-111.69360262876177,"phone":"(682) 693-4213","sd":"23","ssbd":"13","lsbd":"School Board Provo 6"},{"vid":"6209876","name":"Mrs. Sharla Mueller","party":"Dem","address":"947 N 1760 W, Provo, UT 84604","precinct":"25PR23","hd":"61","v_score":"6.52928996","decile":"7","lat":40.24697361810659,"lng":-111.6908371806106,"phone":"(927) 504-2453","sd":"23","ssbd":"13","lsbd":"School Board Provo 6"},{"vid":"420ba215f0692cbed54d349ff243c6faa73cd83c6ac39d74f76be9f2edc9f2fb","name":"Elaine Zemlak-Paucek","party":"","address":"1241 N Wasatch Dr, Provo, UT 84604","precinct":"25PR23","hd":"61","v_score":"14.35128642","decile":"9","lat":40.25058747632086,"lng":-111.69020161679786,"phone":"(392) 239-7301","sd":"23","ssbd":"13","lsbd":"School Board Provo 6"},{"vid":"6213763","name":"Yajaira Funk","party":"","address":"1241 N Wasatch Dr, Provo, UT 84604","precinct":"25PR23","hd":"61","v_score":"1.193887297","decile":"4","lat":40.25058747632086,"lng":-111.69020161679786,"phone":"(206) 142-3617","sd":"23","ssbd":"13","lsbd":"School Board Provo 6"},{"vid":"6217500","name":"Amma Gibson","party":"Rep","address":"1405 N 1750 W, Provo, UT 84604","precinct":"25PR23","hd":"61","v_score":"13.97135325","decile":"9","lat":40.25277498246667,"lng":-111.68905935699148,"phone":"(923) 616-5048","sd":"23","ssbd":"13","lsbd":"School Board Provo 6"},{"vid":"5140b270bd0305bddeb2e34ec9705dc1eff12e1c45a1a497b5468bddd33eb924","name":"Ms. Lailah Treutel","party":"Dem","address":"1524 W 1400 N, Provo, UT 84604","precinct":"25PR23","hd":"61","v_score":"12.63270431","decile":"9","lat":40.252762820523486,"lng":-111.68535636160142,"phone":"(439) 326-0632","sd":"23","ssbd":"13","lsbd":"School Board Provo 6"},{"vid":"6226050","name":"Charlottie Turcotte","party":"","address":"1003 N Grand Ave, Provo, UT 84604","precinct":"25PR23","hd":"61","v_score":"11.71726967","decile":"9","lat":40.24754258022247,"lng":-111.68958958004211,"phone":"(527) 357-7862","sd":"23","ssbd":"13","lsbd":"School Board Provo 6"},{"vid":"6234562","name":"Cristin Stiedemann","party":"Dem","address":"1086 N 1750 W, Provo, UT 84604","precinct":"25PR23","hd":"61","v_score":"2.315214949","decile":"5","lat":40.2485564996094,"lng":-111.68849799088837,"phone":"(866) 919-0266","sd":"23","ssbd":"13","lsbd":"School Board Provo 6"},{"vid":"6236627","name":"Fairy Reynolds","party":"","address":"1584 W 1170 N, Provo, UT 84604","precinct":"25PR23","hd":"61","v_score":"12.49472132","decile":"9","lat":40.25028599251987,"lng":-111.68644799919666,"phone":"(927) 082-6037","sd":"23","ssbd":"13","lsbd":"School Board Provo 6"},{"vid":"6252982","name":"Margueritte Haley-Williamson","party":"","address":"1425 N 2100 W, Provo, UT 84604","precinct":"25PR23","hd":"61","v_score":"27.81773661","decile":"10","lat":40.25275349720699,"lng":-111.69513011955837,"phone":"(796) 391-5993","sd":"23","ssbd":"13","lsbd":"School Board Provo 6"},{"vid":"6253770","name":"Mrs. Carlotta Boyer","party":"","address":"1425 N 2100 W, Provo, UT 84604","precinct":"25PR23","hd":"61","v_score":"27.81773661","decile":"10","lat":40.25275349720699,"lng":-111.69513011955837,"phone":"(258) 283-2151","sd":"23","ssbd":"13","lsbd":"School Board Provo 6"},{"vid":"6255793","name":"Delora Nader MD","party":"Dem","address":"1427 N 1900 W, Provo, UT 84604","precinct":"25PR23","hd":"61","v_score":"3.781490609","decile":"6","lat":40.252979411244716,"lng":-111.69161196586506,"phone":"(586) 350-9969","sd":"23","ssbd":"13","lsbd":"School Board Provo 6"},{"vid":"6257510","name":"Cheryl Walter-Nikolaus","party":"Rep","address":"954 N Grand Ave, Provo, UT 84604","precinct":"25PR23","hd":"61","v_score":"10.8238813","decile":"9","lat":40.2470779291398,"lng":-111.68829229891129,"phone":"(312) 840-6204","sd":"23","ssbd":"13","lsbd":"School Board Provo 6"},{"vid":"6259093","name":"Mariela Bednar","party":"Rep","address":"1120 N 1750 W, Provo, UT 84604","precinct":"25PR23","hd":"61","v_score":"11.23922619","decile":"9","lat":40.25007636084903,"lng":-111.68846633086287,"phone":"(790) 096-0984","sd":"23","ssbd":"13","lsbd":"School Board Provo 6"},{"vid":"6262780","name":"Dr. Knox Howell","party":"","address":"1707 W 1320 N, Provo, UT 84604","precinct":"25PR23","hd":"61","v_score":"3.781490609","decile":"6","lat":40.25123998256207,"lng":-111.68816191675629,"phone":"(229) 235-3607","sd":"23","ssbd":"13","lsbd":"School Board Provo 6"},{"vid":"a2c29eeda48dad01c42af4e6b2904051d128609536408917f0ada59b757e8818","name":"Ralph Crooks","party":"","address":"1412 N Timpanogos Dr, Provo, UT 84604","precinct":"25PR23","hd":"61","v_score":"38.40546931","decile":"10","lat":40.25269577525474,"lng":-111.69206986645045,"phone":"(740) 698-7591","sd":"23","ssbd":"13","lsbd":"School Board Provo 6"},{"vid":"acc7acc893a5a45ad98400d0394402a72c03be56bb752e27e069769bc8186014","name":"Duke Lowe","party":"Rep","address":"1665 W 1400 N, Provo, UT 84604","precinct":"25PR23","hd":"61","v_score":"13.83018807","decile":"9","lat":40.252300302944626,"lng":-111.68751788856778,"phone":"(446) 475-8512","sd":"23","ssbd":"13","lsbd":"School Board Provo 6"},{"vid":"6276177","name":"Lula Osinski","party":"Rep","address":"1875 W 1380 N, Provo, UT 84604","precinct":"25PR23","hd":"61","v_score":"19.62754354","decile":"10","lat":40.252194744315254,"lng":-111.69076624340194,"phone":"(388) 308-2293","sd":"23","ssbd":"13","lsbd":"School Board Provo 6"},{"vid":"6283782","name":"Consuelo Robel","party":"Dem","address":"1665 W 1400 N, Provo, UT 84604","precinct":"25PR23","hd":"61","v_score":"30.14623239","decile":"10","lat":40.252300302944626,"lng":-111.68751788856778,"phone":"(943) 818-1588","sd":"23","ssbd":"13","lsbd":"School Board Provo 6"},{"vid":"6294197","name":"Tamisha Jaskolski PhD","party":"Dem","address":"1441 N 2100 W, Provo, UT 84604","precinct":"25PR23","hd":"61","v_score":"25.39193414","decile":"10","lat":40.25311623721253,"lng":-111.69524465955377,"phone":"(827) 798-2343","sd":"23","ssbd":"13","lsbd":"School Board Provo 6"},{"vid":"6301827","name":"Mr. Zachery Ledner","party":"Rep","address":"1121 N 1650 W, Provo, UT 84604","precinct":"25PR23","hd":"61","v_score":"6.74007049","decile":"8","lat":40.249299926762966,"lng":-111.687648503468,"phone":"(771) 038-7264","sd":"23","ssbd":"13","lsbd":"School Board Provo 6"},{"vid":"33343303a6439d158b58c9e11b1099e814150d958055fd9e53347a93c9efa8e0","name":"Yee Fahey","party":"","address":"963 N 1760 W, Provo, UT 84604","precinct":"25PR23","hd":"61","v_score":"40.69851911","decile":"10","lat":40.247115161500965,"lng":-111.69099201171768,"phone":"(647) 506-5899","sd":"23","ssbd":"13","lsbd":"School Board Provo 6"},{"vid":"6310354","name":"Bernie Christiansen-Anderson","party":"","address":"1799 W 1460 N, Provo, UT 84604","precinct":"25PR23","hd":"61","v_score":"5.40460374","decile":"7","lat":40.253127829671214,"lng":-111.68950922448228,"phone":"(441) 686-0808","sd":"23","ssbd":"13","lsbd":"School Board Provo 6"},{"vid":"5887604124308f27132bb70637e5b8a743a7ab80f5635e4a534d1fa322f05381","name":"Kolten Weber IV","party":"","address":"1717 W 1460 N, Provo, UT 84604","precinct":"25PR23","hd":"61","v_score":"1.623113131","decile":"5","lat":40.25322801716984,"lng":-111.68837273958553,"phone":"(869) 302-8233","sd":"23","ssbd":"13","lsbd":"School Board Provo 6"},