[{"vid":"3368572c8d9eb7d17a7af392659e9b87fb0522ab692da6497bf7ae37fa0910ff","name":"Emeline Carter-Orn","party":"Rep","address":"444 S 400 W, Provo, UT 84601","precinct":"25PR54","hd":"62","v_score":"3.781490609","decile":"6","lat":40.22782882676853,"lng":-111.66603630874154,"phone":"(870) 333-8758","sd":"25","ssbd":"13","lsbd":"School Board Provo 5"},{"vid":"1250178","name":"Leopoldo Lueilwitz","party":"","address":"436 W 500 S, Provo, UT 84601","precinct":"25PR54","hd":"62","v_score":"15.51131257","decile":"9","lat":40.22732398297953,"lng":-111.66642783475928,"phone":"(300) 622-9871","sd":"25","ssbd":"13","lsbd":"School Board Provo 5"},{"vid":"96a0b0cf824a2456d32de6bfb4b7edfee0b3c037f435e4249edfd235d7f1eae3","name":"Estela Morissette","party":"Rep","address":"175 W 500 S, # 103, Provo, UT 84601","precinct":"25PR54","hd":"62","v_score":"7.650280567","decile":"8","lat":40.22659737072141,"lng":-111.66141866298642,"phone":"(210) 684-2567","sd":"25","ssbd":"13","lsbd":"School Board Provo 5"},{"vid":"1262206","name":"Dr. Cherish Sawayn DVM","party":"Dem","address":"462 W 200 S, Provo, UT 84601","precinct":"25PR54","hd":"62","v_score":"5.546183193","decile":"7","lat":40.23137681929253,"lng":-111.66665991761259,"phone":"(850) 076-6727","sd":"25","ssbd":"13","lsbd":"School Board Provo 5"},{"vid":"1272047","name":"Cathryn Kuhn-Schinner","party":"Dem","address":"257 S 500 W, Provo, UT 84601","precinct":"25PR54","hd":"62","v_score":"0","decile":"1","lat":40.230337612130086,"lng":-111.6670314647282,"phone":"(461) 466-9268","sd":"25","ssbd":"13","lsbd":"School Board Provo 5"},{"vid":"1288879","name":"Jerald Hauck","party":"Rep","address":"380 S Freedom Blvd, Apt 4, Provo, UT 84601","precinct":"25PR54","hd":"62","v_score":"4.069929862","decile":"6","lat":40.228953104565925,"lng":-111.66297458316342,"phone":"(449) 760-8275","sd":"25","ssbd":"13","lsbd":"School Board Provo 5"},{"vid":"1289299","name":"Dr. Bo Cronin","party":"","address":"250 S University Ave, Provo, UT 84601","precinct":"25PR54","hd":"62","v_score":"0","decile":"1","lat":40.23073122746707,"lng":-111.65953091780386,"phone":"(803) 833-0074","sd":"25","ssbd":"13","lsbd":"School Board Provo 5"},{"vid":"1316202","name":"Mrs. Maeve Wuckert DDS","party":"Rep","address":"575 S Freedom Blvd, Apt 101, Provo, UT 84601","precinct":"25PR54","hd":"62","v_score":"3.781490609","decile":"6","lat":40.226311184765635,"lng":-111.66152772009521,"phone":"(892) 188-9268","sd":"25","ssbd":"13","lsbd":"School Board Provo 5"},{"vid":"1319858","name":"Jerry Kiehn","party":"","address":"478 W 470 S, Provo, UT 84601","precinct":"25PR54","hd":"62","v_score":"1.46627566","decile":"4","lat":40.227594955698535,"lng":-111.66696574912234,"phone":"(616) 812-9701","sd":"25","ssbd":"13","lsbd":"School Board Provo 5"},{"vid":"1320668","name":"Darrian Stiedemann-Rogahn","party":"Rep","address":"575 S Freedom Blvd, Apt 206, Provo, UT 84601","precinct":"25PR54","hd":"62","v_score":"3.781490609","decile":"6","lat":40.226311184765635,"lng":-111.66152772009521,"phone":"(984) 035-4010","sd":"25","ssbd":"13","lsbd":"School Board Provo 5"},{"vid":"1344787","name":"Jayce Hettinger Sr.","party":"Dem","address":"308 W 400 S, Provo, UT 84601","precinct":"25PR54","hd":"62","v_score":"7.493443096","decile":"8","lat":40.22867094103097,"lng":-111.66423517625611,"phone":"(135) 567-3358","sd":"25","ssbd":"13","lsbd":"School Board Provo 5"},{"vid":"1354737","name":"Alana Moore MD","party":"","address":"359 W 200 S, Provo, UT 84601","precinct":"25PR54","hd":"62","v_score":"14.24014515","decile":"9","lat":40.23074262008796,"lng":-111.66500431689738,"phone":"(721) 973-7169","sd":"25","ssbd":"13","lsbd":"School Board Provo 5"},{"vid":"1c28a17eb0f0e3100d324c2d23e7ca105aebe212eaeec5bd980bea24a64e00b2","name":"Johnathon Daugherty","party":"Rep","address":"175 W 200 S, Provo, UT 84601","precinct":"25PR54","hd":"62","v_score":"1.121327652","decile":"3","lat":40.23078492400125,"lng":-111.66170937507634,"phone":"(166) 195-2279","sd":"25","ssbd":"13","lsbd":"School Board Provo 5"},{"vid":"1395255","name":"Enola Cronin","party":"Dem","address":"412 W 500 S, Provo, UT 84601","precinct":"25PR54","hd":"62","v_score":"1.193887297","decile":"3","lat":40.227279069181,"lng":-111.66600971023406,"phone":"(415) 427-8578","sd":"25","ssbd":"13","lsbd":"School Board Provo 5"},{"vid":"1418738","name":"Ollie Kerluke","party":"Rep","address":"228 S 300 W, Provo, UT 84601","precinct":"25PR54","hd":"62","v_score":"1.193887297","decile":"3","lat":40.23059935065238,"lng":-111.6643584662154,"phone":"(871) 099-5165","sd":"25","ssbd":"13","lsbd":"School Board Provo 5"},{"vid":"1445731","name":"Ashton Roberts","party":"Rep","address":"250 S 300 W, Provo, UT 84601","precinct":"25PR54","hd":"62","v_score":"0","decile":"1","lat":40.230283877227045,"lng":-111.66440782274131,"phone":"(862) 595-7163","sd":"25","ssbd":"13","lsbd":"School Board Provo 5"},{"vid":"1453282","name":"Sharif Koch IV","party":"","address":"575 S Freedom Blvd, Apt 420, Provo, UT 84601","precinct":"25PR54","hd":"62","v_score":"11.36410258","decile":"9","lat":40.226311184765635,"lng":-111.66152772009521,"phone":"(500) 272-4165","sd":"25","ssbd":"13","lsbd":"School Board Provo 5"},{"vid":"1461587","name":"Shelley Leffler","party":"","address":"40 W 300 S, Apt 111, Provo, UT 84601","precinct":"25PR54","hd":"62","v_score":"20.19482713","decile":"10","lat":40.23004857750263,"lng":-111.65945195961199,"phone":"(294) 658-5290","sd":"25","ssbd":"13","lsbd":"School Board Provo 5"},{"vid":"1493477","name":"Dr. Karl Kling","party":"Rep","address":"367 S 400 W, Provo, UT 84601","precinct":"25PR54","hd":"62","v_score":"6.724398202","decile":"8","lat":40.22891519096173,"lng":-111.66527730012857,"phone":"(850) 500-3006","sd":"25","ssbd":"13","lsbd":"School Board Provo 5"},{"vid":"1496119","name":"Mr. Camilo Beahan","party":"Dem","address":"408 S 400 W, Provo, UT 84601","precinct":"25PR54","hd":"62","v_score":"12.21925558","decile":"9","lat":40.22812387083055,"lng":-111.66600415559137,"phone":"(715) 555-9562","sd":"25","ssbd":"13","lsbd":"School Board Provo 5"},{"vid":"1509252","name":"Myrtle Grady","party":"","address":"381 S 300 W, Provo, UT 84601","precinct":"25PR54","hd":"62","v_score":"1.193887297","decile":"3","lat":40.22869667061448,"lng":-111.66370371513682,"phone":"(718) 667-7648","sd":"25","ssbd":"13","lsbd":"School Board Provo 5"},{"vid":"29ee89b54343f42d188e316b9071469c36dbe1e5d4b1a31ed87eb3852c9f4731","name":"Dr. Sharif Kihn DDS","party":"Rep","address":"177 S 300 W, Provo, UT 84601","precinct":"25PR54","hd":"62","v_score":"17.89408627","decile":"10","lat":40.23139709775147,"lng":-111.66368032749837,"phone":"(217) 433-1881","sd":"25","ssbd":"13","lsbd":"School Board Provo 5"},{"vid":"5b622376e297309d210d3687f6e40d2d0c0836f58c7a8bae615e26226a603cae","name":"Rosalinda Harvey","party":"Rep","address":"312 S 300 W, Provo, UT 84601","precinct":"25PR54","hd":"62","v_score":"0","decile":"1","lat":40.22946159642089,"lng":-111.66424337534879,"phone":"(304) 370-2853","sd":"25","ssbd":"13","lsbd":"School Board Provo 5"},{"vid":"1542406","name":"Burton Flatley","party":"Rep","address":"246 W 200 S, Provo, UT 84601","precinct":"25PR54","hd":"62","v_score":"8.633210253","decile":"8","lat":40.23128930025665,"lng":-111.66305212807436,"phone":"(335) 572-1616","sd":"25","ssbd":"13","lsbd":"School Board Provo 5"},{"vid":"1552058","name":"Jonnie Orn","party":"Dem","address":"61 W 400 S, Apt 410, Provo, UT 84601","precinct":"25PR54","hd":"62","v_score":"6.881235673","decile":"8","lat":40.22793188431221,"lng":-111.65984587026517,"phone":"(288) 934-6708","sd":"25","ssbd":"13","lsbd":"School Board Provo 5"},{"vid":"1563119","name":"Ruthie Schaefer","party":"Dem","address":"414 W 400 S, Provo, UT 84601","precinct":"25PR54","hd":"62","v_score":"5.40460374","decile":"7","lat":40.228622017118546,"lng":-111.66605630782418,"phone":"(749) 065-8362","sd":"25","ssbd":"13","lsbd":"School Board Provo 5"},{"vid":"2b6d65e0a0ac4455afad9a1cec9b3d47a78cb4b4b2da6ac638b3cefa132b79f5","name":"Maeve Hilpert-Sauer","party":"Rep","address":"264 W 200 S, Apt 7, Provo, UT 84601","precinct":"25PR54","hd":"62","v_score":"3.781490609","decile":"6","lat":40.231363414370385,"lng":-111.66318228299957,"phone":"(574) 905-9724","sd":"25","ssbd":"13","lsbd":"School Board Provo 5"},{"vid":"1577479","name":"Jared Rowe","party":"Rep","address":"491 W 200 S, Provo, UT 84601","precinct":"25PR54","hd":"62","v_score":"8.280646305","decile":"8","lat":40.230872513740245,"lng":-111.66702021988696,"phone":"(156) 599-1695","sd":"25","ssbd":"13","lsbd":"School Board Provo 5"},{"vid":"1582496","name":"Miss Khalilah Funk","party":"","address":"393 W 300 S, Provo, UT 84601","precinct":"25PR54","hd":"62","v_score":"2.315214949","decile":"5","lat":40.229452077628956,"lng":-111.66544774072132,"phone":"(269) 736-2133","sd":"25","ssbd":"13","lsbd":"School Board Provo 5"},{"vid":"1600145","name":"Orrie Hayes","party":"Rep","address":"380 S Freedom Blvd, Apt 6, Provo, UT 84601","precinct":"25PR54","hd":"62","v_score":"1.193887297","decile":"3","lat":40.228953104565925,"lng":-111.66297458316342,"phone":"(773) 860-8094","sd":"25","ssbd":"13","lsbd":"School Board Provo 5"},{"vid":"1610909","name":"Naima O'Reilly","party":"Rep","address":"456 W 470 S, Provo, UT 84601","precinct":"25PR54","hd":"62","v_score":"2.660162957","decile":"5","lat":40.22759529374654,"lng":-111.66672943810408,"phone":"(235) 448-1191","sd":"25","ssbd":"13","lsbd":"School Board Provo 5"},{"vid":"1627669","name":"Jimena Stanton MD","party":"Dem","address":"257 S 500 W, Apt 5, Provo, UT 84601","precinct":"25PR54","hd":"62","v_score":"1.193887297","decile":"3","lat":40.230337612130086,"lng":-111.6670314647282,"phone":"(859) 903-0094","sd":"25","ssbd":"13","lsbd":"School Board Provo 5"},{"vid":"1628527","name":"Dr. Marleen McClure PhD","party":"Dem","address":"61 W 400 S, Apt 431, Provo, UT 84601","precinct":"25PR54","hd":"62","v_score":"12.49472132","decile":"9","lat":40.22793188431221,"lng":-111.65984587026517,"phone":"(726) 911-4146","sd":"25","ssbd":"13","lsbd":"School Board Provo 5"},{"vid":"1647676","name":"Dr. Maricela Baumbach DVM","party":"","address":"474 W 500 S, Provo, UT 84601","precinct":"25PR54","hd":"62","v_score":"38.24567755","decile":"10","lat":40.227323338646954,"lng":-111.66687897228819,"phone":"(379) 288-6351","sd":"25","ssbd":"13","lsbd":"School Board Provo 5"},{"vid":"1664780","name":"Illya West DDS","party":"","address":"242 W 500 S, Provo, UT 84601","precinct":"25PR54","hd":"62","v_score":"0","decile":"1","lat":40.22732447294239,"lng":-111.66305722008471,"phone":"(751) 705-9476","sd":"25","ssbd":"13","lsbd":"School Board Provo 5"},{"vid":"4245f67ee9f3835dca027bacf7f8991716f62ffcc1f9ba94f02c403822ec5f83","name":"Lylah Conroy-Wisozk","party":"","address":"177 S 300 W, Provo, UT 84601","precinct":"25PR54","hd":"62","v_score":"17.89408627","decile":"10","lat":40.23139709775147,"lng":-111.66368032749837,"phone":"(872) 734-7613","sd":"25","ssbd":"13","lsbd":"School Board Provo 5"},{"vid":"1691480","name":"Clella Predovic","party":"Dem","address":"560 S 100 W, # 20, Provo, UT 84601","precinct":"25PR54","hd":"62","v_score":"5.40460374","decile":"7","lat":40.22617313634107,"lng":-111.66097123738955,"phone":"(440) 029-8663","sd":"25","ssbd":"13","lsbd":"School Board Provo 5"},{"vid":"1707043","name":"Elaina Dooley","party":"","address":"264 W 200 S, Apt 7, Provo, UT 84601","precinct":"25PR54","hd":"62","v_score":"2.315214949","decile":"5","lat":40.231363414370385,"lng":-111.66318228299957,"phone":"(432) 084-7237","sd":"25","ssbd":"13","lsbd":"School Board Provo 5"},{"vid":"1736760","name":"Monique Sauer-Orn","party":"","address":"575 S Freedom Blvd, Apt 121, Provo, UT 84601","precinct":"25PR54","hd":"62","v_score":"43.51438145","decile":"10","lat":40.226311184765635,"lng":-111.66152772009521,"phone":"(594) 572-7655","sd":"25","ssbd":"13","lsbd":"School Board Provo 5"},{"vid":"1745683","name":"Javion Ward I","party":"Dem","address":"77 W 500 S, Apt 411, Provo, UT 84601","precinct":"25PR54","hd":"62","v_score":"4.069929862","decile":"6","lat":40.226422226935725,"lng":-111.65990325573439,"phone":"(341) 425-8835","sd":"25","ssbd":"13","lsbd":"School Board Provo 5"},{"vid":"1746335","name":"Aurilla Greenfelder","party":"","address":"161 W 400 S, Apt 11, Provo, UT 84601","precinct":"25PR54","hd":"62","v_score":"18.799063","decile":"10","lat":40.228054571237706,"lng":-111.66149540967072,"phone":"(306) 822-6030","sd":"25","ssbd":"13","lsbd":"School Board Provo 5"},{"vid":"1750070","name":"Candida Mertz DDS","party":"","address":"190 S 300 W, Apt 4, Provo, UT 84601","precinct":"25PR54","hd":"62","v_score":"1.46627566","decile":"4","lat":40.23121640214658,"lng":-111.6643474541576,"phone":"(743) 598-4964","sd":"25","ssbd":"13","lsbd":"School Board Provo 5"},{"vid":"1751598","name":"Brandt Dickens","party":"Rep","address":"216 S 100 W, Provo, UT 84601","precinct":"25PR54","hd":"62","v_score":"3.61989409","decile":"6","lat":40.38528467916133,"lng":-111.85101009276586,"phone":"(744) 410-1102","sd":"25","ssbd":"13","lsbd":"School Board Provo 5"},{"vid":"1768111","name":"Tambra Little","party":"Rep","address":"358 W 500 S, Provo, UT 84601","precinct":"25PR54","hd":"62","v_score":"1.193887297","decile":"3","lat":40.227290398245486,"lng":-111.66492560268796,"phone":"(198) 660-4198","sd":"25","ssbd":"13","lsbd":"School Board Provo 5"},{"vid":"1779313","name":"Dr. Howard Reinger","party":"Rep","address":"391 S 500 W, Provo, UT 84601","precinct":"25PR54","hd":"62","v_score":"11.37977487","decile":"9","lat":40.22859828801367,"lng":-111.66709454469694,"phone":"(237) 097-8643","sd":"25","ssbd":"13","lsbd":"School Board Provo 5"},{"vid":"1781342","name":"Mrs. Tiney Douglas MD","party":"Dem","address":"474 W 500 S, Provo, UT 84601","precinct":"25PR54","hd":"62","v_score":"40.5196851","decile":"10","lat":40.227323338646954,"lng":-111.66687897228819,"phone":"(818) 984-7713","sd":"25","ssbd":"13","lsbd":"School Board Provo 5"},{"vid":"1781462","name":"Hazel Beer","party":"Rep","address":"391 W 400 S, Provo, UT 84601","precinct":"25PR54","hd":"62","v_score":"7.252084687","decile":"8","lat":40.22817565525973,"lng":-111.66546060890812,"phone":"(287) 289-6913","sd":"25","ssbd":"13","lsbd":"School Board Provo 5"},{"vid":"1787473","name":"Chandler O'Connell","party":"Dem","address":"575 S Freedom Blvd, Apt 317, Provo, UT 84601","precinct":"25PR54","hd":"62","v_score":"1.121327652","decile":"3","lat":40.226311184765635,"lng":-111.66152772009521,"phone":"(185) 193-3914","sd":"25","ssbd":"13","lsbd":"School Board Provo 5"},{"vid":"1797234","name":"Arlen Shields","party":"","address":"431 W 200 S, Apt 9, Provo, UT 84601","precinct":"25PR54","hd":"62","v_score":"3.781490609","decile":"6","lat":40.230706212896976,"lng":-111.6663458208265,"phone":"(109) 854-0193","sd":"25","ssbd":"13","lsbd":"School Board Provo 5"},{"vid":"1803216","name":"Denton Dibbert","party":"","address":"444 S 300 W, Provo, UT 84601","precinct":"25PR54","hd":"62","v_score":"0","decile":"1","lat":40.227816392534116,"lng":-111.6643426526624,"phone":"(512) 214-2853","sd":"25","ssbd":"13","lsbd":"School Board Provo 5"},{"vid":"1815815","name":"Lahoma Mueller","party":"Rep","address":"383 W 400 S, Provo, UT 84601","precinct":"25PR54","hd":"62","v_score":"7.169296324","decile":"8","lat":40.2281758541546,"lng":-111.66532025505015,"phone":"(715) 072-7630","sd":"25","ssbd":"13","lsbd":"School Board Provo 5"},{"vid":"1829004","name":"Jordy Kutch","party":"Dem","address":"125 W 500 S, Provo, UT 84601","precinct":"25PR54","hd":"62","v_score":"0","decile":"1","lat":40.22681270337571,"lng":-111.66101146225401,"phone":"(386) 951-7089","sd":"25","ssbd":"13","lsbd":"School Board Provo 5"},{"vid":"2ee0bdeee908b180d609d486e45b80adf9df60977cc281c5001f4c21abd37e02","name":"Jazlene Gleason","party":"Rep","address":"155 S 400 W, Provo, UT 84601","precinct":"25PR54","hd":"62","v_score":"17.86094514","decile":"10","lat":40.23164096897432,"lng":-111.66535888296667,"phone":"(898) 372-7858","sd":"25","ssbd":"13","lsbd":"School Board Provo 5"},{"vid":"1837576","name":"Dorla Feeney","party":"","address":"255 W 400 S, Apt 4, Provo, UT 84601","precinct":"25PR54","hd":"62","v_score":"8.217059165","decile":"8","lat":40.22816888830673,"lng":-111.6631949009157,"phone":"(792) 628-1216","sd":"25","ssbd":"13","lsbd":"School Board Provo 5"},{"vid":"a9c51b8ee667912ba83b8dd4e2205e563596279f5d00b1395290537d1263e751","name":"Buena Cormier DVM","party":"","address":"263 N 300 W, Apt 24, Provo, UT 84601","precinct":"25PR54","hd":"62","v_score":"2.744440783","decile":"5","lat":40.237464280809256,"lng":-111.66453833950796,"phone":"(622) 285-4518","sd":"25","ssbd":"13","lsbd":"School Board Provo 5"},{"vid":"1848975","name":"Jaylan Blick","party":"Dem","address":"457 S 300 W, Provo, UT 84601","precinct":"25PR54","hd":"62","v_score":"0","decile":"1","lat":40.22767599325365,"lng":-111.6636733540565,"phone":"(741) 862-7594","sd":"25","ssbd":"13","lsbd":"School Board Provo 5"},{"vid":"1856849","name":"Erastus Rolfson","party":"","address":"136 W 200 S, Apt 322, Provo, UT 84601","precinct":"25PR54","hd":"62","v_score":"2.315214949","decile":"5","lat":40.23122890339156,"lng":-111.66102464120655,"phone":"(639) 631-9105","sd":"25","ssbd":"13","lsbd":"School Board Provo 5"},{"vid":"1859554","name":"Dr. Edie Ullrich","party":"","address":"40 W 300 S, Apt 112, Provo, UT 84601","precinct":"25PR54","hd":"62","v_score":"0","decile":"1","lat":40.23004857750263,"lng":-111.65945195961199,"phone":"(641) 279-4633","sd":"25","ssbd":"13","lsbd":"School Board Provo 5"},{"vid":"9ce1554c85d37fa83d766fa7b1d118ea68a7486d0f25c5ec88100a82a770a128","name":"Dr. Hilma Brown","party":"","address":"466 S 100 W, Provo, UT 84601","precinct":"25PR54","hd":"62","v_score":"5.40460374","decile":"7","lat":40.227542672486166,"lng":-111.66083070433052,"phone":"(758) 403-1623","sd":"25","ssbd":"13","lsbd":"School Board Provo 5"},{"vid":"7e25a29f1aa4aae806c0ed3011adf5b893fc1388f953a25005dd33f7a950a90e","name":"Lorraine Treutel","party":"","address":"136 W 200 S, Apt 105, Provo, UT 84601","precinct":"25PR54","hd":"62","v_score":"1.121327652","decile":"3","lat":40.23122890339156,"lng":-111.66102464120655,"phone":"(814) 770-2938","sd":"25","ssbd":"13","lsbd":"School Board Provo 5"},{"vid":"1871592","name":"Dr. Jeremie Jerde","party":"","address":"175 W 500 S, Apt 103, Provo, UT 84601","precinct":"25PR54","hd":"62","v_score":"9.116556227","decile":"8","lat":40.22659737072141,"lng":-111.66141866298642,"phone":"(604) 344-3581","sd":"25","ssbd":"13","lsbd":"School Board Provo 5"},{"vid":"1873587","name":"Jaylin Beier","party":"Dem","address":"433 N 300 W, Apt 201, Provo, UT 84601","precinct":"25PR54","hd":"62","v_score":"5.429380732","decile":"7","lat":40.23948793281715,"lng":-111.66452205664511,"phone":"(354) 528-1486","sd":"25","ssbd":"13","lsbd":"School Board Provo 5"},{"vid":"c1f95665e2c916b8d41ec65529bbd3b51da211e95059acb5b3e33aff28b70c2e","name":"Jan Wilkinson","party":"","address":"246 W 200 S, Provo, UT 84601","precinct":"25PR54","hd":"62","v_score":"3.781490609","decile":"6","lat":40.23128930025665,"lng":-111.66305212807436,"phone":"(309) 657-1736","sd":"25","ssbd":"13","lsbd":"School Board Provo 5"},{"vid":"a6896d860ac436bab9ac40ec12e20a17dc2f8b7f9b5ba0d70f6d661712d1a296","name":"Will Lakin-Jaskolski","party":"Dem","address":"575 S Freedom Blvd, Apt 221, Provo, UT 84601","precinct":"25PR54","hd":"62","v_score":"8.216702423","decile":"8","lat":40.226311184765635,"lng":-111.66152772009521,"phone":"(285) 529-3493","sd":"25","ssbd":"13","lsbd":"School Board Provo 5"},{"vid":"1892641","name":"Mr. Eusebio Bode","party":"Dem","address":"266 S 300 W, Provo, UT 84601","precinct":"25PR54","hd":"62","v_score":"2.587603312","decile":"5","lat":40.230152317303364,"lng":-111.66430798685528,"phone":"(887) 818-1714","sd":"25","ssbd":"13","lsbd":"School Board Provo 5"},{"vid":"1892669","name":"Oral Smith","party":"Rep","address":"475 S 400 W, Apt D4, Provo, UT 84601","precinct":"25PR54","hd":"62","v_score":"0","decile":"1","lat":40.22752986737547,"lng":-111.66492213572994,"phone":"(991) 532-2428","sd":"25","ssbd":"13","lsbd":"School Board Provo 5"},{"vid":"1897795","name":"Dr. Lessie Reilly","party":"","address":"161 W 400 S, Apt 3, Provo, UT 84601","precinct":"25PR54","hd":"62","v_score":"5.530510904","decile":"7","lat":40.228054571237706,"lng":-111.66149540967072,"phone":"(899) 790-0525","sd":"25","ssbd":"13","lsbd":"School Board Provo 5"},{"vid":"1899358","name":"Jesus Rau-Hessel","party":"","address":"61 W 400 S, Apt 319, Provo, UT 84601","precinct":"25PR54","hd":"62","v_score":"32.71676543","decile":"10","lat":40.22793188431221,"lng":-111.65984587026517,"phone":"(494) 626-1553","sd":"25","ssbd":"13","lsbd":"School Board Provo 5"},{"vid":"1899359","name":"Reilly Prohaska","party":"","address":"61 W 400 S, Apt 319, Provo, UT 84601","precinct":"25PR54","hd":"62","v_score":"2.744440783","decile":"5","lat":40.22793188431221,"lng":-111.65984587026517,"phone":"(794) 329-1616","sd":"25","ssbd":"13","lsbd":"School Board Provo 5"},{"vid":"1908618","name":"Brice Jacobson","party":"Dem","address":"462 S 300 W, Provo, UT 84601","precinct":"25PR54","hd":"62","v_score":"1.46627566","decile":"4","lat":40.227616283839446,"lng":-111.66434818293834,"phone":"(911) 398-4308","sd":"25","ssbd":"13","lsbd":"School Board Provo 5"},{"vid":"1914166","name":"Nelson Glover","party":"Rep","address":"244 W 400 S, Provo, UT 84601","precinct":"25PR54","hd":"62","v_score":"2.744440783","decile":"5","lat":40.22862662980329,"lng":-111.66284954126914,"phone":"(825) 524-8992","sd":"25","ssbd":"13","lsbd":"School Board Provo 5"},{"vid":"1919055","name":"Durward Thiel","party":"Rep","address":"452 S 400 W, Provo, UT 84601","precinct":"25PR54","hd":"62","v_score":"18.49131087","decile":"10","lat":40.22768771171921,"lng":-111.66603596696714,"phone":"(361) 134-6854","sd":"25","ssbd":"13","lsbd":"School Board Provo 5"},{"vid":"1930453","name":"Mrs. Charlee Little DDS","party":"Rep","address":"344 S 400 W, Provo, UT 84601","precinct":"25PR54","hd":"62","v_score":"10.29877667","decile":"9","lat":40.229141705653234,"lng":-111.66606921966907,"phone":"(735) 166-1030","sd":"25","ssbd":"13","lsbd":"School Board Provo 5"},{"vid":"1942475","name":"Ms. Macey Barrows DVM","party":"Rep","address":"575 S Freedom Blvd, Apt 417, Provo, UT 84601","precinct":"25PR54","hd":"62","v_score":"6.74007049","decile":"8","lat":40.226311184765635,"lng":-111.66152772009521,"phone":"(182) 946-5111","sd":"25","ssbd":"13","lsbd":"School Board Provo 5"},{"vid":"53c5458f44ec7f45b0390c87585b4c19741816e03ee7dc20fd587fb2d23ea489","name":"Norma Waters","party":"","address":"575 S Freedom Blvd, Apt 221, Provo, UT 84601","precinct":"25PR54","hd":"62","v_score":"18.41762721","decile":"10","lat":40.226311184765635,"lng":-111.66152772009521,"phone":"(748) 691-8978","sd":"25","ssbd":"13","lsbd":"School Board Provo 5"},{"vid":"1953378","name":"Mrs. Mardell Lubowitz","party":"Rep","address":"359 W 200 S, Provo, UT 84601","precinct":"25PR54","hd":"62","v_score":"11.29723756","decile":"9","lat":40.23074262008796,"lng":-111.66500431689738,"phone":"(424) 980-6632","sd":"25","ssbd":"13","lsbd":"School Board Provo 5"},{"vid":"1967977","name":"Wilfred Kiehn","party":"Dem","address":"327 W 100 S, Provo, UT 84601","precinct":"25PR54","hd":"62","v_score":"6.657533174","decile":"7","lat":40.29514451447403,"lng":-111.7034357271006,"phone":"(728) 492-5397","sd":"25","ssbd":"13","lsbd":"School Board Provo 5"},{"vid":"1971080","name":"Abb Denesik MD","party":"","address":"575 S Freedom Blvd, Apt 114, Provo, UT 84601","precinct":"25PR54","hd":"62","v_score":"4.15282392","decile":"7","lat":40.226311184765635,"lng":-111.66152772009521,"phone":"(136) 193-6060","sd":"25","ssbd":"13","lsbd":"School Board Provo 5"},{"vid":"1988779","name":"Alfredo Von","party":"Rep","address":"457 S 300 W, Provo, UT 84601","precinct":"25PR54","hd":"62","v_score":"2.315214949","decile":"5","lat":40.22767599325365,"lng":-111.6636733540565,"phone":"(306) 387-7637","sd":"25","ssbd":"13","lsbd":"School Board Provo 5"},{"vid":"1990183","name":"Mr. Giovani Ratke III","party":"Rep","address":"175 W 500 S, Unit 102, Provo, UT 84601","precinct":"25PR54","hd":"62","v_score":"4.741221742","decile":"7","lat":40.22659737072141,"lng":-111.66141866298642,"phone":"(628) 874-6216","sd":"25","ssbd":"13","lsbd":"School Board Provo 5"},{"vid":"1992667","name":"Mohammed Hansen-Daniel","party":"Rep","address":"575 S Freedom Blvd, Apt 215, Provo, UT 84601","precinct":"25PR54","hd":"62","v_score":"1.623113131","decile":"4","lat":40.226311184765635,"lng":-111.66152772009521,"phone":"(539) 082-2738","sd":"25","ssbd":"13","lsbd":"School Board Provo 5"},{"vid":"1994051","name":"Hunter Mayert","party":"Rep","address":"156 S 300 W, Provo, UT 84601","precinct":"25PR54","hd":"62","v_score":"25.08008179","decile":"10","lat":40.23163472708033,"lng":-111.66435436615474,"phone":"(753) 632-5750","sd":"25","ssbd":"13","lsbd":"School Board Provo 5"},{"vid":"2002973","name":"Cassius Schimmel","party":"Rep","address":"330 S 400 W, Provo, UT 84601","precinct":"25PR54","hd":"62","v_score":"1.121327652","decile":"3","lat":40.22927755015742,"lng":-111.66606844496197,"phone":"(930) 844-3358","sd":"25","ssbd":"13","lsbd":"School Board Provo 5"},{"vid":"2003574","name":"Felicie Cormier","party":"Rep","address":"330 S 400 W, Provo, UT 84601","precinct":"25PR54","hd":"62","v_score":"2.315214949","decile":"5","lat":40.22927755015742,"lng":-111.66606844496197,"phone":"(385) 681-1379","sd":"25","ssbd":"13","lsbd":"School Board Provo 5"},{"vid":"2011808","name":"Alejandro Grant-Stracke","party":"Dem","address":"270 W 300 S, Provo, UT 84601","precinct":"25PR54","hd":"62","v_score":"0","decile":"1","lat":40.22993020214076,"lng":-111.66355570296138,"phone":"(881) 975-1604","sd":"25","ssbd":"13","lsbd":"School Board Provo 5"},{"vid":"2012108","name":"Leticia Balistreri-Tremblay","party":"Dem","address":"353 S 300 W, Provo, UT 84601","precinct":"25PR54","hd":"62","v_score":"0","decile":"1","lat":40.2289036053132,"lng":-111.66349506881,"phone":"(766) 897-1032","sd":"25","ssbd":"13","lsbd":"School Board Provo 5"},{"vid":"3e6055da4b8287afb79c5c35d9cbf1cdcd7ca5a8f6a61c4ce7286fdd697b07ea","name":"Khalid Hilll","party":"Dem","address":"61 W 400 S, Apt 126, Provo, UT 84601","precinct":"25PR54","hd":"62","v_score":"0","decile":"1","lat":40.22793188431221,"lng":-111.65984587026517,"phone":"(455) 623-0636","sd":"25","ssbd":"13","lsbd":"School Board Provo 5"},{"vid":"2014134","name":"Debrah Dietrich","party":"Dem","address":"521 S 300 W, Provo, UT 84601","precinct":"25PR54","hd":"62","v_score":"18.59933514","decile":"10","lat":40.226733817973624,"lng":-111.6637021252984,"phone":"(339) 680-9969","sd":"25","ssbd":"13","lsbd":"School Board Provo 5"},{"vid":"2015368","name":"Helena Prohaska","party":"Rep","address":"354 S 400 W, Provo, UT 84601","precinct":"25PR54","hd":"62","v_score":"7.549608095","decile":"8","lat":40.228976973731434,"lng":-111.6661422636611,"phone":"(787) 008-1954","sd":"25","ssbd":"13","lsbd":"School Board Provo 5"},{"vid":"2028849","name":"Garrick Hayes","party":"Rep","address":"390 W 500 S, Provo, UT 84601","precinct":"25PR54","hd":"62","v_score":"18.57420493","decile":"10","lat":40.22735032369906,"lng":-111.66545753559186,"phone":"(775) 765-9973","sd":"25","ssbd":"13","lsbd":"School Board Provo 5"},{"vid":"2030407","name":"Kati Bednar","party":"Dem","address":"193 S 400 W, Provo, UT 84601","precinct":"25PR54","hd":"62","v_score":"4.858449944","decile":"7","lat":40.23123066363968,"lng":-111.66537364785636,"phone":"(446) 883-1902","sd":"25","ssbd":"13","lsbd":"School Board Provo 5"},{"vid":"2031337","name":"Opal Stoltenberg","party":"Rep","address":"345 W 200 S, Provo, UT 84601","precinct":"25PR54","hd":"62","v_score":"1.121327652","decile":"3","lat":40.36109200934549,"lng":-111.74620023760461,"phone":"(210) 274-0422","sd":"25","ssbd":"13","lsbd":"School Board Provo 5"},{"vid":"2033219","name":"Ephriam Cole","party":"Dem","address":"77 W 500 S, Apt 307, Provo, UT 84601","precinct":"25PR54","hd":"62","v_score":"22.16617265","decile":"10","lat":40.226422226935725,"lng":-111.65990325573439,"phone":"(533) 136-8348","sd":"25","ssbd":"13","lsbd":"School Board Provo 5"},{"vid":"2033641","name":"Mrs. Jocelyn Harber DVM","party":"Dem","address":"433 N 300 W, Apt 201, Provo, UT 84601","precinct":"25PR54","hd":"62","v_score":"5.429380732","decile":"7","lat":40.23948793281715,"lng":-111.66452205664511,"phone":"(533) 131-1136","sd":"25","ssbd":"13","lsbd":"School Board Provo 5"},{"vid":"2035400","name":"Mollie Bode","party":"Dem","address":"380 S Freedom Blvd, Apt 9, Provo, UT 84601","precinct":"25PR54","hd":"62","v_score":"1.121327652","decile":"3","lat":40.228953104565925,"lng":-111.66297458316342,"phone":"(726) 855-4632","sd":"25","ssbd":"13","lsbd":"School Board Provo 5"},{"vid":"2036998","name":"Djuana Ebert","party":"Rep","address":"161 W 400 S, Apt 10, Provo, UT 84601","precinct":"25PR54","hd":"62","v_score":"11.74544512","decile":"9","lat":40.228054571237706,"lng":-111.66149540967072,"phone":"(260) 313-4265","sd":"25","ssbd":"13","lsbd":"School Board Provo 5"},{"vid":"2056246","name":"Marshal Bednar-Langosh","party":"Dem","address":"475 S 400 W, Apt D4, Provo, UT 84601","precinct":"25PR54","hd":"62","v_score":"0","decile":"1","lat":40.22752986737547,"lng":-111.66492213572994,"phone":"(584) 720-0043","sd":"25","ssbd":"13","lsbd":"School Board Provo 5"},{"vid":"2063452","name":"Tiarra Hilpert","party":"Rep","address":"260 S 100 W, Apt 3, Provo, UT 84601","precinct":"25PR54","hd":"62","v_score":"12.51613974","decile":"9","lat":40.23027434263956,"lng":-111.66088675291603,"phone":"(623) 517-6114","sd":"25","ssbd":"13","lsbd":"School Board Provo 5"},{"vid":"2064300","name":"Gaston Cormier","party":"","address":"136 W 200 S, Apt 108, Provo, UT 84601","precinct":"25PR54","hd":"62","v_score":"1.121327652","decile":"3","lat":40.23122890339156,"lng":-111.66102464120655,"phone":"(483) 722-3158","sd":"25","ssbd":"13","lsbd":"School Board Provo 5"},{"vid":"2064365","name":"Joey Christiansen-Keebler","party":"","address":"136 W 200 S, Apt 108, Provo, UT 84601","precinct":"25PR54","hd":"62","v_score":"1.121327652","decile":"3","lat":40.23122890339156,"lng":-111.66102464120655,"phone":"(937) 983-9548","sd":"25","ssbd":"13","lsbd":"School Board Provo 5"},{"vid":"4fc71fb4695d73eda0bb471d29b87ef2d6960cce850d49638710bedb849fe86c","name":"Barb Ledner","party":"","address":"475 S 400 W, Apt B1, Provo, UT 84601","precinct":"25PR54","hd":"62","v_score":"3.781490609","decile":"6","lat":40.22752986737547,"lng":-111.66492213572994,"phone":"(223) 518-6374","sd":"25","ssbd":"13","lsbd":"School Board Provo 5"},{"vid":"2e3b1369389e2ba302d986e9d57f910baf84a6e3df8b5dc737f1c0780cd9b138","name":"Jacklyn Streich","party":"Rep","address":"136 W 200 S, Apt 312, Provo, UT 84601","precinct":"25PR54","hd":"62","v_score":"18.26998056","decile":"10","lat":40.23122890339156,"lng":-111.66102464120655,"phone":"(945) 256-9205","sd":"25","ssbd":"13","lsbd":"School Board Provo 5"},{"vid":"2077894","name":"Branson Towne","party":"","address":"61 W 400 S, Apt 105, Provo, UT 84601","precinct":"25PR54","hd":"62","v_score":"8.280646305","decile":"8","lat":40.22793188431221,"lng":-111.65984587026517,"phone":"(843) 160-1805","sd":"25","ssbd":"13","lsbd":"School Board Provo 5"},{"vid":"9cfdca3f7fb2b6613d44f36871df1adeedfe2bee4ac44d7957a342dda98a22a6","name":"Tyquan Reinger","party":"","address":"475 S 400 W, Apt A3, Provo, UT 84601","precinct":"25PR54","hd":"62","v_score":"5.40460374","decile":"7","lat":40.22752986737547,"lng":-111.66492213572994,"phone":"(230) 820-1049","sd":"25","ssbd":"13","lsbd":"School Board Provo 5"},{"vid":"cc636349d16cda0a0cc54453941c8178c964479d5cdaa4dee1a29617db9b5163","name":"Amani Kulas","party":"Rep","address":"245 W 200 S, Provo, UT 84601","precinct":"25PR54","hd":"62","v_score":"2.998909327","decile":"6","lat":40.23080569756273,"lng":-111.66304022288156,"phone":"(104) 235-3363","sd":"25","ssbd":"13","lsbd":"School Board Provo 5"},{"vid":"2086710","name":"Annie Vandervort","party":"Rep","address":"193 S 400 W, Provo, UT 84601","precinct":"25PR54","hd":"62","v_score":"0","decile":"1","lat":40.23123066363968,"lng":-111.66537364785636,"phone":"(776) 264-5285","sd":"25","ssbd":"13","lsbd":"School Board Provo 5"},{"vid":"2092815","name":"Dr. Paxton Sporer V","party":"Rep","address":"61 W 400 S, Apt 424, Provo, UT 84601","precinct":"25PR54","hd":"62","v_score":"2.315214949","decile":"5","lat":40.22793188431221,"lng":-111.65984587026517,"phone":"(561) 395-3646","sd":"25","ssbd":"13","lsbd":"School Board Provo 5"},{"vid":"c02597fa0abc1455bbf7b4de66ee52591167cc3875f78b62a2dc498f4876a675","name":"Carmine Bechtelar II","party":"","address":"136 W 200 S, Apt 309, Provo, UT 84601","precinct":"25PR54","hd":"62","v_score":"1.121327652","decile":"3","lat":40.23122890339156,"lng":-111.66102464120655,"phone":"(502) 422-9990","sd":"25","ssbd":"13","lsbd":"School Board Provo 5"},{"vid":"328235f3ba73cfcf04291e25b4f049af3705045695cd0005613145de2eaa5e41","name":"Amparo Hammes","party":"","address":"77 W 500 S, Apt 425, Provo, UT 84601","precinct":"25PR54","hd":"62","v_score":"1.121327652","decile":"3","lat":40.226422226935725,"lng":-111.65990325573439,"phone":"(311) 106-9633","sd":"25","ssbd":"13","lsbd":"School Board Provo 5"},{"vid":"2100122","name":"Clarence Powlowski","party":"Rep","address":"575 S Freedom Blvd, Apt 307, Provo, UT 84601","precinct":"25PR54","hd":"62","v_score":"15.48823048","decile":"9","lat":40.226311184765635,"lng":-111.66152772009521,"phone":"(746) 737-8819","sd":"25","ssbd":"13","lsbd":"School Board Provo 5"},{"vid":"8ec633bea7c11a4b39d3b2139924572ac441c58f02c907b99a80ab7ccaa0477b","name":"Arbie Adams Jr.","party":"","address":"95 W 100 S, Unit 955, Provo, UT 84601","precinct":"25PR54","hd":"62","v_score":"7.995565619","decile":"8","lat":40.23125389735097,"lng":-111.66017351411631,"phone":"(426) 690-0498","sd":"25","ssbd":"13","lsbd":"School Board Provo 5"},{"vid":"2125471","name":"Pryor Mosciski","party":"Rep","address":"431 W 200 S, Apt 3, Provo, UT 84601","precinct":"25PR54","hd":"62","v_score":"2.587603312","decile":"5","lat":40.230706212896976,"lng":-111.6663458208265,"phone":"(319) 724-6641","sd":"25","ssbd":"13","lsbd":"School Board Provo 5"},{"vid":"2131321","name":"Trisha Reynolds","party":"","address":"77 W 500 S, Apt 125, Provo, UT 84601","precinct":"25PR54","hd":"62","v_score":"1.46627566","decile":"4","lat":40.226422226935725,"lng":-111.65990325573439,"phone":"(103) 259-2288","sd":"25","ssbd":"13","lsbd":"School Board Provo 5"},{"vid":"2132617","name":"Terrell Fritsch","party":"","address":"95 W 100 S, Provo, UT 84601","precinct":"25PR54","hd":"62","v_score":"1.46627566","decile":"4","lat":40.23125389735097,"lng":-111.66017351411631,"phone":"(350) 935-9000","sd":"25","ssbd":"13","lsbd":"School Board Provo 5"},{"vid":"208d2c3fdeeb126ab60d530396e67bd57cc6a54becfaccfd95418635c12166b4","name":"Mrs. Lesta Schuster","party":"","address":"228 S 300 W, Provo, UT 84601","precinct":"25PR54","hd":"62","v_score":"5.60307055","decile":"7","lat":40.23059935065238,"lng":-111.6643584662154,"phone":"(169) 088-1487","sd":"25","ssbd":"13","lsbd":"School Board Provo 5"},{"vid":"a2a5742766bcdf3f0959f024b85c8282f457b0c1ce0c20ba1797232321977b35","name":"Wiliam Parker","party":"Dem","address":"431 W 200 S, Apt 3, Provo, UT 84601","precinct":"25PR54","hd":"62","v_score":"1.46627566","decile":"4","lat":40.230706212896976,"lng":-111.6663458208265,"phone":"(851) 171-7462","sd":"25","ssbd":"13","lsbd":"School Board Provo 5"},{"vid":"2139251","name":"Jazmyne Becker","party":"Rep","address":"241 S 400 W, Apt 2, Provo, UT 84601","precinct":"25PR54","hd":"62","v_score":"1.46627566","decile":"4","lat":40.23046268396209,"lng":-111.66541045165388,"phone":"(323) 913-5542","sd":"25","ssbd":"13","lsbd":"School Board Provo 5"},{"vid":"2151019","name":"Andreas Jast","party":"Rep","address":"575 S Freedom Blvd, Apt 302, Provo, UT 84601","precinct":"25PR54","hd":"62","v_score":"2.744440783","decile":"5","lat":40.226311184765635,"lng":-111.66152772009521,"phone":"(987) 005-0201","sd":"25","ssbd":"13","lsbd":"School Board Provo 5"},{"vid":"2157004","name":"Maurice Ryan-Koepp","party":"Rep","address":"294 W 300 S, Provo, UT 84601","precinct":"25PR54","hd":"62","v_score":"3.781490609","decile":"6","lat":40.22998771663771,"lng":-111.66375637258214,"phone":"(110) 415-7430","sd":"25","ssbd":"13","lsbd":"School Board Provo 5"},{"vid":"2166099","name":"Kamron Lynch","party":"Rep","address":"61 W 400 S, Apt 201, Provo, UT 84601","precinct":"25PR54","hd":"62","v_score":"1.46627566","decile":"4","lat":40.22793188431221,"lng":-111.65984587026517,"phone":"(496) 220-8742","sd":"25","ssbd":"13","lsbd":"School Board Provo 5"},{"vid":"2166652","name":"Mrs. Sophie Leuschke DDS","party":"","address":"251 S 400 W, Provo, UT 84601","precinct":"25PR54","hd":"62","v_score":"1.46627566","decile":"4","lat":40.23032012310445,"lng":-111.665411077061,"phone":"(471) 569-2866","sd":"25","ssbd":"13","lsbd":"School Board Provo 5"},{"vid":"2169391","name":"Dr. Harriett Gutkowski","party":"Dem","address":"244 S 300 W, Provo, UT 84601","precinct":"25PR54","hd":"62","v_score":"21.56366115","decile":"10","lat":40.23041775908763,"lng":-111.66440708684145,"phone":"(936) 182-6523","sd":"25","ssbd":"13","lsbd":"School Board Provo 5"},{"vid":"5fc268dcd00cd3a9afa081d1cc0b72fdfa6864d682b887b9d8d5021bf0fc3ecc","name":"India Kozey","party":"Rep","address":"61 W 400 S, Apt 425, Provo, UT 84601","precinct":"25PR54","hd":"62","v_score":"1.121327652","decile":"3","lat":40.22793188431221,"lng":-111.65984587026517,"phone":"(890) 950-9861","sd":"25","ssbd":"13","lsbd":"School Board Provo 5"},{"vid":"2174085","name":"Benjaman Lindgren","party":"Dem","address":"61 W 400 S, Apt 426, Provo, UT 84601","precinct":"25PR54","hd":"62","v_score":"3.93832808","decile":"6","lat":40.22793188431221,"lng":-111.65984587026517,"phone":"(364) 339-7938","sd":"25","ssbd":"13","lsbd":"School Board Provo 5"},{"vid":"2178932","name":"Ms. Brandie Muller DDS","party":"Rep","address":"260 S 100 W, Apt 2, Provo, UT 84601","precinct":"25PR54","hd":"62","v_score":"23.01313801","decile":"10","lat":40.23027434263956,"lng":-111.66088675291603,"phone":"(389) 036-9616","sd":"25","ssbd":"13","lsbd":"School Board Provo 5"},{"vid":"2183185","name":"Margueritte Gerhold","party":"","address":"330 S 400 W, Provo, UT 84601","precinct":"25PR54","hd":"62","v_score":"2.315214949","decile":"5","lat":40.22927755015742,"lng":-111.66606844496197,"phone":"(831) 297-0953","sd":"25","ssbd":"13","lsbd":"School Board Provo 5"},{"vid":"363e9d271035cf7c2deff01a9c5b0918f1a65145b8354cd7056ad831d4a5a4e6","name":"Lovell Boyer II","party":"","address":"341 S 300 W, Provo, UT 84601","precinct":"25PR54","hd":"62","v_score":"15.2589308","decile":"9","lat":40.229104908008196,"lng":-111.66354659781732,"phone":"(804) 436-8377","sd":"25","ssbd":"13","lsbd":"School Board Provo 5"},{"vid":"2188536","name":"Cass Dickinson-Schumm","party":"Dem","address":"575 S Freedom Blvd, Apt 127, Provo, UT 84601","precinct":"25PR54","hd":"62","v_score":"2.315214949","decile":"5","lat":40.226311184765635,"lng":-111.66152772009521,"phone":"(978) 197-0108","sd":"25","ssbd":"13","lsbd":"School Board Provo 5"},{"vid":"c4dc690fd8d3c599330e26be0f236159e4d9098d67253a7ff65ae7a07fcd9d18","name":"Sam Hermann Jr.","party":"Rep","address":"448 W 500 S, Provo, UT 84601","precinct":"25PR54","hd":"62","v_score":"20.69989699","decile":"10","lat":40.227323768465794,"lng":-111.66657821481087,"phone":"(404) 551-5715","sd":"25","ssbd":"13","lsbd":"School Board Provo 5"},{"vid":"9f4a22779222e04ec56db0bfc21af4e382ff8d21f687922fa2a4dfb59d81ecff","name":"Waldemar Keebler","party":"Dem","address":"175 W 200 S, Provo, UT 84601","precinct":"25PR54","hd":"62","v_score":"0","decile":"1","lat":40.23078492400125,"lng":-111.66170937507634,"phone":"(656) 870-2899","sd":"25","ssbd":"13","lsbd":"School Board Provo 5"},{"vid":"2198545","name":"Dillard Daugherty","party":"","address":"191 S 300 W, Unit A, Provo, UT 84601","precinct":"25PR54","hd":"62","v_score":"9.424470668","decile":"8","lat":40.231254962144625,"lng":-111.66367931545639,"phone":"(747) 752-9666","sd":"25","ssbd":"13","lsbd":"School Board Provo 5"},{"vid":"48d1d2051be2602024239e4ec5cfbdc944ee15580146a660f56558f32f8aff58","name":"Shane Hermiston","party":"Dem","address":"354 W 300 S, Provo, UT 84601","precinct":"25PR54","hd":"62","v_score":"1.121327652","decile":"3","lat":40.230044997630785,"lng":-111.66490996715109,"phone":"(393) 886-3830","sd":"25","ssbd":"13","lsbd":"School Board Provo 5"},{"vid":"2204333","name":"Dr. Early Batz II","party":"","address":"156 S 300 W, Provo, UT 84601","precinct":"25PR54","hd":"62","v_score":"15.76105332","decile":"9","lat":40.23163472708033,"lng":-111.66435436615474,"phone":"(775) 061-9527","sd":"25","ssbd":"13","lsbd":"School Board Provo 5"},{"vid":"9fcd1282ee3ef4a4f486cb4df999d8bf2cf358a0dd945a9d868e896a68a63803","name":"Palmer Lemke","party":"","address":"444 S 300 W, Provo, UT 84601","precinct":"25PR54","hd":"62","v_score":"0","decile":"1","lat":40.227816392534116,"lng":-111.6643426526624,"phone":"(428) 677-6289","sd":"25","ssbd":"13","lsbd":"School Board Provo 5"},{"vid":"2222898","name":"Lulu Parker","party":"Dem","address":"294 W 300 S, Provo, UT 84601","precinct":"25PR54","hd":"62","v_score":"2.315214949","decile":"5","lat":40.22998771663771,"lng":-111.66375637258214,"phone":"(196) 809-5831","sd":"25","ssbd":"13","lsbd":"School Board Provo 5"},{"vid":"9f9540754aad1de5d4df4e154e547d8b7fbb5fa4ac24e0e3540e7b5b637831b0","name":"Harlan Connelly","party":"Dem","address":"61 W 400 S, Apt 205, Provo, UT 84601","precinct":"25PR54","hd":"62","v_score":"1.193887297","decile":"3","lat":40.22793188431221,"lng":-111.65984587026517,"phone":"(535) 810-4560","sd":"25","ssbd":"13","lsbd":"School Board Provo 5"},{"vid":"e8c514f772c0d56eaab31d576d79f65820b80fcceee6c4e1dd5a5609028766c3","name":"Mr. Lou Carter I","party":"","address":"467 W 400 S, Provo, UT 84601","precinct":"25PR54","hd":"62","v_score":"1.121327652","decile":"3","lat":40.228179827799956,"lng":-111.66685883970213,"phone":"(424) 470-6449","sd":"25","ssbd":"13","lsbd":"School Board Provo 5"},{"vid":"c8c6c7195e990aa317d18d7c94e6ec0c7ff274fc239939d6b5b67f345053ccda","name":"Carson Marks DVM","party":"Dem","address":"390 W 500 S, Provo, UT 84601","precinct":"25PR54","hd":"62","v_score":"33.68120686","decile":"10","lat":40.22735032369906,"lng":-111.66545753559186,"phone":"(408) 389-6137","sd":"25","ssbd":"13","lsbd":"School Board Provo 5"},{"vid":"d8830a1e7b06aed6d92a5c1db8606796d6f152fed1daeb0440fde5488c99026b","name":"Jayden Bosco","party":"","address":"235 S 400 W, Provo, UT 84601","precinct":"25PR54","hd":"62","v_score":"3.93832808","decile":"6","lat":40.051236407675695,"lng":-111.68108494573903,"phone":"(190) 267-0249","sd":"25","ssbd":"13","lsbd":"School Board Provo 5"},{"vid":"2247372","name":"Gwyneth Johnston","party":"Dem","address":"346 W 300 S, Provo, UT 84601","precinct":"25PR54","hd":"62","v_score":"1.193887297","decile":"3","lat":40.230020728652526,"lng":-111.66466497765718,"phone":"(443) 670-2838","sd":"25","ssbd":"13","lsbd":"School Board Provo 5"},{"vid":"2bfd3c6f0099efe76c6934eca1be3e9d65862fd0145056979d47ccddded4495f","name":"Kerry Berge","party":"","address":"372 S 100 W, Provo, UT 84601","precinct":"25PR54","hd":"62","v_score":"0","decile":"1","lat":40.22885056876806,"lng":-111.66096736036347,"phone":"(983) 084-9781","sd":"25","ssbd":"13","lsbd":"School Board Provo 5"},{"vid":"ec3048f8db3c5a0dbc77734eda47bd9fbab9faa76cab21f894fe0db81f54a1b5","name":"Miss Myranda Hirthe PhD","party":"Rep","address":"330 S 400 W, Provo, UT 84601","precinct":"25PR54","hd":"62","v_score":"1.121327652","decile":"3","lat":40.22927755015742,"lng":-111.66606844496197,"phone":"(527) 410-3871","sd":"25","ssbd":"13","lsbd":"School Board Provo 5"},{"vid":"2252060","name":"Camden Towne","party":"Dem","address":"171 S 300 W, Provo, UT 84601","precinct":"25PR54","hd":"62","v_score":"0","decile":"1","lat":39.97288228094944,"lng":-111.79078169302903,"phone":"(700) 966-4929","sd":"25","ssbd":"13","lsbd":"School Board Provo 5"},{"vid":"2252221","name":"Guilford Kuvalis DVM","party":"Rep","address":"61 W 400 S, Apt 124, Provo, UT 84601","precinct":"25PR54","hd":"62","v_score":"10.24124245","decile":"9","lat":40.22793188431221,"lng":-111.65984587026517,"phone":"(145) 485-0864","sd":"25","ssbd":"13","lsbd":"School Board Provo 5"},{"vid":"2252453","name":"Earnestine Hackett","party":"","address":"136 W 200 S, Apt 312, Provo, UT 84601","precinct":"25PR54","hd":"62","v_score":"6.027167436","decile":"7","lat":40.23122890339156,"lng":-111.66102464120655,"phone":"(724) 320-6880","sd":"25","ssbd":"13","lsbd":"School Board Provo 5"},{"vid":"45a32deeedd6667ce570e43b9ca9e1a159eea7d1213892aaff3dcb8b8ee1c535","name":"Shirley Grady III","party":"","address":"141 W 200 S, Provo, UT 84601","precinct":"25PR54","hd":"62","v_score":"14.28316013","decile":"9","lat":40.23066163399371,"lng":-111.66127019158287,"phone":"(361) 806-0445","sd":"25","ssbd":"13","lsbd":"School Board Provo 5"},{"vid":"d53ed24f3c301844d9ad7d56e88c4c1276c94119dfff98dffd661a3536cb1537","name":"Ms. Georgiana Lubowitz","party":"","address":"444 S 100 W, Provo, UT 84601","precinct":"25PR54","hd":"62","v_score":"2.315214949","decile":"5","lat":40.22776491056388,"lng":-111.66084093021271,"phone":"(544) 978-7067","sd":"25","ssbd":"13","lsbd":"School Board Provo 5"},{"vid":"2268551","name":"Mikeal Harris DVM","party":"Rep","address":"136 W 200 S, Apt 326, Provo, UT 84601","precinct":"25PR54","hd":"62","v_score":"1.193887297","decile":"3","lat":40.23122890339156,"lng":-111.66102464120655,"phone":"(644) 162-7991","sd":"25","ssbd":"13","lsbd":"School Board Provo 5"},{"vid":"2da451524c9cabda8e9070c312dad2cfc8d375f7bdf82af1a6c15f13342fc2ab","name":"Londyn Wehner","party":"","address":"346 W 300 S, Provo, UT 84601","precinct":"25PR54","hd":"62","v_score":"0","decile":"1","lat":40.230020728652526,"lng":-111.66466497765718,"phone":"(685) 637-1349","sd":"25","ssbd":"13","lsbd":"School Board Provo 5"},{"vid":"82d029caa668129cf3776245a6843a6c360edb7951634209730b16eee55b8ab1","name":"Crissy Quitzon-Hauck","party":"Rep","address":"349 W 300 S, Provo, UT 84601","precinct":"25PR54","hd":"62","v_score":"1.121327652","decile":"3","lat":40.22938763152057,"lng":-111.66649617940148,"phone":"(967) 657-0294","sd":"25","ssbd":"13","lsbd":"School Board Provo 5"},{"vid":"aa8a6484ac458c0dd8a340e2d436a73a93d9ef9c441416a2119adbf53e0a5623","name":"Arden Littel","party":"","address":"431 W 200 S, Apt 5, Provo, UT 84601","precinct":"25PR54","hd":"62","v_score":"1.121327652","decile":"3","lat":40.230706212896976,"lng":-111.6663458208265,"phone":"(897) 138-6132","sd":"25","ssbd":"13","lsbd":"School Board Provo 5"},{"vid":"ebaf6fbcc7ab0d2219af28dd2dd528489a16e72c79067943ff736df06a143e28","name":"Raul Lubowitz DDS","party":"","address":"443 S 300 W, Provo, UT 84601","precinct":"25PR54","hd":"62","v_score":"0","decile":"1","lat":40.22778494680442,"lng":-111.66355313934923,"phone":"(145) 154-7583","sd":"25","ssbd":"13","lsbd":"School Board Provo 5"},{"vid":"a49fb8b84b7dc3edebacf15a14947a8fa8033320b005881f67dad4d49e361742","name":"Antonio Hudson DDS","party":"Rep","address":"458 W 400 S, Provo, UT 84601","precinct":"25PR54","hd":"62","v_score":"0","decile":"1","lat":40.2286242071425,"lng":-111.66671629988375,"phone":"(467) 367-1789","sd":"25","ssbd":"13","lsbd":"School Board Provo 5"},{"vid":"e4a7dddff7a728f72d8215647238b43fe6b07906d26c0f3bd9c1e85543708771","name":"Carry Roob","party":"Dem","address":"391 W 400 S, Provo, UT 84601","precinct":"25PR54","hd":"62","v_score":"8.373412339","decile":"8","lat":40.22817565525973,"lng":-111.66546060890812,"phone":"(338) 954-3946","sd":"25","ssbd":"13","lsbd":"School Board Provo 5"},{"vid":"1ec9a0dddbfe7643fc51b0b8199689a0f0e6f62f989bd82ac8e1ddd7a7a1ada5","name":"Mr. Douglas Raynor","party":"Rep","address":"61 W 400 S, Apt 116, Provo, UT 84601","precinct":"25PR54","hd":"62","v_score":"4.064235245","decile":"6","lat":40.22793188431221,"lng":-111.65984587026517,"phone":"(973) 112-1393","sd":"25","ssbd":"13","lsbd":"School Board Provo 5"},{"vid":"2297850","name":"Dillan Reilly","party":"","address":"143 S 300 W, Provo, UT 84601","precinct":"25PR54","hd":"62","v_score":"6.881235673","decile":"8","lat":40.2317547932035,"lng":-111.66370481449503,"phone":"(836) 450-3448","sd":"25","ssbd":"13","lsbd":"School Board Provo 5"},{"vid":"2298573","name":"Wilson Tromp","party":"","address":"575 S Freedom Blvd, Apt 302, Provo, UT 84601","precinct":"25PR54","hd":"62","v_score":"4.064235245","decile":"6","lat":40.226311184765635,"lng":-111.66152772009521,"phone":"(222) 669-6385","sd":"25","ssbd":"13","lsbd":"School Board Provo 5"},{"vid":"fe9c2125f235a192b328e0c2b884fd8d23951d9ad77243d2f4f0f4e7298416b7","name":"Sheyla Lockman-Mante","party":"","address":"61 W 400 S, Apt 116, Provo, UT 84601","precinct":"25PR54","hd":"62","v_score":"1.121327652","decile":"3","lat":40.22793188431221,"lng":-111.65984587026517,"phone":"(925) 581-9066","sd":"25","ssbd":"13","lsbd":"School Board Provo 5"},{"vid":"99ddc817f4bc640c341dbc17666c722e11ea074816a38b27bbcf582e5558f718","name":"Britni Little","party":"Dem","address":"575 S Freedom Blvd, Apt 305, Provo, UT 84601","precinct":"25PR54","hd":"62","v_score":"1.193887297","decile":"3","lat":40.226311184765635,"lng":-111.66152772009521,"phone":"(966) 402-7734","sd":"25","ssbd":"13","lsbd":"School Board Provo 5"},{"vid":"2311460","name":"Vergil Goldner","party":"","address":"136 W 200 S, Apt 206, Provo, UT 84601","precinct":"25PR54","hd":"62","v_score":"2.744440783","decile":"5","lat":40.23122890339156,"lng":-111.66102464120655,"phone":"(997) 603-5450","sd":"25","ssbd":"13","lsbd":"School Board Provo 5"},{"vid":"763506784c95aa139bb0df59fa275d858b20315ee169709a4010bee5ee2bcc2f","name":"Dr. Orange Kirlin MD","party":"","address":"354 S 400 W, Provo, UT 84601","precinct":"25PR54","hd":"62","v_score":"2.744440783","decile":"5","lat":40.228976973731434,"lng":-111.6661422636611,"phone":"(712) 304-0585","sd":"25","ssbd":"13","lsbd":"School Board Provo 5"},{"vid":"caf3be02581defc81358b8417a0e4135d32a9c624d289231b0787393bba15c7e","name":"Matteo Kutch","party":"Dem","address":"322 W 400 S, Provo, UT 84601","precinct":"25PR54","hd":"62","v_score":"1.193887297","decile":"3","lat":40.22865932133379,"lng":-111.66438634272379,"phone":"(885) 713-0225","sd":"25","ssbd":"13","lsbd":"School Board Provo 5"},{"vid":"2323618","name":"Dr. Casper Tremblay DVM","party":"Dem","address":"77 W 500 S, Apt 405, Provo, UT 84601","precinct":"25PR54","hd":"62","v_score":"0","decile":"1","lat":40.226422226935725,"lng":-111.65990325573439,"phone":"(810) 953-9126","sd":"25","ssbd":"13","lsbd":"School Board Provo 5"},{"vid":"2329967","name":"Elroy Buckridge","party":"Rep","address":"185 S 400 W, Apt 2, Provo, UT 84601","precinct":"25PR54","hd":"62","v_score":"1.121327652","decile":"3","lat":40.23139555659512,"lng":-111.66535829115656,"phone":"(269) 837-6447","sd":"25","ssbd":"13","lsbd":"School Board Provo 5"},{"vid":"2341020","name":"Doretta Littel","party":"","address":"358 W 400 S, Provo, UT 84601","precinct":"25PR54","hd":"62","v_score":"3.93832808","decile":"6","lat":40.228618366255425,"lng":-111.66496631990617,"phone":"(497) 883-0194","sd":"25","ssbd":"13","lsbd":"School Board Provo 5"},{"vid":"2341764","name":"Adyson Reichert","party":"Rep","address":"136 W 200 S, Apt 206, Provo, UT 84601","precinct":"25PR54","hd":"62","v_score":"2.744440783","decile":"5","lat":40.23122890339156,"lng":-111.66102464120655,"phone":"(238) 545-8436","sd":"25","ssbd":"13","lsbd":"School Board Provo 5"},{"vid":"2343184","name":"Ms. Amanda Walker DVM","party":"","address":"575 S Freedom Blvd, Apt 403, Provo, UT 84601","precinct":"25PR54","hd":"62","v_score":"1.121327652","decile":"3","lat":40.226311184765635,"lng":-111.66152772009521,"phone":"(305) 761-0805","sd":"25","ssbd":"13","lsbd":"School Board Provo 5"},{"vid":"2344528","name":"Alissa Ebert","party":"Rep","address":"365 W 400 S, Provo, UT 84601","precinct":"25PR54","hd":"62","v_score":"0","decile":"1","lat":40.228176265386914,"lng":-111.66513836524939,"phone":"(830) 087-2253","sd":"25","ssbd":"13","lsbd":"School Board Provo 5"},{"vid":"2345003","name":"Sincere Hammes","party":"Dem","address":"61 W 400 S, Apt 410, Provo, UT 84601","precinct":"25PR54","hd":"62","v_score":"5.761032035","decile":"7","lat":40.22793188431221,"lng":-111.65984587026517,"phone":"(686) 022-1504","sd":"25","ssbd":"13","lsbd":"School Board Provo 5"},{"vid":"2346194","name":"Yoel Watsica","party":"Dem","address":"127 W 200 S, Provo, UT 84601","precinct":"25PR54","hd":"62","v_score":"1.121327652","decile":"3","lat":40.23079931355887,"lng":-111.66108036609056,"phone":"(388) 095-5611","sd":"25","ssbd":"13","lsbd":"School Board Provo 5"},{"vid":"2347587","name":"Alvis Padberg","party":"","address":"136 W 200 S, Apt 114, Provo, UT 84601","precinct":"25PR54","hd":"62","v_score":"2.315214949","decile":"5","lat":40.23122890339156,"lng":-111.66102464120655,"phone":"(964) 464-1608","sd":"25","ssbd":"13","lsbd":"School Board Provo 5"},{"vid":"2348027","name":"Fleta Bernier","party":"Dem","address":"191 S 300 W, Unit A, Provo, UT 84601","precinct":"25PR54","hd":"62","v_score":"6.481563075","decile":"7","lat":40.231254962144625,"lng":-111.66367931545639,"phone":"(972) 013-7140","sd":"25","ssbd":"13","lsbd":"School Board Provo 5"},{"vid":"2353832","name":"Canyon Veum","party":"","address":"492 W 470 S, Provo, UT 84601","precinct":"25PR54","hd":"62","v_score":"10.6918867","decile":"9","lat":40.22759477577713,"lng":-111.66709146285666,"phone":"(964) 588-9129","sd":"25","ssbd":"13","lsbd":"School Board Provo 5"},{"vid":"2357614","name":"Kendall Rolfson","party":"","address":"136 W 200 S, Apt 333, Provo, UT 84601","precinct":"25PR54","hd":"62","v_score":"2.315214949","decile":"5","lat":40.23122890339156,"lng":-111.66102464120655,"phone":"(105) 418-3248","sd":"25","ssbd":"13","lsbd":"School Board Provo 5"},{"vid":"2358101","name":"Mrs. Lillis Abshire","party":"","address":"126 W 400 S, Santaquin, UT 84655","precinct":"25PR54","hd":"62","v_score":"2.315214949","decile":"5","lat":40.22860553679501,"lng":-111.66102876003346,"phone":"(875) 638-0421","sd":"25","ssbd":"13","lsbd":"School Board Provo 5"},{"vid":"2363148","name":"Fount Sauer","party":"","address":"61 W 400 S, Apt 410, Provo, UT 84601","precinct":"25PR54","hd":"62","v_score":"5.761032035","decile":"7","lat":40.22793188431221,"lng":-111.65984587026517,"phone":"(894) 352-0964","sd":"25","ssbd":"13","lsbd":"School Board Provo 5"},{"vid":"2363858","name":"Asa Howe-Dach","party":"Rep","address":"77 W 500 S, Apt 111, Provo, UT 84601","precinct":"25PR54","hd":"62","v_score":"1.121327652","decile":"3","lat":40.226422226935725,"lng":-111.65990325573439,"phone":"(202) 459-5858","sd":"25","ssbd":"13","lsbd":"School Board Provo 5"},{"vid":"2373237","name":"Rosie Wyman DDS","party":"Rep","address":"455 W 400 S, Provo, UT 84601","precinct":"25PR54","hd":"62","v_score":"2.315214949","decile":"5","lat":40.22817924977027,"lng":-111.66668085559655,"phone":"(390) 061-7899","sd":"25","ssbd":"13","lsbd":"School Board Provo 5"},{"vid":"2373240","name":"Leopoldo Walker","party":"","address":"455 W 400 S, Provo, UT 84601","precinct":"25PR54","hd":"62","v_score":"2.315214949","decile":"5","lat":40.22817924977027,"lng":-111.66668085559655,"phone":"(523) 414-6670","sd":"25","ssbd":"13","lsbd":"School Board Provo 5"},{"vid":"2378056","name":"Tobin Pollich","party":"Rep","address":"165 S 500 W, # 165, Provo, UT 84601","precinct":"25PR54","hd":"62","v_score":"0","decile":"1","lat":40.231475767394,"lng":-111.66696565254634,"phone":"(324) 959-9084","sd":"25","ssbd":"13","lsbd":"School Board Provo 5"},{"vid":"2384539","name":"Arlis Kiehn","party":"Rep","address":"467 W 400 S, Provo, UT 84601","precinct":"25PR54","hd":"62","v_score":"3.93832808","decile":"6","lat":40.228179827799956,"lng":-111.66685883970213,"phone":"(472) 900-8335","sd":"25","ssbd":"13","lsbd":"School Board Provo 5"},{"vid":"2385399","name":"Mrs. Rosia Grady","party":"Dem","address":"61 W 400 S, Apt 105, Provo, UT 84601","precinct":"25PR54","hd":"62","v_score":"5.620483348","decile":"7","lat":40.22793188431221,"lng":-111.65984587026517,"phone":"(176) 018-2602","sd":"25","ssbd":"13","lsbd":"School Board Provo 5"},{"vid":"2387519","name":"Dr. Ladarius Ledner","party":"","address":"575 S Freedom Blvd, Apt 205, Provo, UT 84601","precinct":"25PR54","hd":"62","v_score":"1.121327652","decile":"3","lat":40.226311184765635,"lng":-111.66152772009521,"phone":"(967) 486-1653","sd":"25","ssbd":"13","lsbd":"School Board Provo 5"},{"vid":"2399743","name":"Littie Bergnaum","party":"Rep","address":"341 S 300 W, Provo, UT 84601","precinct":"25PR54","hd":"62","v_score":"6.814370645","decile":"8","lat":40.229104908008196,"lng":-111.66354659781732,"phone":"(875) 831-9714","sd":"25","ssbd":"13","lsbd":"School Board Provo 5"},{"vid":"2399944","name":"Jayme Schiller","party":"Dem","address":"61 W 400 S, Apt 208, Provo, UT 84601","precinct":"25PR54","hd":"62","v_score":"5.858606566","decile":"7","lat":40.22793188431221,"lng":-111.65984587026517,"phone":"(323) 958-3843","sd":"25","ssbd":"13","lsbd":"School Board Provo 5"},{"vid":"2404879","name":"Ms. Reese Boyle DVM","party":"Dem","address":"156 S 300 W, Provo, UT 84601","precinct":"25PR54","hd":"62","v_score":"1.121327652","decile":"3","lat":40.23163472708033,"lng":-111.66435436615474,"phone":"(351) 994-7627","sd":"25","ssbd":"13","lsbd":"School Board Provo 5"},{"vid":"2408492","name":"Christophe Roberts DDS","party":"","address":"425 S Freedom Blvd, Apt 8, Provo, UT 84601","precinct":"25PR54","hd":"62","v_score":"1.121327652","decile":"3","lat":40.22811696341133,"lng":-111.66193942086451,"phone":"(147) 854-2486","sd":"25","ssbd":"13","lsbd":"School Board Provo 5"},{"vid":"2411402","name":"Dr. Jose Kuphal V","party":"Dem","address":"189 S 500 W, Provo, UT 84601","precinct":"25PR54","hd":"62","v_score":"11.04986408","decile":"9","lat":40.23129045228516,"lng":-111.66715379020688,"phone":"(998) 065-9638","sd":"25","ssbd":"13","lsbd":"School Board Provo 5"},{"vid":"2411571","name":"Dr. Felicia Carter","party":"Rep","address":"575 S Freedom Blvd, Provo, UT 84601","precinct":"25PR54","hd":"62","v_score":"1.121327652","decile":"3","lat":40.226311184765635,"lng":-111.66152772009521,"phone":"(659) 513-7412","sd":"25","ssbd":"13","lsbd":"School Board Provo 5"},{"vid":"2418980","name":"Hershell Wehner-Kshlerin","party":"Dem","address":"575 S Freedom Blvd, Apt 421, Provo, UT 84601","precinct":"25PR54","hd":"62","v_score":"3.93832808","decile":"6","lat":40.226311184765635,"lng":-111.66152772009521,"phone":"(187) 671-7756","sd":"25","ssbd":"13","lsbd":"School Board Provo 5"},{"vid":"2419801","name":"Dr. Albina Kohler DDS","party":"","address":"161 W 400 S, Apt 8, Provo, UT 84601","precinct":"25PR54","hd":"62","v_score":"0","decile":"1","lat":40.228054571237706,"lng":-111.66149540967072,"phone":"(414) 586-9236","sd":"25","ssbd":"13","lsbd":"School Board Provo 5"},{"vid":"2424976","name":"Huy Bernhard","party":"","address":"575 S Freedom Blvd, Apt 325, Provo, UT 84601","precinct":"25PR54","hd":"62","v_score":"1.193887297","decile":"3","lat":40.226311184765635,"lng":-111.66152772009521,"phone":"(205) 001-8622","sd":"25","ssbd":"13","lsbd":"School Board Provo 5"},{"vid":"2429017","name":"Mr. Spenser Zulauf I","party":"Rep","address":"321 W 100 S, Provo, UT 84601","precinct":"25PR54","hd":"62","v_score":"1.623113131","decile":"5","lat":40.23211313663472,"lng":-111.6644656081296,"phone":"(320) 665-7387","sd":"25","ssbd":"13","lsbd":"School Board Provo 5"},{"vid":"2439711","name":"Fidelia Rosenbaum-Tromp","party":"","address":"263 N 300 W, Apt 22, Provo, UT 84601","precinct":"25PR54","hd":"62","v_score":"3.711952487","decile":"6","lat":40.237464280809256,"lng":-111.66453833950796,"phone":"(660) 954-0772","sd":"25","ssbd":"13","lsbd":"School Board Provo 5"},{"vid":"2442292","name":"Tayla Casper","party":"Dem","address":"161 W 400 S, Apt 4, Provo, UT 84601","precinct":"25PR54","hd":"62","v_score":"2.315214949","decile":"5","lat":40.228054571237706,"lng":-111.66149540967072,"phone":"(480) 549-2115","sd":"25","ssbd":"13","lsbd":"School Board Provo 5"},{"vid":"2444665","name":"Rupert Veum","party":"","address":"61 W 400 S, Apt 425, Provo, UT 84601","precinct":"25PR54","hd":"62","v_score":"0","decile":"1","lat":40.22793188431221,"lng":-111.65984587026517,"phone":"(461) 787-3358","sd":"25","ssbd":"13","lsbd":"School Board Provo 5"},{"vid":"2445135","name":"Wendy Prosacco-Weber","party":"","address":"241 S 400 W, Apt 2, Provo, UT 84601","precinct":"25PR54","hd":"62","v_score":"7.090117576","decile":"8","lat":40.23046268396209,"lng":-111.66541045165388,"phone":"(888) 326-2294","sd":"25","ssbd":"13","lsbd":"School Board Provo 5"},{"vid":"2446842","name":"Chas Rau","party":"Rep","address":"267 S 400 W, Provo, UT 84601","precinct":"25PR54","hd":"62","v_score":"18.35167816","decile":"10","lat":40.230156519349414,"lng":-111.66541202945484,"phone":"(510) 309-3797","sd":"25","ssbd":"13","lsbd":"School Board Provo 5"},{"vid":"2447703","name":"Maxwell Jenkins","party":"Rep","address":"263 N 300 W, Apt 24, Provo, UT 84601","precinct":"25PR54","hd":"62","v_score":"1.623113131","decile":"5","lat":40.237464280809256,"lng":-111.66453833950796,"phone":"(980) 161-4796","sd":"25","ssbd":"13","lsbd":"School Board Provo 5"},{"vid":"2447849","name":"Kaeden Ziemann","party":"Dem","address":"575 S Freedom Blvd, Apt 129, Provo, UT 84601","precinct":"25PR54","hd":"62","v_score":"1.121327652","decile":"3","lat":40.226311184765635,"lng":-111.66152772009521,"phone":"(358) 928-7735","sd":"25","ssbd":"13","lsbd":"School Board Provo 5"},{"vid":"2448726","name":"Sylva Stark","party":"Dem","address":"575 S Freedom Blvd, Apt 216, Provo, UT 84601","precinct":"25PR54","hd":"62","v_score":"1.121327652","decile":"3","lat":40.226311184765635,"lng":-111.66152772009521,"phone":"(935) 497-0517","sd":"25","ssbd":"13","lsbd":"School Board Provo 5"},{"vid":"2451421","name":"Shyla Mertz","party":"Dem","address":"393 W 300 S, Provo, UT 84601","precinct":"25PR54","hd":"62","v_score":"2.315214949","decile":"5","lat":40.229452077628956,"lng":-111.66544774072132,"phone":"(592) 484-5734","sd":"25","ssbd":"13","lsbd":"School Board Provo 5"},{"vid":"2452428","name":"Olar Cronin","party":"","address":"575 S Freedom Blvd, Apt 316, Provo, UT 84601","precinct":"25PR54","hd":"62","v_score":"1.121327652","decile":"3","lat":40.226311184765635,"lng":-111.66152772009521,"phone":"(540) 155-2343","sd":"25","ssbd":"13","lsbd":"School Board Provo 5"},{"vid":"2458389","name":"Colonel Bergnaum","party":"Rep","address":"61 W 400 S, Apt 305, Provo, UT 84601","precinct":"25PR54","hd":"62","v_score":"2.817000428","decile":"6","lat":40.22793188431221,"lng":-111.65984587026517,"phone":"(360) 768-3041","sd":"25","ssbd":"13","lsbd":"School Board Provo 5"},{"vid":"2458974","name":"Danielle Skiles","party":"Rep","address":"390 W 300 S, Provo, UT 84601","precinct":"25PR54","hd":"62","v_score":"4.069929862","decile":"6","lat":40.05037651262566,"lng":-111.68114563322467,"phone":"(721) 127-9004","sd":"25","ssbd":"13","lsbd":"School Board Provo 5"},{"vid":"2459560","name":"Dr. Zavion Rau PhD","party":"Rep","address":"274 W 200 S, Apt 4, Provo, UT 84601","precinct":"25PR54","hd":"62","v_score":"0","decile":"1","lat":40.23136132099733,"lng":-111.66336034489923,"phone":"(655) 102-4333","sd":"25","ssbd":"13","lsbd":"School Board Provo 5"},{"vid":"2460764","name":"Cayla Hyatt","party":"","address":"331 S 300 W, Provo, UT 84601","precinct":"25PR54","hd":"62","v_score":"0","decile":"1","lat":40.22927558937968,"lng":-111.66351111618589,"phone":"(957) 324-7331","sd":"25","ssbd":"13","lsbd":"School Board Provo 5"},{"vid":"2464550","name":"Mordechai McCullough","party":"Dem","address":"575 S Freedom Blvd, Apt 403, Provo, UT 84601","precinct":"25PR54","hd":"62","v_score":"0","decile":"1","lat":40.226311184765635,"lng":-111.66152772009521,"phone":"(776) 764-9111","sd":"25","ssbd":"13","lsbd":"School Board Provo 5"},{"vid":"2465970","name":"Treasure Green","party":"Rep","address":"617 S 500 W, Apt 23, Provo, UT 84601","precinct":"25PR54","hd":"62","v_score":"9.907118004","decile":"8","lat":40.22556507538977,"lng":-111.66638962110274,"phone":"(126) 642-5677","sd":"25","ssbd":"13","lsbd":"School Board Provo 5"},{"vid":"2472000","name":"Huldah Kuhic","party":"Dem","address":"446 W 400 S, Provo, UT 84601","precinct":"25PR54","hd":"62","v_score":"0","decile":"1","lat":40.22862340553285,"lng":-111.66647651527988,"phone":"(116) 074-3885","sd":"25","ssbd":"13","lsbd":"School Board Provo 5"},{"vid":"2472922","name":"Pairlee Stiedemann","party":"Dem","address":"575 S Freedom Blvd, Apt 120, Provo, UT 84601","precinct":"25PR54","hd":"62","v_score":"0","decile":"1","lat":40.226311184765635,"lng":-111.66152772009521,"phone":"(254) 114-3167","sd":"25","ssbd":"13","lsbd":"School Board Provo 5"},{"vid":"2472926","name":"Lacey Upton Jr.","party":"Rep","address":"95 W 100 S, Unit 1225, Provo, UT 84603","precinct":"25PR54","hd":"62","v_score":"1.46627566","decile":"4","lat":40.23125389735097,"lng":-111.66017351411631,"phone":"(189) 892-1533","sd":"25","ssbd":"13","lsbd":"School Board Provo 5"},{"vid":"2475808","name":"Gearldine Jaskolski","party":"","address":"354 W 300 S, Provo, UT 84601","precinct":"25PR54","hd":"62","v_score":"2.543234995","decile":"5","lat":40.230044997630785,"lng":-111.66490996715109,"phone":"(703) 327-8815","sd":"25","ssbd":"13","lsbd":"School Board Provo 5"},{"vid":"2477610","name":"Sina Goyette","party":"Rep","address":"575 S Freedom Blvd, Apt 212, Provo, UT 84601","precinct":"25PR54","hd":"62","v_score":"4.905839784","decile":"7","lat":40.226311184765635,"lng":-111.66152772009521,"phone":"(104) 346-4221","sd":"25","ssbd":"13","lsbd":"School Board Provo 5"},{"vid":"2480551","name":"Luigi O'Hara","party":"","address":"77 W 500 S, Apt 223, Provo, UT 84601","precinct":"25PR54","hd":"62","v_score":"0","decile":"1","lat":40.226422226935725,"lng":-111.65990325573439,"phone":"(860) 101-7708","sd":"25","ssbd":"13","lsbd":"School Board Provo 5"},{"vid":"2483448","name":"Edison Rogahn","party":"Rep","address":"273 W 400 S, Provo, UT 84601","precinct":"25PR54","hd":"62","v_score":"0","decile":"1","lat":40.382755142484484,"lng":-111.85316834733827,"phone":"(776) 635-0582","sd":"25","ssbd":"13","lsbd":"School Board Provo 5"},{"vid":"2485928","name":"Atha Abbott","party":"Rep","address":"133 S 300 W, Provo, UT 84601","precinct":"25PR54","hd":"62","v_score":"0","decile":"1","lat":40.231895771902636,"lng":-111.66369707946147,"phone":"(610) 769-9339","sd":"25","ssbd":"13","lsbd":"School Board Provo 5"},{"vid":"2493998","name":"Shelbi Swaniawski","party":"","address":"381 S 300 W, Provo, UT 84601","precinct":"25PR54","hd":"62","v_score":"0","decile":"1","lat":40.22869667061448,"lng":-111.66370371513682,"phone":"(792) 918-4847","sd":"25","ssbd":"13","lsbd":"School Board Provo 5"},{"vid":"2500002","name":"Bobby Koch-Kautzer","party":"Rep","address":"244 S 300 W, Provo, UT 84601","precinct":"25PR54","hd":"62","v_score":"1.193887297","decile":"3","lat":40.23041775908763,"lng":-111.66440708684145,"phone":"(179) 956-6784","sd":"25","ssbd":"13","lsbd":"School Board Provo 5"},{"vid":"2503315","name":"Jalissa Ziemann","party":"","address":"462 W 500 S, Provo, UT 84601","precinct":"25PR54","hd":"62","v_score":"1.193887297","decile":"3","lat":40.22732355368828,"lng":-111.66672859285852,"phone":"(328) 965-3773","sd":"25","ssbd":"13","lsbd":"School Board Provo 5"},{"vid":"2503379","name":"Michal Ritchie","party":"","address":"40 W 300 S, Apt 211, Provo, UT 84601","precinct":"25PR54","hd":"62","v_score":"4.235493435","decile":"7","lat":40.23004857750263,"lng":-111.65945195961199,"phone":"(786) 974-4084","sd":"25","ssbd":"13","lsbd":"School Board Provo 5"},{"vid":"2504211","name":"Lars Stracke","party":"Rep","address":"255 S 300 W, Provo, UT 84601","precinct":"25PR54","hd":"62","v_score":"0","decile":"1","lat":40.2303148664103,"lng":-111.66366020128343,"phone":"(858) 630-0200","sd":"25","ssbd":"13","lsbd":"School Board Provo 5"},{"vid":"2504800","name":"Cordie Schamberger DVM","party":"","address":"250 S University Ave, Apt 207, Provo, UT 84601","precinct":"25PR54","hd":"62","v_score":"0","decile":"1","lat":40.23073122746707,"lng":-111.65953091780386,"phone":"(675) 586-6359","sd":"25","ssbd":"13","lsbd":"School Board Provo 5"},{"vid":"2515617","name":"Dr. Welton Block PhD","party":"","address":"575 S Freedom Blvd, Apt 223, Provo, UT 84601","precinct":"25PR54","hd":"62","v_score":"8.709634245","decile":"8","lat":40.226311184765635,"lng":-111.66152772009521,"phone":"(523) 967-0090","sd":"25","ssbd":"13","lsbd":"School Board Provo 5"},{"vid":"2517428","name":"Miss Richelle Mosciski","party":"Rep","address":"136 W 200 S, Apt 115, Provo, UT 84601","precinct":"25PR54","hd":"62","v_score":"8.35165687","decile":"8","lat":40.23122890339156,"lng":-111.66102464120655,"phone":"(124) 301-2612","sd":"25","ssbd":"13","lsbd":"School Board Provo 5"},{"vid":"2517672","name":"Mr. Vester Dicki","party":"Dem","address":"77 W 500 S, Apt 223, Provo, UT 84601","precinct":"25PR54","hd":"62","v_score":"4.210478549","decile":"7","lat":40.226422226935725,"lng":-111.65990325573439,"phone":"(823) 799-1210","sd":"25","ssbd":"13","lsbd":"School Board Provo 5"},{"vid":"2520856","name":"Moshe Metz","party":"","address":"250 S University Ave, Provo, UT 84601","precinct":"25PR54","hd":"62","v_score":"0","decile":"1","lat":40.23073122746707,"lng":-111.65953091780386,"phone":"(685) 448-1184","sd":"25","ssbd":"13","lsbd":"School Board Provo 5"},{"vid":"2523917","name":"Dr. Peyton Jacobson","party":"Rep","address":"372 S 100 W, Provo, UT 84601","precinct":"25PR54","hd":"62","v_score":"5.693042993","decile":"7","lat":40.22885056876806,"lng":-111.66096736036347,"phone":"(982) 193-8101","sd":"25","ssbd":"13","lsbd":"School Board Provo 5"},{"vid":"2525214","name":"Khiry Von-Deckow","party":"Rep","address":"232 S 100 W, Provo, UT 84601","precinct":"25PR54","hd":"62","v_score":"1.193887297","decile":"4","lat":40.23062590466249,"lng":-111.66089176985288,"phone":"(125) 289-2179","sd":"25","ssbd":"13","lsbd":"School Board Provo 5"},{"vid":"2525834","name":"Katlyn Keeling","party":"","address":"136 W 200 S, Apt 309, Provo, UT 84601","precinct":"25PR54","hd":"62","v_score":"0","decile":"1","lat":40.23122890339156,"lng":-111.66102464120655,"phone":"(732) 304-1936","sd":"25","ssbd":"13","lsbd":"School Board Provo 5"},{"vid":"2526063","name":"Tarik Hegmann","party":"Rep","address":"623 S 500 W, Apt 19, Provo, UT 84601","precinct":"25PR54","hd":"62","v_score":"0","decile":"1","lat":40.22547143230911,"lng":-111.66621654389469,"phone":"(549) 374-6575","sd":"25","ssbd":"13","lsbd":"School Board Provo 5"},{"vid":"2526090","name":"Efrem O'Reilly PhD","party":"Dem","address":"61 W 400 S, Apt 413, Provo, UT 84601","precinct":"25PR54","hd":"62","v_score":"18.88777439","decile":"10","lat":40.22793188431221,"lng":-111.65984587026517,"phone":"(848) 643-3727","sd":"25","ssbd":"13","lsbd":"School Board Provo 5"},{"vid":"2533008","name":"Dr. Curtis Hammes","party":"Rep","address":"330 W 400 S, Provo, UT 84601","precinct":"25PR54","hd":"62","v_score":"1.623113131","decile":"5","lat":40.22861740333613,"lng":-111.6645597812158,"phone":"(705) 525-5995","sd":"25","ssbd":"13","lsbd":"School Board Provo 5"},{"vid":"2533573","name":"Deanna Lueilwitz-Herzog","party":"Dem","address":"263 N 300 W, Apt 22, Provo, UT 84601","precinct":"25PR54","hd":"62","v_score":"14.13760315","decile":"9","lat":40.237464280809256,"lng":-111.66453833950796,"phone":"(824) 960-3007","sd":"25","ssbd":"13","lsbd":"School Board Provo 5"},{"vid":"2534357","name":"Mr. Tracey Botsford I","party":"","address":"136 W 200 S, Apt 320, Provo, UT 84601","precinct":"25PR54","hd":"62","v_score":"2.817000428","decile":"6","lat":40.23122890339156,"lng":-111.66102464120655,"phone":"(876) 091-7704","sd":"25","ssbd":"13","lsbd":"School Board Provo 5"},{"vid":"2541871","name":"Dr. Aiyana Brown","party":"Dem","address":"136 W 200 S, Apt 115, Provo, UT 84601","precinct":"25PR54","hd":"62","v_score":"5.335065618","decile":"7","lat":40.23122890339156,"lng":-111.66102464120655,"phone":"(927) 346-9535","sd":"25","ssbd":"13","lsbd":"School Board Provo 5"},{"vid":"2548923","name":"Bea Lowe","party":"","address":"575 S Freedom Blvd, Apt 222, Provo, UT 84601","precinct":"25PR54","hd":"62","v_score":"1.193887297","decile":"4","lat":40.226311184765635,"lng":-111.66152772009521,"phone":"(303) 127-4660","sd":"25","ssbd":"13","lsbd":"School Board Provo 5"},{"vid":"2549488","name":"Mr. Winford Cronin","party":"Rep","address":"359 W 500 S, Provo, UT 84601","precinct":"25PR54","hd":"62","v_score":"0","decile":"1","lat":40.2268263507186,"lng":-111.6649291846303,"phone":"(544) 243-7866","sd":"25","ssbd":"13","lsbd":"School Board Provo 5"},{"vid":"2558906","name":"Emma Hyatt","party":"Rep","address":"256 W 300 S, Provo, UT 84601","precinct":"25PR54","hd":"62","v_score":"0","decile":"1","lat":40.23003770785395,"lng":-111.66320651397639,"phone":"(568) 821-6976","sd":"25","ssbd":"13","lsbd":"School Board Provo 5"},{"vid":"2561953","name":"Marolyn Weissnat","party":"Rep","address":"77 W 500 S, Apt S109, Provo, UT 84601","precinct":"25PR54","hd":"62","v_score":"1.193887297","decile":"4","lat":40.226422226935725,"lng":-111.65990325573439,"phone":"(223) 636-5897","sd":"25","ssbd":"13","lsbd":"School Board Provo 5"},{"vid":"2571312","name":"Ahmad Lemke","party":"Dem","address":"575 S Freedom Blvd, Apt 208, Provo, UT 84601","precinct":"25PR54","hd":"62","v_score":"16.53026448","decile":"9","lat":40.226311184765635,"lng":-111.66152772009521,"phone":"(882) 353-3729","sd":"25","ssbd":"13","lsbd":"School Board Provo 5"},{"vid":"2575753","name":"Lucky Kessler-Moore","party":"","address":"40 W 300 S, Apt 105, Provo, UT 84601","precinct":"25PR54","hd":"62","v_score":"0","decile":"1","lat":40.23004857750263,"lng":-111.65945195961199,"phone":"(579) 877-7074","sd":"25","ssbd":"13","lsbd":"School Board Provo 5"},{"vid":"2576395","name":"Verna Frami","party":"Dem","address":"425 S Freedom Blvd, Apt, Provo, UT 84601","precinct":"25PR54","hd":"62","v_score":"0","decile":"1","lat":40.22811696341133,"lng":-111.66193942086451,"phone":"(856) 307-3617","sd":"25","ssbd":"13","lsbd":"School Board Provo 5"},{"vid":"2576428","name":"Miss Marisol Emard DDS","party":"","address":"575 S Freedom Blvd, Apt 205, Provo, UT 84601","precinct":"25PR54","hd":"62","v_score":"1.193887297","decile":"4","lat":40.226311184765635,"lng":-111.66152772009521,"phone":"(710) 549-6750","sd":"25","ssbd":"13","lsbd":"School Board Provo 5"},{"vid":"2588025","name":"Kurt Torphy DDS","party":"Rep","address":"380 W 400 S, Provo, UT 84601","precinct":"25PR54","hd":"62","v_score":"1.623113131","decile":"5","lat":40.22861987016526,"lng":-111.66531313715915,"phone":"(519) 394-2070","sd":"25","ssbd":"13","lsbd":"School Board Provo 5"},{"vid":"2593852","name":"Morgan Thiel","party":"Dem","address":"575 S Freedom Blvd, Apt 302, Provo, UT 84601","precinct":"25PR54","hd":"62","v_score":"1.623113131","decile":"5","lat":40.226311184765635,"lng":-111.66152772009521,"phone":"(562) 614-7012","sd":"25","ssbd":"13","lsbd":"School Board Provo 5"},{"vid":"2594209","name":"Michaele Lakin-Emmerich","party":"Rep","address":"153 S 300 W, Provo, UT 84601","precinct":"25PR54","hd":"62","v_score":"0","decile":"1","lat":40.23161898027736,"lng":-111.66368085768407,"phone":"(223) 192-5659","sd":"25","ssbd":"13","lsbd":"School Board Provo 5"},{"vid":"2615762","name":"Ah VonRueden-Reichert","party":"","address":"349 W 300 S, Provo, UT 84601","precinct":"25PR54","hd":"62","v_score":"11.26156058","decile":"9","lat":40.22938763152057,"lng":-111.66649617940148,"phone":"(893) 478-2294","sd":"25","ssbd":"13","lsbd":"School Board Provo 5"},{"vid":"2630927","name":"Mae Turcotte-Zulauf","party":"","address":"575 S Freedom Blvd, Apt 320, Provo, UT 84601","precinct":"25PR54","hd":"62","v_score":"6.355720798","decile":"7","lat":40.226311184765635,"lng":-111.66152772009521,"phone":"(499) 792-1107","sd":"25","ssbd":"13","lsbd":"School Board Provo 5"},{"vid":"2631435","name":"Eathel Kutch","party":"Rep","address":"61 W 400 S, Apt 315, Provo, UT 84601","precinct":"25PR54","hd":"62","v_score":"2.817000428","decile":"6","lat":40.22793188431221,"lng":-111.65984587026517,"phone":"(437) 787-1673","sd":"25","ssbd":"13","lsbd":"School Board Provo 5"},{"vid":"2632478","name":"Tamatha Herzog","party":"Rep","address":"456 W 470 S, Provo, UT 84601","precinct":"25PR54","hd":"62","v_score":"1.193887297","decile":"4","lat":40.22759529374654,"lng":-111.66672943810408,"phone":"(344) 993-0551","sd":"25","ssbd":"13","lsbd":"School Board Provo 5"},{"vid":"2632712","name":"Falon Kiehn","party":"Dem","address":"575 S Freedom Blvd, Apt 305, Provo, UT 84601","precinct":"25PR54","hd":"62","v_score":"5.693042993","decile":"7","lat":40.226311184765635,"lng":-111.66152772009521,"phone":"(185) 532-1111","sd":"25","ssbd":"13","lsbd":"School Board Provo 5"},{"vid":"2634444","name":"Junie Hilll PhD","party":"","address":"575 S Freedom Blvd, Apt 205, Provo, UT 84601","precinct":"25PR54","hd":"62","v_score":"0","decile":"1","lat":40.226311184765635,"lng":-111.66152772009521,"phone":"(959) 574-2252","sd":"25","ssbd":"13","lsbd":"School Board Provo 5"},{"vid":"2638261","name":"Allie Dickens-Volkman","party":"Dem","address":"354 S 400 W, Provo, UT 84601","precinct":"25PR54","hd":"62","v_score":"1.193887297","decile":"4","lat":40.228976973731434,"lng":-111.6661422636611,"phone":"(508) 950-1069","sd":"25","ssbd":"13","lsbd":"School Board Provo 5"},{"vid":"2639424","name":"Desiree Flatley DVM","party":"Rep","address":"372 S 100 W, Provo, UT 84601","precinct":"25PR54","hd":"62","v_score":"4.069929862","decile":"6","lat":40.22885056876806,"lng":-111.66096736036347,"phone":"(267) 082-7964","sd":"25","ssbd":"13","lsbd":"School Board Provo 5"},{"vid":"2643472","name":"Amarion Schinner","party":"Dem","address":"136 W 200 S, Apt 321, Provo, UT 84601","precinct":"25PR54","hd":"62","v_score":"1.623113131","decile":"5","lat":40.23122890339156,"lng":-111.66102464120655,"phone":"(723) 357-7106","sd":"25","ssbd":"13","lsbd":"School Board Provo 5"},{"vid":"2643709","name":"Dr. Linette Denesik DVM","party":"Rep","address":"430 S 300 W, Provo, UT 84601","precinct":"25PR54","hd":"62","v_score":"2.817000428","decile":"6","lat":40.22789070673774,"lng":-111.66448707337335,"phone":"(365) 563-4598","sd":"25","ssbd":"13","lsbd":"School Board Provo 5"},{"vid":"2643747","name":"Elzy Reichert-Sawayn","party":"Dem","address":"617 S 500 W, Apt 21, Provo, UT 84601","precinct":"25PR54","hd":"62","v_score":"2.817000428","decile":"6","lat":40.22556507538977,"lng":-111.66638962110274,"phone":"(407) 085-0375","sd":"25","ssbd":"13","lsbd":"School Board Provo 5"},{"vid":"2643748","name":"Lewis Konopelski","party":"Rep","address":"331 S 300 W, Provo, UT 84601","precinct":"25PR54","hd":"62","v_score":"2.817000428","decile":"6","lat":40.22927558937968,"lng":-111.66351111618589,"phone":"(994) 413-2331","sd":"25","ssbd":"13","lsbd":"School Board Provo 5"},{"vid":"2644693","name":"Jaylee Rau PhD","party":"Rep","address":"95 W 100 S, Unit 794, Provo, UT 84603","precinct":"25PR54","hd":"62","v_score":"1.623113131","decile":"5","lat":40.23125389735097,"lng":-111.66017351411631,"phone":"(299) 188-4669","sd":"25","ssbd":"13","lsbd":"School Board Provo 5"},{"vid":"2646569","name":"Dosia Skiles-Wisoky","party":"","address":"365 W 400 S, Provo, UT 84601","precinct":"25PR54","hd":"62","v_score":"3.711952487","decile":"6","lat":40.228176265386914,"lng":-111.66513836524939,"phone":"(491) 916-4097","sd":"25","ssbd":"13","lsbd":"School Board Provo 5"},{"vid":"2647540","name":"Valentine Stoltenberg","party":"Rep","address":"248 W 400 S, Provo, UT 84601","precinct":"25PR54","hd":"62","v_score":"16.72856503","decile":"9","lat":40.228627270103374,"lng":-111.66303905345472,"phone":"(515) 977-5004","sd":"25","ssbd":"13","lsbd":"School Board Provo 5"},{"vid":"2651712","name":"Clinton Abbott-Sporer","party":"","address":"136 W 200 S, Apt 319, Provo, UT 84601","precinct":"25PR54","hd":"62","v_score":"0","decile":"1","lat":40.23122890339156,"lng":-111.66102464120655,"phone":"(262) 450-0548","sd":"25","ssbd":"13","lsbd":"School Board Provo 5"},{"vid":"2655932","name":"Shade Johnston","party":"Dem","address":"136 W 200 S, Apt 110, Provo, UT 84601","precinct":"25PR54","hd":"62","v_score":"1.193887297","decile":"4","lat":40.23122890339156,"lng":-111.66102464120655,"phone":"(435) 962-1249","sd":"25","ssbd":"13","lsbd":"School Board Provo 5"},{"vid":"2658298","name":"Cruz Miller","party":"Dem","address":"61 W 400 S, Apt 416, Provo, UT 84601","precinct":"25PR54","hd":"62","v_score":"5.268703899","decile":"7","lat":40.22793188431221,"lng":-111.65984587026517,"phone":"(566) 536-6569","sd":"25","ssbd":"13","lsbd":"School Board Provo 5"},{"vid":"2661842","name":"Dr. Neal Jacobson","party":"Dem","address":"441 W 400 S, Provo, UT 84601","precinct":"25PR54","hd":"62","v_score":"1.193887297","decile":"4","lat":40.22817858751895,"lng":-111.66650231974577,"phone":"(465) 099-0485","sd":"25","ssbd":"13","lsbd":"School Board Provo 5"},{"vid":"2664432","name":"Mr. Jettie Breitenberg","party":"","address":"547 S 300 W, Provo, UT 84601","precinct":"25PR54","hd":"62","v_score":"0","decile":"1","lat":40.22645951084274,"lng":-111.6636823724233,"phone":"(111) 523-9227","sd":"25","ssbd":"13","lsbd":"School Board Provo 5"},{"vid":"2664538","name":"Javen Greenholt","party":"Dem","address":"438 W 470 S, Provo, UT 84601","precinct":"25PR54","hd":"62","v_score":"6.462591196","decile":"7","lat":40.227595630956245,"lng":-111.666493126986,"phone":"(312) 652-2531","sd":"25","ssbd":"13","lsbd":"School Board Provo 5"},{"vid":"2664643","name":"Naoma Wilkinson","party":"Rep","address":"322 W 400 S, Provo, UT 84601","precinct":"25PR54","hd":"62","v_score":"0","decile":"1","lat":40.22865932133379,"lng":-111.66438634272379,"phone":"(470) 728-5931","sd":"25","ssbd":"13","lsbd":"School Board Provo 5"},{"vid":"2668608","name":"Mr. Lott Friesen","party":"Rep","address":"61 W 400 S, Apt 216, Provo, UT 84601","precinct":"25PR54","hd":"62","v_score":"0","decile":"1","lat":40.22793188431221,"lng":-111.65984587026517,"phone":"(705) 488-5864","sd":"25","ssbd":"13","lsbd":"School Board Provo 5"},{"vid":"2668947","name":"Cornelious Farrell","party":"Rep","address":"444 S 300 W, Provo, UT 84601","precinct":"25PR54","hd":"62","v_score":"1.193887297","decile":"4","lat":40.227816392534116,"lng":-111.6643426526624,"phone":"(754) 244-7179","sd":"25","ssbd":"13","lsbd":"School Board Provo 5"},{"vid":"2674680","name":"Jacques Halvorson","party":"Dem","address":"136 W 200 S, Apt 322, Provo, UT 84601","precinct":"25PR54","hd":"62","v_score":"1.193887297","decile":"4","lat":40.23122890339156,"lng":-111.66102464120655,"phone":"(793) 323-2265","sd":"25","ssbd":"13","lsbd":"School Board Provo 5"},{"vid":"2675376","name":"Capitola Schimmel DDS","party":"","address":"363 S 400 W, Provo, UT 84601","precinct":"25PR54","hd":"62","v_score":"1.193887297","decile":"4","lat":40.2289636562977,"lng":-111.66522135448996,"phone":"(927) 052-7871","sd":"25","ssbd":"13","lsbd":"School Board Provo 5"},{"vid":"2691733","name":"Desiree Gusikowski","party":"","address":"575 S Freedom Blvd, Apt 415, Provo, UT 84601","precinct":"25PR54","hd":"62","v_score":"5.926494964","decile":"7","lat":40.226311184765635,"lng":-111.66152772009521,"phone":"(747) 548-7172","sd":"25","ssbd":"13","lsbd":"School Board Provo 5"},{"vid":"2691785","name":"Damion Rohan","party":"","address":"575 S Freedom Blvd, Apt 415, Provo, UT 84601","precinct":"25PR54","hd":"62","v_score":"5.926494964","decile":"7","lat":40.226311184765635,"lng":-111.66152772009521,"phone":"(466) 089-4310","sd":"25","ssbd":"13","lsbd":"School Board Provo 5"},{"vid":"2694316","name":"Racquel Ward-Ledner","party":"Dem","address":"474 W 470 S, Provo, UT 84601","precinct":"25PR54","hd":"62","v_score":"1.193887297","decile":"4","lat":40.22759511382513,"lng":-111.66685515153895,"phone":"(547) 880-5828","sd":"25","ssbd":"13","lsbd":"School Board Provo 5"},{"vid":"2694387","name":"Dayne Lockman","party":"","address":"77 W 500 S, Apt 306, Provo, UT 84601","precinct":"25PR54","hd":"62","v_score":"0","decile":"2","lat":40.226422226935725,"lng":-111.65990325573439,"phone":"(930) 969-7305","sd":"25","ssbd":"13","lsbd":"School Board Provo 5"},{"vid":"2703799","name":"Mrs. Liliana Berge","party":"","address":"580 S 300 W, Provo, UT 84601","precinct":"25PR54","hd":"62","v_score":"1.193887297","decile":"4","lat":40.2263530057481,"lng":-111.66428336475198,"phone":"(691) 654-2062","sd":"25","ssbd":"13","lsbd":"School Board Provo 5"},{"vid":"2705193","name":"Hurley Reynolds","party":"","address":"136 W 200 S, Apt 303, Provo, UT 84601","precinct":"25PR54","hd":"62","v_score":"0","decile":"2","lat":40.23122890339156,"lng":-111.66102464120655,"phone":"(423) 881-1521","sd":"25","ssbd":"13","lsbd":"School Board Provo 5"},{"vid":"2705779","name":"Gil Weber III","party":"Dem","address":"359 W 500 S, Provo, UT 84601","precinct":"25PR54","hd":"62","v_score":"1.193887297","decile":"4","lat":40.2268263507186,"lng":-111.6649291846303,"phone":"(868) 933-5961","sd":"25","ssbd":"13","lsbd":"School Board Provo 5"},{"vid":"2705930","name":"Lige Kreiger","party":"Rep","address":"248 W 400 S, Provo, UT 84601","precinct":"25PR54","hd":"62","v_score":"16.72856503","decile":"9","lat":40.228627270103374,"lng":-111.66303905345472,"phone":"(951) 089-4224","sd":"25","ssbd":"13","lsbd":"School Board Provo 5"},{"vid":"2706046","name":"Jeffrey Parisian","party":"Rep","address":"580 S 300 W, Provo, UT 84601","precinct":"25PR54","hd":"62","v_score":"1.193887297","decile":"4","lat":40.2263530057481,"lng":-111.66428336475198,"phone":"(728) 841-9924","sd":"25","ssbd":"13","lsbd":"School Board Provo 5"},{"vid":"2708222","name":"Cecil Heathcote DVM","party":"Rep","address":"136 W 200 S, Apt 117, Provo, UT 84601","precinct":"25PR54","hd":"62","v_score":"4.069929862","decile":"7","lat":40.23122890339156,"lng":-111.66102464120655,"phone":"(128) 805-2865","sd":"25","ssbd":"13","lsbd":"School Board Provo 5"},{"vid":"2710283","name":"Dow Harvey","party":"Rep","address":"77 W 500 S, Apt 524, Provo, UT 84601","precinct":"25PR54","hd":"62","v_score":"7.781882349","decile":"8","lat":40.226422226935725,"lng":-111.65990325573439,"phone":"(741) 330-0283","sd":"25","ssbd":"13","lsbd":"School Board Provo 5"},{"vid":"2719519","name":"Winona Heathcote-Anderson","party":"","address":"250 S University Ave, # 112, Provo, UT 84601","precinct":"25PR54","hd":"62","v_score":"0","decile":"2","lat":40.23073122746707,"lng":-111.65953091780386,"phone":"(439) 206-1854","sd":"25","ssbd":"13","lsbd":"School Board Provo 5"},{"vid":"2725107","name":"French Jakubowski","party":"","address":"486 W 500 S, Provo, UT 84601","precinct":"25PR54","hd":"62","v_score":"0","decile":"2","lat":40.227323123552885,"lng":-111.6670293516488,"phone":"(828) 538-9364","sd":"25","ssbd":"13","lsbd":"School Board Provo 5"},{"vid":"2729619","name":"Gaven Sipes","party":"Dem","address":"77 W 500 S, Apt 433, Provo, UT 84601","precinct":"25PR54","hd":"62","v_score":"1.193887297","decile":"4","lat":40.226422226935725,"lng":-111.65990325573439,"phone":"(303) 202-0676","sd":"25","ssbd":"13","lsbd":"School Board Provo 5"},{"vid":"2730850","name":"Frank Nicolas","party":"Dem","address":"575 S Freedom Blvd, Apt 411, Provo, UT 84601","precinct":"25PR54","hd":"62","v_score":"13.61907049","decile":"9","lat":40.226311184765635,"lng":-111.66152772009521,"phone":"(149) 672-5255","sd":"25","ssbd":"13","lsbd":"School Board Provo 5"},{"vid":"2731652","name":"Ardelia Oberbrunner MD","party":"","address":"61 W 400 S, Apt 328, Provo, UT 84601","precinct":"25PR54","hd":"62","v_score":"4.214075011","decile":"7","lat":40.22793188431221,"lng":-111.65984587026517,"phone":"(582) 674-0747","sd":"25","ssbd":"13","lsbd":"School Board Provo 5"},{"vid":"2731653","name":"Reyes Walter IV","party":"","address":"61 W 400 S, Apt 328, Provo, UT 84601","precinct":"25PR54","hd":"62","v_score":"4.214075011","decile":"7","lat":40.22793188431221,"lng":-111.65984587026517,"phone":"(716) 714-9847","sd":"25","ssbd":"13","lsbd":"School Board Provo 5"},{"vid":"2732160","name":"Aubrey Medhurst-Nikolaus","party":"Dem","address":"77 W 500 S, Apt 117, Provo, UT 84601","precinct":"25PR54","hd":"62","v_score":"17.26466126","decile":"9","lat":40.226422226935725,"lng":-111.65990325573439,"phone":"(816) 558-8434","sd":"25","ssbd":"13","lsbd":"School Board Provo 5"},{"vid":"2734706","name":"Mr. Randal White","party":"Rep","address":"156 S 300 W, Provo, UT 84601","precinct":"25PR54","hd":"62","v_score":"8.284004873","decile":"8","lat":40.23163472708033,"lng":-111.66435436615474,"phone":"(402) 662-7191","sd":"25","ssbd":"13","lsbd":"School Board Provo 5"},{"vid":"2739086","name":"Carlisle Graham IV","party":"Rep","address":"575 S Freedom Blvd, Apt 225, Provo, UT 84601","precinct":"25PR54","hd":"62","v_score":"0","decile":"2","lat":40.226311184765635,"lng":-111.66152772009521,"phone":"(188) 239-0407","sd":"25","ssbd":"13","lsbd":"School Board Provo 5"},{"vid":"2752134","name":"Dianne Gottlieb","party":"Rep","address":"136 W 200 S, Apt 326, Provo, UT 84601","precinct":"25PR54","hd":"62","v_score":"0","decile":"2","lat":40.23122890339156,"lng":-111.66102464120655,"phone":"(168) 064-4826","sd":"25","ssbd":"13","lsbd":"School Board Provo 5"},{"vid":"2752292","name":"Carroll Torphy","party":"Rep","address":"372 S 100 W, Provo, UT 84601","precinct":"25PR54","hd":"62","v_score":"0","decile":"2","lat":40.22885056876806,"lng":-111.66096736036347,"phone":"(375) 791-9187","sd":"25","ssbd":"13","lsbd":"School Board Provo 5"},{"vid":"2755468","name":"Jessi Rogahn-Kshlerin","party":"","address":"575 S Freedom Blvd, Apt 402, Provo, UT 84601","precinct":"25PR54","hd":"62","v_score":"1.193887297","decile":"4","lat":40.226311184765635,"lng":-111.66152772009521,"phone":"(253) 643-1831","sd":"25","ssbd":"13","lsbd":"School Board Provo 5"},{"vid":"2759575","name":"Mr. Linzy Casper Jr.","party":"Rep","address":"77 W 500 S, Apt 302, Provo, UT 84601","precinct":"25PR54","hd":"62","v_score":"0","decile":"2","lat":40.226422226935725,"lng":-111.65990325573439,"phone":"(497) 136-3288","sd":"25","ssbd":"13","lsbd":"School Board Provo 5"},{"vid":"2760201","name":"Josefa Welch","party":"","address":"61 W 400 S, Apt 317, Provo, UT 84601","precinct":"25PR54","hd":"62","v_score":"4.069929862","decile":"7","lat":40.22793188431221,"lng":-111.65984587026517,"phone":"(402) 769-2065","sd":"25","ssbd":"13","lsbd":"School Board Provo 5"},{"vid":"2761081","name":"Lazaro Gleichner","party":"Rep","address":"61 W 400 S, Apt 124, Provo, UT 84601","precinct":"25PR54","hd":"62","v_score":"5.407962308","decile":"7","lat":40.22793188431221,"lng":-111.65984587026517,"phone":"(486) 362-5090","sd":"25","ssbd":"13","lsbd":"School Board Provo 5"},{"vid":"2763638","name":"Mrs. Zadie Dach DVM","party":"","address":"77 W 500 S, Apt 525, Provo, UT 84601","precinct":"25PR54","hd":"62","v_score":"1.193887297","decile":"4","lat":40.226422226935725,"lng":-111.65990325573439,"phone":"(460) 521-3466","sd":"25","ssbd":"13","lsbd":"School Board Provo 5"},{"vid":"2768875","name":"Mr. Marquez Yundt MD","party":"","address":"341 S 300 W, Provo, UT 84601","precinct":"25PR54","hd":"62","v_score":"4.069929862","decile":"7","lat":40.229104908008196,"lng":-111.66354659781732,"phone":"(415) 239-2534","sd":"25","ssbd":"13","lsbd":"School Board Provo 5"},{"vid":"2771502","name":"Lacey Crist","party":"","address":"232 S 100 W, Provo, UT 84601","precinct":"25PR54","hd":"62","v_score":"1.193887297","decile":"4","lat":40.23062590466249,"lng":-111.66089176985288,"phone":"(355) 962-0381","sd":"25","ssbd":"13","lsbd":"School Board Provo 5"},{"vid":"2772184","name":"Mr. Crockett Bashirian I","party":"Dem","address":"474 S 300 W, Provo, UT 84601","precinct":"25PR54","hd":"62","v_score":"1.193887297","decile":"4","lat":40.227528276318765,"lng":-111.66437806974346,"phone":"(137) 925-2163","sd":"25","ssbd":"13","lsbd":"School Board Provo 5"},{"vid":"2772665","name":"Burnett Gusikowski","party":"Dem","address":"133 S 300 W, Provo, UT 84601","precinct":"25PR54","hd":"62","v_score":"0","decile":"2","lat":40.231895771902636,"lng":-111.66369707946147,"phone":"(381) 168-0859","sd":"25","ssbd":"13","lsbd":"School Board Provo 5"},{"vid":"2773748","name":"Brittany Langosh","party":"","address":"575 S Freedom Blvd, Apt 416, Provo, UT 84601","precinct":"25PR54","hd":"62","v_score":"1.193887297","decile":"4","lat":40.226311184765635,"lng":-111.66152772009521,"phone":"(390) 903-4650","sd":"25","ssbd":"13","lsbd":"School Board Provo 5"},{"vid":"2776992","name":"Audriana Bednar PhD","party":"Dem","address":"77 W 500 S, Apt 413, Provo, UT 84601","precinct":"25PR54","hd":"62","v_score":"1.193887297","decile":"4","lat":40.226422226935725,"lng":-111.65990325573439,"phone":"(210) 121-5772","sd":"25","ssbd":"13","lsbd":"School Board Provo 5"},{"vid":"2779313","name":"Makena Ferry DVM","party":"","address":"136 W 200 S, Apt 333, Provo, UT 84601","precinct":"25PR54","hd":"62","v_score":"0","decile":"2","lat":40.23122890339156,"lng":-111.66102464120655,"phone":"(459) 242-3527","sd":"25","ssbd":"13","lsbd":"School Board Provo 5"},{"vid":"2780617","name":"Hunter Hickle","party":"Rep","address":"480 S 400 W, Provo, UT 84601","precinct":"25PR54","hd":"62","v_score":"0","decile":"2","lat":40.22738898905044,"lng":-111.66600836761204,"phone":"(495) 321-5705","sd":"25","ssbd":"13","lsbd":"School Board Provo 5"},{"vid":"2781976","name":"Signe Brekke","party":"","address":"61 W 400 S, Apt 125, Provo, UT 84601","precinct":"25PR54","hd":"62","v_score":"0","decile":"2","lat":40.22793188431221,"lng":-111.65984587026517,"phone":"(788) 934-8236","sd":"25","ssbd":"13","lsbd":"School Board Provo 5"},{"vid":"2782148","name":"Zola Walsh","party":"","address":"575 S Freedom Blvd, Apt 222, Provo, UT 84601","precinct":"25PR54","hd":"62","v_score":"1.193887297","decile":"4","lat":40.226311184765635,"lng":-111.66152772009521,"phone":"(764) 827-6639","sd":"25","ssbd":"13","lsbd":"School Board Provo 5"},{"vid":"2798591","name":"Miss Genesis Gerlach","party":"Dem","address":"260 S 100 W, Provo, UT 84601","precinct":"25PR54","hd":"62","v_score":"5.407962308","decile":"7","lat":40.23027434263956,"lng":-111.66088675291603,"phone":"(177) 281-6599","sd":"25","ssbd":"13","lsbd":"School Board Provo 5"},{"vid":"2799628","name":"Josiah Marquardt","party":"","address":"492 W 470 S, Provo, UT 84601","precinct":"25PR54","hd":"62","v_score":"0","decile":"2","lat":40.22759477577713,"lng":-111.66709146285666,"phone":"(944) 235-9430","sd":"25","ssbd":"13","lsbd":"School Board Provo 5"},{"vid":"2810009","name":"Mr. Braylen Towne IV","party":"","address":"462 S 300 W, Provo, UT 84601","precinct":"25PR54","hd":"62","v_score":"0","decile":"2","lat":40.227616283839446,"lng":-111.66434818293834,"phone":"(868) 317-9992","sd":"25","ssbd":"13","lsbd":"School Board Provo 5"},{"vid":"2810427","name":"Arjun Kuvalis Sr.","party":"Rep","address":"77 W 500 S, Apt 416, Provo, UT 84601","precinct":"25PR54","hd":"62","v_score":"4.069929862","decile":"7","lat":40.226422226935725,"lng":-111.65990325573439,"phone":"(773) 089-3981","sd":"25","ssbd":"13","lsbd":"School Board Provo 5"},{"vid":"2821376","name":"Dr. Keanu Purdy III","party":"Rep","address":"77 W 500 S, Apt 333, Provo, UT 84601","precinct":"25PR54","hd":"62","v_score":"4.069929862","decile":"7","lat":40.226422226935725,"lng":-111.65990325573439,"phone":"(963) 044-5760","sd":"25","ssbd":"13","lsbd":"School Board Provo 5"},{"vid":"2821877","name":"Penni Paucek","party":"","address":"136 W 200 S, Apt 306, Provo, UT 84601","precinct":"25PR54","hd":"62","v_score":"1.193887297","decile":"4","lat":40.23122890339156,"lng":-111.66102464120655,"phone":"(140) 095-4203","sd":"25","ssbd":"13","lsbd":"School Board Provo 5"},{"vid":"2822445","name":"Jabbar Dicki","party":"","address":"161 W 200 S, Provo, UT 84601","precinct":"25PR54","hd":"62","v_score":"1.193887297","decile":"4","lat":40.23079535158895,"lng":-111.66146631970655,"phone":"(178) 702-3922","sd":"25","ssbd":"13","lsbd":"School Board Provo 5"},{"vid":"2826503","name":"Adriana Tromp","party":"Rep","address":"77 W 500 S, Provo, UT 84601","precinct":"25PR54","hd":"62","v_score":"1.193887297","decile":"4","lat":40.226422226935725,"lng":-111.65990325573439,"phone":"(109) 574-3596","sd":"25","ssbd":"13","lsbd":"School Board Provo 5"},{"vid":"2826523","name":"Ryann O'Kon-Herman","party":"","address":"141 S 500 W, Provo, UT 84601","precinct":"25PR54","hd":"62","v_score":"1.193887297","decile":"4","lat":40.231830373561316,"lng":-111.66687998148495,"phone":"(130) 519-9177","sd":"25","ssbd":"13","lsbd":"School Board Provo 5"},{"vid":"2827460","name":"Rihanna Rogahn","party":"","address":"245 S 300 W, Provo, UT 84601","precinct":"25PR54","hd":"62","v_score":"0","decile":"2","lat":40.23041433903173,"lng":-111.66361318094617,"phone":"(606) 179-7124","sd":"25","ssbd":"13","lsbd":"School Board Provo 5"},{"vid":"2832206","name":"Kiel Schmeler","party":"Rep","address":"126 W 400 S, Apt 2, Provo, UT 84601","precinct":"25PR54","hd":"62","v_score":"0","decile":"2","lat":40.22860553679501,"lng":-111.66102876003346,"phone":"(507) 718-1775","sd":"25","ssbd":"13","lsbd":"School Board Provo 5"},{"vid":"2834452","name":"Mrs. Joni Brown","party":"","address":"474 S 300 W, Provo, UT 84601","precinct":"25PR54","hd":"62","v_score":"0","decile":"2","lat":40.227528276318765,"lng":-111.66437806974346,"phone":"(311) 269-1816","sd":"25","ssbd":"13","lsbd":"School Board Provo 5"},{"vid":"2834969","name":"Lovett Bosco","party":"","address":"292 S 100 W, Provo, UT 84601","precinct":"25PR54","hd":"62","v_score":"0","decile":"2","lat":40.229893747288955,"lng":-111.66080912679737,"phone":"(933) 492-9582","sd":"25","ssbd":"13","lsbd":"School Board Provo 5"},{"vid":"2840100","name":"Dr. Cindy Jerde","party":"Dem","address":"61 W 400 S, Apt 411, Provo, UT 84601","precinct":"25PR54","hd":"62","v_score":"1.193887297","decile":"4","lat":40.22793188431221,"lng":-111.65984587026517,"phone":"(833) 310-3812","sd":"25","ssbd":"13","lsbd":"School Board Provo 5"},{"vid":"2840215","name":"Rolland Hane","party":"Rep","address":"61 W 400 S, Apt 329, Provo, UT 84601","precinct":"25PR54","hd":"62","v_score":"0","decile":"2","lat":40.22793188431221,"lng":-111.65984587026517,"phone":"(177) 456-3320","sd":"25","ssbd":"13","lsbd":"School Board Provo 5"},{"vid":"2844584","name":"Shane Carter-Funk","party":"","address":"358 W 500 S, Provo, UT 84601","precinct":"25PR54","hd":"62","v_score":"1.193887297","decile":"4","lat":40.227290398245486,"lng":-111.66492560268796,"phone":"(681) 650-1039","sd":"25","ssbd":"13","lsbd":"School Board Provo 5"},{"vid":"2850389","name":"Matt Hagenes","party":"Rep","address":"250 S University Ave, # 107, Provo, UT 84601","precinct":"25PR54","hd":"62","v_score":"1.193887297","decile":"4","lat":40.23073122746707,"lng":-111.65953091780386,"phone":"(388) 429-4043","sd":"25","ssbd":"13","lsbd":"School Board Provo 5"},{"vid":"2850907","name":"Dalton Tromp","party":"Rep","address":"77 W 500 S, Apt 319, Provo, UT 84601","precinct":"25PR54","hd":"62","v_score":"1.193887297","decile":"4","lat":40.226422226935725,"lng":-111.65990325573439,"phone":"(388) 851-9501","sd":"25","ssbd":"13","lsbd":"School Board Provo 5"},{"vid":"2851704","name":"Burgess Hansen III","party":"","address":"308 W 400 S, Provo, UT 84601","precinct":"25PR54","hd":"62","v_score":"1.193887297","decile":"4","lat":40.22867094103097,"lng":-111.66423517625611,"phone":"(724) 219-6000","sd":"25","ssbd":"13","lsbd":"School Board Provo 5"},