[{"id":"113","name":"Ludwig Schulist V","party":"","address":"1642 W 1400 N, Provo, UT 84604","precinct":"25PR23","hd":"61","v_score":"35.12606409","decile":"10","lat":40.252569704547,"lng":-111.686879345588},{"id":"611","name":"Bobbie Farrell","party":"Dem","address":"1665 W 1050 N, Provo, UT 84604","precinct":"25PR23","hd":"61","v_score":"2.660162957","decile":"5","lat":40.248337498918,"lng":-111.687141545931},{"id":"626","name":"Mr. Yahir Wolff","party":"Rep","address":"1952 W 820 N, Provo, UT 84601","precinct":"25PR23","hd":"61","v_score":"9.405332525","decile":"8","lat":40.245164979939,"lng":-111.692667922765},{"id":"1106","name":"Maria Hahn","party":"Dem","address":"1003 N Grand Ave, Provo, UT 84604","precinct":"25PR23","hd":"61","v_score":"0","decile":"1","lat":40.247582389833,"lng":-111.689372186697},{"id":"1995","name":"Katharina Lueilwitz","party":"","address":"1608 W 1170 N, Provo, UT 84604","precinct":"25PR23","hd":"61","v_score":"5.40460374","decile":"7","lat":40.250138531187,"lng":-111.686372888146},{"id":"2450","name":"Mareli Schuppe","party":"Dem","address":"1444 Timpanogos Dr, Provo, UT 84604","precinct":"25PR23","hd":"61","v_score":"0","decile":"1","lat":40.252881612151,"lng":-111.692273108747},{"id":"2653","name":"Kenyatta Carroll MD","party":"Rep","address":"1089 Independence Ave, Provo, UT 84604","precinct":"25PR23","hd":"61","v_score":"2.315214949","decile":"5","lat":40.248458063618,"lng":-111.693223307121},{"id":"3201","name":"Arlyne Christiansen","party":"Dem","address":"1034 N 1760 W, Provo, UT 84604","precinct":"25PR23","hd":"61","v_score":"0","decile":"1","lat":40.248135743489,"lng":-111.691453460235},{"id":"3538","name":"Dr. Syed Considine MD","party":"","address":"965 N 1760 W, Provo, UT 84604","precinct":"25PR23","hd":"61","v_score":"0","decile":"1","lat":40.247235168671,"lng":-111.690665624922},{"id":"4106","name":"Kieran Brown","party":"","address":"1300 Grand Ave, Provo, UT 84604","precinct":"25PR23","hd":"61","v_score":"11.36410258","decile":"9","lat":40.251179673275,"lng":-111.692960253283},{"id":"4622","name":"Lilianna Hackett-Kerluke","party":"Dem","address":"1089 Independence Ave, Provo, UT 84604","precinct":"25PR23","hd":"61","v_score":"2.587603312","decile":"5","lat":40.248458063618,"lng":-111.693223307121},{"id":"5406","name":"Ernest Watsica","party":"","address":"1912 Teton Dr, Provo, UT 84604","precinct":"25PR23","hd":"61","v_score":"11.64914843","decile":"9","lat":40.25153430054,"lng":-111.691275258054},{"id":"5974","name":"Abram Balistreri","party":"Rep","address":"1300 Grand Ave, Provo, UT 84604","precinct":"25PR23","hd":"61","v_score":"11.36410258","decile":"9","lat":40.251179673275,"lng":-111.692960253283},{"id":"6447","name":"Holland Stamm","party":"","address":"1145 N 1880 W, Provo, UT 84604","precinct":"25PR23","hd":"61","v_score":"5.546183193","decile":"7","lat":40.25025673906,"lng":-111.694442489652},{"id":"7207","name":"Paris Johnston","party":"Dem","address":"1303 Uinta Dr, Provo, UT 84604","precinct":"25PR23","hd":"61","v_score":"0","decile":"1","lat":40.25080059018,"lng":-111.691911756984},{"id":"7833","name":"Ms. Hayleigh Waelchi","party":"Rep","address":"1269 Grand Ave, Provo, UT 84604","precinct":"25PR23","hd":"61","v_score":"6.74007049","decile":"8","lat":40.25058794258,"lng":-111.692808644419},{"id":"8843","name":"Dr. Corry Smitham","party":"","address":"1029 Independence Ave, Provo, UT 84604","precinct":"25PR23","hd":"61","v_score":"11.19041277","decile":"9","lat":40.24751476787,"lng":-111.692461913931},{"id":"10060","name":"Montie Schmeler","party":"Rep","address":"995 Independence Ave, Provo, UT 84604","precinct":"25PR23","hd":"61","v_score":"9.983935021","decile":"9","lat":40.247052560024,"lng":-111.692087804439},{"id":"10320","name":"Squire Jaskolski DDS","party":"","address":"1128 N Independence Ave, Provo, UT 84604","precinct":"25PR23","hd":"61","v_score":"3.781490609","decile":"6","lat":40.249105156977,"lng":-111.693552103289},{"id":"10324","name":"Teela Crist","party":"Rep","address":"1912 W 960 N, Provo, UT 84604","precinct":"25PR23","hd":"61","v_score":"11.37977487","decile":"9","lat":40.246454204974,"lng":-111.692481791257},{"id":"10988","name":"Cordelia Toy","party":"","address":"1405 N 1750 W, Provo, UT 84604","precinct":"25PR23","hd":"61","v_score":"6.881235673","decile":"8","lat":40.252575057575,"lng":-111.688888316866},{"id":"11004","name":"Ethie Schaefer","party":"Dem","address":"2072 Lakeview Dr, Provo, UT 84604","precinct":"25PR23","hd":"61","v_score":"8.280646305","decile":"8","lat":40.250365066827,"lng":-111.693789601959},{"id":"11012","name":"Sterling Heaney","party":"","address":"1149 N 1880 W, Provo, UT 84604","precinct":"25PR23","hd":"61","v_score":"2.315214949","decile":"5","lat":40.250296328124,"lng":-111.694463968817},{"id":"11191","name":"Dr. Denine Gusikowski MD","party":"Dem","address":"943 Independence Ave, Provo, UT 84604","precinct":"25PR23","hd":"61","v_score":"3.781490609","decile":"6","lat":40.24640442983,"lng":-111.691562050363},{"id":"11193","name":"Treena Batz","party":"Dem","address":"1267 N Wasatch Dr, Provo, UT 84604","precinct":"25PR23","hd":"61","v_score":"12.59867706","decile":"9","lat":40.250594493137,"lng":-111.689918613284},{"id":"11620","name":"Mrs. Celia Schamberger PhD","party":"","address":"1615 W 1100 N, Provo, UT 84604","precinct":"25PR23","hd":"61","v_score":"35.39065156","decile":"10","lat":40.249061709093,"lng":-111.686928577983},{"id":"11982","name":"Marylin Wuckert","party":"Dem","address":"1143 N Independence Ave, Provo, UT 84604","precinct":"25PR23","hd":"61","v_score":"8.363183621","decile":"8","lat":40.249166038689,"lng":-111.693772433381},{"id":"12036","name":"Evalyn Kris-Reilly","party":"Rep","address":"1720 W 1320 N, Provo, UT 84604","precinct":"25PR23","hd":"61","v_score":"6.088298118","decile":"7","lat":40.251610686086,"lng":-111.687775733606},{"id":"12574","name":"Shelly Davis MD","party":"","address":"990 N Independence Ave, Provo, UT 84604","precinct":"25PR23","hd":"61","v_score":"2.315214949","decile":"5","lat":40.246916485857,"lng":-111.691802117769},{"id":"12724","name":"Dr. Rutherford Metz DVM","party":"Dem","address":"1243 Lakeview Dr, Provo, UT 84604","precinct":"25PR23","hd":"61","v_score":"0","decile":"1","lat":40.25001558761,"lng":-111.692450207979},{"id":"12752","name":"Gee Sawayn","party":"","address":"1276 Uinta Dr, Provo, UT 84604","precinct":"25PR23","hd":"61","v_score":"21.94489703","decile":"10","lat":40.250613758833,"lng":-111.691770644483},{"id":"13781","name":"Everet Kuphal","party":"Rep","address":"1235 N 1500 W, Provo, UT 84604","precinct":"25PR23","hd":"61","v_score":"6.881235673","decile":"8","lat":40.250362971583,"lng":-111.685182088365},{"id":"14310","name":"Bradford Pfeffer","party":"Rep","address":"1124 Independence Ave, Provo, UT 84604","precinct":"25PR23","hd":"61","v_score":"2.315214949","decile":"5","lat":40.249068186569,"lng":-111.693523852326},{"id":"14384","name":"Jerry Treutel Jr.","party":"Rep","address":"1597 W 1050 N, Provo, UT 84604","precinct":"25PR23","hd":"61","v_score":"2.817000428","decile":"6","lat":40.248344145605,"lng":-111.686415943369},{"id":"14676","name":"Handy Bednar","party":"","address":"1007 Independence Ave, Provo, UT 84604","precinct":"25PR23","hd":"61","v_score":"12.57725863","decile":"9","lat":40.247216042755,"lng":-111.692219356908},{"id":"14984","name":"Glinda Mills MD","party":"","address":"966 N 1760 W, Provo, UT 84604","precinct":"25PR23","hd":"61","v_score":"0","decile":"1","lat":40.247421888081,"lng":-111.690674194821},{"id":"15112","name":"Collis Franecki","party":"","address":"1645 W 1000 N, Provo, UT 84604","precinct":"25PR23","hd":"61","v_score":"2.587603312","decile":"5","lat":40.24757503164,"lng":-111.687039228026},{"id":"15367","name":"Jeri Carroll","party":"Dem","address":"1272 Lakeview Dr, Provo, UT 84604","precinct":"25PR23","hd":"61","v_score":"7.583918848","decile":"8","lat":40.250111489461,"lng":-111.692612901167},{"id":"15615","name":"Ms. Annis Conn","party":"","address":"1349 N 1750 W, Provo, UT 84604","precinct":"25PR23","hd":"61","v_score":"0","decile":"1","lat":40.251998216692,"lng":-111.688865477961},{"id":"15700","name":"Desi Ratke-Dicki","party":"Rep","address":"1128 N Independence Ave, Provo, UT 84604","precinct":"25PR23","hd":"61","v_score":"12.49472132","decile":"9","lat":40.249105156977,"lng":-111.693552103289},{"id":"15757","name":"Dr. Maverick O'Reilly DVM","party":"","address":"1134 Independence Ave, Provo, UT 84604","precinct":"25PR23","hd":"61","v_score":"0","decile":"1","lat":40.249160612588,"lng":-111.693594479733},{"id":"16265","name":"Sigrid Daugherty","party":"","address":"1445 N 1750 W, Provo, UT 84604","precinct":"25PR23","hd":"61","v_score":"9.600440767","decile":"8","lat":40.252917349965,"lng":-111.688906418821},{"id":"16306","name":"Ferd Tillman","party":"","address":"1993 W 1460 N, Provo, UT 84604","precinct":"25PR23","hd":"61","v_score":"1.121327652","decile":"3","lat":40.253381709096,"lng":-111.693427347869},{"id":"16315","name":"Thalia Effertz","party":"","address":"1046 N 1760 W, Provo, UT 84604","precinct":"25PR23","hd":"61","v_score":"3.93832808","decile":"6","lat":40.248227118378,"lng":-111.691552392016},{"id":"16453","name":"Mr. Colbert O'Reilly","party":"","address":"1585 W 1250 N, Provo, UT 84604","precinct":"25PR23","hd":"61","v_score":"5.40460374","decile":"7","lat":40.25076435431,"lng":-111.686094656316},{"id":"17013","name":"Consuela Gusikowski","party":"","address":"952 N 1760 W, Provo, UT 84604","precinct":"25PR23","hd":"61","v_score":"9.640097175","decile":"8","lat":40.247261401663,"lng":-111.690498779485},{"id":"17026","name":"Mr. Walt Carroll Jr.","party":"Dem","address":"995 Independence Ave, Provo, UT 84604","precinct":"25PR23","hd":"61","v_score":"4.568975008","decile":"7","lat":40.247052560024,"lng":-111.692087804439},{"id":"17117","name":"Addisyn Schmitt DDS","party":"Dem","address":"1247 Grand Ave, Provo, UT 84604","precinct":"25PR23","hd":"61","v_score":"20.7369877","decile":"10","lat":40.25029177815,"lng":-111.692497371291},{"id":"17197","name":"Deandre Kreiger","party":"","address":"1587 W 1170 N, Provo, UT 84604","precinct":"25PR23","hd":"61","v_score":"1.121327652","decile":"3","lat":40.250025818632,"lng":-111.686125073715},{"id":"18204","name":"Nobie Deckow MD","party":"","address":"1169 N Grand Ave, Provo, UT 84604","precinct":"25PR23","hd":"61","v_score":"6.798081861","decile":"8","lat":40.249303419971,"lng":-111.691350050297},{"id":"18420","name":"Zaiden Keeling","party":"Dem","address":"1608 W 1320 N, Provo, UT 84604","precinct":"25PR23","hd":"61","v_score":"1.121327652","decile":"3","lat":40.251603711077,"lng":-111.686431320485},{"id":"18433","name":"Vester Huels","party":"","address":"1303 Uinta Dr, Provo, UT 84604","precinct":"25PR23","hd":"61","v_score":"8.347511332","decile":"8","lat":40.25080059018,"lng":-111.691911756984},{"id":"18440","name":"Ossie Wiegand","party":"","address":"1445 N 1750 W, Provo, UT 84604","precinct":"25PR23","hd":"61","v_score":"13.75326469","decile":"9","lat":40.252917349965,"lng":-111.688906418821},{"id":"18496","name":"Tyriq Rosenbaum DVM","party":"Rep","address":"1815 W 1460 N, Provo, UT 84604","precinct":"25PR23","hd":"61","v_score":"0","decile":"1","lat":40.253389626259,"lng":-111.689801461544},{"id":"19364","name":"Mrs. Hester Streich DDS","party":"Dem","address":"1559 W 1050 N, Provo, UT 84604","precinct":"25PR23","hd":"61","v_score":"5.40460374","decile":"7","lat":40.248347859929,"lng":-111.686010459584},{"id":"19689","name":"Angelina Brakus","party":"Dem","address":"1777 W 1060 N, Provo, UT 84604","precinct":"25PR23","hd":"61","v_score":"9.682978083","decile":"8","lat":40.248143608522,"lng":-111.691997636944},{"id":"19740","name":"Oddie Johns V","party":"Dem","address":"1120 N 1750 W, Provo, UT 84604","precinct":"25PR23","hd":"61","v_score":"8.149837396","decile":"8","lat":40.249378134545,"lng":-111.688600398506},{"id":"19869","name":"Birt Daniel","party":"","address":"1904 W 960 N, Provo, UT 84604","precinct":"25PR23","hd":"61","v_score":"1.121327652","decile":"3","lat":40.246460158701,"lng":-111.692469685345},{"id":"20549","name":"Opal Erdman","party":"Rep","address":"1425 N 2100 W, Provo, UT 84604","precinct":"25PR23","hd":"61","v_score":"8.436100008","decile":"8","lat":40.2531131564,"lng":-111.694873063627},{"id":"20866","name":"Miss Tennessee Williamson","party":"","address":"1904 W 960 N, Provo, UT 84604","precinct":"25PR23","hd":"61","v_score":"2.315214949","decile":"5","lat":40.246460158701,"lng":-111.692469685345},{"id":"21206","name":"Iona Lind","party":"Rep","address":"835 Independence Ave, Provo, UT 84604","precinct":"25PR23","hd":"61","v_score":"4.210716443","decile":"7","lat":40.245552737457,"lng":-111.690604507249},{"id":"21334","name":"Dillan Steuber","party":"Dem","address":"1235 N 1500 W, Provo, UT 84604","precinct":"25PR23","hd":"61","v_score":"7.159318653","decile":"8","lat":40.250362971583,"lng":-111.685182088365},{"id":"21412","name":"Mr. Jett Carroll DDS","party":"Dem","address":"1796 W 1010 N, Provo, UT 84604","precinct":"25PR23","hd":"61","v_score":"12.49472132","decile":"9","lat":40.247641569041,"lng":-111.691609166361},{"id":"21936","name":"Eura Keebler PhD","party":"Dem","address":"1615 W 1100 N, Provo, UT 84604","precinct":"25PR23","hd":"61","v_score":"35.39065156","decile":"10","lat":40.249061709093,"lng":-111.686928577983},{"id":"22304","name":"Cherryl Bergnaum","party":"Rep","address":"905 N 1760 W, Provo, UT 84604","precinct":"25PR23","hd":"61","v_score":"12.43347023","decile":"9","lat":40.246580436994,"lng":-111.689949988181},{"id":"22653","name":"Lashawn Parisian","party":"Dem","address":"836 N 1760 W, Provo, UT 84604","precinct":"25PR23","hd":"61","v_score":"5.40460374","decile":"7","lat":40.245793232185,"lng":-111.689368183121},{"id":"22664","name":"Dr. Tavaris Quigley","party":"Rep","address":"887 N 1760 W, Provo, UT 84604","precinct":"25PR23","hd":"61","v_score":"2.315214949","decile":"5","lat":40.246384017491,"lng":-111.689735297159},{"id":"22845","name":"Rubye Wuckert","party":"Dem","address":"1617 W 1050 N, Provo, UT 84604","precinct":"25PR23","hd":"61","v_score":"1.193887297","decile":"3","lat":40.248342190697,"lng":-111.686629355887},{"id":"22903","name":"Ida Jacobi DVM","party":"","address":"947 N 1760 W, Provo, UT 84604","precinct":"25PR23","hd":"61","v_score":"1.193887297","decile":"3","lat":40.247038749168,"lng":-111.6904509339},{"id":"23783","name":"Madaline Kulas","party":"","address":"1717 W 1460 N, Provo, UT 84604","precinct":"25PR23","hd":"61","v_score":"1.623113131","decile":"4","lat":40.253383008517,"lng":-111.688334929111},{"id":"24302","name":"Dr. Kraig Crona Jr.","party":"Dem","address":"1085 N Independence Ave, Provo, UT 84604","precinct":"25PR23","hd":"61","v_score":"35.30276996","decile":"10","lat":40.248380978132,"lng":-111.693162170375},{"id":"24774","name":"Carley Lehner-Steuber","party":"","address":"1349 Lakeview Dr, Provo, UT 84604","precinct":"25PR23","hd":"61","v_score":"1.121327652","decile":"3","lat":40.249993388565,"lng":-111.692964631911},{"id":"25338","name":"Royal Rau","party":"Rep","address":"1157 N 1650 W, Provo, UT 84604","precinct":"25PR23","hd":"61","v_score":"3.93832808","decile":"6","lat":40.250130015754,"lng":-111.687530314265},{"id":"26603","name":"Diandra Hartmann","party":"","address":"1893 Cascade Dr, Provo, UT 84604","precinct":"25PR23","hd":"61","v_score":"2.587603312","decile":"5","lat":40.250019243784,"lng":-111.690963151474},{"id":"26604","name":"Charley Erdman","party":"Dem","address":"1893 Cascade Dr, Provo, UT 84604","precinct":"25PR23","hd":"61","v_score":"2.315214949","decile":"5","lat":40.250019243784,"lng":-111.690963151474},{"id":"27714","name":"Kanye Schiller","party":"","address":"990 Independence Ave, Provo, UT 84604","precinct":"25PR23","hd":"61","v_score":"2.315214949","decile":"5","lat":40.246916485857,"lng":-111.691802117769},{"id":"27945","name":"Dr. Octavia Bernier DDS","party":"","address":"985 N 1550 W, Provo, UT 84604","precinct":"25PR23","hd":"61","v_score":"2.587603312","decile":"5","lat":40.247399873686,"lng":-111.686051589811},{"id":"28186","name":"Dani Senger-Wintheiser","party":"Rep","address":"1784 W 1060 N, Provo, UT 84604","precinct":"25PR23","hd":"61","v_score":"8.211445228","decile":"8","lat":40.248229594177,"lng":-111.692100492198},{"id":"28237","name":"Hjalmar Wolff","party":"Rep","address":"1602 W 900 N, Provo, UT 84604","precinct":"25PR23","hd":"61","v_score":"8.347511332","decile":"8","lat":40.246148049675,"lng":-111.686350132045},{"id":"28326","name":"Lalla Harvey","party":"","address":"1270 N 1750 W, Provo, UT 84604","precinct":"25PR23","hd":"61","v_score":"2.315214949","decile":"5","lat":40.251145930359,"lng":-111.688688138134},{"id":"28711","name":"Vernon Rolfson","party":"Rep","address":"932 N 1760 W, Provo, UT 84604","precinct":"25PR23","hd":"61","v_score":"3.781490609","decile":"6","lat":40.247032135352,"lng":-111.690248186148},{"id":"28867","name":"Karyn Vandervort-Welch","party":"Rep","address":"1293 Lakeview Dr, Provo, UT 84604","precinct":"25PR23","hd":"61","v_score":"13.76678889","decile":"9","lat":40.249995975934,"lng":-111.692704599389},{"id":"28987","name":"Obed Streich","party":"","address":"935 Grand Ave, Provo, UT 84604","precinct":"25PR23","hd":"61","v_score":"5.60307055","decile":"7","lat":40.246557008051,"lng":-111.688146365541},{"id":"29939","name":"Miss Erykah Hessel","party":"Dem","address":"1241 N Wasatch Dr, Provo, UT 84604","precinct":"25PR23","hd":"61","v_score":"1.46627566","decile":"4","lat":40.250432261894,"lng":-111.689912664827},{"id":"30365","name":"Aurthur Kshlerin","party":"","address":"1536 W 1170 N, Provo, UT 84604","precinct":"25PR23","hd":"61","v_score":"2.587603312","decile":"5","lat":40.250144661419,"lng":-111.685566754606},{"id":"30442","name":"Margarite Hodkiewicz","party":"Rep","address":"934 Independence Ave, Provo, UT 84604","precinct":"25PR23","hd":"61","v_score":"5.191257514","decile":"7","lat":40.246314293752,"lng":-111.691311431902},{"id":"30927","name":"Chante Veum","party":"","address":"1053 Independence Ave, Provo, UT 84604","precinct":"25PR23","hd":"61","v_score":"5.191257514","decile":"7","lat":40.247840916144,"lng":-111.692726952397},{"id":"31934","name":"Demetrius Schulist","party":"Rep","address":"1786 W 1060 N, Provo, UT 84604","precinct":"25PR23","hd":"61","v_score":"5.191257514","decile":"7","lat":40.248226847224,"lng":-111.692106208832},{"id":"32939","name":"Dr. Stevie Cummings","party":"Dem","address":"836 N 1760 W, Provo, UT 84604","precinct":"25PR23","hd":"61","v_score":"5.40460374","decile":"7","lat":40.245793232185,"lng":-111.689368183121},{"id":"33699","name":"Wesley O'Reilly","party":"Rep","address":"1551 W 1100 N, Provo, UT 84604","precinct":"25PR23","hd":"61","v_score":"1.193887297","decile":"3","lat":40.249064681284,"lng":-111.685862192253},{"id":"33830","name":"Lynette Kuphal","party":"Rep","address":"1794 W 1010 N, Provo, UT 84604","precinct":"25PR23","hd":"61","v_score":"0","decile":"1","lat":40.247645096819,"lng":-111.691602417567},{"id":"34037","name":"Ludie Casper","party":"Dem","address":"1194 Grand Ave, Provo, UT 84604","precinct":"25PR23","hd":"61","v_score":"31.67036998","decile":"10","lat":40.249624546658,"lng":-111.69152440752},{"id":"34088","name":"Mrs. Maralyn Schaden MD","party":"","address":"874 N 1760 W, Provo, UT 84604","precinct":"25PR23","hd":"61","v_score":"5.40460374","decile":"7","lat":40.24636726305,"lng":-111.689521465471},{"id":"34148","name":"Mr. Raynard Gaylord","party":"","address":"1151 N Independence Ave, Provo, UT 84604","precinct":"25PR23","hd":"61","v_score":"2.587603312","decile":"5","lat":40.249245526987,"lng":-111.69383023383},{"id":"34497","name":"Domingo Walter","party":"","address":"1233 N 1650 W, Provo, UT 84604","precinct":"25PR23","hd":"61","v_score":"1.121327652","decile":"3","lat":40.250439587274,"lng":-111.687532324429},{"id":"34567","name":"Dorr Gutmann IV","party":"","address":"1637 W 1050 N, Provo, UT 84604","precinct":"25PR23","hd":"61","v_score":"29.68367038","decile":"10","lat":40.248340235789,"lng":-111.686842768406},{"id":"34907","name":"Brook Schoen-Windler","party":"Rep","address":"1665 W 1400 N, Provo, UT 84604","precinct":"25PR23","hd":"61","v_score":"11.6505322","decile":"9","lat":40.252453840678,"lng":-111.687140051086},{"id":"35510","name":"Jerimiah Steuber","party":"Rep","address":"1802 Teton Dr, Provo, UT 84604","precinct":"25PR23","hd":"61","v_score":"1.121327652","decile":"3","lat":40.251560372384,"lng":-111.688896762505},{"id":"35684","name":"Dianne Graham","party":"","address":"1412 Timpanogos Dr, Provo, UT 84604","precinct":"25PR23","hd":"61","v_score":"1.121327652","decile":"3","lat":40.252593368817,"lng":-111.692263589911},{"id":"35794","name":"Dr. Jarred Marquardt DDS","party":"Dem","address":"986 N 1750 W, Provo, UT 84604","precinct":"25PR23","hd":"61","v_score":"4.192796624","decile":"7","lat":40.24786211831,"lng":-111.688734204558},{"id":"36059","name":"Sedrick Dickinson Jr.","party":"","address":"904 Independence Ave, Provo, UT 84604","precinct":"25PR23","hd":"61","v_score":"6.814370645","decile":"8","lat":40.24608967638,"lng":-111.691081641795},{"id":"36107","name":"Jenni Emmerich","party":"","address":"1115 N 1575 W, Provo, UT 84604","precinct":"25PR23","hd":"61","v_score":"9.839687999","decile":"8","lat":40.249197031208,"lng":-111.68633556762},{"id":"36176","name":"Dewayne Conn","party":"","address":"1597 W 1050 N, Provo, UT 84604","precinct":"25PR23","hd":"61","v_score":"0","decile":"1","lat":40.248344145605,"lng":-111.686415943369},{"id":"36442","name":"Porsha Ullrich","party":"","address":"1875 Cascade Dr, Provo, UT 84604","precinct":"25PR23","hd":"61","v_score":"5.693042993","decile":"7","lat":40.250026003371,"lng":-111.690669719786},{"id":"36585","name":"Elzy Parisian","party":"Rep","address":"1905 W 960 N, Provo, UT 84604","precinct":"25PR23","hd":"61","v_score":"13.81451578","decile":"9","lat":40.24636383177,"lng":-111.692388368634},{"id":"36600","name":"Erling Treutel","party":"Dem","address":"935 Independence Ave, Provo, UT 84604","precinct":"25PR23","hd":"61","v_score":"2.315214949","decile":"5","lat":40.246332776371,"lng":-111.691503487457},{"id":"36797","name":"Ms. Brooklyn Bailey","party":"","address":"1145 N 1880 W, Provo, UT 84604","precinct":"25PR23","hd":"61","v_score":"5.546183193","decile":"7","lat":40.25025673906,"lng":-111.694442489652},{"id":"38483","name":"Mignon Windler","party":"Rep","address":"1124 Independence Ave, Provo, UT 84604","precinct":"25PR23","hd":"61","v_score":"10.25844722","decile":"9","lat":40.249068186569,"lng":-111.693523852326},{"id":"38630","name":"Dr. Saverio Reilly","party":"Rep","address":"1901 Teton Dr, Provo, UT 84604","precinct":"25PR23","hd":"61","v_score":"4.210716443","decile":"7","lat":40.25141970913,"lng":-111.690931943841},{"id":"38914","name":"Tyrique Kunde","party":"","address":"1358 N 1850 W, Provo, UT 84604","precinct":"25PR23","hd":"61","v_score":"2.660162957","decile":"5","lat":40.251953764361,"lng":-111.690359929013},{"id":"39135","name":"Ms. Tanika Roberts DDS","party":"","address":"1077 N Independence Ave, Provo, UT 84604","precinct":"25PR23","hd":"61","v_score":"15.4533012","decile":"9","lat":40.248167126861,"lng":-111.69299166429},{"id":"39136","name":"Nikole Wunsch","party":"","address":"1041 Independence Ave, Provo, UT 84604","precinct":"25PR23","hd":"61","v_score":"1.193887297","decile":"3","lat":40.247677810786,"lng":-111.69259459645},{"id":"39705","name":"Estie Champlin-Koepp","party":"","address":"1169 N Grand Ave, Provo, UT 84604","precinct":"25PR23","hd":"61","v_score":"6.798081861","decile":"8","lat":40.249303419971,"lng":-111.691350050297},{"id":"39826","name":"Killian Kihn","party":"Rep","address":"854 Independence Ave, Provo, UT 84604","precinct":"25PR23","hd":"61","v_score":"1.121327652","decile":"3","lat":40.245776387416,"lng":-111.690608443935},{"id":"39834","name":"Latricia Morissette","party":"","address":"1584 W 1170 N, Provo, UT 84604","precinct":"25PR23","hd":"61","v_score":"14.63972567","decile":"9","lat":40.250140574598,"lng":-111.686104176966},{"id":"41604","name":"Gisele Schulist-Runolfsson","party":"Rep","address":"1215 Grand Ave, Provo, UT 84604","precinct":"25PR23","hd":"61","v_score":"6.550708384","decile":"7","lat":40.24984137372,"lng":-111.691976975239},{"id":"43417","name":"Tavon Schaefer","party":"Dem","address":"1243 Lakeview Dr, Provo, UT 84604","precinct":"25PR23","hd":"61","v_score":"1.121327652","decile":"3","lat":40.25001558761,"lng":-111.692450207979},{"id":"43486","name":"Miss Karie Miller","party":"Rep","address":"1602 W 900 N, Provo, UT 84604","precinct":"25PR23","hd":"61","v_score":"3.93832808","decile":"6","lat":40.246148049675,"lng":-111.686350132045},{"id":"43852","name":"Ernie Gusikowski V","party":"Rep","address":"1608 W 1320 N, Provo, UT 84604","precinct":"25PR23","hd":"61","v_score":"12.50803187","decile":"9","lat":40.251603711077,"lng":-111.686431320485},{"id":"44233","name":"Newell Prohaska","party":"Rep","address":"2005 Lakeview Dr, Provo, UT 84604","precinct":"25PR23","hd":"61","v_score":"8.363183621","decile":"8","lat":40.251797725071,"lng":-111.694539880046},{"id":"44477","name":"Dr. Winnie Becker V","party":"","address":"1015 N 1550 W, Provo, UT 84604","precinct":"25PR23","hd":"61","v_score":"2.958579882","decile":"6","lat":40.247821257606,"lng":-111.685903347741},{"id":"44603","name":"Amasa Hartmann MD","party":"Dem","address":"1854 W 1380 N, Provo, UT 84604","precinct":"25PR23","hd":"61","v_score":"25.93792919","decile":"10","lat":40.25236742811,"lng":-111.690840347118},{"id":"44604","name":"Mr. Patric White Jr.","party":"Dem","address":"1210 N Wasatch Dr, Provo, UT 84604","precinct":"25PR23","hd":"61","v_score":"26.92935762","decile":"10","lat":40.250248277588,"lng":-111.689755720141},{"id":"44650","name":"Graves Bashirian","party":"","address":"1303 Uinta Dr, Provo, UT 84604","precinct":"25PR23","hd":"61","v_score":"1.623113131","decile":"5","lat":40.25080059018,"lng":-111.691911756984},{"id":"44797","name":"Clement Hauck-Kuvalis","party":"Rep","address":"956 Independence Ave, Provo, UT 84604","precinct":"25PR23","hd":"61","v_score":"1.121327652","decile":"3","lat":40.246498348654,"lng":-111.691461861343},{"id":"44984","name":"Dr. Adolphus Lowe","party":"","address":"1076 N 1760 W, Provo, UT 84604","precinct":"25PR23","hd":"61","v_score":"3.93832808","decile":"6","lat":40.248648015621,"lng":-111.692000448213},{"id":"45422","name":"Neta Schimmel-Kutch","party":"Dem","address":"1155 Independence Ave, Provo, UT 84604","precinct":"25PR23","hd":"61","v_score":"3.93832808","decile":"6","lat":40.249284564001,"lng":-111.693855941124},{"id":"45853","name":"Therese Mills","party":"","address":"1151 N Independence Ave, Provo, UT 84604","precinct":"25PR23","hd":"61","v_score":"2.587603312","decile":"5","lat":40.249245526987,"lng":-111.69383023383},{"id":"46686","name":"Krissy Erdman","party":"Dem","address":"902 N Independence Ave, Provo, UT 84604","precinct":"25PR23","hd":"61","v_score":"2.315214949","decile":"5","lat":40.246074162482,"lng":-111.69106399694},{"id":"47294","name":"Lissie Kihn-Botsford","party":"Dem","address":"1093 N Independence Ave, Provo, UT 84604","precinct":"25PR23","hd":"61","v_score":"1.121327652","decile":"3","lat":40.248535149104,"lng":-111.693284443867},{"id":"47561","name":"Dr. Durward Leuschke I","party":"","address":"2052 W Lakeview Dr, Provo, UT 84604","precinct":"25PR23","hd":"61","v_score":"1.623113131","decile":"5","lat":40.250161046795,"lng":-111.692289500887},{"id":"47714","name":"Nelda Raynor","party":"Dem","address":"1584 W 1170 N, Provo, UT 84604","precinct":"25PR23","hd":"61","v_score":"6.52928996","decile":"7","lat":40.250140574598,"lng":-111.686104176966},{"id":"48220","name":"Dominga Schiller DDS","party":"Rep","address":"884 Independence Ave, Provo, UT 84604","precinct":"25PR23","hd":"61","v_score":"2.315214949","decile":"5","lat":40.245951375711,"lng":-111.69092092294},{"id":"49089","name":"Dr. Zelia Price","party":"","address":"1775 W 1060 N, Provo, UT 84604","precinct":"25PR23","hd":"61","v_score":"1.193887297","decile":"3","lat":40.248146355475,"lng":-111.69199192031},{"id":"49153","name":"Seamus Fay-Crist","party":"Dem","address":"1682 W 900 N, Provo, UT 84604","precinct":"25PR23","hd":"61","v_score":"33.03314165","decile":"10","lat":40.246142766769,"lng":-111.686838804254},{"id":"49426","name":"Mrs. Permelia Waters","party":"Rep","address":"1425 N 1750 W, Provo, UT 84604","precinct":"25PR23","hd":"61","v_score":"1.193887297","decile":"3","lat":40.25274620377,"lng":-111.688897367843},{"id":"50116","name":"Mr. Rickie Moore","party":"Dem","address":"1972 Teton Dr, Provo, UT 84604","precinct":"25PR23","hd":"61","v_score":"0","decile":"1","lat":40.251556069156,"lng":-111.692670444053},{"id":"50289","name":"Ms. Frona Howe DVM","party":"","address":"1784 W 820 N, Provo, UT 84601","precinct":"25PR23","hd":"61","v_score":"1.121327652","decile":"3","lat":40.24525470813,"lng":-111.68986796022},{"id":"50611","name":"Kenisha Medhurst-Mueller","party":"","address":"1442 Grand Ave, Provo, UT 84604","precinct":"25PR23","hd":"61","v_score":"8.347511332","decile":"8","lat":40.252867910852,"lng":-111.693467434775},{"id":"50876","name":"Sigrid Goyette","party":"Rep","address":"956 Independence Ave, Provo, UT 84604","precinct":"25PR23","hd":"61","v_score":"5.546183193","decile":"7","lat":40.246498348654,"lng":-111.691461861343},{"id":"50970","name":"Sena Kub DVM","party":"Rep","address":"842 N 1760 W, Provo, UT 84604","precinct":"25PR23","hd":"61","v_score":"9.640097175","decile":"8","lat":40.245882582777,"lng":-111.689359927892},{"id":"51229","name":"Dann Goldner","party":"","address":"875 Independence Ave, Provo, UT 84604","precinct":"25PR23","hd":"61","v_score":"26.40166608","decile":"10","lat":40.245831123008,"lng":-111.690959980096},{"id":"51250","name":"Burrel Lesch","party":"Dem","address":"1149 N 1880 W, Provo, UT 84604","precinct":"25PR23","hd":"61","v_score":"3.781490609","decile":"6","lat":40.250296328124,"lng":-111.694463968817},{"id":"51399","name":"Jordy Pagac","party":"","address":"1909 W 960 N, Provo, UT 84604","precinct":"25PR23","hd":"61","v_score":"1.121327652","decile":"3","lat":40.246360854907,"lng":-111.692394421591},{"id":"51470","name":"Caddie Tillman","party":"","address":"1052 Grand Cir, Provo, UT 84604","precinct":"25PR23","hd":"61","v_score":"8.497351098","decile":"8","lat":40.248231447204,"lng":-111.689773408832},{"id":"51746","name":"Gena Batz","party":"Dem","address":"1079 Grand Ave, Provo, UT 84604","precinct":"25PR23","hd":"61","v_score":"1.46627566","decile":"4","lat":40.248452361725,"lng":-111.690354570333},{"id":"51920","name":"Phoenix Luettgen","party":"Dem","address":"1536 W 1170 N, Provo, UT 84604","precinct":"25PR23","hd":"61","v_score":"7.934314529","decile":"8","lat":40.250144661419,"lng":-111.685566754606},{"id":"52093","name":"Rolla Jerde","party":"Dem","address":"1385 N 1900 W, Provo, UT 84604","precinct":"25PR23","hd":"61","v_score":"12.43077743","decile":"9","lat":40.252802875112,"lng":-111.691303432998},{"id":"52352","name":"Vere Kovacek","party":"Rep","address":"986 Independence Ave, Provo, UT 84604","precinct":"25PR23","hd":"61","v_score":"13.76893698","decile":"9","lat":40.246847371206,"lng":-111.691746502091},{"id":"52708","name":"Kara Anderson","party":"","address":"1076 N 1760 W, Provo, UT 84604","precinct":"25PR23","hd":"61","v_score":"3.93832808","decile":"6","lat":40.248648015621,"lng":-111.692000448213},{"id":"52944","name":"Mrs. Wendi O'Reilly DDS","party":"Dem","address":"1952 W 820 N, Provo, UT 84601","precinct":"25PR23","hd":"61","v_score":"6.657533174","decile":"7","lat":40.245164979939,"lng":-111.692667922765},{"id":"53002","name":"Timothy Grimes","party":"","address":"1701 W 1100 N, Provo, UT 84604","precinct":"25PR23","hd":"61","v_score":"12.64191471","decile":"9","lat":40.24905398159,"lng":-111.687901596354},{"id":"53287","name":"Travon Gusikowski","party":"Rep","address":"1129 N 1880 W, Provo, UT 84604","precinct":"25PR23","hd":"61","v_score":"7.159318653","decile":"8","lat":40.250098382804,"lng":-111.694356572991},{"id":"53958","name":"Arabella Crooks","party":"","address":"898 N Independence Ave, Provo, UT 84604","precinct":"25PR23","hd":"61","v_score":"26.89878031","decile":"10","lat":40.246044332561,"lng":-111.691030189705},{"id":"54061","name":"Mr. Darcy Schaefer","party":"Dem","address":"1901 W 960 N, Provo, UT 84604","precinct":"25PR23","hd":"61","v_score":"11.30609121","decile":"9","lat":40.246366808633,"lng":-111.692382315678},{"id":"54381","name":"Arnie Ankunding","party":"Rep","address":"1119 Grand Ave, Provo, UT 84604","precinct":"25PR23","hd":"61","v_score":"0","decile":"1","lat":40.248830609834,"lng":-111.690797005873},{"id":"54541","name":"Mrs. Marybeth Fisher DVM","party":"","address":"1875 W 1380 N, Provo, UT 84604","precinct":"25PR23","hd":"61","v_score":"2.744440783","decile":"5","lat":40.252254855957,"lng":-111.690944265762},{"id":"55220","name":"Dr. Trish Barrows","party":"Rep","address":"1705 W 1400 N, Provo, UT 84604","precinct":"25PR23","hd":"61","v_score":"3.711952487","decile":"6","lat":40.252451522796,"lng":-111.687615803728},{"id":"55488","name":"Aaden Dietrich","party":"","address":"875 Independence Ave, Provo, UT 84604","precinct":"25PR23","hd":"61","v_score":"24.93539042","decile":"10","lat":40.245831123008,"lng":-111.690959980096},{"id":"55517","name":"Devyn Kling","party":"","address":"1405 N 1750 W, Provo, UT 84604","precinct":"25PR23","hd":"61","v_score":"1.121327652","decile":"3","lat":40.252575057575,"lng":-111.688888316866},{"id":"56111","name":"Kiel Gislason","party":"Rep","address":"1194 Grand Ave, Provo, UT 84604","precinct":"25PR23","hd":"61","v_score":"10.71001167","decile":"9","lat":40.249624546658,"lng":-111.69152440752},{"id":"56176","name":"Ethyle Hand-Renner","party":"Rep","address":"1262 N Wasatch Dr, Provo, UT 84604","precinct":"25PR23","hd":"61","v_score":"9.405332525","decile":"8","lat":40.250572740073,"lng":-111.689767617056},{"id":"56278","name":"Chelsey Gerhold","party":"Dem","address":"1111 N Independence Ave, Provo, UT 84604","precinct":"25PR23","hd":"61","v_score":"0","decile":"1","lat":40.248864113694,"lng":-111.693541717184},{"id":"56428","name":"Hunt Hickle","party":"Dem","address":"1802 W 1010 N, Provo, UT 84604","precinct":"25PR23","hd":"61","v_score":"1.121327652","decile":"3","lat":40.247630985706,"lng":-111.691629412744},{"id":"56529","name":"Gerold O'Keefe","party":"","address":"1025 Grand Ave, Provo, UT 84604","precinct":"25PR23","hd":"61","v_score":"3.93832808","decile":"6","lat":40.247831023825,"lng":-111.689647459966},{"id":"57384","name":"Mr. Jalon Kirlin DVM","party":"Dem","address":"894 N 1760 W, Provo, UT 84604","precinct":"25PR23","hd":"61","v_score":"2.958579882","decile":"6","lat":40.246596529361,"lng":-111.689772058808},{"id":"59339","name":"Lucie Gusikowski","party":"Dem","address":"1616 W 1100 N, Provo, UT 84604","precinct":"25PR23","hd":"61","v_score":"16.48582198","decile":"9","lat":40.249176300445,"lng":-111.686503124027},{"id":"60080","name":"Dr. Jahir Sawayn","party":"","address":"1101 Independence Ave, Provo, UT 84604","precinct":"25PR23","hd":"61","v_score":"8.645928257","decile":"8","lat":40.248689320077,"lng":-111.693406717358},{"id":"60370","name":"Darren Brakus","party":"","address":"1993 W 1460 N, Provo, UT 84604","precinct":"25PR23","hd":"61","v_score":"1.121327652","decile":"3","lat":40.253381709096,"lng":-111.693427347869},{"id":"60791","name":"Roe Predovic II","party":"Dem","address":"905 N 1760 W, Provo, UT 84604","precinct":"25PR23","hd":"61","v_score":"6.814370645","decile":"8","lat":40.246580436994,"lng":-111.689949988181},{"id":"61047","name":"Ms. Leesa Huel","party":"Rep","address":"894 N 1760 W, Provo, UT 84604","precinct":"25PR23","hd":"61","v_score":"2.315214949","decile":"5","lat":40.246596529361,"lng":-111.689772058808},{"id":"61310","name":"Pheobe Rath DVM","party":"Rep","address":"855 N 1760 W, Provo, UT 84604","precinct":"25PR23","hd":"61","v_score":"2.315214949","decile":"5","lat":40.246030683742,"lng":-111.689496746405},{"id":"61313","name":"Mabelle DuBuque","party":"","address":"1599 W 1460 N, Provo, UT 84604","precinct":"25PR23","hd":"61","v_score":"21.39966551","decile":"10","lat":40.253387113376,"lng":-111.686680620087},{"id":"61436","name":"Azul Nikolaus PhD","party":"Rep","address":"1637 W 1050 N, Provo, UT 84604","precinct":"25PR23","hd":"61","v_score":"29.68367038","decile":"10","lat":40.248340235789,"lng":-111.686842768406},{"id":"61502","name":"Kenney Mayert","party":"Dem","address":"1585 W 1250 N, Provo, UT 84604","precinct":"25PR23","hd":"61","v_score":"0","decile":"1","lat":40.25076435431,"lng":-111.686094656316},{"id":"61978","name":"Mr. Brennan Blanda","party":"Rep","address":"2070 W Lakeview Dr, Provo, UT 84604","precinct":"25PR23","hd":"61","v_score":"38.24567755","decile":"10","lat":40.25024372302,"lng":-111.693726054635},{"id":"62503","name":"Frieda Trantow","party":"","address":"1605 W 950 N, Provo, UT 84604","precinct":"25PR23","hd":"61","v_score":"2.315214949","decile":"5","lat":40.246796357804,"lng":-111.686526928589},{"id":"62757","name":"Cleva White","party":"Dem","address":"1680 W 1000 N, Provo, UT 84604","precinct":"25PR23","hd":"61","v_score":"2.744440783","decile":"5","lat":40.247685796284,"lng":-111.687442928436},{"id":"63125","name":"Dr. Alonza Jakubowski","party":"Rep","address":"1637 W 1050 N, Provo, UT 84604","precinct":"25PR23","hd":"61","v_score":"34.93670199","decile":"10","lat":40.248340235789,"lng":-111.686842768406},{"id":"63154","name":"Verdie Okuneva","party":"","address":"1167 N Independence Ave, Provo, UT 84604","precinct":"25PR23","hd":"61","v_score":"2.315214949","decile":"5","lat":40.249401675046,"lng":-111.693933063006},{"id":"65181","name":"Jenelle Leuschke","party":"","address":"1536 W 1050 N, Provo, UT 84604","precinct":"25PR23","hd":"61","v_score":"2.315214949","decile":"5","lat":40.248464593437,"lng":-111.685777507557},{"id":"65485","name":"Mr. Talon Ziemann II","party":"Rep","address":"1331 Grand Ave, Provo, UT 84604","precinct":"25PR23","hd":"61","v_score":"5.815909755","decile":"7","lat":40.251617813916,"lng":-111.693350623738},{"id":"66024","name":"Orvin McClure","party":"Dem","address":"1303 Uinta Dr, Provo, UT 84604","precinct":"25PR23","hd":"61","v_score":"14.93550638","decile":"9","lat":40.25080059018,"lng":-111.691911756984},{"id":"67518","name":"Odette Blick-Stokes","party":"Rep","address":"1111 Grand Ave, Provo, UT 84604","precinct":"25PR23","hd":"61","v_score":"25.05425048","decile":"10","lat":40.248754960213,"lng":-111.690708518765},{"id":"67615","name":"Algernon Koelpin","party":"","address":"1675 W 1000 N, Provo, UT 84604","precinct":"25PR23","hd":"61","v_score":"1.121327652","decile":"3","lat":40.2475718501,"lng":-111.687374087751},{"id":"67776","name":"Valentina Osinski","party":"Rep","address":"1025 Grand Ave, Provo, UT 84604","precinct":"25PR23","hd":"61","v_score":"2.744440783","decile":"5","lat":40.247831023825,"lng":-111.689647459966},{"id":"67795","name":"Dr. Jaleel Jast","party":"Dem","address":"1797 W 1110 N, Provo, UT 84604","precinct":"25PR23","hd":"61","v_score":"2.315214949","decile":"5","lat":40.248620103616,"lng":-111.692740474027},{"id":"68304","name":"Anabelle Schowalter","party":"","address":"992 Independence Ave, Provo, UT 84604","precinct":"25PR23","hd":"61","v_score":"1.121327652","decile":"3","lat":40.246951043182,"lng":-111.691829925608},{"id":"69724","name":"Jess Lebsack","party":"Rep","address":"1680 W 1000 N, Provo, UT 84604","precinct":"25PR23","hd":"61","v_score":"0","decile":"1","lat":40.247685796284,"lng":-111.687442928436},{"id":"69877","name":"Dr. Harvey Fritsch","party":"","address":"903 N 1760 W, Provo, UT 84604","precinct":"25PR23","hd":"61","v_score":"2.315214949","decile":"5","lat":40.246558612604,"lng":-111.689926133623},{"id":"69878","name":"Arminda Medhurst DDS","party":"Dem","address":"903 N 1760 W, Provo, UT 84604","precinct":"25PR23","hd":"61","v_score":"2.315214949","decile":"5","lat":40.246558612604,"lng":-111.689926133623},{"id":"70615","name":"Marlene Hoeger","party":"","address":"1425 N 2100 W, Provo, UT 84604","precinct":"25PR23","hd":"61","v_score":"1.121327652","decile":"3","lat":40.2531131564,"lng":-111.694873063627},{"id":"72038","name":"Ramon Wolf","party":"Dem","address":"977 Independence Ave, Provo, UT 84604","precinct":"25PR23","hd":"61","v_score":"6.027167436","decile":"7","lat":40.246807335928,"lng":-111.691890475735},{"id":"72312","name":"Vito McDermott","party":"","address":"1111 Grand Ave, Provo, UT 84604","precinct":"25PR23","hd":"61","v_score":"5.191257514","decile":"7","lat":40.248754960213,"lng":-111.690708518765},{"id":"72686","name":"Hilario Spinka","party":"","address":"1545 W 1050 N, Provo, UT 84604","precinct":"25PR23","hd":"61","v_score":"1.121327652","decile":"3","lat":40.248349228365,"lng":-111.685861070821},{"id":"72726","name":"Jalissa Kertzmann","party":"Dem","address":"994 N 1760 W, Provo, UT 84604","precinct":"25PR23","hd":"61","v_score":"18.44108562","decile":"10","lat":40.247742860916,"lng":-111.691025025492},{"id":"73091","name":"Mr. Juwan Abbott V","party":"","address":"1247 Grand Ave, Provo, UT 84604","precinct":"25PR23","hd":"61","v_score":"8.903210001","decile":"8","lat":40.25029177815,"lng":-111.692497371291},{"id":"73310","name":"Mr. Russell Satterfield","party":"Rep","address":"984 Independence Ave, Provo, UT 84604","precinct":"25PR23","hd":"61","v_score":"1.121327652","decile":"3","lat":40.246812813881,"lng":-111.691718694252},{"id":"73658","name":"Janiyah Stroman-Kreiger","party":"Rep","address":"1905 W 960 N, Provo, UT 84604","precinct":"25PR23","hd":"61","v_score":"0","decile":"1","lat":40.24636383177,"lng":-111.692388368634},{"id":"73851","name":"Griselda Fahey DDS","party":"Dem","address":"1046 N 1760 W, Provo, UT 84604","precinct":"25PR23","hd":"61","v_score":"3.93832808","decile":"6","lat":40.248227118378,"lng":-111.691552392016},{"id":"74011","name":"Ms. Ottie Heathcote MD","party":"","address":"1909 W 960 N, Provo, UT 84604","precinct":"25PR23","hd":"61","v_score":"1.193887297","decile":"3","lat":40.246360854907,"lng":-111.692394421591},{"id":"74052","name":"Pamela Eichmann","party":"Dem","address":"1021 Independence Ave, Provo, UT 84604","precinct":"25PR23","hd":"61","v_score":"1.121327652","decile":"3","lat":40.247406123261,"lng":-111.6923734823},{"id":"75611","name":"Violet Kozey","party":"","address":"883 N 1760 W, Provo, UT 84604","precinct":"25PR23","hd":"61","v_score":"2.315214949","decile":"5","lat":40.246340368712,"lng":-111.689687588043},{"id":"75701","name":"Mrs. Chimere Steuber MD","party":"Rep","address":"1792 W 1010 N, Provo, UT 84604","precinct":"25PR23","hd":"61","v_score":"1.121327652","decile":"3","lat":40.247648624598,"lng":-111.691595668772},{"id":"75702","name":"Dr. Kamari Ortiz","party":"","address":"1571 W 1460 N, Provo, UT 84604","precinct":"25PR23","hd":"61","v_score":"3.93832808","decile":"6","lat":40.25338808741,"lng":-111.686288072183},{"id":"76012","name":"Godfrey Waters III","party":"","address":"1802 W 1010 N, Provo, UT 84604","precinct":"25PR23","hd":"61","v_score":"1.121327652","decile":"3","lat":40.247630985706,"lng":-111.691629412744},{"id":"76637","name":"Ms. Ashely Mayert","party":"","address":"1847 Teton Dr, Provo, UT 84604","precinct":"25PR23","hd":"61","v_score":"11.687527","decile":"9","lat":40.251435414063,"lng":-111.690128592201},{"id":"76722","name":"Mr. Greyson Rutherford","party":"","address":"1141 N 1880 W, Provo, UT 84604","precinct":"25PR23","hd":"61","v_score":"0","decile":"1","lat":40.250217149996,"lng":-111.694421010487},{"id":"77079","name":"Shaquita Parisian","party":"","address":"2049 Lakeview Dr, Provo, UT 84604","precinct":"25PR23","hd":"61","v_score":"0","decile":"1","lat":40.251942536312,"lng":-111.694615717184},{"id":"78138","name":"Cheyenne Hartmann","party":"","address":"990 Independence Ave, Provo, UT 84604","precinct":"25PR23","hd":"61","v_score":"2.315214949","decile":"5","lat":40.246916485857,"lng":-111.691802117769},{"id":"78229","name":"Mr. Nello Jacobson Sr.","party":"Rep","address":"930 Independence Ave, Provo, UT 84604","precinct":"25PR23","hd":"61","v_score":"2.315214949","decile":"5","lat":40.246280829225,"lng":-111.691284081095},{"id":"79275","name":"Orrie Hamill","party":"","address":"1068 N 1760 W, Provo, UT 84604","precinct":"25PR23","hd":"61","v_score":"1.121327652","decile":"3","lat":40.248527799881,"lng":-111.691873076813},{"id":"79858","name":"Zachariah Schmeler","party":"Dem","address":"1109 N 1750 W, Provo, UT 84604","precinct":"25PR23","hd":"61","v_score":"1.121327652","decile":"3","lat":40.249232373106,"lng":-111.688743409254},{"id":"80029","name":"Miss Traci Kling PhD","party":"Dem","address":"1616 W 1100 N, Provo, UT 84604","precinct":"25PR23","hd":"61","v_score":"13.54291438","decile":"9","lat":40.249176300445,"lng":-111.686503124027},{"id":"80623","name":"Damari Lebsack I","party":"","address":"1443 N 1900 W, Provo, UT 84604","precinct":"25PR23","hd":"61","v_score":"3.93832808","decile":"6","lat":40.253098226462,"lng":-111.691333147059},{"id":"80744","name":"Glennie Thiel","party":"Dem","address":"1297 N 1750 W, Provo, UT 84604","precinct":"25PR23","hd":"61","v_score":"5.191257514","decile":"7","lat":40.251448010525,"lng":-111.688853376254},{"id":"80827","name":"Artelia Ondricka","party":"","address":"1825 Cascade Dr, Provo, UT 84604","precinct":"25PR23","hd":"61","v_score":"5.837188142","decile":"7","lat":40.250031040631,"lng":-111.690118135234},{"id":"81544","name":"Mr. Thor Hermiston","party":"Dem","address":"1581 W 1320 N, Provo, UT 84604","precinct":"25PR23","hd":"61","v_score":"0","decile":"1","lat":40.251487378573,"lng":-111.686096237815},{"id":"82072","name":"Dr. Baylie Senger MD","party":"","address":"1551 W 1100 N, Provo, UT 84604","precinct":"25PR23","hd":"61","v_score":"1.193887297","decile":"3","lat":40.249064681284,"lng":-111.685862192253},{"id":"82168","name":"Valentine Hoeger","party":"","address":"1101 N Independence Ave, Provo, UT 84604","precinct":"25PR23","hd":"61","v_score":"1.623113131","decile":"5","lat":40.248689320077,"lng":-111.693406717358},{"id":"82195","name":"Mayra Mills","party":"Rep","address":"1582 W 1000 N, Provo, UT 84604","precinct":"25PR23","hd":"61","v_score":"0","decile":"1","lat":40.247696189314,"lng":-111.686349053333},{"id":"82659","name":"Missouri Hessel PhD","party":"","address":"1912 Teton Dr, Provo, UT 84604","precinct":"25PR23","hd":"61","v_score":"20.87115518","decile":"10","lat":40.25153430054,"lng":-111.691275258054},{"id":"82808","name":"Gage Robel","party":"","address":"1344 N 1850 W, Provo, UT 84604","precinct":"25PR23","hd":"61","v_score":"0","decile":"1","lat":40.2518552106,"lng":-111.690354938962},{"id":"82839","name":"Landin Beier","party":"Dem","address":"1581 W 1320 N, Provo, UT 84604","precinct":"25PR23","hd":"61","v_score":"0","decile":"1","lat":40.251487378573,"lng":-111.686096237815},{"id":"82888","name":"Dr. Johney Klocko MD","party":"Rep","address":"1799 W 1460 N, Provo, UT 84604","precinct":"25PR23","hd":"61","v_score":"0","decile":"1","lat":40.253387805458,"lng":-111.689584788205},{"id":"83256","name":"Branden Huel","party":"Dem","address":"1243 Lakeview Dr, Provo, UT 84604","precinct":"25PR23","hd":"61","v_score":"0","decile":"1","lat":40.25001558761,"lng":-111.692450207979},{"id":"83316","name":"Danyell Lindgren","party":"Rep","address":"1241 Grand Ave, Provo, UT 84604","precinct":"25PR23","hd":"61","v_score":"2.817000428","decile":"6","lat":40.250154128658,"lng":-111.692339373713},{"id":"83320","name":"Dr. Christopher Farrell","party":"","address":"984 Independence Ave, Provo, UT 84604","precinct":"25PR23","hd":"61","v_score":"0","decile":"1","lat":40.246812813881,"lng":-111.691718694252},{"id":"85543","name":"Megan Sauer DDS","party":"","address":"1901 Teton Dr, Provo, UT 84604","precinct":"25PR23","hd":"61","v_score":"0","decile":"1","lat":40.25141970913,"lng":-111.690931943841},{"id":"86329","name":"Cordia Reichel","party":"Rep","address":"1025 Grand Ave, Provo, UT 84604","precinct":"25PR23","hd":"61","v_score":"1.193887297","decile":"4","lat":40.247831023825,"lng":-111.689647459966},{"id":"86379","name":"Dr. Storm Pfannerstill","party":"Rep","address":"1536 W 1100 N, Provo, UT 84604","precinct":"25PR23","hd":"61","v_score":"15.1758219","decile":"9","lat":40.249181841725,"lng":-111.685521242812},{"id":"86835","name":"Nels Olson","party":"Dem","address":"1273 N 1650 W, Provo, UT 84604","precinct":"25PR23","hd":"61","v_score":"0","decile":"1","lat":40.250602519652,"lng":-111.68753338241},{"id":"88170","name":"Pamella Watsica DVM","party":"Dem","address":"1917 W 960 N, Provo, UT 84604","precinct":"25PR23","hd":"61","v_score":"0","decile":"1","lat":40.24635490118,"lng":-111.692406527503},{"id":"88447","name":"Jane Morissette","party":"Dem","address":"1875 W 1380 N, Provo, UT 84604","precinct":"25PR23","hd":"61","v_score":"2.817000428","decile":"6","lat":40.252254855957,"lng":-111.690944265762},{"id":"88589","name":"Mr. Tod Mayer MD","party":"","address":"1901 Teton Dr, Provo, UT 84604","precinct":"25PR23","hd":"61","v_score":"1.193887297","decile":"4","lat":40.25141970913,"lng":-111.690931943841},{"id":"88971","name":"Shea Hudson","party":"Dem","address":"1630 W 1170 N, Provo, UT 84604","precinct":"25PR23","hd":"61","v_score":"8.284004873","decile":"8","lat":40.250136658061,"lng":-111.686619206728},{"id":"88995","name":"Dr. Verlin Lowe I","party":"Dem","address":"1875 W 1380 N, Provo, UT 84604","precinct":"25PR23","hd":"61","v_score":"1.193887297","decile":"4","lat":40.252254855957,"lng":-111.690944265762},{"id":"89644","name":"Electa Wilderman","party":"Rep","address":"935 Grand Ave, Provo, UT 84604","precinct":"25PR23","hd":"61","v_score":"1.193887297","decile":"4","lat":40.246557008051,"lng":-111.688146365541},{"id":"89728","name":"Anner Zieme-Lebsack","party":"Dem","address":"958 N 1760 W, Provo, UT 84604","precinct":"25PR23","hd":"61","v_score":"0","decile":"1","lat":40.247330181556,"lng":-111.690573957486},{"id":"89780","name":"Clarnce Nienow","party":"","address":"1210 N Wasatch Dr, Provo, UT 84604","precinct":"25PR23","hd":"61","v_score":"5.407962308","decile":"7","lat":40.250248277588,"lng":-111.689755720141},{"id":"90481","name":"Dr. Melbourne Schumm V","party":"Dem","address":"1247 Grand Ave, Provo, UT 84604","precinct":"25PR23","hd":"61","v_score":"4.069929862","decile":"6","lat":40.25029177815,"lng":-111.692497371291},{"id":"91070","name":"Devin Ferry-Crooks","party":"","address":"1707 W 1320 N, Provo, UT 84604","precinct":"25PR23","hd":"61","v_score":"0","decile":"1","lat":40.251495225458,"lng":-111.687608702577},{"id":"91540","name":"Jarvis Hills-Satterfield","party":"Dem","address":"1224 N 1650 W, Provo, UT 84604","precinct":"25PR23","hd":"61","v_score":"2.817000428","decile":"6","lat":40.250272235071,"lng":-111.687381096187},{"id":"92326","name":"Arkie Zemlak","party":"Dem","address":"1605 W 1170 N, Provo, UT 84604","precinct":"25PR23","hd":"61","v_score":"0","decile":"1","lat":40.250024286074,"lng":-111.6863266071},{"id":"92562","name":"Ellar Bogisich","party":"Rep","address":"1445 N 1500 W, Provo, UT 84604","precinct":"25PR23","hd":"61","v_score":"14.13760315","decile":"9","lat":40.25293742404,"lng":-111.68521746613},{"id":"92567","name":"Claus Reilly","party":"","address":"1793 W 1060 N, Provo, UT 84604","precinct":"25PR23","hd":"61","v_score":"5.693042993","decile":"7","lat":40.248121632892,"lng":-111.692043370017},{"id":"92714","name":"Muhammad Glover","party":"Dem","address":"1318 Lakeview Dr, Provo, UT 84604","precinct":"25PR23","hd":"61","v_score":"8.284004873","decile":"8","lat":40.250109369124,"lng":-111.692825996726},{"id":"93182","name":"Ms. Madison McCullough MD","party":"","address":"1645 W 1000 N, Provo, UT 84604","precinct":"25PR23","hd":"61","v_score":"0","decile":"1","lat":40.24757503164,"lng":-111.687039228026},{"id":"93439","name":"Johnathon Schmeler","party":"","address":"1141 N 1880 W, Provo, UT 84604","precinct":"25PR23","hd":"61","v_score":"0","decile":"1","lat":40.250217149996,"lng":-111.694421010487},{"id":"93732","name":"Marlin Aufderhar-Gulgowski","party":"","address":"1536 W 1250 N, Provo, UT 84604","precinct":"25PR23","hd":"61","v_score":"1.193887297","decile":"4","lat":40.250882838251,"lng":-111.685550394088},{"id":"94085","name":"Helga Kovacek DDS","party":"","address":"1388 Timpanogos Dr, Provo, UT 84604","precinct":"25PR23","hd":"61","v_score":"1.193887297","decile":"4","lat":40.252372640576,"lng":-111.692253289289},{"id":"94125","name":"Maryanne Lehner-Bradtke","party":"Dem","address":"1823 W 1460 N, Provo, UT 84604","precinct":"25PR23","hd":"61","v_score":"5.926494964","decile":"7","lat":40.253389807435,"lng":-111.690024504359},{"id":"94720","name":"Cloe Macejkovic","party":"Dem","address":"1510 W 1170 N, Provo, UT 84604","precinct":"25PR23","hd":"61","v_score":"7.781882349","decile":"8","lat":40.250146875114,"lng":-111.685275650827},{"id":"94841","name":"Zaria Brakus","party":"Rep","address":"1794 W 1010 N, Provo, UT 84604","precinct":"25PR23","hd":"61","v_score":"18.35167816","decile":"10","lat":40.247645096819,"lng":-111.691602417567},{"id":"94911","name":"Israel Bayer","party":"Dem","address":"1280 N 1750 W, Provo, UT 84604","precinct":"25PR23","hd":"61","v_score":"1.193887297","decile":"4","lat":40.251263783413,"lng":-111.688693987443},{"id":"95310","name":"Maryann Zboncak","party":"","address":"1663 W 1100 N, Provo, UT 84604","precinct":"25PR23","hd":"61","v_score":"0","decile":"1","lat":40.24905852682,"lng":-111.687635699222},{"id":"95614","name":"Birtha Jakubowski","party":"","address":"1581 W 1320 N, Provo, UT 84604","precinct":"25PR23","hd":"61","v_score":"18.88777439","decile":"10","lat":40.251487378573,"lng":-111.686096237815},{"id":"95830","name":"Terrell Daugherty","party":"Rep","address":"1445 N 1500 W, Provo, UT 84604","precinct":"25PR23","hd":"61","v_score":"14.13760315","decile":"9","lat":40.25293742404,"lng":-111.68521746613},{"id":"95873","name":"Kirby Pouros V","party":"Rep","address":"1081 N Independence Ave, Provo, UT 84604","precinct":"25PR23","hd":"61","v_score":"4.499155696","decile":"7","lat":40.248303892646,"lng":-111.693101033629},{"id":"95964","name":"Angie Murphy","party":"Rep","address":"977 Independence Ave, Provo, UT 84604","precinct":"25PR23","hd":"61","v_score":"4.905839784","decile":"7","lat":40.246807335928,"lng":-111.691890475735},{"id":"96354","name":"Dijon Jenkins","party":"","address":"954 Grand Ave, Provo, UT 84604","precinct":"25PR23","hd":"61","v_score":"5.693042993","decile":"7","lat":40.247263059368,"lng":-111.6887851667},{"id":"96703","name":"Gannon Wisozk MD","party":"","address":"1116 N 1760 W, Provo, UT 84604","precinct":"25PR23","hd":"61","v_score":"13.61907049","decile":"9","lat":40.24903011818,"lng":-111.692788694766},{"id":"96710","name":"Lindbergh Hills","party":"","address":"901 N 1760 W, Provo, UT 84604","precinct":"25PR23","hd":"61","v_score":"5.693042993","decile":"7","lat":40.246536788215,"lng":-111.689902279065},{"id":"96711","name":"Bennett Ruecker DDS","party":"Dem","address":"901 N 1760 W, Provo, UT 84604","precinct":"25PR23","hd":"61","v_score":"5.693042993","decile":"7","lat":40.246536788215,"lng":-111.689902279065},{"id":"97168","name":"Rigoberto Rodriguez","party":"Dem","address":"1778 W 1060 N, Provo, UT 84604","precinct":"25PR23","hd":"61","v_score":"0","decile":"1","lat":40.248237835038,"lng":-111.692083342296},{"id":"97494","name":"Mr. Henry Turcotte PhD","party":"","address":"1786 W 1060 N, Provo, UT 84604","precinct":"25PR23","hd":"61","v_score":"5.693042993","decile":"7","lat":40.248226847224,"lng":-111.692106208832},{"id":"98107","name":"Miss Margot Murray MD","party":"","address":"901 N 1760 W, Provo, UT 84604","precinct":"25PR23","hd":"61","v_score":"5.693042993","decile":"7","lat":40.246536788215,"lng":-111.689902279065},{"id":"99744","name":"Friend Homenick DDS","party":"Rep","address":"1052 N Grand Cir, Provo, UT 84604","precinct":"25PR23","hd":"61","v_score":"1.193887297","decile":"4","lat":40.248231447204,"lng":-111.689773408832},{"id":"99841","name":"Mrs. Marilla Connelly","party":"","address":"1293 Lakeview Dr, Provo, UT 84604","precinct":"25PR23","hd":"61","v_score":"4.069929862","decile":"6","lat":40.249995975934,"lng":-111.692704599389},{"id":"99922","name":"Leana Morar","party":"Dem","address":"1443 N 1900 W, Provo, UT 84604","precinct":"25PR23","hd":"61","v_score":"1.193887297","decile":"4","lat":40.253098226462,"lng":-111.691333147059},{"id":"100114","name":"Shawn Smitham DDS","party":"Dem","address":"1892 W 960 N, Provo, UT 84604","precinct":"25PR23","hd":"61","v_score":"0","decile":"1","lat":40.246526160347,"lng":-111.692333014387},{"id":"100682","name":"Sanders Ziemann","party":"Dem","address":"1444 N Timpanogos Dr, Provo, UT 84604","precinct":"25PR23","hd":"61","v_score":"1.193887297","decile":"4","lat":40.252881612151,"lng":-111.692273108747},{"id":"101393","name":"Marshall Tremblay","party":"Rep","address":"1905 W 960 N, Provo, UT 84604","precinct":"25PR23","hd":"61","v_score":"1.193887297","decile":"4","lat":40.24636383177,"lng":-111.692388368634},{"id":"102931","name":"Janae Purdy-O'Connell","party":"","address":"1155 N Independence Ave, Provo, UT 84604","precinct":"25PR23","hd":"61","v_score":"0","decile":"2","lat":40.249284564001,"lng":-111.693855941124},{"id":"102977","name":"Gray Kutch","party":"Rep","address":"1778 W 1060 N, Provo, UT 84604","precinct":"25PR23","hd":"61","v_score":"0","decile":"2","lat":40.248237835038,"lng":-111.692083342296},{"id":"103146","name":"Aurelia Streich","party":"Dem","address":"1361 Lakeview Dr, Provo, UT 84604","precinct":"25PR23","hd":"61","v_score":"2.876042565","decile":"6","lat":40.249992834129,"lng":-111.693020353165},{"id":"103914","name":"Annis Feil","party":"Dem","address":"1270 N 1750 W, Provo, UT 84604","precinct":"25PR23","hd":"61","v_score":"1.193887297","decile":"4","lat":40.251145930359,"lng":-111.688688138134},{"id":"104218","name":"Cal Aufderhar","party":"Rep","address":"966 N 1760 W, Provo, UT 84604","precinct":"25PR23","hd":"61","v_score":"0","decile":"2","lat":40.247421888081,"lng":-111.690674194821},{"id":"104475","name":"Mrs. Epsie Wunsch","party":"","address":"1581 W 1320 N, Provo, UT 84604","precinct":"25PR23","hd":"61","v_score":"11.99595736","decile":"9","lat":40.251487378573,"lng":-111.686096237815},{"id":"104557","name":"Mr. Yahir Schowalter DVM","party":"Dem","address":"1581 W 1320 N, Provo, UT 84604","precinct":"25PR23","hd":"61","v_score":"8.284004873","decile":"8","lat":40.251487378573,"lng":-111.686096237815},{"id":"105663","name":"Lindsey McClure IV","party":"Rep","address":"1518 W 1100 N, Provo, UT 84604","precinct":"25PR23","hd":"61","v_score":"0","decile":"2","lat":40.24918328744,"lng":-111.685328960672},{"id":"105844","name":"Modena Botsford-Marvin","party":"","address":"1118 N 1760 W, Provo, UT 84604","precinct":"25PR23","hd":"61","v_score":"0","decile":"2","lat":40.249030790313,"lng":-111.692802809547},{"id":"106153","name":"Ms. Merry Vandervort DDS","party":"","address":"1049 Grand Ave, Provo, UT 84604","precinct":"25PR23","hd":"61","v_score":"0","decile":"2","lat":40.248102260908,"lng":-111.689947758078},{"id":"106503","name":"Glenwood Williamson-Donnelly","party":"Dem","address":"1787 W 1060 N, Provo, UT 84604","precinct":"25PR23","hd":"61","v_score":"1.193887297","decile":"4","lat":40.248129873753,"lng":-111.692026220115},{"id":"106854","name":"Shay Grimes","party":"","address":"909 N 1760 W, Provo, UT 84604","precinct":"25PR23","hd":"61","v_score":"0","decile":"2","lat":40.246624085772,"lng":-111.689997697297},{"id":"107126","name":"Ms. Elliana Hane","party":"","address":"1605 W 950 N, Provo, UT 84604","precinct":"25PR23","hd":"61","v_score":"28.76262624","decile":"10","lat":40.246796357804,"lng":-111.686526928589},{"id":"107276","name":"Mr. Lindsey Kozey","party":"Dem","address":"1303 Lakeview Dr, Provo, UT 84604","precinct":"25PR23","hd":"61","v_score":"3.711952487","decile":"6","lat":40.249995513904,"lng":-111.692751033768},{"id":"107573","name":"Alphonsus Jones","party":"","address":"1123 Independence Ave, Provo, UT 84604","precinct":"25PR23","hd":"61","v_score":"1.193887297","decile":"4","lat":40.248977335567,"lng":-111.693628235758},{"id":"107979","name":"Mr. Theophile Cormier","party":"","address":"1589 W 1050 N, Provo, UT 84604","precinct":"25PR23","hd":"61","v_score":"0","decile":"2","lat":40.248344927568,"lng":-111.686330578362},{"id":"108430","name":"Helmer Casper","party":"Rep","address":"1875 W 1380 N, Provo, UT 84604","precinct":"25PR23","hd":"61","v_score":"0","decile":"2","lat":40.252254855957,"lng":-111.690944265762},{"id":"110508","name":"Ashlie Grady","party":"Dem","address":"1115 Independence Ave, Provo, UT 84604","precinct":"25PR23","hd":"61","v_score":"1.193887297","decile":"4","lat":40.248901854319,"lng":-111.693570556709},{"id":"110998","name":"Miss Kalyn Rohan","party":"","address":"1318 Lakeview Dr, Provo, UT 84604","precinct":"25PR23","hd":"61","v_score":"7.090117576","decile":"8","lat":40.250109369124,"lng":-111.692825996726},{"id":"111178","name":"Dasia Price","party":"Rep","address":"1797 W 1110 N, Provo, UT 84604","precinct":"25PR23","hd":"61","v_score":"1.193887297","decile":"4","lat":40.248620103616,"lng":-111.692740474027},{"id":"111259","name":"Lena Gutkowski-Grady","party":"Rep","address":"1411 N 1900 W, Provo, UT 84604","precinct":"25PR23","hd":"61","v_score":"1.193887297","decile":"4","lat":40.252933567884,"lng":-111.691317755475},{"id":"111415","name":"Author Shields-Stracke","party":"Rep","address":"1787 W 1060 N, Provo, UT 84604","precinct":"25PR23","hd":"61","v_score":"1.193887297","decile":"4","lat":40.248129873753,"lng":-111.692026220115},{"id":"111478","name":"Khalilah Haag","party":"Dem","address":"891 Independence Ave, Provo, UT 84604","precinct":"25PR23","hd":"61","v_score":"1.193887297","decile":"4","lat":40.245957080478,"lng":-111.6911298122},{"id":"112101","name":"Mrs. Vella Leuschke","party":"Rep","address":"1134 N 1750 W, Provo, UT 84604","precinct":"25PR23","hd":"61","v_score":"1.193887297","decile":"4","lat":40.249543128821,"lng":-111.688608587538},{"id":"112228","name":"Miss Harriett Kozey DDS","party":"","address":"1137 N 1650 W, Provo, UT 84604","precinct":"25PR23","hd":"61","v_score":"0","decile":"2","lat":40.249735700044,"lng":-111.687528351561},{"id":"113109","name":"Ms. Tiarra Okuneva","party":"Dem","address":"1659 W 1000 N, Provo, UT 84604","precinct":"25PR23","hd":"61","v_score":"4.069929862","decile":"7","lat":40.247573546921,"lng":-111.687195495898},{"id":"113415","name":"Michale Schuster","party":"Dem","address":"958 N 1760 W, Provo, UT 84604","precinct":"25PR23","hd":"61","v_score":"1.193887297","decile":"4","lat":40.247330181556,"lng":-111.690573957486},{"id":"113417","name":"Archibald Kris","party":"Dem","address":"958 N 1760 W, Provo, UT 84604","precinct":"25PR23","hd":"61","v_score":"1.193887297","decile":"4","lat":40.247330181556,"lng":-111.690573957486},{"id":"114880","name":"Mrs. Kecia Mann","party":"","address":"888 Independence Ave, Provo, UT 84604","precinct":"25PR23","hd":"61","v_score":"1.193887297","decile":"4","lat":40.245969757757,"lng":-111.690945671619},{"id":"114954","name":"Leone Kutch","party":"Dem","address":"1115 Independence Ave, Provo, UT 84604","precinct":"25PR23","hd":"61","v_score":"1.193887297","decile":"4","lat":40.248901854319,"lng":-111.693570556709},{"id":"115145","name":"Denisse Medhurst-Auer","party":"Dem","address":"1905 W 960 N, Provo, UT 84604","precinct":"25PR23","hd":"61","v_score":"5.407962308","decile":"7","lat":40.24636383177,"lng":-111.692388368634},{"id":"115369","name":"Bernard Deckow III","party":"","address":"958 N 1760 W, Provo, UT 84604","precinct":"25PR23","hd":"61","v_score":"1.193887297","decile":"4","lat":40.247330181556,"lng":-111.690573957486},{"id":"115680","name":"Kenisha Nienow","party":"","address":"1605 W 1170 N, Provo, UT 84604","precinct":"25PR23","hd":"61","v_score":"1.193887297","decile":"4","lat":40.250024286074,"lng":-111.6863266071},{"id":"116464","name":"China Armstrong","party":"","address":"1366 N Timpanogos Dr, Provo, UT 84604","precinct":"25PR23","hd":"61","v_score":"1.193887297","decile":"4","lat":40.252170306356,"lng":-111.692243847053},{"id":"116797","name":"Ms. Aaliyah Schroeder DDS","party":"Dem","address":"1280 N 1750 W, Provo, UT 84604","precinct":"25PR23","hd":"61","v_score":"1.193887297","decile":"4","lat":40.251263783413,"lng":-111.688693987443},{"id":"116936","name":"Dr. Perri Johnston","party":"","address":"1137 N 1650 W, Provo, UT 84604","precinct":"25PR23","hd":"61","v_score":"5.407962308","decile":"7","lat":40.249735700044,"lng":-111.687528351561},{"id":"117342","name":"Florrie Lueilwitz","party":"Dem","address":"1109 N 1750 W, Provo, UT 84604","precinct":"25PR23","hd":"61","v_score":"1.193887297","decile":"4","lat":40.249232373106,"lng":-111.688743409254},{"id":"117425","name":"Mr. Alfie Anderson","party":"Rep","address":"1128 N Independence Ave, Provo, UT 84604","precinct":"25PR23","hd":"61","v_score":"1.193887297","decile":"4","lat":40.249105156977,"lng":-111.693552103289},{"id":"117938","name":"Vera Simonis","party":"","address":"1821 W 1460 N, Provo, UT 84604","precinct":"25PR23","hd":"61","v_score":"0","decile":"2","lat":40.253390001713,"lng":-111.690004007841},{"id":"118007","name":"Miss Chelsie Macejkovic MD","party":"","address":"875 Independence Ave, Provo, UT 84604","precinct":"25PR23","hd":"61","v_score":"1.193887297","decile":"4","lat":40.245831123008,"lng":-111.690959980096},{"id":"118145","name":"Lemmie Mraz-Ankunding","party":"","address":"1875 Cascade Dr, Provo, UT 84604","precinct":"25PR23","hd":"61","v_score":"0","decile":"2","lat":40.250026003371,"lng":-111.690669719786},{"id":"118430","name":"Rand Harber","party":"Dem","address":"875 Independence Ave, Provo, UT 84604","precinct":"25PR23","hd":"61","v_score":"5.407962308","decile":"7","lat":40.245831123008,"lng":-111.690959980096},{"id":"119317","name":"Dr. Luana Howell MD","party":"Rep","address":"1076 N 1760 W, Provo, UT 84604","precinct":"25PR23","hd":"61","v_score":"1.193887297","decile":"4","lat":40.248648015621,"lng":-111.692000448213},{"id":"119388","name":"Alisa Grimes","party":"","address":"1783 W 1060 N, Provo, UT 84604","precinct":"25PR23","hd":"61","v_score":"5.407962308","decile":"7","lat":40.248135367661,"lng":-111.692014786847},{"id":"119593","name":"Mr. Richard Christiansen II","party":"Rep","address":"1086 N 1750 W, Provo, UT 84604","precinct":"25PR23","hd":"61","v_score":"1.193887297","decile":"4","lat":40.248928652805,"lng":-111.688582828816},{"id":"120800","name":"Floy Ledner","party":"","address":"1411 N 1900 W, Provo, UT 84604","precinct":"25PR23","hd":"61","v_score":"4.069929862","decile":"7","lat":40.252933567884,"lng":-111.691317755475},{"id":"121723","name":"Dr. Shantel Volkman DDS","party":"","address":"1081 Independence Ave, Provo, UT 84604","precinct":"25PR23","hd":"61","v_score":"1.193887297","decile":"4","lat":40.248303892646,"lng":-111.693101033629},{"id":"121742","name":"Mr. Donell Moore","party":"","address":"1167 Independence Ave, 1167, Provo, UT 84604","precinct":"25PR23","hd":"61","v_score":"1.193887297","decile":"4","lat":40.249401675046,"lng":-111.693933063006},{"id":"121938","name":"Dr. Jazmyn West","party":"Dem","address":"1913 W 960 N, Provo, UT 84604","precinct":"25PR23","hd":"61","v_score":"1.193887297","decile":"4","lat":40.246357878043,"lng":-111.692400474547},{"id":"122241","name":"Pearline Grady-Glover","party":"","address":"1797 W 1110 N, Provo, UT 84604","precinct":"25PR23","hd":"61","v_score":"1.193887297","decile":"4","lat":40.248620103616,"lng":-111.692740474027},{"id":"122493","name":"Shanda Botsford PhD","party":"","address":"1133 N 1880 W, Provo, UT 84604","precinct":"25PR23","hd":"61","v_score":"1.193887297","decile":"4","lat":40.250137971868,"lng":-111.694378052157},{"id":"122497","name":"Robin Berge","party":"Dem","address":"1588 W 1250 N, Provo, UT 84604","precinct":"25PR23","hd":"61","v_score":"1.193887297","decile":"4","lat":40.25087861587,"lng":-111.686141533659},{"id":"122714","name":"Dr. Hollie Douglas III","party":"","address":"1584 W 1170 N, Provo, UT 84604","precinct":"25PR23","hd":"61","v_score":"7.090117576","decile":"8","lat":40.250140574598,"lng":-111.686104176966},{"id":"123146","name":"Gertie Rice","party":"","address":"1375 N 1750 W, Provo, UT 84604","precinct":"25PR23","hd":"61","v_score":"1.193887297","decile":"4","lat":40.252221152069,"lng":-111.688873867973},{"id":"123919","name":"Rayan Rutherford","party":"Dem","address":"1247 Grand Ave, Provo, UT 84604","precinct":"25PR23","hd":"61","v_score":"1.193887297","decile":"4","lat":40.25029177815,"lng":-111.692497371291},{"id":"124146","name":"Dr. Volney Jerde IV","party":"Rep","address":"939 Independence Ave, Provo, UT 84604","precinct":"25PR23","hd":"61","v_score":"1.193887297","decile":"4","lat":40.2463686031,"lng":-111.69153276891},{"id":"124341","name":"Mr. Wood Lueilwitz","party":"Dem","address":"1675 W 1000 N, Provo, UT 84604","precinct":"25PR23","hd":"61","v_score":"1.193887297","decile":"4","lat":40.2475718501,"lng":-111.687374087751},{"id":"124487","name":"Courtney Hyatt","party":"","address":"1788 W 820 N, Provo, UT 84601","precinct":"25PR23","hd":"61","v_score":"0","decile":"2","lat":40.245254458738,"lng":-111.689881926274},{"id":"124629","name":"Tilden Schiller","party":"Dem","address":"1533 W 1100 N, Provo, UT 84604","precinct":"25PR23","hd":"61","v_score":"0","decile":"2","lat":40.249066649064,"lng":-111.685600474896},{"id":"124974","name":"Lauretta Wyman MD","party":"Rep","address":"1796 W 1010 N, Provo, UT 84604","precinct":"25PR23","hd":"61","v_score":"7.090117576","decile":"8","lat":40.247641569041,"lng":-111.691609166361},{"id":"126093","name":"Mrs. Quiana Moen","party":"Rep","address":"939 Independence Ave, Provo, UT 84604","precinct":"25PR23","hd":"61","v_score":"0","decile":"2","lat":40.2463686031,"lng":-111.69153276891},{"id":"126100","name":"Adison Runolfsson","party":"Rep","address":"1913 W 960 N, Provo, UT 84604","precinct":"25PR23","hd":"61","v_score":"0","decile":"2","lat":40.246357878043,"lng":-111.692400474547},{"id":"126249","name":"Burrel Collier","party":"Dem","address":"1536 W 1250 N, Provo, UT 84604","precinct":"25PR23","hd":"61","v_score":"0","decile":"2","lat":40.250882838251,"lng":-111.685550394088},{"id":"127310","name":"Evelyne Schaefer MD","party":"","address":"1401 N 1750 W, Provo, UT 84604","precinct":"25PR23","hd":"61","v_score":"2.876042565","decile":"6","lat":40.252444087445,"lng":-111.688882257984},{"id":"127347","name":"Dr. Kaelynn Ernser PhD","party":"Rep","address":"1007 Independence Ave, Provo, UT 84604","precinct":"25PR23","hd":"61","v_score":"0","decile":"2","lat":40.247216042755,"lng":-111.692219356908},{"id":"127445","name":"Talan Hills","party":"Dem","address":"1109 N 1750 W, Provo, UT 84604","precinct":"25PR23","hd":"61","v_score":"0","decile":"2","lat":40.249232373106,"lng":-111.688743409254},{"id":"127469","name":"Wyatt Cassin-Dooley","party":"","address":"1131 Independence Ave, Provo, UT 84604","precinct":"25PR23","hd":"61","v_score":"0","decile":"2","lat":40.249052816816,"lng":-111.693685914807},{"id":"127482","name":"Darline Lubowitz","party":"Dem","address":"1972 Teton Dr, Provo, UT 84604","precinct":"25PR23","hd":"61","v_score":"0","decile":"2","lat":40.251556069156,"lng":-111.692670444053},{"id":"128038","name":"Knox Crona","party":"Rep","address":"835 Independence Ave, Provo, UT 84604","precinct":"25PR23","hd":"61","v_score":"0","decile":"2","lat":40.245552737457,"lng":-111.690604507249},{"id":"128160","name":"Lockie Kshlerin-Harber","party":"Rep","address":"1913 W 960 N, Provo, UT 84604","precinct":"25PR23","hd":"61","v_score":"0","decile":"2","lat":40.246357878043,"lng":-111.692400474547},{"id":"128896","name":"Lailah Bergstrom","party":"Dem","address":"984 Independence Ave, Provo, UT 84604","precinct":"25PR23","hd":"61","v_score":"0","decile":"2","lat":40.246812813881,"lng":-111.691718694252},{"id":"129390","name":"Ms. Taina Stiedemann","party":"Rep","address":"851 Independence Ave, Provo, UT 84604","precinct":"25PR23","hd":"61","v_score":"2.876042565","decile":"6","lat":40.24568125068,"lng":-111.690692351018},{"id":"129873","name":"Miss Annamae Howe","party":"","address":"1606 W 900 N, Provo, UT 84604","precinct":"25PR23","hd":"61","v_score":"2.876042565","decile":"6","lat":40.246147785529,"lng":-111.686374565655},{"id":"129882","name":"Sharla Abbott","party":"Rep","address":"1606 W 900 N, Provo, UT 84604","precinct":"25PR23","hd":"61","v_score":"0","decile":"2","lat":40.246147785529,"lng":-111.686374565655},{"id":"130094","name":"Angela Schamberger","party":"","address":"1836 Cascade Dr, Provo, UT 84604","precinct":"25PR23","hd":"61","v_score":"7.090117576","decile":"8","lat":40.250145081015,"lng":-111.690179367632},{"id":"130213","name":"Anaya Koss","party":"","address":"995 Independence Ave, Provo, UT 84604","precinct":"25PR23","hd":"61","v_score":"0","decile":"2","lat":40.247052560024,"lng":-111.692087804439},{"id":"132104","name":"Isis Abshire","party":"","address":"1913 W 960 N, Provo, UT 84604","precinct":"25PR23","hd":"61","v_score":"0","decile":"2","lat":40.246357878043,"lng":-111.692400474547},{"id":"133640","name":"Clarke Beatty","party":"Dem","address":"1416 N 2100 W, Provo, UT 84604","precinct":"25PR23","hd":"61","v_score":"0","decile":"2","lat":40.253127506574,"lng":-111.694723546529},{"id":"134374","name":"Ab Ryan","party":"Dem","address":"1778 W 1060 N, Provo, UT 84604","precinct":"25PR23","hd":"61","v_score":"0","decile":"2","lat":40.248237835038,"lng":-111.692083342296},{"id":"134930","name":"Georgie Bauch","party":"Dem","address":"1685 W 1320 N, Provo, UT 84604","precinct":"25PR23","hd":"61","v_score":"34.62894986","decile":"10","lat":40.251493855367,"lng":-111.687344621428},{"id":"135520","name":"Douglas Gleason","party":"Dem","address":"1818 W 1010 N, Provo, UT 84604","precinct":"25PR23","hd":"61","v_score":"0","decile":"2","lat":40.247602763478,"lng":-111.691683403098},{"id":"136322","name":"Armando Bahringer PhD","party":"Dem","address":"1011 N Independence Ave, Provo, UT 84604","precinct":"25PR23","hd":"61","v_score":"4.833280139","decile":"7","lat":40.247270536999,"lng":-111.692263207731},{"id":"138014","name":"Carla Shanahan","party":"","address":"1783 W 1060 N, Provo, UT 84604","precinct":"25PR23","hd":"61","v_score":"23.14124903","decile":"10","lat":40.248135367661,"lng":-111.692014786847},{"id":"138209","name":"Dr. Daniel Jacobson","party":"Dem","address":"1720 W 1320 N, Provo, UT 84604","precinct":"25PR23","hd":"61","v_score":"4.210716443","decile":"7","lat":40.251610686086,"lng":-111.687775733606},{"id":"138263","name":"Rennie Beahan","party":"Rep","address":"1292 Oquirrh Dr, Provo, UT 84604","precinct":"25PR23","hd":"61","v_score":"13.92577445","decile":"9","lat":40.250735646909,"lng":-111.690757865126},{"id":"138666","name":"Dr. Lular Littel","party":"Rep","address":"1318 Lakeview Dr, Provo, UT 84604","precinct":"25PR23","hd":"61","v_score":"8.284004873","decile":"8","lat":40.250109369124,"lng":-111.692825996726},{"id":"141358","name":"Miss Ginger Carroll DVM","party":"","address":"1602 W 900 N, Provo, UT 84604","precinct":"25PR23","hd":"61","v_score":"8.347511332","decile":"8","lat":40.246148049675,"lng":-111.686350132045},{"id":"141359","name":"Dr. Bartley Prohaska MD","party":"Dem","address":"1602 W 900 N, Provo, UT 84604","precinct":"25PR23","hd":"61","v_score":"5.40460374","decile":"7","lat":40.246148049675,"lng":-111.686350132045},{"id":"141978","name":"Jacque Grimes","party":"Rep","address":"1401 N 1750 W, Provo, UT 84604","precinct":"25PR23","hd":"61","v_score":"23.79624865","decile":"10","lat":40.252444087445,"lng":-111.688882257984},{"id":"142951","name":"Mrs. Clemma Hodkiewicz","party":"Dem","address":"1642 W 1400 N, Provo, UT 84604","precinct":"25PR23","hd":"61","v_score":"26.9144526","decile":"10","lat":40.252569704547,"lng":-111.686879345588},{"id":"143578","name":"Preston Ritchie","party":"Dem","address":"1904 W 960 N, Provo, UT 84604","precinct":"25PR23","hd":"61","v_score":"4.137918904","decile":"7","lat":40.246460158701,"lng":-111.692469685345},{"id":"143625","name":"Mr. Ignacio Gleichner Jr.","party":"Rep","address":"1292 Oquirrh Dr, Provo, UT 84604","precinct":"25PR23","hd":"61","v_score":"15.67479474","decile":"9","lat":40.250735646909,"lng":-111.690757865126},{"id":"144627","name":"Ms. Khalilah Labadie DDS","party":"Rep","address":"1677 W 1460 N, Provo, UT 84604","precinct":"25PR23","hd":"61","v_score":"0","decile":"3","lat":40.253384399994,"lng":-111.687774146391},{"id":"145081","name":"Annabella Wolf MD","party":"Rep","address":"1574 W 1050 N, Provo, UT 84604","precinct":"25PR23","hd":"61","v_score":"22.20326336","decile":"10","lat":40.248460879112,"lng":-111.686182991342},{"id":"145744","name":"Dr. Garnet Gutmann","party":"Rep","address":"1442 Grand Ave, Provo, UT 84604","precinct":"25PR23","hd":"61","v_score":"3.781490609","decile":"6","lat":40.252867910852,"lng":-111.693467434775},{"id":"146396","name":"Lyndsey Price","party":"Dem","address":"885 N 1760 W, Provo, UT 84604","precinct":"25PR23","hd":"61","v_score":"0","decile":"3","lat":40.246362193101,"lng":-111.689711442601},{"id":"146936","name":"Dwaine Hammes","party":"Dem","address":"1408 N 1750 W, Provo, UT 84604","precinct":"25PR23","hd":"61","v_score":"21.68022572","decile":"10","lat":40.252629625657,"lng":-111.688740935312},{"id":"147081","name":"Aloys Schaefer","party":"","address":"1031 N 1750 W, Provo, UT 84604","precinct":"25PR23","hd":"61","v_score":"4.069929862","decile":"7","lat":40.248028174634,"lng":-111.688752638556},{"id":"147773","name":"Fallon Eichmann","party":"","address":"1932 W Teton Dr, Provo, UT 84604","precinct":"25PR23","hd":"61","v_score":"26.41733837","decile":"10","lat":40.251546401324,"lng":-111.691935648098},{"id":"148209","name":"Stormy Auer","party":"Dem","address":"1106 N 1750 W, Provo, UT 84604","precinct":"25PR23","hd":"61","v_score":"15.4533012","decile":"9","lat":40.24921314027,"lng":-111.688592209474},{"id":"148355","name":"Mrs. Sharla Mueller","party":"Dem","address":"947 N 1760 W, Provo, UT 84604","precinct":"25PR23","hd":"61","v_score":"6.52928996","decile":"7","lat":40.247038749168,"lng":-111.6904509339},{"id":"148729","name":"Elaine Zemlak-Paucek","party":"","address":"1241 N Wasatch Dr, Provo, UT 84604","precinct":"25PR23","hd":"61","v_score":"14.35128642","decile":"9","lat":40.250432261894,"lng":-111.689912664827},{"id":"148730","name":"Yajaira Funk","party":"","address":"1241 N Wasatch Dr, Provo, UT 84604","precinct":"25PR23","hd":"61","v_score":"1.193887297","decile":"4","lat":40.250432261894,"lng":-111.689912664827},{"id":"149078","name":"Amma Gibson","party":"Rep","address":"1405 N 1750 W, Provo, UT 84604","precinct":"25PR23","hd":"61","v_score":"13.97135325","decile":"9","lat":40.252575057575,"lng":-111.688888316866},{"id":"149381","name":"Ms. Lailah Treutel","party":"Dem","address":"1524 W 1400 N, Provo, UT 84604","precinct":"25PR23","hd":"61","v_score":"12.63270431","decile":"9","lat":40.252576542298,"lng":-111.685475875294},{"id":"149886","name":"Charlottie Turcotte","party":"","address":"1003 N Grand Ave, Provo, UT 84604","precinct":"25PR23","hd":"61","v_score":"11.71726967","decile":"9","lat":40.247582389833,"lng":-111.689372186697},{"id":"150635","name":"Cristin Stiedemann","party":"Dem","address":"1086 N 1750 W, Provo, UT 84604","precinct":"25PR23","hd":"61","v_score":"2.315214949","decile":"5","lat":40.248928652805,"lng":-111.688582828816},{"id":"150800","name":"Fairy Reynolds","party":"","address":"1584 W 1170 N, Provo, UT 84604","precinct":"25PR23","hd":"61","v_score":"12.49472132","decile":"9","lat":40.250140574598,"lng":-111.686104176966},{"id":"152171","name":"Margueritte Haley-Williamson","party":"","address":"1425 N 2100 W, Provo, UT 84604","precinct":"25PR23","hd":"61","v_score":"27.81773661","decile":"10","lat":40.2531131564,"lng":-111.694873063627},{"id":"152249","name":"Mrs. Carlotta Boyer","party":"","address":"1425 N 2100 W, Provo, UT 84604","precinct":"25PR23","hd":"61","v_score":"27.81773661","decile":"10","lat":40.2531131564,"lng":-111.694873063627},{"id":"152269","name":"Averi Pagac PhD","party":"Dem","address":"1234 Oquirrh Dr, Provo, UT 84604","precinct":"25PR23","hd":"61","v_score":"6.088298118","decile":"7","lat":40.250360567595,"lng":-111.690745765843},{"id":"152374","name":"Delora Nader MD","party":"Dem","address":"1427 N 1900 W, Provo, UT 84604","precinct":"25PR23","hd":"61","v_score":"3.781490609","decile":"6","lat":40.253013994205,"lng":-111.691326569307},{"id":"152495","name":"Cheryl Walter-Nikolaus","party":"Rep","address":"954 N Grand Ave, Provo, UT 84604","precinct":"25PR23","hd":"61","v_score":"10.8238813","decile":"9","lat":40.247263059368,"lng":-111.6887851667},{"id":"152610","name":"Mariela Bednar","party":"Rep","address":"1120 N 1750 W, Provo, UT 84604","precinct":"25PR23","hd":"61","v_score":"11.23922619","decile":"9","lat":40.249378134545,"lng":-111.688600398506},{"id":"152899","name":"Dr. Knox Howell","party":"","address":"1707 W 1320 N, Provo, UT 84604","precinct":"25PR23","hd":"61","v_score":"3.781490609","decile":"6","lat":40.251495225458,"lng":-111.687608702577},{"id":"153060","name":"Sabina Abbott","party":"Dem","address":"1281 Uinta Dr, Provo, UT 84604","precinct":"25PR23","hd":"61","v_score":"24.50029804","decile":"10","lat":40.250662871201,"lng":-111.69190743899},{"id":"153264","name":"Ralph Crooks","party":"","address":"1412 N Timpanogos Dr, Provo, UT 84604","precinct":"25PR23","hd":"61","v_score":"38.40546931","decile":"10","lat":40.252593368817,"lng":-111.692263589911},{"id":"154009","name":"Duke Lowe","party":"Rep","address":"1665 W 1400 N, Provo, UT 84604","precinct":"25PR23","hd":"61","v_score":"13.83018807","decile":"9","lat":40.252453840678,"lng":-111.687140051086},{"id":"154217","name":"Lula Osinski","party":"Rep","address":"1875 W 1380 N, Provo, UT 84604","precinct":"25PR23","hd":"61","v_score":"19.62754354","decile":"10","lat":40.252254855957,"lng":-111.690944265762},{"id":"154798","name":"Consuelo Robel","party":"Dem","address":"1665 W 1400 N, Provo, UT 84604","precinct":"25PR23","hd":"61","v_score":"30.14623239","decile":"10","lat":40.252453840678,"lng":-111.687140051086},{"id":"155514","name":"Joann Wolf","party":"","address":"1318 Lakeview Dr, Provo, UT 84604","precinct":"25PR23","hd":"61","v_score":"15.4533012","decile":"9","lat":40.250109369124,"lng":-111.692825996726},{"id":"155678","name":"Tamisha Jaskolski PhD","party":"Dem","address":"1441 N 2100 W, Provo, UT 84604","precinct":"25PR23","hd":"61","v_score":"25.39193414","decile":"10","lat":40.253237274176,"lng":-111.694879528078},{"id":"156190","name":"Dr. Jep Bauch","party":"","address":"1847 W Teton Dr, Provo, UT 84604","precinct":"25PR23","hd":"61","v_score":"24.05982846","decile":"10","lat":40.251435414063,"lng":-111.690128592201},{"id":"156258","name":"Darcy Gleason DVM","party":"","address":"1247 Grand Ave, Provo, UT 84604","precinct":"25PR23","hd":"61","v_score":"26.35608728","decile":"10","lat":40.25029177815,"lng":-111.692497371291},{"id":"156327","name":"Mr. Zachery Ledner","party":"Rep","address":"1121 N 1650 W, Provo, UT 84604","precinct":"25PR23","hd":"61","v_score":"6.74007049","decile":"8","lat":40.249486986192,"lng":-111.687527178415},{"id":"156428","name":"Cordia Sawayn","party":"","address":"1303 Uinta Dr, Provo, UT 84604","precinct":"25PR23","hd":"61","v_score":"7.583918848","decile":"8","lat":40.25080059018,"lng":-111.691911756984},{"id":"156907","name":"Yee Fahey","party":"","address":"963 N 1760 W, Provo, UT 84604","precinct":"25PR23","hd":"61","v_score":"40.69851911","decile":"10","lat":40.247213344281,"lng":-111.690641770364},{"id":"157083","name":"Bernie Christiansen-Anderson","party":"","address":"1799 W 1460 N, Provo, UT 84604","precinct":"25PR23","hd":"61","v_score":"5.40460374","decile":"7","lat":40.253387805458,"lng":-111.689584788205},{"id":"157158","name":"Mrs. Imogene McClure DVM","party":"","address":"1303 Uinta Dr, Provo, UT 84604","precinct":"25PR23","hd":"61","v_score":"16.63280648","decile":"9","lat":40.25080059018,"lng":-111.691911756984},{"id":"157245","name":"Kolten Weber IV","party":"","address":"1717 W 1460 N, Provo, UT 84604","precinct":"25PR23","hd":"61","v_score":"1.623113131","decile":"5","lat":40.253383008517,"lng":-111.688334929111},{"id":"158042","name":"Kesha Gulgowski","party":"","address":"1086 N 1750 W, Provo, UT 84604","precinct":"25PR23","hd":"61","v_score":"13.6254517","decile":"9","lat":40.248928652805,"lng":-111.688582828816},{"id":"158147","name":"Melvyn Auer","party":"","address":"1230 Wasatch Dr, Provo, UT 84604","precinct":"25PR23","hd":"61","v_score":"1.121327652","decile":"3","lat":40.250373070851,"lng":-111.689760295877},{"id":"158277","name":"Irving Mayert","party":"Rep","address":"1637 W 1050 N, Provo, UT 84604","precinct":"25PR23","hd":"61","v_score":"43.51438145","decile":"10","lat":40.248340235789,"lng":-111.686842768406},{"id":"158295","name":"Dr. Iola Walker","party":"Rep","address":"1952 W 820 N, Provo, UT 84601","precinct":"25PR23","hd":"61","v_score":"10.87160818","decile":"9","lat":40.245164979939,"lng":-111.692667922765},{"id":"158298","name":"Furman Flatley","party":"Rep","address":"1728 W 1100 N, Provo, UT 84604","precinct":"25PR23","hd":"61","v_score":"0","decile":"3","lat":40.2491698087,"lng":-111.687830986682},{"id":"158635","name":"Armando Dickens","party":"","address":"1124 Independence Ave, Provo, UT 84604","precinct":"25PR23","hd":"61","v_score":"19.3272208","decile":"10","lat":40.249068186569,"lng":-111.693523852326},{"id":"158712","name":"Mrs. Kyra Schulist DDS","party":"","address":"1124 Independence Ave, Provo, UT 84604","precinct":"25PR23","hd":"61","v_score":"12.13314748","decile":"9","lat":40.249068186569,"lng":-111.693523852326},{"id":"159232","name":"Donie Buckridge","party":"Rep","address":"1304 N Lakeview Dr, Provo, UT 84604","precinct":"25PR23","hd":"61","v_score":"30.83432786","decile":"10","lat":40.250110014444,"lng":-111.692761141556},{"id":"159233","name":"Mr. Westin VonRueden IV","party":"","address":"1304 Lakeview Dr, Provo, UT 84604","precinct":"25PR23","hd":"61","v_score":"30.83432786","decile":"10","lat":40.250110014444,"lng":-111.692761141556},{"id":"159413","name":"Carmen Moore","party":"Dem","address":"1252 N Uinta Dr, Provo, UT 84604","precinct":"25PR23","hd":"61","v_score":"10.89289441","decile":"9","lat":40.250468670048,"lng":-111.691914167089},{"id":"159490","name":"Theola Streich","party":"","address":"1348 N Grand Ave, Provo, UT 84604","precinct":"25PR23","hd":"61","v_score":"38.24567755","decile":"10","lat":40.251886167747,"lng":-111.693332293254},{"id":"159755","name":"Dr. Melissa Swaniawski DVM","party":"Dem","address":"1556 W 1050 N, Provo, UT 84604","precinct":"25PR23","hd":"61","v_score":"22.64413479","decile":"10","lat":40.248462638529,"lng":-111.685990920075},{"id":"159799","name":"Ms. Maye Rempel","party":"","address":"1697 W 1460 N, Provo, UT 84604","precinct":"25PR23","hd":"61","v_score":"35.30276996","decile":"10","lat":40.253383704255,"lng":-111.688054537751},{"id":"159812","name":"Lawerence Lubowitz PhD","party":"Rep","address":"2070 Lakeview Dr, Provo, UT 84604","precinct":"25PR23","hd":"61","v_score":"36.62256442","decile":"10","lat":40.25024372302,"lng":-111.693726054635},{"id":"159897","name":"Ms. Breanna Boehm DDS","party":"Dem","address":"1697 W 1460 N, Provo, UT 84604","precinct":"25PR23","hd":"61","v_score":"35.30276996","decile":"10","lat":40.253383704255,"lng":-111.688054537751},{"id":"159993","name":"Velia Grimes","party":"","address":"1707 W 1460 N, Provo, UT 84604","precinct":"25PR23","hd":"61","v_score":"4.424855541","decile":"7","lat":40.253383356386,"lng":-111.688194733431},{"id":"160191","name":"Jackson Borer","party":"Dem","address":"1648 W 1320 N, Provo, UT 84604","precinct":"25PR23","hd":"61","v_score":"0","decile":"3","lat":40.251606202152,"lng":-111.686911468028},{"id":"161048","name":"Mrs. Veva Gleichner","party":"Rep","address":"1803 W 1110 N, Provo, UT 84604","precinct":"25PR23","hd":"61","v_score":"4.079907534","decile":"7","lat":40.248603107168,"lng":-111.692748972253},{"id":"161116","name":"Pam Pfannerstill","party":"","address":"1128 N Independence Ave, Provo, UT 84604","precinct":"25PR23","hd":"61","v_score":"12.49472132","decile":"9","lat":40.249105156977,"lng":-111.693552103289},{"id":"161408","name":"Mr. Franklyn Franecki PhD","party":"Rep","address":"1518 W 1100 N, Provo, UT 84604","precinct":"25PR23","hd":"61","v_score":"11.2235539","decile":"9","lat":40.24918328744,"lng":-111.685328960672},{"id":"162070","name":"Dink Hartmann","party":"Dem","address":"1825 Cascade Dr, Provo, UT 84604","precinct":"25PR23","hd":"61","v_score":"18.13984946","decile":"10","lat":40.250031040631,"lng":-111.690118135234},{"id":"162376","name":"Magnolia Lind","party":"Dem","address":"1252 N Uinta Dr, Provo, UT 84604","precinct":"25PR23","hd":"61","v_score":"7.934314529","decile":"8","lat":40.250468670048,"lng":-111.691914167089},{"id":"162890","name":"Mr. Jalen Lesch","party":"","address":"975 N Grand Ave, Provo, UT 84604","precinct":"25PR23","hd":"61","v_score":"5.618742839","decile":"7","lat":40.247152358791,"lng":-111.688855266934},{"id":"162935","name":"Nelly Keeling","party":"Dem","address":"1065 N 1750 W, Provo, UT 84604","precinct":"25PR23","hd":"61","v_score":"23.33949603","decile":"10","lat":40.24832500963,"lng":-111.688724106923},{"id":"163322","name":"Mr. Elgin Oberbrunner","party":"Rep","address":"871 N Independence Ave, Provo, UT 84604","precinct":"25PR23","hd":"61","v_score":"18.49131087","decile":"10","lat":40.245806144287,"lng":-111.69091537525},{"id":"163480","name":"Calista Wuckert-Quigley","party":"Dem","address":"1349 N 1750 W, Provo, UT 84604","precinct":"25PR23","hd":"61","v_score":"5.40460374","decile":"7","lat":40.251998216692,"lng":-111.688865477961},{"id":"163536","name":"Ean Schmidt","party":"","address":"1581 W 1320 N, Provo, UT 84604","precinct":"25PR23","hd":"61","v_score":"11.99595736","decile":"9","lat":40.251487378573,"lng":-111.686096237815},{"id":"163688","name":"Miss Kasandra Lynch DDS","party":"Dem","address":"1398 N 1900 W, Provo, UT 84604","precinct":"25PR23","hd":"61","v_score":"28.21265238","decile":"10","lat":40.252882798991,"lng":-111.691161521161},{"id":"163871","name":"Adron Spinka PhD","party":"","address":"1137 N 1650 W, Provo, UT 84604","precinct":"25PR23","hd":"61","v_score":"29.6901062","decile":"10","lat":40.249735700044,"lng":-111.687528351561},{"id":"164214","name":"Mr. Efren Prosacco Sr.","party":"Dem","address":"1637 W 1050 N, Provo, UT 84604","precinct":"25PR23","hd":"61","v_score":"42.66649422","decile":"10","lat":40.248340235789,"lng":-111.686842768406},{"id":"164653","name":"Deloris Hoppe","party":"Rep","address":"1786 W 820 N, Provo, UT 84601","precinct":"25PR23","hd":"61","v_score":"1.193887297","decile":"4","lat":40.245254583434,"lng":-111.689874943247},{"id":"164692","name":"Ciera Paucek-Boehm","party":"Dem","address":"1401 N 1750 W, Provo, UT 84604","precinct":"25PR23","hd":"61","v_score":"19.10684494","decile":"10","lat":40.252444087445,"lng":-111.688882257984},{"id":"164822","name":"Leah Leuschke","party":"","address":"1630 W 1400 N, Provo, UT 84604","precinct":"25PR23","hd":"61","v_score":"18.56245869","decile":"10","lat":40.252570399912,"lng":-111.686736619796},{"id":"165404","name":"Mr. Judson Gerlach","party":"","address":"1265 N Oquirrh Dr, Provo, UT 84604","precinct":"25PR23","hd":"61","v_score":"6.74007049","decile":"8","lat":40.250551753721,"lng":-111.690902118348},{"id":"165894","name":"Genie Goldner","party":"Rep","address":"1685 W 1320 N, Provo, UT 84604","precinct":"25PR23","hd":"61","v_score":"21.41280004","decile":"10","lat":40.251493855367,"lng":-111.687344621428},{"id":"166270","name":"Dr. Yancy Wolff DDS","party":"Rep","address":"1441 N 2100 W, Provo, UT 84604","precinct":"25PR23","hd":"61","v_score":"25.39193414","decile":"10","lat":40.253237274176,"lng":-111.694879528078},{"id":"166452","name":"Moira Parisian","party":"Rep","address":"1551 W 1100 N, Provo, UT 84604","precinct":"25PR23","hd":"61","v_score":"1.121327652","decile":"3","lat":40.249064681284,"lng":-111.685862192253},{"id":"166481","name":"Dr. Lizette Prosacco PhD","party":"Dem","address":"1551 W 1100 N, Provo, UT 84604","precinct":"25PR23","hd":"61","v_score":"1.121327652","decile":"3","lat":40.249064681284,"lng":-111.685862192253},{"id":"166542","name":"Budd Batz","party":"Rep","address":"1825 Cascade Dr, Provo, UT 84604","precinct":"25PR23","hd":"61","v_score":"18.13984946","decile":"10","lat":40.250031040631,"lng":-111.690118135234},{"id":"166826","name":"Kiersten Kuhn-Sanford","party":"Rep","address":"1417 Timpanogos Dr, Provo, UT 84604","precinct":"25PR23","hd":"61","v_score":"20.12465777","decile":"10","lat":40.252626078085,"lng":-111.692415354434},{"id":"167247","name":"Myrta Wintheiser","party":"Dem","address":"1340 N 1750 W, Provo, UT 84604","precinct":"25PR23","hd":"61","v_score":"21.23911022","decile":"10","lat":40.251939910783,"lng":-111.688713078486},{"id":"167908","name":"Ethen Fadel","party":"Rep","address":"1007 N Independence Ave, Provo, UT 84604","precinct":"25PR23","hd":"61","v_score":"28.13335479","decile":"10","lat":40.247216042755,"lng":-111.692219356908},{"id":"168178","name":"Hassie Monahan","party":"Dem","address":"1783 W 1060 N, Provo, UT 84604","precinct":"25PR23","hd":"61","v_score":"31.06727652","decile":"10","lat":40.248135367661,"lng":-111.692014786847},{"id":"168419","name":"Rhona Hayes-Koepp","party":"","address":"1536 W 1170 N, Provo, UT 84604","precinct":"25PR23","hd":"61","v_score":"9.55742766","decile":"8","lat":40.250144661419,"lng":-111.685566754606},{"id":"169428","name":"Archie Miller","party":"Rep","address":"2050 W Lakeview Dr, Provo, UT 84604","precinct":"25PR23","hd":"61","v_score":"22.64413479","decile":"10","lat":40.25198506718,"lng":-111.694476301246},{"id":"169989","name":"Dr. Hanson Lakin","party":"Rep","address":"1668 W 1000 N, Provo, UT 84604","precinct":"25PR23","hd":"61","v_score":"39.36155753","decile":"10","lat":40.2476870689,"lng":-111.687308984546},{"id":"170026","name":"Dr. Raheem Hamill PhD","party":"","address":"931 Independence Ave, Provo, UT 84604","precinct":"25PR23","hd":"61","v_score":"3.93832808","decile":"6","lat":40.246296949641,"lng":-111.691474206005},{"id":"170067","name":"Wallace Oberbrunner","party":"Dem","address":"1124 N 1575 W, Provo, UT 84604","precinct":"25PR23","hd":"61","v_score":"34.09285363","decile":"10","lat":40.249215807422,"lng":-111.686186007309},{"id":"170272","name":"Belen Kozey","party":"Rep","address":"1141 N 1500 W, Provo, UT 84604","precinct":"25PR23","hd":"61","v_score":"4.079907534","decile":"7","lat":40.24953036131,"lng":-111.68514724087},{"id":"170281","name":"Ms. Jalissa Flatley","party":"Rep","address":"1853 W 1460 N, Provo, UT 84604","precinct":"25PR23","hd":"61","v_score":"0","decile":"3","lat":40.253386893261,"lng":-111.690331952125},{"id":"171005","name":"Helene Hand","party":"Rep","address":"1630 W 1400 N, Provo, UT 84604","precinct":"25PR23","hd":"61","v_score":"31.45786048","decile":"10","lat":40.252570399912,"lng":-111.686736619796},{"id":"172278","name":"Mozell Kessler PhD","party":"Rep","address":"1680 W 1000 N, Provo, UT 84604","precinct":"25PR23","hd":"61","v_score":"9.772950527","decile":"8","lat":40.247685796284,"lng":-111.687442928436},{"id":"172293","name":"Clemens Ankunding I","party":"","address":"1332 Grand Ave, Provo, UT 84604","precinct":"25PR23","hd":"61","v_score":"8.363183621","decile":"8","lat":40.251669348172,"lng":-111.693216027727},{"id":"172368","name":"Dr. Adelard Franecki I","party":"","address":"1836 Cascade Dr, Provo, UT 84604","precinct":"25PR23","hd":"61","v_score":"28.71835062","decile":"10","lat":40.250145081015,"lng":-111.690179367632},{"id":"172661","name":"Ozell Howe","party":"","address":"926 N Independence Ave, Provo, UT 84604","precinct":"25PR23","hd":"61","v_score":"26.93587103","decile":"10","lat":40.246260658013,"lng":-111.691261038333},{"id":"172884","name":"Shasta Kirlin","party":"Rep","address":"1875 W 1380 N, Provo, UT 84604","precinct":"25PR23","hd":"61","v_score":"19.62754354","decile":"10","lat":40.252254855957,"lng":-111.690944265762},{"id":"173138","name":"Glenna Tremblay","party":"Dem","address":"1092 N 1760 W, Provo, UT 84604","precinct":"25PR23","hd":"61","v_score":"15.51131257","decile":"9","lat":40.248901500217,"lng":-111.692263803444},{"id":"173320","name":"Bayard Kozey","party":"Rep","address":"1106 N 1750 W, Provo, UT 84604","precinct":"25PR23","hd":"61","v_score":"12.57725863","decile":"9","lat":40.24921314027,"lng":-111.688592209474},{"id":"173428","name":"Verlin Keebler","party":"","address":"1243 N Lakeview Dr, Provo, UT 84604","precinct":"25PR23","hd":"61","v_score":"1.121327652","decile":"3","lat":40.25001558761,"lng":-111.692450207979},{"id":"173559","name":"Dr. Margrett Schultz","party":"Rep","address":"1684 W 1320 N, Provo, UT 84604","precinct":"25PR23","hd":"61","v_score":"4.465184987","decile":"7","lat":40.251608444119,"lng":-111.687343600817},{"id":"173591","name":"Julisa Jakubowski","party":"","address":"963 N 1760 W, Provo, UT 84604","precinct":"25PR23","hd":"61","v_score":"39.63319319","decile":"10","lat":40.247213344281,"lng":-111.690641770364},{"id":"173919","name":"Unnamed Auer V","party":"Rep","address":"999 Independence Ave, Provo, UT 84604","precinct":"25PR23","hd":"61","v_score":"11.2235539","decile":"9","lat":40.247107054268,"lng":-111.692131655262},{"id":"174184","name":"Gustie Kerluke","party":"","address":"1630 W 1400 N, Provo, UT 84604","precinct":"25PR23","hd":"61","v_score":"23.22391854","decile":"10","lat":40.252570399912,"lng":-111.686736619796},{"id":"174315","name":"Ms. Mabell Halvorson DDS","party":"","address":"1358 N 1850 W, Provo, UT 84604","precinct":"25PR23","hd":"61","v_score":"1.121327652","decile":"3","lat":40.251953764361,"lng":-111.690359929013},{"id":"174784","name":"Crystal Reynolds MD","party":"Dem","address":"1249 N Lakeview Dr, Provo, UT 84604","precinct":"25PR23","hd":"61","v_score":"35.30276996","decile":"10","lat":40.250007590252,"lng":-111.69247936738},{"id":"174830","name":"Marie Upton","party":"Dem","address":"1398 N 1900 W, Provo, UT 84604","precinct":"25PR23","hd":"61","v_score":"34.08881476","decile":"10","lat":40.252882798991,"lng":-111.691161521161},{"id":"174880","name":"Sarina Crist","party":"","address":"1645 W 1000 N, Provo, UT 84604","precinct":"25PR23","hd":"61","v_score":"10.52646422","decile":"9","lat":40.24757503164,"lng":-111.687039228026},{"id":"175354","name":"Khalil Weimann II","party":"Dem","address":"1133 N 1750 W, Provo, UT 84604","precinct":"25PR23","hd":"61","v_score":"8.421194992","decile":"8","lat":40.249515220436,"lng":-111.688757447594},{"id":"175415","name":"Telly Parker","party":"","address":"1776 W 1060 N, Provo, UT 84604","precinct":"25PR23","hd":"61","v_score":"9.640097175","decile":"8","lat":40.248240581992,"lng":-111.692077625662},{"id":"175609","name":"Ms. Lindsey Wiegand","party":"Dem","address":"883 N Independence Ave, Provo, UT 84604","precinct":"25PR23","hd":"61","v_score":"25.34157292","decile":"10","lat":40.245893209352,"lng":-111.691057424945},{"id":"175663","name":"Jemal Bailey-Parker","party":"Rep","address":"1625 W 1000 N, Provo, UT 84604","precinct":"25PR23","hd":"61","v_score":"24.79422524","decile":"10","lat":40.247577152666,"lng":-111.686815988209},{"id":"176047","name":"Vara Mueller","party":"","address":"958 N Independence Ave, Provo, UT 84604","precinct":"25PR23","hd":"61","v_score":"0","decile":"3","lat":40.246515080918,"lng":-111.691475536746},