[{"id":"1105","name":"Emeline Carter-Orn","party":"Rep","address":"444 S 400 W, Provo, UT 84601","precinct":"25PR54","hd":"62","v_score":"3.781490609","decile":"6","lat":40.227788550716,"lng":-111.665778403368},{"id":"1317","name":"Leopoldo Lueilwitz","party":"","address":"436 W 500 S, Provo, UT 84601","precinct":"25PR54","hd":"62","v_score":"15.51131257","decile":"9","lat":40.22711874542,"lng":-111.666482016801},{"id":"1625","name":"Estela Morissette","party":"Rep","address":"175 W 500 S, # 103, Provo, UT 84601","precinct":"25PR54","hd":"62","v_score":"7.650280567","decile":"8","lat":40.226991311057,"lng":-111.661804199218},{"id":"1803","name":"Dr. Cherish Sawayn DVM","party":"Dem","address":"462 W 200 S, Provo, UT 84601","precinct":"25PR54","hd":"62","v_score":"5.546183193","decile":"7","lat":40.231091894868,"lng":-111.666810797952},{"id":"1945","name":"Cathryn Kuhn-Schinner","party":"Dem","address":"257 S 500 W, Provo, UT 84601","precinct":"25PR54","hd":"62","v_score":"0","decile":"1","lat":40.230289892876,"lng":-111.667427419343},{"id":"2601","name":"Jerald Hauck","party":"Rep","address":"380 S Freedom Blvd, Apt 4, Provo, UT 84601","precinct":"25PR54","hd":"62","v_score":"4.069929862","decile":"6","lat":40.22866104877,"lng":-111.662331574153},{"id":"2616","name":"Dr. Bo Cronin","party":"","address":"250 S University Ave, Provo, UT 84601","precinct":"25PR54","hd":"62","v_score":"0","decile":"1","lat":40.230337471629,"lng":-111.658766013289},{"id":"3370","name":"Mrs. Maeve Wuckert DDS","party":"Rep","address":"575 S Freedom Blvd, Apt 101, Provo, UT 84601","precinct":"25PR54","hd":"62","v_score":"3.781490609","decile":"6","lat":40.226318703898,"lng":-111.662204373811},{"id":"3742","name":"Jerry Kiehn","party":"","address":"478 W 470 S, Provo, UT 84601","precinct":"25PR54","hd":"62","v_score":"1.46627566","decile":"4","lat":40.227508605928,"lng":-111.667231505371},{"id":"3831","name":"Darrian Stiedemann-Rogahn","party":"Rep","address":"575 S Freedom Blvd, Apt 206, Provo, UT 84601","precinct":"25PR54","hd":"62","v_score":"3.781490609","decile":"6","lat":40.226318703898,"lng":-111.662204373811},{"id":"4744","name":"Jayce Hettinger Sr.","party":"Dem","address":"308 W 400 S, Provo, UT 84601","precinct":"25PR54","hd":"62","v_score":"7.493443096","decile":"8","lat":40.228441360673,"lng":-111.664168590786},{"id":"5233","name":"Alana Moore MD","party":"","address":"359 W 200 S, Provo, UT 84601","precinct":"25PR54","hd":"62","v_score":"14.24014515","decile":"9","lat":40.230971709484,"lng":-111.664964789748},{"id":"5280","name":"Johnathon Daugherty","party":"Rep","address":"175 W 200 S, Provo, UT 84601","precinct":"25PR54","hd":"62","v_score":"1.121327652","decile":"3","lat":40.230960307577,"lng":-111.661770316633},{"id":"7124","name":"Enola Cronin","party":"Dem","address":"412 W 500 S, Provo, UT 84601","precinct":"25PR54","hd":"62","v_score":"1.193887297","decile":"3","lat":40.227117301399,"lng":-111.665980422505},{"id":"8343","name":"Ollie Kerluke","party":"Rep","address":"228 S 300 W, Provo, UT 84601","precinct":"25PR54","hd":"62","v_score":"1.193887297","decile":"3","lat":40.230626598717,"lng":-111.664032298314},{"id":"9362","name":"Ashton Roberts","party":"Rep","address":"250 S 300 W, Provo, UT 84601","precinct":"25PR54","hd":"62","v_score":"0","decile":"1","lat":40.230355323261,"lng":-111.664033221055},{"id":"9737","name":"Sharif Koch IV","party":"","address":"575 S Freedom Blvd, Apt 420, Provo, UT 84601","precinct":"25PR54","hd":"62","v_score":"11.36410258","decile":"9","lat":40.226318703898,"lng":-111.662204373811},{"id":"10042","name":"Shelley Leffler","party":"","address":"40 W 300 S, Apt 111, Provo, UT 84601","precinct":"25PR54","hd":"62","v_score":"20.19482713","decile":"10","lat":40.22974893967,"lng":-111.6594265896},{"id":"11228","name":"Mrs. Lela Hodkiewicz DDS","party":"","address":"273 W Center St, Provo, UT 84601","precinct":"25PR54","hd":"62","v_score":"0","decile":"1","lat":40.233606814375,"lng":-111.663454349947},{"id":"11548","name":"Dr. Karl Kling","party":"Rep","address":"367 S 400 W, Provo, UT 84601","precinct":"25PR54","hd":"62","v_score":"6.724398202","decile":"8","lat":40.228840794928,"lng":-111.665620795978},{"id":"11702","name":"Mr. Camilo Beahan","party":"Dem","address":"408 S 400 W, Provo, UT 84601","precinct":"25PR54","hd":"62","v_score":"12.21925558","decile":"9","lat":40.228235763877,"lng":-111.665773975458},{"id":"12356","name":"Myrtle Grady","party":"","address":"381 S 300 W, Provo, UT 84601","precinct":"25PR54","hd":"62","v_score":"1.193887297","decile":"3","lat":40.228662104756,"lng":-111.663888883989},{"id":"13134","name":"Dr. Sharif Kihn DDS","party":"Rep","address":"177 S 300 W, Provo, UT 84601","precinct":"25PR54","hd":"62","v_score":"17.89408627","decile":"10","lat":40.231355255721,"lng":-111.663878594671},{"id":"13572","name":"Rosalinda Harvey","party":"Rep","address":"312 S 300 W, Provo, UT 84601","precinct":"25PR54","hd":"62","v_score":"0","decile":"1","lat":40.229500890112,"lng":-111.664036125935},{"id":"13865","name":"Burton Flatley","party":"Rep","address":"246 W 200 S, Provo, UT 84601","precinct":"25PR54","hd":"62","v_score":"8.633210253","decile":"8","lat":40.231081547869,"lng":-111.663045451905},{"id":"14391","name":"Jonnie Orn","party":"Dem","address":"61 W 400 S, Apt 410, Provo, UT 84601","precinct":"25PR54","hd":"62","v_score":"6.881235673","decile":"8","lat":40.228313136996,"lng":-111.65979107511},{"id":"14869","name":"Mohammed Weissnat","party":"","address":"560 S 400 W, Apt 117, Provo, UT 84601","precinct":"25PR54","hd":"62","v_score":"0","decile":"1","lat":40.226455920417,"lng":-111.665788622364},{"id":"15015","name":"Ruthie Schaefer","party":"Dem","address":"414 W 400 S, Provo, UT 84601","precinct":"25PR54","hd":"62","v_score":"5.40460374","decile":"7","lat":40.228450850475,"lng":-111.66601085525},{"id":"15132","name":"Maeve Hilpert-Sauer","party":"Rep","address":"264 W 200 S, Apt 7, Provo, UT 84601","precinct":"25PR54","hd":"62","v_score":"3.781490609","decile":"6","lat":40.231083056992,"lng":-111.663334444785},{"id":"15737","name":"Jared Rowe","party":"Rep","address":"491 W 200 S, Provo, UT 84601","precinct":"25PR54","hd":"62","v_score":"8.280646305","decile":"8","lat":40.230979664537,"lng":-111.667287032312},{"id":"16098","name":"Miss Khalilah Funk","party":"","address":"393 W 300 S, Provo, UT 84601","precinct":"25PR54","hd":"62","v_score":"2.315214949","decile":"5","lat":40.22964870967,"lng":-111.665420032445},{"id":"16953","name":"Orrie Hayes","party":"Rep","address":"380 S Freedom Blvd, Apt 6, Provo, UT 84601","precinct":"25PR54","hd":"62","v_score":"1.193887297","decile":"3","lat":40.22866104877,"lng":-111.662331574153},{"id":"17384","name":"Naima O'Reilly","party":"Rep","address":"456 W 470 S, Provo, UT 84601","precinct":"25PR54","hd":"62","v_score":"2.660162957","decile":"5","lat":40.227512160262,"lng":-111.666985366449},{"id":"18165","name":"Jimena Stanton MD","party":"Dem","address":"257 S 500 W, Apt 5, Provo, UT 84601","precinct":"25PR54","hd":"62","v_score":"1.193887297","decile":"3","lat":40.230289892876,"lng":-111.667427419343},{"id":"18261","name":"Dr. Marleen McClure PhD","party":"Dem","address":"61 W 400 S, Apt 431, Provo, UT 84601","precinct":"25PR54","hd":"62","v_score":"12.49472132","decile":"9","lat":40.228313136996,"lng":-111.65979107511},{"id":"19385","name":"Dr. Maricela Baumbach DVM","party":"","address":"474 W 500 S, Provo, UT 84601","precinct":"25PR54","hd":"62","v_score":"38.24567755","decile":"10","lat":40.227123042926,"lng":-111.667077215009},{"id":"20651","name":"Curt Terry","party":"Dem","address":"560 S 400 W, Apt 109, Provo, UT 84601","precinct":"25PR54","hd":"62","v_score":"18.97275282","decile":"10","lat":40.226455920417,"lng":-111.665788622364},{"id":"20734","name":"Illya West DDS","party":"","address":"242 W 500 S, Provo, UT 84601","precinct":"25PR54","hd":"62","v_score":"0","decile":"1","lat":40.227108301174,"lng":-111.663010673285},{"id":"20895","name":"Lylah Conroy-Wisozk","party":"","address":"177 S 300 W, Provo, UT 84601","precinct":"25PR54","hd":"62","v_score":"17.89408627","decile":"10","lat":40.231355255721,"lng":-111.663878594671},{"id":"21843","name":"Clella Predovic","party":"Dem","address":"560 S 100 W, # 20, Provo, UT 84601","precinct":"25PR54","hd":"62","v_score":"5.40460374","decile":"7","lat":40.226266908503,"lng":-111.660588426179},{"id":"22783","name":"Elaina Dooley","party":"","address":"264 W 200 S, Apt 7, Provo, UT 84601","precinct":"25PR54","hd":"62","v_score":"2.315214949","decile":"5","lat":40.231083056992,"lng":-111.663334444785},{"id":"24203","name":"Monique Sauer-Orn","party":"","address":"575 S Freedom Blvd, Apt 121, Provo, UT 84601","precinct":"25PR54","hd":"62","v_score":"43.51438145","decile":"10","lat":40.226318703898,"lng":-111.662204373811},{"id":"24558","name":"Scott Murray","party":"Rep","address":"560 S 400 W, Apt 309, Provo, UT 84601","precinct":"25PR54","hd":"62","v_score":"10.7597751","decile":"9","lat":40.226455920417,"lng":-111.665788622364},{"id":"24678","name":"Javion Ward I","party":"Dem","address":"77 W 500 S, Apt 411, Provo, UT 84601","precinct":"25PR54","hd":"62","v_score":"4.069929862","decile":"6","lat":40.226984709566,"lng":-111.660066939047},{"id":"24705","name":"Aurilla Greenfelder","party":"","address":"161 W 400 S, Apt 11, Provo, UT 84601","precinct":"25PR54","hd":"62","v_score":"18.799063","decile":"10","lat":40.228322134412,"lng":-111.661564274786},{"id":"24821","name":"Candida Mertz DDS","party":"","address":"190 S 300 W, Apt 4, Provo, UT 84601","precinct":"25PR54","hd":"62","v_score":"1.46627566","decile":"4","lat":40.231184510631,"lng":-111.664029866635},{"id":"24954","name":"Brandt Dickens","party":"Rep","address":"216 S 100 W, Provo, UT 84601","precinct":"25PR54","hd":"62","v_score":"3.61989409","decile":"6","lat":40.230758037295,"lng":-111.66057579658},{"id":"25179","name":"Jace Reichert","party":"Rep","address":"382 W 400 S, Provo, UT 84601","precinct":"25PR54","hd":"62","v_score":"13.34346464","decile":"9","lat":40.228447567945,"lng":-111.665363472927},{"id":"25938","name":"Tambra Little","party":"Rep","address":"358 W 500 S, Provo, UT 84601","precinct":"25PR54","hd":"62","v_score":"1.193887297","decile":"3","lat":40.227113555314,"lng":-111.664985773212},{"id":"26597","name":"Dr. Howard Reinger","party":"Rep","address":"391 S 500 W, Provo, UT 84601","precinct":"25PR54","hd":"62","v_score":"11.37977487","decile":"9","lat":40.228555761377,"lng":-111.667443240577},{"id":"26731","name":"Mrs. Tiney Douglas MD","party":"Dem","address":"474 W 500 S, Provo, UT 84601","precinct":"25PR54","hd":"62","v_score":"40.5196851","decile":"10","lat":40.227123042926,"lng":-111.667077215009},{"id":"26736","name":"Hazel Beer","party":"Rep","address":"391 W 400 S, Provo, UT 84601","precinct":"25PR54","hd":"62","v_score":"7.252084687","decile":"8","lat":40.228333650262,"lng":-111.665493670612},{"id":"27097","name":"Chandler O'Connell","party":"Dem","address":"575 S Freedom Blvd, Apt 317, Provo, UT 84601","precinct":"25PR54","hd":"62","v_score":"1.121327652","decile":"3","lat":40.226318703898,"lng":-111.662204373811},{"id":"27558","name":"Arlen Shields","party":"","address":"431 W 200 S, Apt 9, Provo, UT 84601","precinct":"25PR54","hd":"62","v_score":"3.781490609","decile":"6","lat":40.230974610308,"lng":-111.666268620904},{"id":"27981","name":"Denton Dibbert","party":"","address":"444 S 300 W, Provo, UT 84601","precinct":"25PR54","hd":"62","v_score":"0","decile":"1","lat":40.227779265963,"lng":-111.664041966677},{"id":"28626","name":"Lahoma Mueller","party":"Rep","address":"383 W 400 S, Provo, UT 84601","precinct":"25PR54","hd":"62","v_score":"7.169296324","decile":"8","lat":40.228332979206,"lng":-111.665364494164},{"id":"29347","name":"Jordy Kutch","party":"Dem","address":"125 W 500 S, Provo, UT 84601","precinct":"25PR54","hd":"62","v_score":"0","decile":"1","lat":40.226987110841,"lng":-111.660983069451},{"id":"29698","name":"Opal Gusikowski-Kirlin","party":"Rep","address":"284 S 100 W, Provo, UT 84601","precinct":"25PR54","hd":"62","v_score":"2.315214949","decile":"5","lat":40.229925794414,"lng":-111.660578646835},{"id":"29975","name":"Jazlene Gleason","party":"Rep","address":"155 S 400 W, Provo, UT 84601","precinct":"25PR54","hd":"62","v_score":"17.86094514","decile":"10","lat":40.231624661022,"lng":-111.66560678973},{"id":"30077","name":"Dorla Feeney","party":"","address":"255 W 400 S, Apt 4, Provo, UT 84601","precinct":"25PR54","hd":"62","v_score":"8.217059165","decile":"8","lat":40.228325709651,"lng":-111.663191488608},{"id":"30227","name":"Buena Cormier DVM","party":"","address":"263 N 300 W, Apt 24, Provo, UT 84601","precinct":"25PR54","hd":"62","v_score":"2.744440783","decile":"5","lat":40.237259952312,"lng":-111.663992138985},{"id":"30255","name":"Silvester Schumm","party":"Dem","address":"491 S Freedom Blvd, Apt 203, Provo, UT 84601","precinct":"25PR54","hd":"62","v_score":"1.121327652","decile":"3","lat":40.227207236622,"lng":-111.662196249887},{"id":"30966","name":"Jaylan Blick","party":"Dem","address":"457 S 300 W, Provo, UT 84601","precinct":"25PR54","hd":"62","v_score":"0","decile":"1","lat":40.227629899915,"lng":-111.663892379185},{"id":"31512","name":"Erastus Rolfson","party":"","address":"136 W 200 S, Apt 322, Provo, UT 84601","precinct":"25PR54","hd":"62","v_score":"2.315214949","decile":"5","lat":40.23107170881,"lng":-111.661155709448},{"id":"31658","name":"Dr. Edie Ullrich","party":"","address":"40 W 300 S, Apt 112, Provo, UT 84601","precinct":"25PR54","hd":"62","v_score":"0","decile":"1","lat":40.22974893967,"lng":-111.6594265896},{"id":"32015","name":"Dr. Hilma Brown","party":"","address":"466 S 100 W, Provo, UT 84601","precinct":"25PR54","hd":"62","v_score":"5.40460374","decile":"7","lat":40.227496969838,"lng":-111.660586890703},{"id":"32175","name":"Lorraine Treutel","party":"","address":"136 W 200 S, Apt 105, Provo, UT 84601","precinct":"25PR54","hd":"62","v_score":"1.121327652","decile":"3","lat":40.23107170881,"lng":-111.661155709448},{"id":"32201","name":"Dr. Jeremie Jerde","party":"","address":"175 W 500 S, Apt 103, Provo, UT 84601","precinct":"25PR54","hd":"62","v_score":"9.116556227","decile":"8","lat":40.226991311057,"lng":-111.661804199218},{"id":"32395","name":"Jaylin Beier","party":"Dem","address":"433 N 300 W, Apt 201, Provo, UT 84601","precinct":"25PR54","hd":"62","v_score":"5.429380732","decile":"7","lat":40.239533093169,"lng":-111.663984399393},{"id":"32505","name":"Miss Madalyn Pagac","party":"","address":"560 S 400 W, Apt 109, Provo, UT 84601","precinct":"25PR54","hd":"62","v_score":"16.02984522","decile":"9","lat":40.226455920417,"lng":-111.665788622364},{"id":"32563","name":"Jan Wilkinson","party":"","address":"246 W 200 S, Provo, UT 84601","precinct":"25PR54","hd":"62","v_score":"3.781490609","decile":"6","lat":40.231081547869,"lng":-111.663045451905},{"id":"33111","name":"Will Lakin-Jaskolski","party":"Dem","address":"575 S Freedom Blvd, Apt 221, Provo, UT 84601","precinct":"25PR54","hd":"62","v_score":"8.216702423","decile":"8","lat":40.226318703898,"lng":-111.662204373811},{"id":"33971","name":"Mr. Eusebio Bode","party":"Dem","address":"266 S 300 W, Provo, UT 84601","precinct":"25PR54","hd":"62","v_score":"2.587603312","decile":"5","lat":40.23015803202,"lng":-111.664033892139},{"id":"33976","name":"Oral Smith","party":"Rep","address":"475 S 400 W, Apt D4, Provo, UT 84601","precinct":"25PR54","hd":"62","v_score":"0","decile":"1","lat":40.227414974923,"lng":-111.665632057086},{"id":"34361","name":"Dr. Lessie Reilly","party":"","address":"161 W 400 S, Apt 3, Provo, UT 84601","precinct":"25PR54","hd":"62","v_score":"5.530510904","decile":"7","lat":40.228322134412,"lng":-111.661564274786},{"id":"34460","name":"Jesus Rau-Hessel","party":"","address":"61 W 400 S, Apt 319, Provo, UT 84601","precinct":"25PR54","hd":"62","v_score":"32.71676543","decile":"10","lat":40.228313136996,"lng":-111.65979107511},{"id":"34461","name":"Reilly Prohaska","party":"","address":"61 W 400 S, Apt 319, Provo, UT 84601","precinct":"25PR54","hd":"62","v_score":"2.744440783","decile":"5","lat":40.228313136996,"lng":-111.65979107511},{"id":"35058","name":"Brice Jacobson","party":"Dem","address":"462 S 300 W, Provo, UT 84601","precinct":"25PR54","hd":"62","v_score":"1.46627566","decile":"4","lat":40.227555660257,"lng":-111.664042722131},{"id":"35575","name":"Nelson Glover","party":"Rep","address":"244 W 400 S, Provo, UT 84601","precinct":"25PR54","hd":"62","v_score":"2.744440783","decile":"5","lat":40.228440301023,"lng":-111.663032773489},{"id":"35947","name":"Durward Thiel","party":"Rep","address":"452 S 400 W, Provo, UT 84601","precinct":"25PR54","hd":"62","v_score":"18.49131087","decile":"10","lat":40.227689170014,"lng":-111.665779387349},{"id":"36036","name":"Eboni Luettgen","party":"Dem","address":"148 S 100 W, Provo, UT 84601","precinct":"25PR54","hd":"62","v_score":"15.44926233","decile":"9","lat":40.231684835466,"lng":-111.660574931342},{"id":"36741","name":"Mrs. Charlee Little DDS","party":"Rep","address":"344 S 400 W, Provo, UT 84601","precinct":"25PR54","hd":"62","v_score":"10.29877667","decile":"9","lat":40.229110349598,"lng":-111.665769967883},{"id":"37422","name":"Ms. Macey Barrows DVM","party":"Rep","address":"575 S Freedom Blvd, Apt 417, Provo, UT 84601","precinct":"25PR54","hd":"62","v_score":"6.74007049","decile":"8","lat":40.226318703898,"lng":-111.662204373811},{"id":"37815","name":"Norma Waters","party":"","address":"575 S Freedom Blvd, Apt 221, Provo, UT 84601","precinct":"25PR54","hd":"62","v_score":"18.41762721","decile":"10","lat":40.226318703898,"lng":-111.662204373811},{"id":"38179","name":"Mrs. Mardell Lubowitz","party":"Rep","address":"359 W 200 S, Provo, UT 84601","precinct":"25PR54","hd":"62","v_score":"11.29723756","decile":"9","lat":40.230971709484,"lng":-111.664964789748},{"id":"38967","name":"Wilfred Kiehn","party":"Dem","address":"327 W 100 S, Provo, UT 84601","precinct":"25PR54","hd":"62","v_score":"6.657533174","decile":"7","lat":40.232285709294,"lng":-111.664441750782},{"id":"39555","name":"Abb Denesik MD","party":"","address":"575 S Freedom Blvd, Apt 114, Provo, UT 84601","precinct":"25PR54","hd":"62","v_score":"4.15282392","decile":"7","lat":40.226318703898,"lng":-111.662204373811},{"id":"40610","name":"Garfield Bernier","party":"Rep","address":"136 S 300 W, Provo, UT 84601","precinct":"25PR54","hd":"62","v_score":"3.781490609","decile":"6","lat":40.231845410036,"lng":-111.664025339842},{"id":"40755","name":"Alfredo Von","party":"Rep","address":"457 S 300 W, Provo, UT 84601","precinct":"25PR54","hd":"62","v_score":"2.315214949","decile":"5","lat":40.227629899915,"lng":-111.663892379185},{"id":"40993","name":"Mr. Giovani Ratke III","party":"Rep","address":"175 W 500 S, Unit 102, Provo, UT 84601","precinct":"25PR54","hd":"62","v_score":"4.741221742","decile":"7","lat":40.226991311057,"lng":-111.661804199218},{"id":"41226","name":"Mohammed Hansen-Daniel","party":"Rep","address":"575 S Freedom Blvd, Apt 215, Provo, UT 84601","precinct":"25PR54","hd":"62","v_score":"1.623113131","decile":"4","lat":40.226318703898,"lng":-111.662204373811},{"id":"41371","name":"Hunter Mayert","party":"Rep","address":"156 S 300 W, Provo, UT 84601","precinct":"25PR54","hd":"62","v_score":"25.08008179","decile":"10","lat":40.231600632478,"lng":-111.664027016432},{"id":"42037","name":"Cassius Schimmel","party":"Rep","address":"330 S 400 W, Provo, UT 84601","precinct":"25PR54","hd":"62","v_score":"1.121327652","decile":"3","lat":40.22928169372,"lng":-111.665769381066},{"id":"42085","name":"Felicie Cormier","party":"Rep","address":"330 S 400 W, Provo, UT 84601","precinct":"25PR54","hd":"62","v_score":"2.315214949","decile":"5","lat":40.22928169372,"lng":-111.665769381066},{"id":"42426","name":"Darryll Rosenbaum PhD","party":"Dem","address":"175 S 400 W, Apt 2, Provo, UT 84601","precinct":"25PR54","hd":"62","v_score":"22.01376906","decile":"10","lat":40.231379883704,"lng":-111.665607628041},{"id":"42544","name":"Alejandro Grant-Stracke","party":"Dem","address":"270 W 300 S, Provo, UT 84601","precinct":"25PR54","hd":"62","v_score":"0","decile":"1","lat":40.229760559293,"lng":-111.663437845305},{"id":"42576","name":"Leticia Balistreri-Tremblay","party":"Dem","address":"353 S 300 W, Provo, UT 84601","precinct":"25PR54","hd":"62","v_score":"0","decile":"1","lat":40.229007364428,"lng":-111.663887709592},{"id":"42594","name":"Khalid Hilll","party":"Dem","address":"61 W 400 S, Apt 126, Provo, UT 84601","precinct":"25PR54","hd":"62","v_score":"0","decile":"1","lat":40.228313136996,"lng":-111.65979107511},{"id":"42812","name":"Debrah Dietrich","party":"Dem","address":"521 S 300 W, Provo, UT 84601","precinct":"25PR54","hd":"62","v_score":"18.59933514","decile":"10","lat":40.226815055061,"lng":-111.66389433674},{"id":"42897","name":"Helena Prohaska","party":"Rep","address":"354 S 400 W, Provo, UT 84601","precinct":"25PR54","hd":"62","v_score":"7.549608095","decile":"8","lat":40.228987960939,"lng":-111.665770387038},{"id":"43919","name":"Garrick Hayes","party":"Rep","address":"390 W 500 S, Provo, UT 84601","precinct":"25PR54","hd":"62","v_score":"18.57420493","decile":"10","lat":40.22711624086,"lng":-111.665505418729},{"id":"44024","name":"Kati Bednar","party":"Dem","address":"193 S 400 W, Provo, UT 84601","precinct":"25PR54","hd":"62","v_score":"4.858449944","decile":"7","lat":40.231159584118,"lng":-111.66560838252},{"id":"44050","name":"Opal Stoltenberg","party":"Rep","address":"345 W 200 S, Provo, UT 84601","precinct":"25PR54","hd":"62","v_score":"1.121327652","decile":"3","lat":40.230971709467,"lng":-111.664739375154},{"id":"44212","name":"Ephriam Cole","party":"Dem","address":"77 W 500 S, Apt 307, Provo, UT 84601","precinct":"25PR54","hd":"62","v_score":"22.16617265","decile":"10","lat":40.226984709566,"lng":-111.660066939047},{"id":"44243","name":"Mrs. Jocelyn Harber DVM","party":"Dem","address":"433 N 300 W, Apt 201, Provo, UT 84601","precinct":"25PR54","hd":"62","v_score":"5.429380732","decile":"7","lat":40.239533093169,"lng":-111.663984399393},{"id":"44395","name":"Mollie Bode","party":"Dem","address":"380 S Freedom Blvd, Apt 9, Provo, UT 84601","precinct":"25PR54","hd":"62","v_score":"1.121327652","decile":"3","lat":40.22866104877,"lng":-111.662331574153},{"id":"44470","name":"Djuana Ebert","party":"Rep","address":"161 W 400 S, Apt 10, Provo, UT 84601","precinct":"25PR54","hd":"62","v_score":"11.74544512","decile":"9","lat":40.228322134412,"lng":-111.661564274786},{"id":"44488","name":"Cyril McCullough","party":"Rep","address":"420 S Freedom Blvd, Provo, UT 84601","precinct":"25PR54","hd":"62","v_score":"2.315214949","decile":"5","lat":40.228077703231,"lng":-111.662337523599},{"id":"45469","name":"Marshal Bednar-Langosh","party":"Dem","address":"475 S 400 W, Apt D4, Provo, UT 84601","precinct":"25PR54","hd":"62","v_score":"0","decile":"1","lat":40.227414974923,"lng":-111.665632057086},{"id":"46010","name":"Virginia Ruecker","party":"Rep","address":"491 S Freedom Blvd, Apt 206, Provo, UT 84601","precinct":"25PR54","hd":"62","v_score":"0","decile":"1","lat":40.227207236622,"lng":-111.662196249887},{"id":"46356","name":"Tiarra Hilpert","party":"Rep","address":"260 S 100 W, Apt 3, Provo, UT 84601","precinct":"25PR54","hd":"62","v_score":"12.51613974","decile":"9","lat":40.230219527195,"lng":-111.660577640863},{"id":"46406","name":"Gaston Cormier","party":"","address":"136 W 200 S, Apt 108, Provo, UT 84601","precinct":"25PR54","hd":"62","v_score":"1.121327652","decile":"3","lat":40.23107170881,"lng":-111.661155709448},{"id":"46420","name":"Joey Christiansen-Keebler","party":"","address":"136 W 200 S, Apt 108, Provo, UT 84601","precinct":"25PR54","hd":"62","v_score":"1.121327652","decile":"3","lat":40.23107170881,"lng":-111.661155709448},{"id":"46922","name":"Barb Ledner","party":"","address":"475 S 400 W, Apt B1, Provo, UT 84601","precinct":"25PR54","hd":"62","v_score":"3.781490609","decile":"6","lat":40.227414974923,"lng":-111.665632057086},{"id":"47158","name":"Jacklyn Streich","party":"Rep","address":"136 W 200 S, Apt 312, Provo, UT 84601","precinct":"25PR54","hd":"62","v_score":"18.26998056","decile":"10","lat":40.23107170881,"lng":-111.661155709448},{"id":"47429","name":"Branson Towne","party":"","address":"61 W 400 S, Apt 105, Provo, UT 84601","precinct":"25PR54","hd":"62","v_score":"8.280646305","decile":"8","lat":40.228313136996,"lng":-111.65979107511},{"id":"47788","name":"Tyquan Reinger","party":"","address":"475 S 400 W, Apt A3, Provo, UT 84601","precinct":"25PR54","hd":"62","v_score":"5.40460374","decile":"7","lat":40.227414974923,"lng":-111.665632057086},{"id":"47817","name":"Amani Kulas","party":"Rep","address":"245 W 200 S, Provo, UT 84601","precinct":"25PR54","hd":"62","v_score":"2.998909327","decile":"6","lat":40.230966791478,"lng":-111.663014368234},{"id":"48146","name":"Annie Vandervort","party":"Rep","address":"193 S 400 W, Provo, UT 84601","precinct":"25PR54","hd":"62","v_score":"0","decile":"1","lat":40.231159584118,"lng":-111.66560838252},{"id":"48645","name":"Dr. Paxton Sporer V","party":"Rep","address":"61 W 400 S, Apt 424, Provo, UT 84601","precinct":"25PR54","hd":"62","v_score":"2.315214949","decile":"5","lat":40.228313136996,"lng":-111.65979107511},{"id":"48677","name":"Carmine Bechtelar II","party":"","address":"136 W 200 S, Apt 309, Provo, UT 84601","precinct":"25PR54","hd":"62","v_score":"1.121327652","decile":"3","lat":40.23107170881,"lng":-111.661155709448},{"id":"49059","name":"Amparo Hammes","party":"","address":"77 W 500 S, Apt 425, Provo, UT 84601","precinct":"25PR54","hd":"62","v_score":"1.121327652","decile":"3","lat":40.226984709566,"lng":-111.660066939047},{"id":"49233","name":"Clarence Powlowski","party":"Rep","address":"575 S Freedom Blvd, Apt 307, Provo, UT 84601","precinct":"25PR54","hd":"62","v_score":"15.48823048","decile":"9","lat":40.226318703898,"lng":-111.662204373811},{"id":"49603","name":"Arbie Adams Jr.","party":"","address":"95 W 100 S, Unit 955, Provo, UT 84601","precinct":"25PR54","hd":"62","v_score":"7.995565619","decile":"8","lat":40.232276001638,"lng":-111.66035724147},{"id":"50909","name":"Pryor Mosciski","party":"Rep","address":"431 W 200 S, Apt 3, Provo, UT 84601","precinct":"25PR54","hd":"62","v_score":"2.587603312","decile":"5","lat":40.230974610308,"lng":-111.666268620904},{"id":"51025","name":"Darron Hintz","party":"","address":"560 S 400 W, Apt 111, Provo, UT 84601","precinct":"25PR54","hd":"62","v_score":"4.283276088","decile":"7","lat":40.226455920417,"lng":-111.665788622364},{"id":"51331","name":"Trisha Reynolds","party":"","address":"77 W 500 S, Apt 125, Provo, UT 84601","precinct":"25PR54","hd":"62","v_score":"1.46627566","decile":"4","lat":40.226984709566,"lng":-111.660066939047},{"id":"51478","name":"Terrell Fritsch","party":"","address":"95 W 100 S, Provo, UT 84601","precinct":"25PR54","hd":"62","v_score":"1.46627566","decile":"4","lat":40.232276001638,"lng":-111.66035724147},{"id":"51545","name":"Mrs. Lesta Schuster","party":"","address":"228 S 300 W, Provo, UT 84601","precinct":"25PR54","hd":"62","v_score":"5.60307055","decile":"7","lat":40.230626598717,"lng":-111.664032298314},{"id":"51804","name":"Pernell Gibson","party":"Dem","address":"136 S 300 W, Provo, UT 84601","precinct":"25PR54","hd":"62","v_score":"5.40460374","decile":"7","lat":40.231845410036,"lng":-111.664025339842},{"id":"51873","name":"Wiliam Parker","party":"Dem","address":"431 W 200 S, Apt 3, Provo, UT 84601","precinct":"25PR54","hd":"62","v_score":"1.46627566","decile":"4","lat":40.230974610308,"lng":-111.666268620904},{"id":"52052","name":"Jazmyne Becker","party":"Rep","address":"241 S 400 W, Apt 2, Provo, UT 84601","precinct":"25PR54","hd":"62","v_score":"1.46627566","decile":"4","lat":40.230478184169,"lng":-111.665612577578},{"id":"52946","name":"Andreas Jast","party":"Rep","address":"575 S Freedom Blvd, Apt 302, Provo, UT 84601","precinct":"25PR54","hd":"62","v_score":"2.744440783","decile":"5","lat":40.226318703898,"lng":-111.662204373811},{"id":"53337","name":"Maurice Ryan-Koepp","party":"Rep","address":"294 W 300 S, Provo, UT 84601","precinct":"25PR54","hd":"62","v_score":"3.781490609","decile":"6","lat":40.229762570453,"lng":-111.663820965791},{"id":"53782","name":"Kamron Lynch","party":"Rep","address":"61 W 400 S, Apt 201, Provo, UT 84601","precinct":"25PR54","hd":"62","v_score":"1.46627566","decile":"4","lat":40.228313136996,"lng":-111.65979107511},{"id":"53890","name":"Mrs. Sophie Leuschke DDS","party":"","address":"251 S 400 W, Provo, UT 84601","precinct":"25PR54","hd":"62","v_score":"1.46627566","decile":"4","lat":40.230354877025,"lng":-111.665613416419},{"id":"54315","name":"Dr. Harriett Gutkowski","party":"Dem","address":"244 S 300 W, Provo, UT 84601","precinct":"25PR54","hd":"62","v_score":"21.56366115","decile":"10","lat":40.230429307476,"lng":-111.664032969398},{"id":"54364","name":"India Kozey","party":"Rep","address":"61 W 400 S, Apt 425, Provo, UT 84601","precinct":"25PR54","hd":"62","v_score":"1.121327652","decile":"3","lat":40.228313136996,"lng":-111.65979107511},{"id":"54706","name":"Benjaman Lindgren","party":"Dem","address":"61 W 400 S, Apt 426, Provo, UT 84601","precinct":"25PR54","hd":"62","v_score":"3.93832808","decile":"6","lat":40.228313136996,"lng":-111.65979107511},{"id":"55277","name":"Ms. Brandie Muller DDS","party":"Rep","address":"260 S 100 W, Apt 2, Provo, UT 84601","precinct":"25PR54","hd":"62","v_score":"23.01313801","decile":"10","lat":40.230219527195,"lng":-111.660577640863},{"id":"55693","name":"Margueritte Gerhold","party":"","address":"330 S 400 W, Provo, UT 84601","precinct":"25PR54","hd":"62","v_score":"2.315214949","decile":"5","lat":40.22928169372,"lng":-111.665769381066},{"id":"55731","name":"Lovell Boyer II","party":"","address":"341 S 300 W, Provo, UT 84601","precinct":"25PR54","hd":"62","v_score":"15.2589308","decile":"9","lat":40.229155332858,"lng":-111.663887206279},{"id":"55990","name":"Cass Dickinson-Schumm","party":"Dem","address":"575 S Freedom Blvd, Apt 127, Provo, UT 84601","precinct":"25PR54","hd":"62","v_score":"2.315214949","decile":"5","lat":40.226318703898,"lng":-111.662204373811},{"id":"56523","name":"Clemence Hilll","party":"","address":"550 S Freedom Blvd, Provo, UT 84601","precinct":"25PR54","hd":"62","v_score":"6.896907962","decile":"8","lat":40.226538279618,"lng":-111.662352505449},{"id":"56590","name":"Sam Hermann Jr.","party":"Rep","address":"448 W 500 S, Provo, UT 84601","precinct":"25PR54","hd":"62","v_score":"20.69989699","decile":"10","lat":40.227120102527,"lng":-111.66666997413},{"id":"56666","name":"Waldemar Keebler","party":"Dem","address":"175 W 200 S, Provo, UT 84601","precinct":"25PR54","hd":"62","v_score":"0","decile":"1","lat":40.230960307577,"lng":-111.661770316633},{"id":"56958","name":"Dillard Daugherty","party":"","address":"191 S 300 W, Unit A, Provo, UT 84601","precinct":"25PR54","hd":"62","v_score":"9.424470668","decile":"8","lat":40.231183911431,"lng":-111.663879768284},{"id":"56993","name":"Miguelangel Rolfson DVM","party":"Rep","address":"560 S 400 W, Apt 115, Provo, UT 84601","precinct":"25PR54","hd":"62","v_score":"1.121327652","decile":"3","lat":40.226455920417,"lng":-111.665788622364},{"id":"56994","name":"Shane Hermiston","party":"Dem","address":"354 W 300 S, Provo, UT 84601","precinct":"25PR54","hd":"62","v_score":"1.121327652","decile":"3","lat":40.229763301015,"lng":-111.664907365475},{"id":"57489","name":"Dr. Early Batz II","party":"","address":"156 S 300 W, Provo, UT 84601","precinct":"25PR54","hd":"62","v_score":"15.76105332","decile":"9","lat":40.231600632478,"lng":-111.664027016432},{"id":"58195","name":"Palmer Lemke","party":"","address":"444 S 300 W, Provo, UT 84601","precinct":"25PR54","hd":"62","v_score":"0","decile":"1","lat":40.227779265963,"lng":-111.664041966677},{"id":"59144","name":"Lulu Parker","party":"Dem","address":"294 W 300 S, Provo, UT 84601","precinct":"25PR54","hd":"62","v_score":"2.315214949","decile":"5","lat":40.229762570453,"lng":-111.663820965791},{"id":"59309","name":"Mrs. Mallorie Corkery","party":"","address":"560 S 400 W, Apt 415, Provo, UT 84601","precinct":"25PR54","hd":"62","v_score":"1.193887297","decile":"3","lat":40.226455920417,"lng":-111.665788622364},{"id":"60042","name":"Harlan Connelly","party":"Dem","address":"61 W 400 S, Apt 205, Provo, UT 84601","precinct":"25PR54","hd":"62","v_score":"1.193887297","decile":"3","lat":40.228313136996,"lng":-111.65979107511},{"id":"60155","name":"Danyelle Schuppe","party":"Rep","address":"169 S 500 W, Provo, UT 84601","precinct":"25PR54","hd":"62","v_score":"5.191257514","decile":"7","lat":40.231462016844,"lng":-111.667417970956},{"id":"60341","name":"Mr. Lou Carter I","party":"","address":"467 W 400 S, Provo, UT 84601","precinct":"25PR54","hd":"62","v_score":"1.121327652","decile":"3","lat":40.22834064378,"lng":-111.666899227873},{"id":"60582","name":"Carson Marks DVM","party":"Dem","address":"390 W 500 S, Provo, UT 84601","precinct":"25PR54","hd":"62","v_score":"33.68120686","decile":"10","lat":40.22711624086,"lng":-111.665505418729},{"id":"60993","name":"Jayden Bosco","party":"","address":"235 S 400 W, Provo, UT 84601","precinct":"25PR54","hd":"62","v_score":"3.93832808","decile":"6","lat":40.230552168455,"lng":-111.665612074274},{"id":"61026","name":"Charlie Ryan","party":"Rep","address":"335 W 200 S, Provo, UT 84601","precinct":"25PR54","hd":"62","v_score":"1.121327652","decile":"3","lat":40.230971709455,"lng":-111.66457836473},{"id":"61277","name":"Mr. Blaine Rippin Sr.","party":"Rep","address":"560 S 400 W, Apt 407, Provo, UT 84601","precinct":"25PR54","hd":"62","v_score":"0","decile":"1","lat":40.226455920417,"lng":-111.665788622364},{"id":"61400","name":"Gwyneth Johnston","party":"Dem","address":"346 W 300 S, Provo, UT 84601","precinct":"25PR54","hd":"62","v_score":"1.193887297","decile":"3","lat":40.229763301005,"lng":-111.664778189549},{"id":"61466","name":"Kerry Berge","party":"","address":"372 S 100 W, Provo, UT 84601","precinct":"25PR54","hd":"62","v_score":"0","decile":"1","lat":40.228752047696,"lng":-111.660582643193},{"id":"61776","name":"Miss Myranda Hirthe PhD","party":"Rep","address":"330 S 400 W, Provo, UT 84601","precinct":"25PR54","hd":"62","v_score":"1.121327652","decile":"3","lat":40.22928169372,"lng":-111.665769381066},{"id":"61786","name":"Camden Towne","party":"Dem","address":"171 S 300 W, Provo, UT 84601","precinct":"25PR54","hd":"62","v_score":"0","decile":"1","lat":40.231428688989,"lng":-111.663878091694},{"id":"61844","name":"Guilford Kuvalis DVM","party":"Rep","address":"61 W 400 S, Apt 124, Provo, UT 84601","precinct":"25PR54","hd":"62","v_score":"10.24124245","decile":"9","lat":40.228313136996,"lng":-111.65979107511},{"id":"61884","name":"Earnestine Hackett","party":"","address":"136 W 200 S, Apt 312, Provo, UT 84601","precinct":"25PR54","hd":"62","v_score":"6.027167436","decile":"7","lat":40.23107170881,"lng":-111.661155709448},{"id":"62465","name":"Shirley Grady III","party":"","address":"141 W 200 S, Provo, UT 84601","precinct":"25PR54","hd":"62","v_score":"14.28316013","decile":"9","lat":40.230957455598,"lng":-111.661221318751},{"id":"62786","name":"Ms. Georgiana Lubowitz","party":"","address":"444 S 100 W, Provo, UT 84601","precinct":"25PR54","hd":"62","v_score":"2.315214949","decile":"5","lat":40.227770265701,"lng":-111.66058596737},{"id":"63225","name":"Mikeal Harris DVM","party":"Rep","address":"136 W 200 S, Apt 326, Provo, UT 84601","precinct":"25PR54","hd":"62","v_score":"1.193887297","decile":"3","lat":40.23107170881,"lng":-111.661155709448},{"id":"63289","name":"Londyn Wehner","party":"","address":"346 W 300 S, Provo, UT 84601","precinct":"25PR54","hd":"62","v_score":"0","decile":"1","lat":40.229763301005,"lng":-111.664778189549},{"id":"63619","name":"Stonewall Gusikowski","party":"Dem","address":"491 S Freedom Blvd, Apt 208, Provo, UT 84601","precinct":"25PR54","hd":"62","v_score":"2.942907593","decile":"6","lat":40.227207236622,"lng":-111.662196249887},{"id":"64095","name":"Crissy Quitzon-Hauck","party":"Rep","address":"349 W 300 S, Provo, UT 84601","precinct":"25PR54","hd":"62","v_score":"1.121327652","decile":"3","lat":40.229056687238,"lng":-111.663887541821},{"id":"64493","name":"Arden Littel","party":"","address":"431 W 200 S, Apt 5, Provo, UT 84601","precinct":"25PR54","hd":"62","v_score":"1.121327652","decile":"3","lat":40.230974610308,"lng":-111.666268620904},{"id":"64513","name":"Raul Lubowitz DDS","party":"","address":"443 S 300 W, Provo, UT 84601","precinct":"25PR54","hd":"62","v_score":"0","decile":"1","lat":40.227803815465,"lng":-111.66389179161},{"id":"64916","name":"Antonio Hudson DDS","party":"Rep","address":"458 W 400 S, Provo, UT 84601","precinct":"25PR54","hd":"62","v_score":"0","decile":"1","lat":40.228454558574,"lng":-111.666761733708},{"id":"65128","name":"Carry Roob","party":"Dem","address":"391 W 400 S, Provo, UT 84601","precinct":"25PR54","hd":"62","v_score":"8.373412339","decile":"8","lat":40.228333650262,"lng":-111.665493670612},{"id":"65912","name":"Mr. Douglas Raynor","party":"Rep","address":"61 W 400 S, Apt 116, Provo, UT 84601","precinct":"25PR54","hd":"62","v_score":"4.064235245","decile":"6","lat":40.228313136996,"lng":-111.65979107511},{"id":"66011","name":"Dillan Reilly","party":"","address":"143 S 300 W, Provo, UT 84601","precinct":"25PR54","hd":"62","v_score":"6.881235673","decile":"8","lat":40.231771377569,"lng":-111.663875744467},{"id":"66091","name":"Wilson Tromp","party":"","address":"575 S Freedom Blvd, Apt 302, Provo, UT 84601","precinct":"25PR54","hd":"62","v_score":"4.064235245","decile":"6","lat":40.226318703898,"lng":-111.662204373811},{"id":"66353","name":"Sheyla Lockman-Mante","party":"","address":"61 W 400 S, Apt 116, Provo, UT 84601","precinct":"25PR54","hd":"62","v_score":"1.121327652","decile":"3","lat":40.228313136996,"lng":-111.65979107511},{"id":"66503","name":"Britni Little","party":"Dem","address":"575 S Freedom Blvd, Apt 305, Provo, UT 84601","precinct":"25PR54","hd":"62","v_score":"1.193887297","decile":"3","lat":40.226318703898,"lng":-111.662204373811},{"id":"67149","name":"Vergil Goldner","party":"","address":"136 W 200 S, Apt 206, Provo, UT 84601","precinct":"25PR54","hd":"62","v_score":"2.744440783","decile":"5","lat":40.23107170881,"lng":-111.661155709448},{"id":"67345","name":"Dr. Orange Kirlin MD","party":"","address":"354 S 400 W, Provo, UT 84601","precinct":"25PR54","hd":"62","v_score":"2.744440783","decile":"5","lat":40.228987960939,"lng":-111.665770387038},{"id":"67374","name":"Matteo Kutch","party":"Dem","address":"322 W 400 S, Provo, UT 84601","precinct":"25PR54","hd":"62","v_score":"1.193887297","decile":"3","lat":40.228442535022,"lng":-111.66439464957},{"id":"67618","name":"Sheldon Mertz","party":"Dem","address":"309 S 300 W, Provo, UT 84601","precinct":"25PR54","hd":"62","v_score":"1.121327652","decile":"3","lat":40.22954991534,"lng":-111.66388586411},{"id":"68208","name":"Dr. Casper Tremblay DVM","party":"Dem","address":"77 W 500 S, Apt 405, Provo, UT 84601","precinct":"25PR54","hd":"62","v_score":"0","decile":"1","lat":40.226984709566,"lng":-111.660066939047},{"id":"68655","name":"Elroy Buckridge","party":"Rep","address":"185 S 400 W, Apt 2, Provo, UT 84601","precinct":"25PR54","hd":"62","v_score":"1.121327652","decile":"3","lat":40.231257495045,"lng":-111.665608047196},{"id":"69527","name":"Dr. Sage Gleichner","party":"","address":"560 S 400 W, Apt 304, Provo, UT 84601","precinct":"25PR54","hd":"62","v_score":"1.121327652","decile":"3","lat":40.226455920417,"lng":-111.665788622364},{"id":"69747","name":"Doretta Littel","party":"","address":"358 W 400 S, Provo, UT 84601","precinct":"25PR54","hd":"62","v_score":"3.93832808","decile":"6","lat":40.228445554776,"lng":-111.664975943584},{"id":"69826","name":"Adyson Reichert","party":"Rep","address":"136 W 200 S, Apt 206, Provo, UT 84601","precinct":"25PR54","hd":"62","v_score":"2.744440783","decile":"5","lat":40.23107170881,"lng":-111.661155709448},{"id":"69959","name":"Ms. Amanda Walker DVM","party":"","address":"575 S Freedom Blvd, Apt 403, Provo, UT 84601","precinct":"25PR54","hd":"62","v_score":"1.121327652","decile":"3","lat":40.226318703898,"lng":-111.662204373811},{"id":"70040","name":"Kordell Romaguera","party":"Dem","address":"558 S Freedom Blvd, Provo, UT 84601","precinct":"25PR54","hd":"62","v_score":"2.315214949","decile":"5","lat":40.226465348094,"lng":-111.662353156632},{"id":"70078","name":"Alissa Ebert","party":"Rep","address":"365 W 400 S, Provo, UT 84601","precinct":"25PR54","hd":"62","v_score":"0","decile":"1","lat":40.228331469329,"lng":-111.665073847157},{"id":"70122","name":"Sincere Hammes","party":"Dem","address":"61 W 400 S, Apt 410, Provo, UT 84601","precinct":"25PR54","hd":"62","v_score":"5.761032035","decile":"7","lat":40.228313136996,"lng":-111.65979107511},{"id":"70232","name":"Yoel Watsica","party":"Dem","address":"127 W 200 S, Provo, UT 84601","precinct":"25PR54","hd":"62","v_score":"1.121327652","decile":"3","lat":40.230956281254,"lng":-111.660995260799},{"id":"70355","name":"Alvis Padberg","party":"","address":"136 W 200 S, Apt 114, Provo, UT 84601","precinct":"25PR54","hd":"62","v_score":"2.315214949","decile":"5","lat":40.23107170881,"lng":-111.661155709448},{"id":"70376","name":"Fleta Bernier","party":"Dem","address":"191 S 300 W, Unit A, Provo, UT 84601","precinct":"25PR54","hd":"62","v_score":"6.481563075","decile":"7","lat":40.231183911431,"lng":-111.663879768284},{"id":"70647","name":"Clementine Pollich PhD","party":"Dem","address":"560 S 400 W, Apt 408, Provo, UT 84601","precinct":"25PR54","hd":"62","v_score":"1.193887297","decile":"3","lat":40.226455920417,"lng":-111.665788622364},{"id":"70921","name":"Canyon Veum","party":"","address":"492 W 470 S, Provo, UT 84601","precinct":"25PR54","hd":"62","v_score":"10.6918867","decile":"9","lat":40.227506344079,"lng":-111.66738813923},{"id":"71214","name":"Kendall Rolfson","party":"","address":"136 W 200 S, Apt 333, Provo, UT 84601","precinct":"25PR54","hd":"62","v_score":"2.315214949","decile":"5","lat":40.23107170881,"lng":-111.661155709448},{"id":"71261","name":"Mrs. Lillis Abshire","party":"","address":"126 W 400 S, Santaquin, UT 84655","precinct":"25PR54","hd":"62","v_score":"2.315214949","decile":"5","lat":39.969139936217,"lng":-111.78800892516},{"id":"71661","name":"Fount Sauer","party":"","address":"61 W 400 S, Apt 410, Provo, UT 84601","precinct":"25PR54","hd":"62","v_score":"5.761032035","decile":"7","lat":40.228313136996,"lng":-111.65979107511},{"id":"71709","name":"Asa Howe-Dach","party":"Rep","address":"77 W 500 S, Apt 111, Provo, UT 84601","precinct":"25PR54","hd":"62","v_score":"1.121327652","decile":"3","lat":40.226984709566,"lng":-111.660066939047},{"id":"72629","name":"Rosie Wyman DDS","party":"Rep","address":"455 W 400 S, Provo, UT 84601","precinct":"25PR54","hd":"62","v_score":"2.315214949","decile":"5","lat":40.22833963248,"lng":-111.666694442839},{"id":"72630","name":"Leopoldo Walker","party":"","address":"455 W 400 S, Provo, UT 84601","precinct":"25PR54","hd":"62","v_score":"2.315214949","decile":"5","lat":40.22833963248,"lng":-111.666694442839},{"id":"72785","name":"Fayette Bradtke","party":"Dem","address":"456 S Freedom Blvd, Provo, UT 84601","precinct":"25PR54","hd":"62","v_score":"4.235493435","decile":"7","lat":40.227630490699,"lng":-111.662342056216},{"id":"72906","name":"Tobin Pollich","party":"Rep","address":"165 S 500 W, # 165, Provo, UT 84601","precinct":"25PR54","hd":"62","v_score":"0","decile":"1","lat":40.231510972436,"lng":-111.667417467982},{"id":"73247","name":"Arlis Kiehn","party":"Rep","address":"467 W 400 S, Provo, UT 84601","precinct":"25PR54","hd":"62","v_score":"3.93832808","decile":"6","lat":40.22834064378,"lng":-111.666899227873},{"id":"73324","name":"Mrs. Rosia Grady","party":"Dem","address":"61 W 400 S, Apt 105, Provo, UT 84601","precinct":"25PR54","hd":"62","v_score":"5.620483348","decile":"7","lat":40.228313136996,"lng":-111.65979107511},{"id":"73603","name":"Dr. Ladarius Ledner","party":"","address":"575 S Freedom Blvd, Apt 205, Provo, UT 84601","precinct":"25PR54","hd":"62","v_score":"1.121327652","decile":"3","lat":40.226318703898,"lng":-111.662204373811},{"id":"74596","name":"Vince Kilback PhD","party":"Dem","address":"434 S 100 W, Provo, UT 84601","precinct":"25PR54","hd":"62","v_score":"2.744440783","decile":"5","lat":40.227894491093,"lng":-111.660585547674},{"id":"74713","name":"Littie Bergnaum","party":"Rep","address":"341 S 300 W, Provo, UT 84601","precinct":"25PR54","hd":"62","v_score":"6.814370645","decile":"8","lat":40.229155332858,"lng":-111.663887206279},{"id":"74724","name":"Jayme Schiller","party":"Dem","address":"61 W 400 S, Apt 208, Provo, UT 84601","precinct":"25PR54","hd":"62","v_score":"5.858606566","decile":"7","lat":40.228313136996,"lng":-111.65979107511},{"id":"75156","name":"Ms. Reese Boyle DVM","party":"Dem","address":"156 S 300 W, Provo, UT 84601","precinct":"25PR54","hd":"62","v_score":"1.121327652","decile":"3","lat":40.231600632478,"lng":-111.664027016432},{"id":"75536","name":"Christophe Roberts DDS","party":"","address":"425 S Freedom Blvd, Apt 8, Provo, UT 84601","precinct":"25PR54","hd":"62","v_score":"1.121327652","decile":"3","lat":40.228027126265,"lng":-111.662187940089},{"id":"75766","name":"Dr. Jose Kuphal V","party":"Dem","address":"189 S 500 W, Provo, UT 84601","precinct":"25PR54","hd":"62","v_score":"11.04986408","decile":"9","lat":40.231217238887,"lng":-111.66742048583},{"id":"75788","name":"Dr. Felicia Carter","party":"Rep","address":"575 S Freedom Blvd, Provo, UT 84601","precinct":"25PR54","hd":"62","v_score":"1.121327652","decile":"3","lat":40.226318703898,"lng":-111.662204373811},{"id":"76220","name":"Addie Gibson","party":"Dem","address":"229 W 200 S, Provo, UT 84601","precinct":"25PR54","hd":"62","v_score":"19.47300581","decile":"10","lat":40.230965450034,"lng":-111.662757485675},{"id":"76222","name":"Keli West","party":"","address":"229 W 200 S, Provo, UT 84601","precinct":"25PR54","hd":"62","v_score":"19.47300581","decile":"10","lat":40.230965450034,"lng":-111.662757485675},{"id":"76353","name":"Hershell Wehner-Kshlerin","party":"Dem","address":"575 S Freedom Blvd, Apt 421, Provo, UT 84601","precinct":"25PR54","hd":"62","v_score":"3.93832808","decile":"6","lat":40.226318703898,"lng":-111.662204373811},{"id":"76449","name":"Dr. Albina Kohler DDS","party":"","address":"161 W 400 S, Apt 8, Provo, UT 84601","precinct":"25PR54","hd":"62","v_score":"0","decile":"1","lat":40.228322134412,"lng":-111.661564274786},{"id":"76932","name":"Huy Bernhard","party":"","address":"575 S Freedom Blvd, Apt 325, Provo, UT 84601","precinct":"25PR54","hd":"62","v_score":"1.193887297","decile":"3","lat":40.226318703898,"lng":-111.662204373811},{"id":"77319","name":"Mr. Spenser Zulauf I","party":"Rep","address":"321 W 100 S, Provo, UT 84601","precinct":"25PR54","hd":"62","v_score":"1.623113131","decile":"5","lat":40.232285709287,"lng":-111.664344869196},{"id":"77341","name":"Deandra Daniel MD","party":"Dem","address":"423 W 500 S, Provo, UT 84601","precinct":"25PR54","hd":"62","v_score":"2.315214949","decile":"5","lat":40.227002710019,"lng":-111.666029899946},{"id":"78118","name":"Dink Stoltenberg-Aufderhar","party":"Rep","address":"560 S 400 W, Apt 410, Provo, UT 84601","precinct":"25PR54","hd":"62","v_score":"2.744440783","decile":"5","lat":40.226455920417,"lng":-111.665788622364},{"id":"78306","name":"Fidelia Rosenbaum-Tromp","party":"","address":"263 N 300 W, Apt 22, Provo, UT 84601","precinct":"25PR54","hd":"62","v_score":"3.711952487","decile":"6","lat":40.237259952312,"lng":-111.663992138985},{"id":"78802","name":"Tayla Casper","party":"Dem","address":"161 W 400 S, Apt 4, Provo, UT 84601","precinct":"25PR54","hd":"62","v_score":"2.315214949","decile":"5","lat":40.228322134412,"lng":-111.661564274786},{"id":"79155","name":"Rupert Veum","party":"","address":"61 W 400 S, Apt 425, Provo, UT 84601","precinct":"25PR54","hd":"62","v_score":"0","decile":"1","lat":40.228313136996,"lng":-111.65979107511},{"id":"79232","name":"Wendy Prosacco-Weber","party":"","address":"241 S 400 W, Apt 2, Provo, UT 84601","precinct":"25PR54","hd":"62","v_score":"7.090117576","decile":"8","lat":40.230478184169,"lng":-111.665612577578},{"id":"79459","name":"Chas Rau","party":"Rep","address":"267 S 400 W, Provo, UT 84601","precinct":"25PR54","hd":"62","v_score":"18.35167816","decile":"10","lat":40.230157585595,"lng":-111.665614758563},{"id":"79609","name":"Maxwell Jenkins","party":"Rep","address":"263 N 300 W, Apt 24, Provo, UT 84601","precinct":"25PR54","hd":"62","v_score":"1.623113131","decile":"5","lat":40.237259952312,"lng":-111.663992138985},{"id":"79637","name":"Kaeden Ziemann","party":"Dem","address":"575 S Freedom Blvd, Apt 129, Provo, UT 84601","precinct":"25PR54","hd":"62","v_score":"1.121327652","decile":"3","lat":40.226318703898,"lng":-111.662204373811},{"id":"79776","name":"Sylva Stark","party":"Dem","address":"575 S Freedom Blvd, Apt 216, Provo, UT 84601","precinct":"25PR54","hd":"62","v_score":"1.121327652","decile":"3","lat":40.226318703898,"lng":-111.662204373811},{"id":"79785","name":"Thresa Ondricka","party":"Rep","address":"423 W 500 S, Provo, UT 84601","precinct":"25PR54","hd":"62","v_score":"2.315214949","decile":"5","lat":40.227002710019,"lng":-111.666029899946},{"id":"79879","name":"Shyla Mertz","party":"Dem","address":"393 W 300 S, Provo, UT 84601","precinct":"25PR54","hd":"62","v_score":"2.315214949","decile":"5","lat":40.22964870967,"lng":-111.665420032445},{"id":"79936","name":"Olar Cronin","party":"","address":"575 S Freedom Blvd, Apt 316, Provo, UT 84601","precinct":"25PR54","hd":"62","v_score":"1.121327652","decile":"3","lat":40.226318703898,"lng":-111.662204373811},{"id":"79988","name":"Mr. Jakob Klein","party":"Dem","address":"175 S 400 W, Apt 4, Provo, UT 84601","precinct":"25PR54","hd":"62","v_score":"2.744440783","decile":"5","lat":40.231379883704,"lng":-111.665607628041},{"id":"80753","name":"Colonel Bergnaum","party":"Rep","address":"61 W 400 S, Apt 305, Provo, UT 84601","precinct":"25PR54","hd":"62","v_score":"2.817000428","decile":"6","lat":40.228313136996,"lng":-111.65979107511},{"id":"80832","name":"Danielle Skiles","party":"Rep","address":"390 W 300 S, Provo, UT 84601","precinct":"25PR54","hd":"62","v_score":"4.069929862","decile":"6","lat":40.229763301059,"lng":-111.66548865714},{"id":"80948","name":"Dr. Zavion Rau PhD","party":"Rep","address":"274 W 200 S, Apt 4, Provo, UT 84601","precinct":"25PR54","hd":"62","v_score":"0","decile":"1","lat":40.231083895394,"lng":-111.663494996384},{"id":"81252","name":"Cayla Hyatt","party":"","address":"331 S 300 W, Provo, UT 84601","precinct":"25PR54","hd":"62","v_score":"0","decile":"1","lat":40.229278639884,"lng":-111.663886786851},{"id":"81454","name":"Mordechai McCullough","party":"Dem","address":"575 S Freedom Blvd, Apt 403, Provo, UT 84601","precinct":"25PR54","hd":"62","v_score":"0","decile":"1","lat":40.226318703898,"lng":-111.662204373811},{"id":"81574","name":"Treasure Green","party":"Rep","address":"617 S 500 W, Apt 23, Provo, UT 84601","precinct":"25PR54","hd":"62","v_score":"9.907118004","decile":"8","lat":40.225456575992,"lng":-111.667364290118},{"id":"82207","name":"Huldah Kuhic","party":"Dem","address":"446 W 400 S, Provo, UT 84601","precinct":"25PR54","hd":"62","v_score":"0","decile":"1","lat":40.228453547275,"lng":-111.666556948674},{"id":"82280","name":"Pairlee Stiedemann","party":"Dem","address":"575 S Freedom Blvd, Apt 120, Provo, UT 84601","precinct":"25PR54","hd":"62","v_score":"0","decile":"1","lat":40.226318703898,"lng":-111.662204373811},{"id":"82283","name":"Lacey Upton Jr.","party":"Rep","address":"95 W 100 S, Unit 1225, Provo, UT 84603","precinct":"25PR54","hd":"62","v_score":"1.46627566","decile":"4","lat":40.232276001638,"lng":-111.66035724147},{"id":"82581","name":"Gearldine Jaskolski","party":"","address":"354 W 300 S, Provo, UT 84601","precinct":"25PR54","hd":"62","v_score":"2.543234995","decile":"5","lat":40.229763301015,"lng":-111.664907365475},{"id":"82768","name":"Sina Goyette","party":"Rep","address":"575 S Freedom Blvd, Apt 212, Provo, UT 84601","precinct":"25PR54","hd":"62","v_score":"4.905839784","decile":"7","lat":40.226318703898,"lng":-111.662204373811},{"id":"82929","name":"Dr. Finnegan Crist","party":"","address":"491 S Freedom Blvd, Apt 109, Provo, UT 84601","precinct":"25PR54","hd":"62","v_score":"0","decile":"1","lat":40.227207236622,"lng":-111.662196249887},{"id":"83038","name":"Luigi O'Hara","party":"","address":"77 W 500 S, Apt 223, Provo, UT 84601","precinct":"25PR54","hd":"62","v_score":"0","decile":"1","lat":40.226984709566,"lng":-111.660066939047},{"id":"83326","name":"Edison Rogahn","party":"Rep","address":"273 W 400 S, Provo, UT 84601","precinct":"25PR54","hd":"62","v_score":"0","decile":"1","lat":40.228325709673,"lng":-111.663477175797},{"id":"83561","name":"Atha Abbott","party":"Rep","address":"133 S 300 W, Provo, UT 84601","precinct":"25PR54","hd":"62","v_score":"0","decile":"1","lat":40.231893766348,"lng":-111.663874906172},{"id":"84093","name":"Eber Gibson DVM","party":"Rep","address":"491 S Freedom Blvd, Apt 209, Provo, UT 84601","precinct":"25PR54","hd":"62","v_score":"0","decile":"1","lat":40.227207236622,"lng":-111.662196249887},{"id":"84252","name":"Avis Hermann","party":"","address":"560 S 400 W, Apt 315, Provo, UT 84601","precinct":"25PR54","hd":"62","v_score":"4.069929862","decile":"6","lat":40.226455920417,"lng":-111.665788622364},{"id":"84395","name":"Shelbi Swaniawski","party":"","address":"381 S 300 W, Provo, UT 84601","precinct":"25PR54","hd":"62","v_score":"0","decile":"1","lat":40.228662104756,"lng":-111.663888883989},{"id":"84986","name":"Manuela Cassin","party":"Dem","address":"342 S 400 W, Provo, UT 84601","precinct":"25PR54","hd":"62","v_score":"0","decile":"1","lat":40.229134827329,"lng":-111.665769884052},{"id":"85011","name":"Bobby Koch-Kautzer","party":"Rep","address":"244 S 300 W, Provo, UT 84601","precinct":"25PR54","hd":"62","v_score":"1.193887297","decile":"3","lat":40.230429307476,"lng":-111.664032969398},{"id":"85388","name":"Jalissa Ziemann","party":"","address":"462 W 500 S, Provo, UT 84601","precinct":"25PR54","hd":"62","v_score":"1.193887297","decile":"3","lat":40.227121685819,"lng":-111.66688925768},{"id":"85410","name":"Michal Ritchie","party":"","address":"40 W 300 S, Apt 211, Provo, UT 84601","precinct":"25PR54","hd":"62","v_score":"4.235493435","decile":"7","lat":40.22974893967,"lng":-111.6594265896},{"id":"85477","name":"Lars Stracke","party":"Rep","address":"255 S 300 W, Provo, UT 84601","precinct":"25PR54","hd":"62","v_score":"0","decile":"1","lat":40.230305702874,"lng":-111.66388329184},{"id":"85549","name":"Cordie Schamberger DVM","party":"","address":"250 S University Ave, Apt 207, Provo, UT 84601","precinct":"25PR54","hd":"62","v_score":"0","decile":"1","lat":40.230337471629,"lng":-111.658766013289},{"id":"85956","name":"Edmon Osinski","party":"Dem","address":"560 S 400 W, Apt 110, Provo, UT 84601","precinct":"25PR54","hd":"62","v_score":"0","decile":"1","lat":40.226455920417,"lng":-111.665788622364},{"id":"86099","name":"Cheyenne Brakus","party":"","address":"365 S 400 W, Provo, UT 84601","precinct":"25PR54","hd":"62","v_score":"0","decile":"1","lat":40.22886527266,"lng":-111.665620712147},{"id":"86717","name":"Dr. Welton Block PhD","party":"","address":"575 S Freedom Blvd, Apt 223, Provo, UT 84601","precinct":"25PR54","hd":"62","v_score":"8.709634245","decile":"8","lat":40.226318703898,"lng":-111.662204373811},{"id":"86885","name":"Miss Richelle Mosciski","party":"Rep","address":"136 W 200 S, Apt 115, Provo, UT 84601","precinct":"25PR54","hd":"62","v_score":"8.35165687","decile":"8","lat":40.23107170881,"lng":-111.661155709448},{"id":"86904","name":"Mr. Vester Dicki","party":"Dem","address":"77 W 500 S, Apt 223, Provo, UT 84601","precinct":"25PR54","hd":"62","v_score":"4.210478549","decile":"7","lat":40.226984709566,"lng":-111.660066939047},{"id":"87174","name":"Moshe Metz","party":"","address":"250 S University Ave, Provo, UT 84601","precinct":"25PR54","hd":"62","v_score":"0","decile":"1","lat":40.230337471629,"lng":-111.658766013289},{"id":"87212","name":"Theodore Armstrong","party":"","address":"560 S 400 W, Apt 207, Provo, UT 84601","precinct":"25PR54","hd":"62","v_score":"4.639704383","decile":"7","lat":40.226455920417,"lng":-111.665788622364},{"id":"87483","name":"Dr. Peyton Jacobson","party":"Rep","address":"372 S 100 W, Provo, UT 84601","precinct":"25PR54","hd":"62","v_score":"5.693042993","decile":"7","lat":40.228752047696,"lng":-111.660582643193},{"id":"87610","name":"Khiry Von-Deckow","party":"Rep","address":"232 S 100 W, Provo, UT 84601","precinct":"25PR54","hd":"62","v_score":"1.193887297","decile":"4","lat":40.23056221544,"lng":-111.660576467229},{"id":"87675","name":"Katlyn Keeling","party":"","address":"136 W 200 S, Apt 309, Provo, UT 84601","precinct":"25PR54","hd":"62","v_score":"0","decile":"1","lat":40.23107170881,"lng":-111.661155709448},{"id":"87738","name":"Tarik Hegmann","party":"Rep","address":"623 S 500 W, Apt 19, Provo, UT 84601","precinct":"25PR54","hd":"62","v_score":"0","decile":"1","lat":40.225404321758,"lng":-111.667356974532},{"id":"87750","name":"Efrem O'Reilly PhD","party":"Dem","address":"61 W 400 S, Apt 413, Provo, UT 84601","precinct":"25PR54","hd":"62","v_score":"18.88777439","decile":"10","lat":40.228313136996,"lng":-111.65979107511},{"id":"88522","name":"Denis Ward II","party":"Rep","address":"143 S 500 W, Provo, UT 84601","precinct":"25PR54","hd":"62","v_score":"1.193887297","decile":"4","lat":40.231780228188,"lng":-111.667414701621},{"id":"88546","name":"Dr. Curtis Hammes","party":"Rep","address":"330 W 400 S, Provo, UT 84601","precinct":"25PR54","hd":"62","v_score":"1.623113131","decile":"5","lat":40.228443206078,"lng":-111.664523826017},{"id":"88568","name":"Deanna Lueilwitz-Herzog","party":"Dem","address":"263 N 300 W, Apt 22, Provo, UT 84601","precinct":"25PR54","hd":"62","v_score":"14.13760315","decile":"9","lat":40.237259952312,"lng":-111.663992138985},{"id":"88637","name":"Mr. Tracey Botsford I","party":"","address":"136 W 200 S, Apt 320, Provo, UT 84601","precinct":"25PR54","hd":"62","v_score":"2.817000428","decile":"6","lat":40.23107170881,"lng":-111.661155709448},{"id":"89088","name":"Lavada Wiegand","party":"Rep","address":"491 S Freedom Blvd, Apt 207, Provo, UT 84601","precinct":"25PR54","hd":"62","v_score":"4.069929862","decile":"6","lat":40.227207236622,"lng":-111.662196249887},{"id":"89413","name":"Dr. Aiyana Brown","party":"Dem","address":"136 W 200 S, Apt 115, Provo, UT 84601","precinct":"25PR54","hd":"62","v_score":"5.335065618","decile":"7","lat":40.23107170881,"lng":-111.661155709448},{"id":"89910","name":"Dennis Hoeger","party":"Rep","address":"224 S Freedom Blvd, Provo, UT 84601","precinct":"25PR54","hd":"62","v_score":"1.623113131","decile":"5","lat":40.230667219738,"lng":-111.662311031793},{"id":"90134","name":"Bea Lowe","party":"","address":"575 S Freedom Blvd, Apt 222, Provo, UT 84601","precinct":"25PR54","hd":"62","v_score":"1.193887297","decile":"4","lat":40.226318703898,"lng":-111.662204373811},{"id":"90146","name":"Mr. Winford Cronin","party":"Rep","address":"359 W 500 S, Provo, UT 84601","precinct":"25PR54","hd":"62","v_score":"0","decile":"1","lat":40.226998966547,"lng":-111.664986789132},{"id":"90816","name":"Odile Mosciski","party":"Dem","address":"243 S 300 W, Provo, UT 84601","precinct":"25PR54","hd":"62","v_score":"0","decile":"1","lat":40.230453671305,"lng":-111.663882788527},{"id":"91131","name":"Ishaan Treutel","party":"Dem","address":"491 S Freedom Blvd, Apt 211, Provo, UT 84601","precinct":"25PR54","hd":"62","v_score":"0","decile":"1","lat":40.227207236622,"lng":-111.662196249887},{"id":"91155","name":"Emma Hyatt","party":"Rep","address":"256 W 300 S, Provo, UT 84601","precinct":"25PR54","hd":"62","v_score":"0","decile":"1","lat":40.229759386116,"lng":-111.663214358355},{"id":"91448","name":"Marolyn Weissnat","party":"Rep","address":"77 W 500 S, Apt S109, Provo, UT 84601","precinct":"25PR54","hd":"62","v_score":"1.193887297","decile":"4","lat":40.226984709566,"lng":-111.660066939047},{"id":"92026","name":"Ahmad Lemke","party":"Dem","address":"575 S Freedom Blvd, Apt 208, Provo, UT 84601","precinct":"25PR54","hd":"62","v_score":"16.53026448","decile":"9","lat":40.226318703898,"lng":-111.662204373811},{"id":"92331","name":"Lucky Kessler-Moore","party":"","address":"40 W 300 S, Apt 105, Provo, UT 84601","precinct":"25PR54","hd":"62","v_score":"0","decile":"1","lat":40.22974893967,"lng":-111.6594265896},{"id":"92394","name":"Verna Frami","party":"Dem","address":"425 S Freedom Blvd, Apt, Provo, UT 84601","precinct":"25PR54","hd":"62","v_score":"0","decile":"1","lat":40.228027126265,"lng":-111.662187940089},{"id":"92412","name":"Miss Marisol Emard DDS","party":"","address":"575 S Freedom Blvd, Apt 205, Provo, UT 84601","precinct":"25PR54","hd":"62","v_score":"1.193887297","decile":"4","lat":40.226318703898,"lng":-111.662204373811},{"id":"92944","name":"Kurt Torphy DDS","party":"Rep","address":"380 W 400 S, Provo, UT 84601","precinct":"25PR54","hd":"62","v_score":"1.623113131","decile":"5","lat":40.228447400181,"lng":-111.665331178815},{"id":"93433","name":"Morgan Thiel","party":"Dem","address":"575 S Freedom Blvd, Apt 302, Provo, UT 84601","precinct":"25PR54","hd":"62","v_score":"1.623113131","decile":"5","lat":40.226318703898,"lng":-111.662204373811},{"id":"93469","name":"Michaele Lakin-Emmerich","party":"Rep","address":"153 S 300 W, Provo, UT 84601","precinct":"25PR54","hd":"62","v_score":"0","decile":"1","lat":40.23164898879,"lng":-111.663876582762},{"id":"94509","name":"Miss Shaina Legros DVM","party":"","address":"342 S Freedom Blvd, Provo, UT 84601","precinct":"25PR54","hd":"62","v_score":"0","decile":"1","lat":40.229126126888,"lng":-111.662326795893},{"id":"95348","name":"Ah VonRueden-Reichert","party":"","address":"349 W 300 S, Provo, UT 84601","precinct":"25PR54","hd":"62","v_score":"11.26156058","decile":"9","lat":40.229056687238,"lng":-111.663887541821},{"id":"95706","name":"Audry Roob MD","party":"Rep","address":"439 W 400 S, Provo, UT 84601","precinct":"25PR54","hd":"62","v_score":"6.528952915","decile":"7","lat":40.22833828408,"lng":-111.666421396127},{"id":"96694","name":"Mae Turcotte-Zulauf","party":"","address":"575 S Freedom Blvd, Apt 320, Provo, UT 84601","precinct":"25PR54","hd":"62","v_score":"6.355720798","decile":"7","lat":40.226318703898,"lng":-111.662204373811},{"id":"96723","name":"Eathel Kutch","party":"Rep","address":"61 W 400 S, Apt 315, Provo, UT 84601","precinct":"25PR54","hd":"62","v_score":"2.817000428","decile":"6","lat":40.228313136996,"lng":-111.65979107511},{"id":"96839","name":"Tamatha Herzog","party":"Rep","address":"456 W 470 S, Provo, UT 84601","precinct":"25PR54","hd":"62","v_score":"1.193887297","decile":"4","lat":40.227512160262,"lng":-111.666985366449},{"id":"96912","name":"Falon Kiehn","party":"Dem","address":"575 S Freedom Blvd, Apt 305, Provo, UT 84601","precinct":"25PR54","hd":"62","v_score":"5.693042993","decile":"7","lat":40.226318703898,"lng":-111.662204373811},{"id":"97070","name":"Junie Hilll PhD","party":"","address":"575 S Freedom Blvd, Apt 205, Provo, UT 84601","precinct":"25PR54","hd":"62","v_score":"0","decile":"1","lat":40.226318703898,"lng":-111.662204373811},{"id":"97418","name":"Allie Dickens-Volkman","party":"Dem","address":"354 S 400 W, Provo, UT 84601","precinct":"25PR54","hd":"62","v_score":"1.193887297","decile":"4","lat":40.228987960939,"lng":-111.665770387038},{"id":"97552","name":"Desiree Flatley DVM","party":"Rep","address":"372 S 100 W, Provo, UT 84601","precinct":"25PR54","hd":"62","v_score":"4.069929862","decile":"6","lat":40.228752047696,"lng":-111.660582643193},{"id":"98022","name":"Amarion Schinner","party":"Dem","address":"136 W 200 S, Apt 321, Provo, UT 84601","precinct":"25PR54","hd":"62","v_score":"1.623113131","decile":"5","lat":40.23107170881,"lng":-111.661155709448},{"id":"98037","name":"Dr. Linette Denesik DVM","party":"Rep","address":"430 S 300 W, Provo, UT 84601","precinct":"25PR54","hd":"62","v_score":"2.817000428","decile":"6","lat":40.227953181513,"lng":-111.664041379102},{"id":"98043","name":"Elzy Reichert-Sawayn","party":"Dem","address":"617 S 500 W, Apt 21, Provo, UT 84601","precinct":"25PR54","hd":"62","v_score":"2.817000428","decile":"6","lat":40.225456575992,"lng":-111.667364290118},{"id":"98044","name":"Lewis Konopelski","party":"Rep","address":"331 S 300 W, Provo, UT 84601","precinct":"25PR54","hd":"62","v_score":"2.817000428","decile":"6","lat":40.229278639884,"lng":-111.663886786851},{"id":"98194","name":"Jaylee Rau PhD","party":"Rep","address":"95 W 100 S, Unit 794, Provo, UT 84603","precinct":"25PR54","hd":"62","v_score":"1.623113131","decile":"5","lat":40.232276001638,"lng":-111.66035724147},{"id":"98264","name":"Dosia Skiles-Wisoky","party":"","address":"365 W 400 S, Provo, UT 84601","precinct":"25PR54","hd":"62","v_score":"3.711952487","decile":"6","lat":40.228331469329,"lng":-111.665073847157},{"id":"98441","name":"Valentine Stoltenberg","party":"Rep","address":"248 W 400 S, Provo, UT 84601","precinct":"25PR54","hd":"62","v_score":"16.72856503","decile":"9","lat":40.228440301028,"lng":-111.663096259531},{"id":"98789","name":"Clinton Abbott-Sporer","party":"","address":"136 W 200 S, Apt 319, Provo, UT 84601","precinct":"25PR54","hd":"62","v_score":"0","decile":"1","lat":40.23107170881,"lng":-111.661155709448},{"id":"99253","name":"Casandra Hermiston","party":"Dem","address":"584 S 300 W, Provo, UT 84601","precinct":"25PR54","hd":"62","v_score":"1.193887297","decile":"4","lat":40.226243359723,"lng":-111.66404442549},{"id":"99314","name":"Shade Johnston","party":"Dem","address":"136 W 200 S, Apt 110, Provo, UT 84601","precinct":"25PR54","hd":"62","v_score":"1.193887297","decile":"4","lat":40.23107170881,"lng":-111.661155709448},{"id":"99533","name":"Cruz Miller","party":"Dem","address":"61 W 400 S, Apt 416, Provo, UT 84601","precinct":"25PR54","hd":"62","v_score":"5.268703899","decile":"7","lat":40.228313136996,"lng":-111.65979107511},{"id":"99949","name":"Dr. Neal Jacobson","party":"Dem","address":"441 W 400 S, Provo, UT 84601","precinct":"25PR54","hd":"62","v_score":"1.193887297","decile":"4","lat":40.22833845263,"lng":-111.666455526966},{"id":"100218","name":"Mr. Jettie Breitenberg","party":"","address":"547 S 300 W, Provo, UT 84601","precinct":"25PR54","hd":"62","v_score":"0","decile":"1","lat":40.226582803825,"lng":-111.66389433677},{"id":"100232","name":"Javen Greenholt","party":"Dem","address":"438 W 470 S, Provo, UT 84601","precinct":"25PR54","hd":"62","v_score":"6.462591196","decile":"7","lat":40.227515068354,"lng":-111.666783980059},{"id":"100239","name":"Naoma Wilkinson","party":"Rep","address":"322 W 400 S, Provo, UT 84601","precinct":"25PR54","hd":"62","v_score":"0","decile":"1","lat":40.228442535022,"lng":-111.66439464957},{"id":"100250","name":"Duard Kautzer","party":"Rep","address":"422 S 100 W, Provo, UT 84601","precinct":"25PR54","hd":"62","v_score":"0","decile":"1","lat":40.228043561564,"lng":-111.660585044038},{"id":"100350","name":"Ricki Hickle","party":"Rep","address":"560 S 400 W, Apt 103, Provo, UT 84601","precinct":"25PR54","hd":"62","v_score":"0","decile":"1","lat":40.226455920417,"lng":-111.665788622364},{"id":"100693","name":"Mr. Lott Friesen","party":"Rep","address":"61 W 400 S, Apt 216, Provo, UT 84601","precinct":"25PR54","hd":"62","v_score":"0","decile":"1","lat":40.228313136996,"lng":-111.65979107511},{"id":"100744","name":"Cornelious Farrell","party":"Rep","address":"444 S 300 W, Provo, UT 84601","precinct":"25PR54","hd":"62","v_score":"1.193887297","decile":"4","lat":40.227779265963,"lng":-111.664041966677},{"id":"101314","name":"Jacques Halvorson","party":"Dem","address":"136 W 200 S, Apt 322, Provo, UT 84601","precinct":"25PR54","hd":"62","v_score":"1.193887297","decile":"4","lat":40.23107170881,"lng":-111.661155709448},{"id":"101426","name":"Capitola Schimmel DDS","party":"","address":"363 S 400 W, Provo, UT 84601","precinct":"25PR54","hd":"62","v_score":"1.193887297","decile":"4","lat":40.228889750391,"lng":-111.665620628316},{"id":"103306","name":"Thelma Gaylord-Hilpert","party":"Dem","address":"588 S 300 W, Provo, UT 84601","precinct":"25PR54","hd":"62","v_score":"0","decile":"2","lat":40.226207628764,"lng":-111.664044425495},{"id":"103340","name":"Desiree Gusikowski","party":"","address":"575 S Freedom Blvd, Apt 415, Provo, UT 84601","precinct":"25PR54","hd":"62","v_score":"5.926494964","decile":"7","lat":40.226318703898,"lng":-111.662204373811},{"id":"103349","name":"Damion Rohan","party":"","address":"575 S Freedom Blvd, Apt 415, Provo, UT 84601","precinct":"25PR54","hd":"62","v_score":"5.926494964","decile":"7","lat":40.226318703898,"lng":-111.662204373811},{"id":"103516","name":"Ashton Torp","party":"Dem","address":"560 S 400 W, Apt 407, Provo, UT 84601","precinct":"25PR54","hd":"62","v_score":"0","decile":"2","lat":40.226455920417,"lng":-111.665788622364},{"id":"103628","name":"Racquel Ward-Ledner","party":"Dem","address":"474 W 470 S, Provo, UT 84601","precinct":"25PR54","hd":"62","v_score":"1.193887297","decile":"4","lat":40.22750925217,"lng":-111.667186752839},{"id":"103646","name":"Dayne Lockman","party":"","address":"77 W 500 S, Apt 306, Provo, UT 84601","precinct":"25PR54","hd":"62","v_score":"0","decile":"2","lat":40.226984709566,"lng":-111.660066939047},{"id":"104799","name":"Mrs. Liliana Berge","party":"","address":"580 S 300 W, Provo, UT 84601","precinct":"25PR54","hd":"62","v_score":"1.193887297","decile":"4","lat":40.226279090683,"lng":-111.664044425486},{"id":"104974","name":"Hurley Reynolds","party":"","address":"136 W 200 S, Apt 303, Provo, UT 84601","precinct":"25PR54","hd":"62","v_score":"0","decile":"2","lat":40.23107170881,"lng":-111.661155709448},{"id":"105058","name":"Gil Weber III","party":"Dem","address":"359 W 500 S, Provo, UT 84601","precinct":"25PR54","hd":"62","v_score":"1.193887297","decile":"4","lat":40.226998966547,"lng":-111.664986789132},{"id":"105086","name":"Lige Kreiger","party":"Rep","address":"248 W 400 S, Provo, UT 84601","precinct":"25PR54","hd":"62","v_score":"16.72856503","decile":"9","lat":40.228440301028,"lng":-111.663096259531},{"id":"105120","name":"Jeffrey Parisian","party":"Rep","address":"580 S 300 W, Provo, UT 84601","precinct":"25PR54","hd":"62","v_score":"1.193887297","decile":"4","lat":40.226279090683,"lng":-111.664044425486},{"id":"105349","name":"Cecil Heathcote DVM","party":"Rep","address":"136 W 200 S, Apt 117, Provo, UT 84601","precinct":"25PR54","hd":"62","v_score":"4.069929862","decile":"7","lat":40.23107170881,"lng":-111.661155709448},{"id":"105470","name":"Seldon Connelly","party":"Dem","address":"560 S 400 W, Apt 311, Provo, UT 84601","precinct":"25PR54","hd":"62","v_score":"1.193887297","decile":"4","lat":40.226455920417,"lng":-111.665788622364},{"id":"105518","name":"Dow Harvey","party":"Rep","address":"77 W 500 S, Apt 524, Provo, UT 84601","precinct":"25PR54","hd":"62","v_score":"7.781882349","decile":"8","lat":40.226984709566,"lng":-111.660066939047},{"id":"105687","name":"Kerrie Mueller","party":"Rep","address":"252 W 300 S, Provo, UT 84601","precinct":"25PR54","hd":"62","v_score":"4.905839784","decile":"7","lat":40.229759050922,"lng":-111.663150504941},{"id":"106549","name":"Winona Heathcote-Anderson","party":"","address":"250 S University Ave, # 112, Provo, UT 84601","precinct":"25PR54","hd":"62","v_score":"0","decile":"2","lat":40.230337471629,"lng":-111.658766013289},{"id":"106935","name":"French Jakubowski","party":"","address":"486 W 500 S, Provo, UT 84601","precinct":"25PR54","hd":"62","v_score":"0","decile":"2","lat":40.227124400033,"lng":-111.667265172338},{"id":"107455","name":"Gaven Sipes","party":"Dem","address":"77 W 500 S, Apt 433, Provo, UT 84601","precinct":"25PR54","hd":"62","v_score":"1.193887297","decile":"4","lat":40.226984709566,"lng":-111.660066939047},{"id":"107586","name":"Frank Nicolas","party":"Dem","address":"575 S Freedom Blvd, Apt 411, Provo, UT 84601","precinct":"25PR54","hd":"62","v_score":"13.61907049","decile":"9","lat":40.226318703898,"lng":-111.662204373811},{"id":"107635","name":"Ardelia Oberbrunner MD","party":"","address":"61 W 400 S, Apt 328, Provo, UT 84601","precinct":"25PR54","hd":"62","v_score":"4.214075011","decile":"7","lat":40.228313136996,"lng":-111.65979107511},{"id":"107636","name":"Reyes Walter IV","party":"","address":"61 W 400 S, Apt 328, Provo, UT 84601","precinct":"25PR54","hd":"62","v_score":"4.214075011","decile":"7","lat":40.228313136996,"lng":-111.65979107511},{"id":"107687","name":"Aubrey Medhurst-Nikolaus","party":"Dem","address":"77 W 500 S, Apt 117, Provo, UT 84601","precinct":"25PR54","hd":"62","v_score":"17.26466126","decile":"9","lat":40.226984709566,"lng":-111.660066939047},{"id":"107792","name":"Mr. Randal White","party":"Rep","address":"156 S 300 W, Provo, UT 84601","precinct":"25PR54","hd":"62","v_score":"8.284004873","decile":"8","lat":40.231600632478,"lng":-111.664027016432},{"id":"108478","name":"Carlisle Graham IV","party":"Rep","address":"575 S Freedom Blvd, Apt 225, Provo, UT 84601","precinct":"25PR54","hd":"62","v_score":"0","decile":"2","lat":40.226318703898,"lng":-111.662204373811},{"id":"108522","name":"River Kunde-Hills","party":"Dem","address":"424 S 100 W, Provo, UT 84601","precinct":"25PR54","hd":"62","v_score":"0","decile":"2","lat":40.228018716486,"lng":-111.660585127977},{"id":"109448","name":"Therman Collins","party":"Dem","address":"355 W 100 S, Provo, UT 84601","precinct":"25PR54","hd":"62","v_score":"8.284004873","decile":"8","lat":40.232285709328,"lng":-111.664893864852},{"id":"109873","name":"Dianne Gottlieb","party":"Rep","address":"136 W 200 S, Apt 326, Provo, UT 84601","precinct":"25PR54","hd":"62","v_score":"0","decile":"2","lat":40.23107170881,"lng":-111.661155709448},{"id":"109904","name":"Carroll Torphy","party":"Rep","address":"372 S 100 W, Provo, UT 84601","precinct":"25PR54","hd":"62","v_score":"0","decile":"2","lat":40.228752047696,"lng":-111.660582643193},{"id":"110114","name":"Lexie Abbott-Hickle","party":"","address":"355 W 100 S, Provo, UT 84601","precinct":"25PR54","hd":"62","v_score":"8.284004873","decile":"8","lat":40.232285709328,"lng":-111.664893864852},{"id":"110230","name":"Jessi Rogahn-Kshlerin","party":"","address":"575 S Freedom Blvd, Apt 402, Provo, UT 84601","precinct":"25PR54","hd":"62","v_score":"1.193887297","decile":"4","lat":40.226318703898,"lng":-111.662204373811},{"id":"110545","name":"Mr. Linzy Casper Jr.","party":"Rep","address":"77 W 500 S, Apt 302, Provo, UT 84601","precinct":"25PR54","hd":"62","v_score":"0","decile":"2","lat":40.226984709566,"lng":-111.660066939047},{"id":"110670","name":"Josefa Welch","party":"","address":"61 W 400 S, Apt 317, Provo, UT 84601","precinct":"25PR54","hd":"62","v_score":"4.069929862","decile":"7","lat":40.228313136996,"lng":-111.65979107511},{"id":"110860","name":"Lazaro Gleichner","party":"Rep","address":"61 W 400 S, Apt 124, Provo, UT 84601","precinct":"25PR54","hd":"62","v_score":"5.407962308","decile":"7","lat":40.228313136996,"lng":-111.65979107511},{"id":"111086","name":"Mrs. Zadie Dach DVM","party":"","address":"77 W 500 S, Apt 525, Provo, UT 84601","precinct":"25PR54","hd":"62","v_score":"1.193887297","decile":"4","lat":40.226984709566,"lng":-111.660066939047},{"id":"111194","name":"Chadrick Lindgren","party":"Dem","address":"365 S 400 W, Provo, UT 84601","precinct":"25PR54","hd":"62","v_score":"0","decile":"2","lat":40.22886527266,"lng":-111.665620712147},{"id":"111438","name":"Mr. Marquez Yundt MD","party":"","address":"341 S 300 W, Provo, UT 84601","precinct":"25PR54","hd":"62","v_score":"4.069929862","decile":"7","lat":40.229155332858,"lng":-111.663887206279},{"id":"111657","name":"Lacey Crist","party":"","address":"232 S 100 W, Provo, UT 84601","precinct":"25PR54","hd":"62","v_score":"1.193887297","decile":"4","lat":40.23056221544,"lng":-111.660576467229},{"id":"111718","name":"Mr. Crockett Bashirian I","party":"Dem","address":"474 S 300 W, Provo, UT 84601","precinct":"25PR54","hd":"62","v_score":"1.193887297","decile":"4","lat":40.227406589786,"lng":-111.664043225767},{"id":"111762","name":"Burnett Gusikowski","party":"Dem","address":"133 S 300 W, Provo, UT 84601","precinct":"25PR54","hd":"62","v_score":"0","decile":"2","lat":40.231893766348,"lng":-111.663874906172},{"id":"111875","name":"Brittany Langosh","party":"","address":"575 S Freedom Blvd, Apt 416, Provo, UT 84601","precinct":"25PR54","hd":"62","v_score":"1.193887297","decile":"4","lat":40.226318703898,"lng":-111.662204373811},{"id":"112184","name":"Audriana Bednar PhD","party":"Dem","address":"77 W 500 S, Apt 413, Provo, UT 84601","precinct":"25PR54","hd":"62","v_score":"1.193887297","decile":"4","lat":40.226984709566,"lng":-111.660066939047},{"id":"112428","name":"Makena Ferry DVM","party":"","address":"136 W 200 S, Apt 333, Provo, UT 84601","precinct":"25PR54","hd":"62","v_score":"0","decile":"2","lat":40.23107170881,"lng":-111.661155709448},{"id":"112533","name":"Jerilynn Prosacco-Kreiger","party":"Rep","address":"175 S 400 W, Apt 4, Provo, UT 84601","precinct":"25PR54","hd":"62","v_score":"1.193887297","decile":"4","lat":40.231379883704,"lng":-111.665607628041},{"id":"112627","name":"Hunter Hickle","party":"Rep","address":"480 S 400 W, Provo, UT 84601","precinct":"25PR54","hd":"62","v_score":"0","decile":"2","lat":40.227341370439,"lng":-111.665782934706},{"id":"112766","name":"Signe Brekke","party":"","address":"61 W 400 S, Apt 125, Provo, UT 84601","precinct":"25PR54","hd":"62","v_score":"0","decile":"2","lat":40.228313136996,"lng":-111.65979107511},{"id":"112795","name":"Zola Walsh","party":"","address":"575 S Freedom Blvd, Apt 222, Provo, UT 84601","precinct":"25PR54","hd":"62","v_score":"1.193887297","decile":"4","lat":40.226318703898,"lng":-111.662204373811},{"id":"113460","name":"Santo Feest","party":"","address":"558 S Freedom Blvd, Provo, UT 84601","precinct":"25PR54","hd":"62","v_score":"1.193887297","decile":"4","lat":40.226465348094,"lng":-111.662353156632},{"id":"113694","name":"Ruie Wintheiser","party":"Rep","address":"169 S 500 W, Provo, UT 84601","precinct":"25PR54","hd":"62","v_score":"4.069929862","decile":"7","lat":40.231462016844,"lng":-111.667417970956},{"id":"114355","name":"Ms. Audrianna Rice MD","party":"","address":"423 W 500 S, Apt 423, Provo, UT 84601","precinct":"25PR54","hd":"62","v_score":"0","decile":"2","lat":40.227002710019,"lng":-111.666029899946},{"id":"114918","name":"Miss Genesis Gerlach","party":"Dem","address":"260 S 100 W, Provo, UT 84601","precinct":"25PR54","hd":"62","v_score":"5.407962308","decile":"7","lat":40.230219527195,"lng":-111.660577640863},{"id":"115046","name":"Josiah Marquardt","party":"","address":"492 W 470 S, Provo, UT 84601","precinct":"25PR54","hd":"62","v_score":"0","decile":"2","lat":40.227506344079,"lng":-111.66738813923},{"id":"115148","name":"Hugo Kris","party":"Dem","address":"560 S 400 W, Apt 311, Provo, UT 84601","precinct":"25PR54","hd":"62","v_score":"1.193887297","decile":"4","lat":40.226455920417,"lng":-111.665788622364},{"id":"115980","name":"Mr. Braylen Towne IV","party":"","address":"462 S 300 W, Provo, UT 84601","precinct":"25PR54","hd":"62","v_score":"0","decile":"2","lat":40.227555660257,"lng":-111.664042722131},{"id":"116031","name":"Arjun Kuvalis Sr.","party":"Rep","address":"77 W 500 S, Apt 416, Provo, UT 84601","precinct":"25PR54","hd":"62","v_score":"4.069929862","decile":"7","lat":40.226984709566,"lng":-111.660066939047},{"id":"117188","name":"Dr. Keanu Purdy III","party":"Rep","address":"77 W 500 S, Apt 333, Provo, UT 84601","precinct":"25PR54","hd":"62","v_score":"4.069929862","decile":"7","lat":40.226984709566,"lng":-111.660066939047},{"id":"117293","name":"Penni Paucek","party":"","address":"136 W 200 S, Apt 306, Provo, UT 84601","precinct":"25PR54","hd":"62","v_score":"1.193887297","decile":"4","lat":40.23107170881,"lng":-111.661155709448},{"id":"117411","name":"Jabbar Dicki","party":"","address":"161 W 200 S, Provo, UT 84601","precinct":"25PR54","hd":"62","v_score":"1.193887297","decile":"4","lat":40.230959133233,"lng":-111.661544258682},{"id":"117805","name":"Adriana Tromp","party":"Rep","address":"77 W 500 S, Provo, UT 84601","precinct":"25PR54","hd":"62","v_score":"1.193887297","decile":"4","lat":40.226984709566,"lng":-111.660066939047},{"id":"117810","name":"Ryann O'Kon-Herman","party":"","address":"141 S 500 W, Provo, UT 84601","precinct":"25PR54","hd":"62","v_score":"1.193887297","decile":"4","lat":40.231804705984,"lng":-111.667414450133},{"id":"117917","name":"Rihanna Rogahn","party":"","address":"245 S 300 W, Provo, UT 84601","precinct":"25PR54","hd":"62","v_score":"0","decile":"2","lat":40.2304290099,"lng":-111.663882872413},{"id":"118401","name":"Kiel Schmeler","party":"Rep","address":"126 W 400 S, Apt 2, Provo, UT 84601","precinct":"25PR54","hd":"62","v_score":"0","decile":"2","lat":40.228433868434,"lng":-111.661008019268},{"id":"118541","name":"Mrs. Joni Brown","party":"","address":"474 S 300 W, Provo, UT 84601","precinct":"25PR54","hd":"62","v_score":"0","decile":"2","lat":40.227406589786,"lng":-111.664043225767},{"id":"118595","name":"Lovett Bosco","party":"","address":"292 S 100 W, Provo, UT 84601","precinct":"25PR54","hd":"62","v_score":"0","decile":"2","lat":40.229827883487,"lng":-111.660578982159},{"id":"119114","name":"Dr. Cindy Jerde","party":"Dem","address":"61 W 400 S, Apt 411, Provo, UT 84601","precinct":"25PR54","hd":"62","v_score":"1.193887297","decile":"4","lat":40.228313136996,"lng":-111.65979107511},{"id":"119127","name":"Rolland Hane","party":"Rep","address":"61 W 400 S, Apt 329, Provo, UT 84601","precinct":"25PR54","hd":"62","v_score":"0","decile":"2","lat":40.228313136996,"lng":-111.65979107511},{"id":"119290","name":"Aime Friesen DVM","party":"Dem","address":"335 W 200 S, Provo, UT 84601","precinct":"25PR54","hd":"62","v_score":"1.193887297","decile":"4","lat":40.230971709455,"lng":-111.66457836473},{"id":"119450","name":"Amil Hoppe","party":"Dem","address":"149 S 500 W, Provo, UT 84601","precinct":"25PR54","hd":"62","v_score":"1.193887297","decile":"4","lat":40.231706794801,"lng":-111.667415456083},{"id":"119451","name":"Nealie Mann","party":"","address":"149 S 500 W, Provo, UT 84601","precinct":"25PR54","hd":"62","v_score":"1.193887297","decile":"4","lat":40.231706794801,"lng":-111.667415456083},{"id":"119585","name":"Shane Carter-Funk","party":"","address":"358 W 500 S, Provo, UT 84601","precinct":"25PR54","hd":"62","v_score":"1.193887297","decile":"4","lat":40.227113555314,"lng":-111.664985773212},{"id":"119953","name":"Matt Hagenes","party":"Rep","address":"250 S University Ave, # 107, Provo, UT 84601","precinct":"25PR54","hd":"62","v_score":"1.193887297","decile":"4","lat":40.230337471629,"lng":-111.658766013289},{"id":"120009","name":"Dalton Tromp","party":"Rep","address":"77 W 500 S, Apt 319, Provo, UT 84601","precinct":"25PR54","hd":"62","v_score":"1.193887297","decile":"4","lat":40.226984709566,"lng":-111.660066939047},{"id":"120103","name":"Burgess Hansen III","party":"","address":"308 W 400 S, Provo, UT 84601","precinct":"25PR54","hd":"62","v_score":"1.193887297","decile":"4","lat":40.228441360673,"lng":-111.664168590786},{"id":"120127","name":"Leonor Towne","party":"","address":"128 W 300 S, Provo, UT 84601","precinct":"25PR54","hd":"62","v_score":"5.407962308","decile":"7","lat":40.229754300721,"lng":-111.661034115843},{"id":"120480","name":"Aurore Schultz","party":"","address":"61 W 400 S, Apt 326, Provo, UT 84601","precinct":"25PR54","hd":"62","v_score":"5.407962308","decile":"7","lat":40.228313136996,"lng":-111.65979107511},{"id":"120677","name":"Demetric Von","party":"Dem","address":"153 S 300 W, Provo, UT 84601","precinct":"25PR54","hd":"62","v_score":"1.193887297","decile":"4","lat":40.23164898879,"lng":-111.663876582762},{"id":"120797","name":"Dayse D'Amore","party":"Rep","address":"560 S 400 W, Apt 205, Provo, UT 84601","precinct":"25PR54","hd":"62","v_score":"1.193887297","decile":"4","lat":40.226455920417,"lng":-111.665788622364},{"id":"120895","name":"Dr. Moody Morissette PhD","party":"","address":"145 S 500 W, Provo, UT 84601","precinct":"25PR54","hd":"62","v_score":"1.193887297","decile":"4","lat":40.231755750393,"lng":-111.667414953108},{"id":"120929","name":"Onnie Bahringer-Gerlach","party":"Rep","address":"414 W 400 S, Provo, UT 84601","precinct":"25PR54","hd":"62","v_score":"4.069929862","decile":"7","lat":40.228450850475,"lng":-111.66601085525},{"id":"121273","name":"Devon Buckridge PhD","party":"Dem","address":"77 W 500 S, Apt 302, Provo, UT 84601","precinct":"25PR54","hd":"62","v_score":"1.193887297","decile":"4","lat":40.226984709566,"lng":-111.660066939047},{"id":"121589","name":"Dr. Sally Koelpin DVM","party":"Rep","address":"580 S 300 W, Apt 1, Provo, UT 84601","precinct":"25PR54","hd":"62","v_score":"1.193887297","decile":"4","lat":40.226279090683,"lng":-111.664044425486},{"id":"121859","name":"Marylin Braun","party":"Dem","address":"136 W 200 S, Apt 301, Provo, UT 84601","precinct":"25PR54","hd":"62","v_score":"0","decile":"2","lat":40.23107170881,"lng":-111.661155709448},{"id":"121864","name":"Kanisha Oberbrunner","party":"Rep","address":"136 W 200 S, Apt 301, Provo, UT 84601","precinct":"25PR54","hd":"62","v_score":"1.193887297","decile":"4","lat":40.23107170881,"lng":-111.661155709448},{"id":"121880","name":"Mahalia Treutel DDS","party":"Dem","address":"435 S 300 W, Provo, UT 84601","precinct":"25PR54","hd":"62","v_score":"1.193887297","decile":"4","lat":40.227903195778,"lng":-111.663891455853},{"id":"122146","name":"Lloyd Brakus Jr.","party":"Rep","address":"136 W 200 S, Apt 108, Provo, UT 84601","precinct":"25PR54","hd":"62","v_score":"0","decile":"2","lat":40.23107170881,"lng":-111.661155709448},{"id":"122185","name":"Sampson Hessel","party":"","address":"584 S 300 W, Provo, UT 84601","precinct":"25PR54","hd":"62","v_score":"1.193887297","decile":"4","lat":40.226243359723,"lng":-111.66404442549},{"id":"122245","name":"Clytie Ferry","party":"Dem","address":"136 W 200 S, Apt 327, Provo, UT 84601","precinct":"25PR54","hd":"62","v_score":"1.193887297","decile":"4","lat":40.23107170881,"lng":-111.661155709448},{"id":"122834","name":"Shellie Jakubowski","party":"Dem","address":"61 W 400 S, Provo, UT 84601","precinct":"25PR54","hd":"62","v_score":"1.193887297","decile":"4","lat":40.228313136996,"lng":-111.65979107511},{"id":"123339","name":"Denita Ortiz","party":"Rep","address":"136 W 200 S, Apt 303, Provo, UT 84601","precinct":"25PR54","hd":"62","v_score":"4.069929862","decile":"7","lat":40.23107170881,"lng":-111.661155709448},{"id":"123341","name":"Ms. Berdie Nikolaus DDS","party":"Dem","address":"77 W 500 S, Apt 318, Provo, UT 84601","precinct":"25PR54","hd":"62","v_score":"1.193887297","decile":"4","lat":40.226984709566,"lng":-111.660066939047},{"id":"123462","name":"Mrs. Johana Herzog DVM","party":"Dem","address":"77 W 500 S, Apt 429, Provo, UT 84601","precinct":"25PR54","hd":"62","v_score":"1.193887297","decile":"4","lat":40.226984709566,"lng":-111.660066939047},{"id":"123651","name":"Walker Harris","party":"Dem","address":"161 W 400 S, Apt 17, Provo, UT 84601","precinct":"25PR54","hd":"62","v_score":"1.193887297","decile":"4","lat":40.228322134412,"lng":-111.661564274786},{"id":"123775","name":"Marie Schinner","party":"","address":"175 W 500 S, Apt 104, Provo, UT 84601","precinct":"25PR54","hd":"62","v_score":"1.193887297","decile":"4","lat":40.226991311057,"lng":-111.661804199218},{"id":"123800","name":"Maceo Green","party":"Dem","address":"492 W 470 S, Provo, UT 84601","precinct":"25PR54","hd":"62","v_score":"1.193887297","decile":"4","lat":40.227506344079,"lng":-111.66738813923},{"id":"123868","name":"Kadin Mraz-Wiza","party":"Dem","address":"161 W 400 S, Apt 17, Provo, UT 84601","precinct":"25PR54","hd":"62","v_score":"1.193887297","decile":"4","lat":40.228322134412,"lng":-111.661564274786},{"id":"123905","name":"Ferd Hane","party":"Rep","address":"491 S Freedom Blvd, Apt 106, Provo, UT 84601","precinct":"25PR54","hd":"62","v_score":"6.528952915","decile":"7","lat":40.227207236622,"lng":-111.662196249887},{"id":"123949","name":"Jerry Gutkowski","party":"","address":"61 W 400 S, Apt 112, Provo, UT 84601","precinct":"25PR54","hd":"62","v_score":"1.193887297","decile":"4","lat":40.228313136996,"lng":-111.65979107511},{"id":"123952","name":"Galilea Prosacco PhD","party":"Dem","address":"220 S 400 W, Provo, UT 84601","precinct":"25PR54","hd":"62","v_score":"1.193887297","decile":"4","lat":40.230725393592,"lng":-111.665760995365},{"id":"124026","name":"Tristin Keebler","party":"","address":"61 W 400 S, Apt 112, Provo, UT 84601","precinct":"25PR54","hd":"62","v_score":"1.193887297","decile":"4","lat":40.228313136996,"lng":-111.65979107511},{"id":"124088","name":"Ms. Annice Cassin","party":"Dem","address":"77 W 500 S, Apt 403, Provo, UT 84601","precinct":"25PR54","hd":"62","v_score":"1.193887297","decile":"4","lat":40.226984709566,"lng":-111.660066939047},{"id":"124144","name":"Daijah Hodkiewicz","party":"Rep","address":"77 W 500 S, Apt 318, Provo, UT 84601","precinct":"25PR54","hd":"62","v_score":"0","decile":"2","lat":40.226984709566,"lng":-111.660066939047},{"id":"124179","name":"Dr. Zander Ziemann Sr.","party":"Dem","address":"77 W 500 S, Apt 305, Provo, UT 84601","precinct":"25PR54","hd":"62","v_score":"1.193887297","decile":"4","lat":40.226984709566,"lng":-111.660066939047},{"id":"124365","name":"Theodora Altenwerth","party":"Rep","address":"136 W 200 S, Apt 115, Provo, UT 84601","precinct":"25PR54","hd":"62","v_score":"1.193887297","decile":"4","lat":40.23107170881,"lng":-111.661155709448},{"id":"124376","name":"Adele Erdman","party":"","address":"77 W 500 S, Apt 529, Provo, UT 84601","precinct":"25PR54","hd":"62","v_score":"0","decile":"2","lat":40.226984709566,"lng":-111.660066939047},{"id":"125489","name":"Seamus Marquardt","party":"","address":"161 W 400 S, Apt 10, Provo, UT 84601","precinct":"25PR54","hd":"62","v_score":"2.876042565","decile":"6","lat":40.228322134412,"lng":-111.661564274786},{"id":"125530","name":"Muhammad Schimmel","party":"Rep","address":"423 W 500 S, Provo, UT 84601","precinct":"25PR54","hd":"62","v_score":"0","decile":"2","lat":40.227002710019,"lng":-111.666029899946},{"id":"125631","name":"Ms. Chastity Fadel DVM","party":"","address":"61 W 400 S, Apt 421, Provo, UT 84601","precinct":"25PR54","hd":"62","v_score":"0","decile":"2","lat":40.228313136996,"lng":-111.65979107511},{"id":"126069","name":"Dr. Kelby Dickens IV","party":"","address":"156 S 300 W, Provo, UT 84601","precinct":"25PR54","hd":"62","v_score":"4.214075011","decile":"7","lat":40.231600632478,"lng":-111.664027016432},{"id":"126320","name":"Marni Jaskolski DDS","party":"Rep","address":"575 S Freedom Blvd, Apt 204, Provo, UT 84601","precinct":"25PR54","hd":"62","v_score":"7.090117576","decile":"8","lat":40.226318703898,"lng":-111.662204373811},{"id":"126385","name":"Mr. Quintin Schroeder MD","party":"","address":"323 W 100 S, Provo, UT 84601","precinct":"25PR54","hd":"62","v_score":"0","decile":"2","lat":40.232285709289,"lng":-111.664377163058},{"id":"126410","name":"Dontae Rodriguez","party":"Dem","address":"560 S 400 W, Apt 203, Provo, UT 84601","precinct":"25PR54","hd":"62","v_score":"0","decile":"2","lat":40.226455920417,"lng":-111.665788622364},{"id":"126700","name":"Alvan Zboncak","party":"Dem","address":"190 S 300 W, Apt 2, Provo, UT 84601","precinct":"25PR54","hd":"62","v_score":"0","decile":"2","lat":40.231184510631,"lng":-111.664029866635},{"id":"127092","name":"Kimberly Price","party":"Dem","address":"250 S University Ave, Provo, UT 84601","precinct":"25PR54","hd":"62","v_score":"0","decile":"2","lat":40.230337471629,"lng":-111.658766013289},{"id":"127544","name":"Mrs. Gabriella Bradtke","party":"Rep","address":"431 W 200 S, Apt 8, Provo, UT 84601","precinct":"25PR54","hd":"62","v_score":"0","decile":"2","lat":40.230974610308,"lng":-111.666268620904},{"id":"127931","name":"Vergie Flatley","party":"","address":"242 W 500 S, Provo, UT 84601","precinct":"25PR54","hd":"62","v_score":"0","decile":"2","lat":40.227108301174,"lng":-111.663010673285},{"id":"128080","name":"Damaris Larson MD","party":"Rep","address":"136 W 200 S, Provo, UT 84601","precinct":"25PR54","hd":"62","v_score":"0","decile":"2","lat":40.23107170881,"lng":-111.661155709448},{"id":"128089","name":"Ali Shields","party":"Rep","address":"136 W 200 S, Apt 315, Provo, UT 84601","precinct":"25PR54","hd":"62","v_score":"0","decile":"2","lat":40.23107170881,"lng":-111.661155709448},{"id":"128345","name":"Gilford Lockman-Schaden","party":"","address":"61 W 400 S, Apt 122, Provo, UT 84601","precinct":"25PR54","hd":"62","v_score":"0","decile":"2","lat":40.228313136996,"lng":-111.65979107511},{"id":"128566","name":"Miss Tracee Gibson","party":"Dem","address":"77 W 500 S, Apt 314, Provo, UT 84601","precinct":"25PR54","hd":"62","v_score":"2.876042565","decile":"6","lat":40.226984709566,"lng":-111.660066939047},{"id":"128567","name":"Ms. Lavona Borer","party":"Dem","address":"77 W 500 S, Apt 314, Provo, UT 84601","precinct":"25PR54","hd":"62","v_score":"0","decile":"2","lat":40.226984709566,"lng":-111.660066939047},{"id":"128639","name":"Lary Bosco-Blanda","party":"Rep","address":"575 S Freedom Blvd, Apt 301, Provo, UT 84601","precinct":"25PR54","hd":"62","v_score":"0","decile":"2","lat":40.226318703898,"lng":-111.662204373811},{"id":"129047","name":"Matteo Stroman","party":"Rep","address":"354 S 400 W, Unit B, Provo, UT 84601","precinct":"25PR54","hd":"62","v_score":"0","decile":"2","lat":40.228987960939,"lng":-111.665770387038},{"id":"129763","name":"Wong Pouros","party":"Rep","address":"77 W 500 S, Apt 402, Provo, UT 84601","precinct":"25PR54","hd":"62","v_score":"0","decile":"2","lat":40.226984709566,"lng":-111.660066939047},{"id":"129771","name":"Mr. Halley Russel","party":"","address":"250 S 300 W, Provo, UT 84601","precinct":"25PR54","hd":"62","v_score":"0","decile":"2","lat":40.230355323261,"lng":-111.664033221055},{"id":"129788","name":"Clyde Schmeler","party":"Rep","address":"590 S 300 W, Provo, UT 84601","precinct":"25PR54","hd":"62","v_score":"0","decile":"2","lat":40.226189763284,"lng":-111.664044425497},{"id":"129870","name":"Chante Wiza","party":"Dem","address":"77 W 500 S, Apt 223, Provo, UT 84601","precinct":"25PR54","hd":"62","v_score":"0","decile":"2","lat":40.226984709566,"lng":-111.660066939047},{"id":"130447","name":"Hideo Bode-Tremblay","party":"Rep","address":"345 W 200 S, Provo, UT 84601","precinct":"25PR54","hd":"62","v_score":"0","decile":"2","lat":40.230971709467,"lng":-111.664739375154},{"id":"130474","name":"Docia Heller-Lemke","party":"Dem","address":"61 W 400 S, Apt 304, Provo, UT 84601","precinct":"25PR54","hd":"62","v_score":"0","decile":"2","lat":40.228313136996,"lng":-111.65979107511},{"id":"130496","name":"Ivonne Ledner-Bergstrom","party":"Dem","address":"383 W 400 S, Provo, UT 84601","precinct":"25PR54","hd":"62","v_score":"0","decile":"2","lat":40.228332979206,"lng":-111.665364494164},{"id":"130630","name":"Roosevelt Shanahan","party":"Dem","address":"329 W 100 S, Provo, UT 84601","precinct":"25PR54","hd":"62","v_score":"0","decile":"2","lat":40.232285709296,"lng":-111.664474044644},{"id":"130739","name":"Loran Nienow","party":"Dem","address":"77 W 500 S, Apt 511, Provo, UT 84601","precinct":"25PR54","hd":"62","v_score":"2.876042565","decile":"6","lat":40.226984709566,"lng":-111.660066939047},{"id":"130860","name":"Kenney Schowalter-Johns","party":"","address":"491 S Freedom Blvd, Apt 209, Provo, UT 84601","precinct":"25PR54","hd":"62","v_score":"0","decile":"2","lat":40.227207236622,"lng":-111.662196249887},{"id":"131196","name":"Bobby Ratke","party":"Rep","address":"623 S 500 W, Apt 20, Provo, UT 84601","precinct":"25PR54","hd":"62","v_score":"0","decile":"2","lat":40.225404321758,"lng":-111.667356974532},{"id":"131314","name":"Cornelia Dibbert-Windler","party":"Dem","address":"136 W 200 S, Apt 314, Provo, UT 84601","precinct":"25PR54","hd":"62","v_score":"0","decile":"2","lat":40.23107170881,"lng":-111.661155709448},{"id":"131364","name":"Shirlie Ferry","party":"","address":"136 W 200 S, Apt 107, Provo, UT 84601","precinct":"25PR54","hd":"62","v_score":"0","decile":"2","lat":40.23107170881,"lng":-111.661155709448},{"id":"131400","name":"Phoebe Lynch","party":"Rep","address":"40 W 300 S, Provo, UT 84601","precinct":"25PR54","hd":"62","v_score":"0","decile":"2","lat":40.22974893967,"lng":-111.6594265896},{"id":"131541","name":"Mr. Akeem Bergstrom MD","party":"Dem","address":"410 S 100 W, Provo, UT 84601","precinct":"25PR54","hd":"62","v_score":"0","decile":"2","lat":40.228192632035,"lng":-111.660584540402},{"id":"131608","name":"Rilla Glover PhD","party":"Dem","address":"333 W 200 S, Provo, UT 84601","precinct":"25PR54","hd":"62","v_score":"2.876042565","decile":"6","lat":40.230971709452,"lng":-111.664546162645},{"id":"132166","name":"Jeannette Torphy DVM","party":"","address":"292 S 100 W, Provo, UT 84601","precinct":"25PR54","hd":"62","v_score":"2.876042565","decile":"6","lat":40.229827883487,"lng":-111.660578982159},{"id":"132606","name":"Soledad Connelly-Pagac","party":"Dem","address":"77 W 500 S, Apt 422, Provo, UT 84601","precinct":"25PR54","hd":"62","v_score":"0","decile":"2","lat":40.226984709566,"lng":-111.660066939047},{"id":"132629","name":"Tierra West","party":"Dem","address":"136 W 200 S, Apt 114, Provo, UT 84601","precinct":"25PR54","hd":"62","v_score":"0","decile":"2","lat":40.23107170881,"lng":-111.661155709448},{"id":"133168","name":"Mr. Maury Konopelski V","party":"Dem","address":"560 S 400 W, Apt 112, Provo, UT 84601","precinct":"25PR54","hd":"62","v_score":"0","decile":"2","lat":40.226455920417,"lng":-111.665788622364},{"id":"133578","name":"Altie Feest","party":"Rep","address":"575 S Freedom Blvd, Apt 325, Provo, UT 84601","precinct":"25PR54","hd":"62","v_score":"0","decile":"2","lat":40.226318703898,"lng":-111.662204373811},{"id":"133841","name":"Citlali Runolfsdottir","party":"","address":"137 S 500 W, Provo, UT 84601","precinct":"25PR54","hd":"62","v_score":"0","decile":"2","lat":40.231853661575,"lng":-111.667413947159},{"id":"134027","name":"Virgel Thompson","party":"","address":"349 W 300 S, Provo, UT 84601","precinct":"25PR54","hd":"62","v_score":"0","decile":"2","lat":40.229056687238,"lng":-111.663887541821},{"id":"135562","name":"Angelina Stehr","party":"","address":"575 S Freedom Blvd, Apt 103, Provo, UT 84601","precinct":"25PR54","hd":"62","v_score":"2.315214949","decile":"5","lat":40.226318703898,"lng":-111.662204373811},{"id":"138094","name":"Mr. Tre Bartell","party":"","address":"519 S 300 W, Provo, UT 84601","precinct":"25PR54","hd":"62","v_score":"0","decile":"2","lat":40.22683292054,"lng":-111.663894336738},{"id":"138391","name":"Delos Bergnaum","party":"","address":"156 S 300 W, Provo, UT 84601","precinct":"25PR54","hd":"62","v_score":"1.121327652","decile":"3","lat":40.231600632478,"lng":-111.664027016432},{"id":"138450","name":"Margot Harris","party":"Rep","address":"575 S Freedom Blvd, Apt 112, Provo, UT 84601","precinct":"25PR54","hd":"62","v_score":"0","decile":"2","lat":40.226318703898,"lng":-111.662204373811},{"id":"140129","name":"Alwine Hamill","party":"Rep","address":"575 S Freedom Blvd, Apt 306, Provo, UT 84601","precinct":"25PR54","hd":"62","v_score":"21.80471057","decile":"10","lat":40.226318703898,"lng":-111.662204373811},{"id":"140694","name":"Dr. Danette Hand MD","party":"Dem","address":"431 W 200 S, Apt 2, Provo, UT 84601","precinct":"25PR54","hd":"62","v_score":"2.817000428","decile":"6","lat":40.230974610308,"lng":-111.666268620904},