[{"vid":"3368572c8d9eb7d17a7af392659e9b87fb0522ab692da6497bf7ae37fa0910ff","name":"Emeline Carter-Orn","party":"Rep","address":"444 S 400 W, Provo, UT 84601","precinct":"25PR54","hd":"62","v_score":"3.781490609","decile":"6","lat":40.22782882676853,"lng":-111.66603630874154},{"vid":"1250178","name":"Leopoldo Lueilwitz","party":"","address":"436 W 500 S, Provo, UT 84601","precinct":"25PR54","hd":"62","v_score":"15.51131257","decile":"9","lat":40.22732398297953,"lng":-111.66642783475928},{"vid":"96a0b0cf824a2456d32de6bfb4b7edfee0b3c037f435e4249edfd235d7f1eae3","name":"Estela Morissette","party":"Rep","address":"175 W 500 S, # 103, Provo, UT 84601","precinct":"25PR54","hd":"62","v_score":"7.650280567","decile":"8","lat":40.22659737072141,"lng":-111.66141866298642},{"vid":"1262206","name":"Dr. Cherish Sawayn DVM","party":"Dem","address":"462 W 200 S, Provo, UT 84601","precinct":"25PR54","hd":"62","v_score":"5.546183193","decile":"7","lat":40.23137681929253,"lng":-111.66665991761259},{"vid":"1272047","name":"Cathryn Kuhn-Schinner","party":"Dem","address":"257 S 500 W, Provo, UT 84601","precinct":"25PR54","hd":"62","v_score":"0","decile":"1","lat":40.230337612130086,"lng":-111.6670314647282},{"vid":"1288879","name":"Jerald Hauck","party":"Rep","address":"380 S Freedom Blvd, Apt 4, Provo, UT 84601","precinct":"25PR54","hd":"62","v_score":"4.069929862","decile":"6","lat":40.228953104565925,"lng":-111.66297458316342},{"vid":"1289299","name":"Dr. Bo Cronin","party":"","address":"250 S University Ave, Provo, UT 84601","precinct":"25PR54","hd":"62","v_score":"0","decile":"1","lat":40.23073122746707,"lng":-111.65953091780386},{"vid":"1316202","name":"Mrs. Maeve Wuckert DDS","party":"Rep","address":"575 S Freedom Blvd, Apt 101, Provo, UT 84601","precinct":"25PR54","hd":"62","v_score":"3.781490609","decile":"6","lat":40.226311184765635,"lng":-111.66152772009521},{"vid":"1319858","name":"Jerry Kiehn","party":"","address":"478 W 470 S, Provo, UT 84601","precinct":"25PR54","hd":"62","v_score":"1.46627566","decile":"4","lat":40.227594955698535,"lng":-111.66696574912234},{"vid":"1320668","name":"Darrian Stiedemann-Rogahn","party":"Rep","address":"575 S Freedom Blvd, Apt 206, Provo, UT 84601","precinct":"25PR54","hd":"62","v_score":"3.781490609","decile":"6","lat":40.226311184765635,"lng":-111.66152772009521},{"vid":"1344787","name":"Jayce Hettinger Sr.","party":"Dem","address":"308 W 400 S, Provo, UT 84601","precinct":"25PR54","hd":"62","v_score":"7.493443096","decile":"8","lat":40.22867094103097,"lng":-111.66423517625611},{"vid":"1354737","name":"Alana Moore MD","party":"","address":"359 W 200 S, Provo, UT 84601","precinct":"25PR54","hd":"62","v_score":"14.24014515","decile":"9","lat":40.23074262008796,"lng":-111.66500431689738},{"vid":"1c28a17eb0f0e3100d324c2d23e7ca105aebe212eaeec5bd980bea24a64e00b2","name":"Johnathon Daugherty","party":"Rep","address":"175 W 200 S, Provo, UT 84601","precinct":"25PR54","hd":"62","v_score":"1.121327652","decile":"3","lat":40.23078492400125,"lng":-111.66170937507634},{"vid":"1395255","name":"Enola Cronin","party":"Dem","address":"412 W 500 S, Provo, UT 84601","precinct":"25PR54","hd":"62","v_score":"1.193887297","decile":"3","lat":40.227279069181,"lng":-111.66600971023406},{"vid":"1418738","name":"Ollie Kerluke","party":"Rep","address":"228 S 300 W, Provo, UT 84601","precinct":"25PR54","hd":"62","v_score":"1.193887297","decile":"3","lat":40.23059935065238,"lng":-111.6643584662154},{"vid":"1445731","name":"Ashton Roberts","party":"Rep","address":"250 S 300 W, Provo, UT 84601","precinct":"25PR54","hd":"62","v_score":"0","decile":"1","lat":40.230283877227045,"lng":-111.66440782274131},{"vid":"1453282","name":"Sharif Koch IV","party":"","address":"575 S Freedom Blvd, Apt 420, Provo, UT 84601","precinct":"25PR54","hd":"62","v_score":"11.36410258","decile":"9","lat":40.226311184765635,"lng":-111.66152772009521},{"vid":"1461587","name":"Shelley Leffler","party":"","address":"40 W 300 S, Apt 111, Provo, UT 84601","precinct":"25PR54","hd":"62","v_score":"20.19482713","decile":"10","lat":40.23004857750263,"lng":-111.65945195961199},{"vid":"1493477","name":"Dr. Karl Kling","party":"Rep","address":"367 S 400 W, Provo, UT 84601","precinct":"25PR54","hd":"62","v_score":"6.724398202","decile":"8","lat":40.22891519096173,"lng":-111.66527730012857},{"vid":"1496119","name":"Mr. Camilo Beahan","party":"Dem","address":"408 S 400 W, Provo, UT 84601","precinct":"25PR54","hd":"62","v_score":"12.21925558","decile":"9","lat":40.22812387083055,"lng":-111.66600415559137},{"vid":"1509252","name":"Myrtle Grady","party":"","address":"381 S 300 W, Provo, UT 84601","precinct":"25PR54","hd":"62","v_score":"1.193887297","decile":"3","lat":40.22869667061448,"lng":-111.66370371513682},{"vid":"29ee89b54343f42d188e316b9071469c36dbe1e5d4b1a31ed87eb3852c9f4731","name":"Dr. Sharif Kihn DDS","party":"Rep","address":"177 S 300 W, Provo, UT 84601","precinct":"25PR54","hd":"62","v_score":"17.89408627","decile":"10","lat":40.23139709775147,"lng":-111.66368032749837},{"vid":"5b622376e297309d210d3687f6e40d2d0c0836f58c7a8bae615e26226a603cae","name":"Rosalinda Harvey","party":"Rep","address":"312 S 300 W, Provo, UT 84601","precinct":"25PR54","hd":"62","v_score":"0","decile":"1","lat":40.22946159642089,"lng":-111.66424337534879},{"vid":"1542406","name":"Burton Flatley","party":"Rep","address":"246 W 200 S, Provo, UT 84601","precinct":"25PR54","hd":"62","v_score":"8.633210253","decile":"8","lat":40.23128930025665,"lng":-111.66305212807436},{"vid":"1552058","name":"Jonnie Orn","party":"Dem","address":"61 W 400 S, Apt 410, Provo, UT 84601","precinct":"25PR54","hd":"62","v_score":"6.881235673","decile":"8","lat":40.22793188431221,"lng":-111.65984587026517},{"vid":"1563119","name":"Ruthie Schaefer","party":"Dem","address":"414 W 400 S, Provo, UT 84601","precinct":"25PR54","hd":"62","v_score":"5.40460374","decile":"7","lat":40.228622017118546,"lng":-111.66605630782418},{"vid":"2b6d65e0a0ac4455afad9a1cec9b3d47a78cb4b4b2da6ac638b3cefa132b79f5","name":"Maeve Hilpert-Sauer","party":"Rep","address":"264 W 200 S, Apt 7, Provo, UT 84601","precinct":"25PR54","hd":"62","v_score":"3.781490609","decile":"6","lat":40.231363414370385,"lng":-111.66318228299957},{"vid":"1577479","name":"Jared Rowe","party":"Rep","address":"491 W 200 S, Provo, UT 84601","precinct":"25PR54","hd":"62","v_score":"8.280646305","decile":"8","lat":40.230872513740245,"lng":-111.66702021988696},{"vid":"1582496","name":"Miss Khalilah Funk","party":"","address":"393 W 300 S, Provo, UT 84601","precinct":"25PR54","hd":"62","v_score":"2.315214949","decile":"5","lat":40.229452077628956,"lng":-111.66544774072132},{"vid":"1600145","name":"Orrie Hayes","party":"Rep","address":"380 S Freedom Blvd, Apt 6, Provo, UT 84601","precinct":"25PR54","hd":"62","v_score":"1.193887297","decile":"3","lat":40.228953104565925,"lng":-111.66297458316342},{"vid":"1610909","name":"Naima O'Reilly","party":"Rep","address":"456 W 470 S, Provo, UT 84601","precinct":"25PR54","hd":"62","v_score":"2.660162957","decile":"5","lat":40.22759529374654,"lng":-111.66672943810408},{"vid":"1627669","name":"Jimena Stanton MD","party":"Dem","address":"257 S 500 W, Apt 5, Provo, UT 84601","precinct":"25PR54","hd":"62","v_score":"1.193887297","decile":"3","lat":40.230337612130086,"lng":-111.6670314647282},{"vid":"1628527","name":"Dr. Marleen McClure PhD","party":"Dem","address":"61 W 400 S, Apt 431, Provo, UT 84601","precinct":"25PR54","hd":"62","v_score":"12.49472132","decile":"9","lat":40.22793188431221,"lng":-111.65984587026517},{"vid":"1647676","name":"Dr. Maricela Baumbach DVM","party":"","address":"474 W 500 S, Provo, UT 84601","precinct":"25PR54","hd":"62","v_score":"38.24567755","decile":"10","lat":40.227323338646954,"lng":-111.66687897228819},{"vid":"1664780","name":"Illya West DDS","party":"","address":"242 W 500 S, Provo, UT 84601","precinct":"25PR54","hd":"62","v_score":"0","decile":"1","lat":40.22732447294239,"lng":-111.66305722008471},{"vid":"4245f67ee9f3835dca027bacf7f8991716f62ffcc1f9ba94f02c403822ec5f83","name":"Lylah Conroy-Wisozk","party":"","address":"177 S 300 W, Provo, UT 84601","precinct":"25PR54","hd":"62","v_score":"17.89408627","decile":"10","lat":40.23139709775147,"lng":-111.66368032749837},{"vid":"1691480","name":"Clella Predovic","party":"Dem","address":"560 S 100 W, # 20, Provo, UT 84601","precinct":"25PR54","hd":"62","v_score":"5.40460374","decile":"7","lat":40.22617313634107,"lng":-111.66097123738955},{"vid":"1707043","name":"Elaina Dooley","party":"","address":"264 W 200 S, Apt 7, Provo, UT 84601","precinct":"25PR54","hd":"62","v_score":"2.315214949","decile":"5","lat":40.231363414370385,"lng":-111.66318228299957},{"vid":"1736760","name":"Monique Sauer-Orn","party":"","address":"575 S Freedom Blvd, Apt 121, Provo, UT 84601","precinct":"25PR54","hd":"62","v_score":"43.51438145","decile":"10","lat":40.226311184765635,"lng":-111.66152772009521},{"vid":"1745683","name":"Javion Ward I","party":"Dem","address":"77 W 500 S, Apt 411, Provo, UT 84601","precinct":"25PR54","hd":"62","v_score":"4.069929862","decile":"6","lat":40.226422226935725,"lng":-111.65990325573439},{"vid":"1746335","name":"Aurilla Greenfelder","party":"","address":"161 W 400 S, Apt 11, Provo, UT 84601","precinct":"25PR54","hd":"62","v_score":"18.799063","decile":"10","lat":40.228054571237706,"lng":-111.66149540967072},{"vid":"1750070","name":"Candida Mertz DDS","party":"","address":"190 S 300 W, Apt 4, Provo, UT 84601","precinct":"25PR54","hd":"62","v_score":"1.46627566","decile":"4","lat":40.23121640214658,"lng":-111.6643474541576},{"vid":"1751598","name":"Brandt Dickens","party":"Rep","address":"216 S 100 W, Provo, UT 84601","precinct":"25PR54","hd":"62","v_score":"3.61989409","decile":"6","lat":40.38528467916133,"lng":-111.85101009276586},{"vid":"1768111","name":"Tambra Little","party":"Rep","address":"358 W 500 S, Provo, UT 84601","precinct":"25PR54","hd":"62","v_score":"1.193887297","decile":"3","lat":40.227290398245486,"lng":-111.66492560268796},{"vid":"1779313","name":"Dr. Howard Reinger","party":"Rep","address":"391 S 500 W, Provo, UT 84601","precinct":"25PR54","hd":"62","v_score":"11.37977487","decile":"9","lat":40.22859828801367,"lng":-111.66709454469694},{"vid":"1781342","name":"Mrs. Tiney Douglas MD","party":"Dem","address":"474 W 500 S, Provo, UT 84601","precinct":"25PR54","hd":"62","v_score":"40.5196851","decile":"10","lat":40.227323338646954,"lng":-111.66687897228819},{"vid":"1781462","name":"Hazel Beer","party":"Rep","address":"391 W 400 S, Provo, UT 84601","precinct":"25PR54","hd":"62","v_score":"7.252084687","decile":"8","lat":40.22817565525973,"lng":-111.66546060890812},{"vid":"1787473","name":"Chandler O'Connell","party":"Dem","address":"575 S Freedom Blvd, Apt 317, Provo, UT 84601","precinct":"25PR54","hd":"62","v_score":"1.121327652","decile":"3","lat":40.226311184765635,"lng":-111.66152772009521},{"vid":"1797234","name":"Arlen Shields","party":"","address":"431 W 200 S, Apt 9, Provo, UT 84601","precinct":"25PR54","hd":"62","v_score":"3.781490609","decile":"6","lat":40.230706212896976,"lng":-111.6663458208265},{"vid":"1803216","name":"Denton Dibbert","party":"","address":"444 S 300 W, Provo, UT 84601","precinct":"25PR54","hd":"62","v_score":"0","decile":"1","lat":40.227816392534116,"lng":-111.6643426526624},{"vid":"1815815","name":"Lahoma Mueller","party":"Rep","address":"383 W 400 S, Provo, UT 84601","precinct":"25PR54","hd":"62","v_score":"7.169296324","decile":"8","lat":40.2281758541546,"lng":-111.66532025505015},{"vid":"1829004","name":"Jordy Kutch","party":"Dem","address":"125 W 500 S, Provo, UT 84601","precinct":"25PR54","hd":"62","v_score":"0","decile":"1","lat":40.22681270337571,"lng":-111.66101146225401},{"vid":"2ee0bdeee908b180d609d486e45b80adf9df60977cc281c5001f4c21abd37e02","name":"Jazlene Gleason","party":"Rep","address":"155 S 400 W, Provo, UT 84601","precinct":"25PR54","hd":"62","v_score":"17.86094514","decile":"10","lat":40.23164096897432,"lng":-111.66535888296667},{"vid":"1837576","name":"Dorla Feeney","party":"","address":"255 W 400 S, Apt 4, Provo, UT 84601","precinct":"25PR54","hd":"62","v_score":"8.217059165","decile":"8","lat":40.22816888830673,"lng":-111.6631949009157},{"vid":"a9c51b8ee667912ba83b8dd4e2205e563596279f5d00b1395290537d1263e751","name":"Buena Cormier DVM","party":"","address":"263 N 300 W, Apt 24, Provo, UT 84601","precinct":"25PR54","hd":"62","v_score":"2.744440783","decile":"5","lat":40.237464280809256,"lng":-111.66453833950796},{"vid":"1848975","name":"Jaylan Blick","party":"Dem","address":"457 S 300 W, Provo, UT 84601","precinct":"25PR54","hd":"62","v_score":"0","decile":"1","lat":40.22767599325365,"lng":-111.6636733540565},{"vid":"1856849","name":"Erastus Rolfson","party":"","address":"136 W 200 S, Apt 322, Provo, UT 84601","precinct":"25PR54","hd":"62","v_score":"2.315214949","decile":"5","lat":40.23122890339156,"lng":-111.66102464120655},{"vid":"1859554","name":"Dr. Edie Ullrich","party":"","address":"40 W 300 S, Apt 112, Provo, UT 84601","precinct":"25PR54","hd":"62","v_score":"0","decile":"1","lat":40.23004857750263,"lng":-111.65945195961199},{"vid":"9ce1554c85d37fa83d766fa7b1d118ea68a7486d0f25c5ec88100a82a770a128","name":"Dr. Hilma Brown","party":"","address":"466 S 100 W, Provo, UT 84601","precinct":"25PR54","hd":"62","v_score":"5.40460374","decile":"7","lat":40.227542672486166,"lng":-111.66083070433052},{"vid":"7e25a29f1aa4aae806c0ed3011adf5b893fc1388f953a25005dd33f7a950a90e","name":"Lorraine Treutel","party":"","address":"136 W 200 S, Apt 105, Provo, UT 84601","precinct":"25PR54","hd":"62","v_score":"1.121327652","decile":"3","lat":40.23122890339156,"lng":-111.66102464120655},{"vid":"1871592","name":"Dr. Jeremie Jerde","party":"","address":"175 W 500 S, Apt 103, Provo, UT 84601","precinct":"25PR54","hd":"62","v_score":"9.116556227","decile":"8","lat":40.22659737072141,"lng":-111.66141866298642},{"vid":"1873587","name":"Jaylin Beier","party":"Dem","address":"433 N 300 W, Apt 201, Provo, UT 84601","precinct":"25PR54","hd":"62","v_score":"5.429380732","decile":"7","lat":40.23948793281715,"lng":-111.66452205664511},{"vid":"c1f95665e2c916b8d41ec65529bbd3b51da211e95059acb5b3e33aff28b70c2e","name":"Jan Wilkinson","party":"","address":"246 W 200 S, Provo, UT 84601","precinct":"25PR54","hd":"62","v_score":"3.781490609","decile":"6","lat":40.23128930025665,"lng":-111.66305212807436},{"vid":"a6896d860ac436bab9ac40ec12e20a17dc2f8b7f9b5ba0d70f6d661712d1a296","name":"Will Lakin-Jaskolski","party":"Dem","address":"575 S Freedom Blvd, Apt 221, Provo, UT 84601","precinct":"25PR54","hd":"62","v_score":"8.216702423","decile":"8","lat":40.226311184765635,"lng":-111.66152772009521},{"vid":"1892641","name":"Mr. Eusebio Bode","party":"Dem","address":"266 S 300 W, Provo, UT 84601","precinct":"25PR54","hd":"62","v_score":"2.587603312","decile":"5","lat":40.230152317303364,"lng":-111.66430798685528},{"vid":"1892669","name":"Oral Smith","party":"Rep","address":"475 S 400 W, Apt D4, Provo, UT 84601","precinct":"25PR54","hd":"62","v_score":"0","decile":"1","lat":40.22752986737547,"lng":-111.66492213572994},{"vid":"1897795","name":"Dr. Lessie Reilly","party":"","address":"161 W 400 S, Apt 3, Provo, UT 84601","precinct":"25PR54","hd":"62","v_score":"5.530510904","decile":"7","lat":40.228054571237706,"lng":-111.66149540967072},{"vid":"1899358","name":"Jesus Rau-Hessel","party":"","address":"61 W 400 S, Apt 319, Provo, UT 84601","precinct":"25PR54","hd":"62","v_score":"32.71676543","decile":"10","lat":40.22793188431221,"lng":-111.65984587026517},{"vid":"1899359","name":"Reilly Prohaska","party":"","address":"61 W 400 S, Apt 319, Provo, UT 84601","precinct":"25PR54","hd":"62","v_score":"2.744440783","decile":"5","lat":40.22793188431221,"lng":-111.65984587026517},{"vid":"1908618","name":"Brice Jacobson","party":"Dem","address":"462 S 300 W, Provo, UT 84601","precinct":"25PR54","hd":"62","v_score":"1.46627566","decile":"4","lat":40.227616283839446,"lng":-111.66434818293834},{"vid":"1914166","name":"Nelson Glover","party":"Rep","address":"244 W 400 S, Provo, UT 84601","precinct":"25PR54","hd":"62","v_score":"2.744440783","decile":"5","lat":40.22862662980329,"lng":-111.66284954126914},{"vid":"1919055","name":"Durward Thiel","party":"Rep","address":"452 S 400 W, Provo, UT 84601","precinct":"25PR54","hd":"62","v_score":"18.49131087","decile":"10","lat":40.22768771171921,"lng":-111.66603596696714},{"vid":"1930453","name":"Mrs. Charlee Little DDS","party":"Rep","address":"344 S 400 W, Provo, UT 84601","precinct":"25PR54","hd":"62","v_score":"10.29877667","decile":"9","lat":40.229141705653234,"lng":-111.66606921966907},{"vid":"1942475","name":"Ms. Macey Barrows DVM","party":"Rep","address":"575 S Freedom Blvd, Apt 417, Provo, UT 84601","precinct":"25PR54","hd":"62","v_score":"6.74007049","decile":"8","lat":40.226311184765635,"lng":-111.66152772009521},{"vid":"53c5458f44ec7f45b0390c87585b4c19741816e03ee7dc20fd587fb2d23ea489","name":"Norma Waters","party":"","address":"575 S Freedom Blvd, Apt 221, Provo, UT 84601","precinct":"25PR54","hd":"62","v_score":"18.41762721","decile":"10","lat":40.226311184765635,"lng":-111.66152772009521},{"vid":"1953378","name":"Mrs. Mardell Lubowitz","party":"Rep","address":"359 W 200 S, Provo, UT 84601","precinct":"25PR54","hd":"62","v_score":"11.29723756","decile":"9","lat":40.23074262008796,"lng":-111.66500431689738},{"vid":"1967977","name":"Wilfred Kiehn","party":"Dem","address":"327 W 100 S, Provo, UT 84601","precinct":"25PR54","hd":"62","v_score":"6.657533174","decile":"7","lat":40.29514451447403,"lng":-111.7034357271006},{"vid":"1971080","name":"Abb Denesik MD","party":"","address":"575 S Freedom Blvd, Apt 114, Provo, UT 84601","precinct":"25PR54","hd":"62","v_score":"4.15282392","decile":"7","lat":40.226311184765635,"lng":-111.66152772009521},{"vid":"1988779","name":"Alfredo Von","party":"Rep","address":"457 S 300 W, Provo, UT 84601","precinct":"25PR54","hd":"62","v_score":"2.315214949","decile":"5","lat":40.22767599325365,"lng":-111.6636733540565},{"vid":"1990183","name":"Mr. Giovani Ratke III","party":"Rep","address":"175 W 500 S, Unit 102, Provo, UT 84601","precinct":"25PR54","hd":"62","v_score":"4.741221742","decile":"7","lat":40.22659737072141,"lng":-111.66141866298642},{"vid":"1992667","name":"Mohammed Hansen-Daniel","party":"Rep","address":"575 S Freedom Blvd, Apt 215, Provo, UT 84601","precinct":"25PR54","hd":"62","v_score":"1.623113131","decile":"4","lat":40.226311184765635,"lng":-111.66152772009521},{"vid":"1994051","name":"Hunter Mayert","party":"Rep","address":"156 S 300 W, Provo, UT 84601","precinct":"25PR54","hd":"62","v_score":"25.08008179","decile":"10","lat":40.23163472708033,"lng":-111.66435436615474},{"vid":"2002973","name":"Cassius Schimmel","party":"Rep","address":"330 S 400 W, Provo, UT 84601","precinct":"25PR54","hd":"62","v_score":"1.121327652","decile":"3","lat":40.22927755015742,"lng":-111.66606844496197},{"vid":"2003574","name":"Felicie Cormier","party":"Rep","address":"330 S 400 W, Provo, UT 84601","precinct":"25PR54","hd":"62","v_score":"2.315214949","decile":"5","lat":40.22927755015742,"lng":-111.66606844496197},{"vid":"2011808","name":"Alejandro Grant-Stracke","party":"Dem","address":"270 W 300 S, Provo, UT 84601","precinct":"25PR54","hd":"62","v_score":"0","decile":"1","lat":40.22993020214076,"lng":-111.66355570296138},{"vid":"2012108","name":"Leticia Balistreri-Tremblay","party":"Dem","address":"353 S 300 W, Provo, UT 84601","precinct":"25PR54","hd":"62","v_score":"0","decile":"1","lat":40.2289036053132,"lng":-111.66349506881},{"vid":"3e6055da4b8287afb79c5c35d9cbf1cdcd7ca5a8f6a61c4ce7286fdd697b07ea","name":"Khalid Hilll","party":"Dem","address":"61 W 400 S, Apt 126, Provo, UT 84601","precinct":"25PR54","hd":"62","v_score":"0","decile":"1","lat":40.22793188431221,"lng":-111.65984587026517},{"vid":"2014134","name":"Debrah Dietrich","party":"Dem","address":"521 S 300 W, Provo, UT 84601","precinct":"25PR54","hd":"62","v_score":"18.59933514","decile":"10","lat":40.226733817973624,"lng":-111.6637021252984},{"vid":"2015368","name":"Helena Prohaska","party":"Rep","address":"354 S 400 W, Provo, UT 84601","precinct":"25PR54","hd":"62","v_score":"7.549608095","decile":"8","lat":40.228976973731434,"lng":-111.6661422636611},{"vid":"2028849","name":"Garrick Hayes","party":"Rep","address":"390 W 500 S, Provo, UT 84601","precinct":"25PR54","hd":"62","v_score":"18.57420493","decile":"10","lat":40.22735032369906,"lng":-111.66545753559186},{"vid":"2030407","name":"Kati Bednar","party":"Dem","address":"193 S 400 W, Provo, UT 84601","precinct":"25PR54","hd":"62","v_score":"4.858449944","decile":"7","lat":40.23123066363968,"lng":-111.66537364785636},{"vid":"2031337","name":"Opal Stoltenberg","party":"Rep","address":"345 W 200 S, Provo, UT 84601","precinct":"25PR54","hd":"62","v_score":"1.121327652","decile":"3","lat":40.36109200934549,"lng":-111.74620023760461},{"vid":"2033219","name":"Ephriam Cole","party":"Dem","address":"77 W 500 S, Apt 307, Provo, UT 84601","precinct":"25PR54","hd":"62","v_score":"22.16617265","decile":"10","lat":40.226422226935725,"lng":-111.65990325573439},{"vid":"2033641","name":"Mrs. Jocelyn Harber DVM","party":"Dem","address":"433 N 300 W, Apt 201, Provo, UT 84601","precinct":"25PR54","hd":"62","v_score":"5.429380732","decile":"7","lat":40.23948793281715,"lng":-111.66452205664511},{"vid":"2035400","name":"Mollie Bode","party":"Dem","address":"380 S Freedom Blvd, Apt 9, Provo, UT 84601","precinct":"25PR54","hd":"62","v_score":"1.121327652","decile":"3","lat":40.228953104565925,"lng":-111.66297458316342},{"vid":"2036998","name":"Djuana Ebert","party":"Rep","address":"161 W 400 S, Apt 10, Provo, UT 84601","precinct":"25PR54","hd":"62","v_score":"11.74544512","decile":"9","lat":40.228054571237706,"lng":-111.66149540967072},{"vid":"2056246","name":"Marshal Bednar-Langosh","party":"Dem","address":"475 S 400 W, Apt D4, Provo, UT 84601","precinct":"25PR54","hd":"62","v_score":"0","decile":"1","lat":40.22752986737547,"lng":-111.66492213572994},{"vid":"2063452","name":"Tiarra Hilpert","party":"Rep","address":"260 S 100 W, Apt 3, Provo, UT 84601","precinct":"25PR54","hd":"62","v_score":"12.51613974","decile":"9","lat":40.23027434263956,"lng":-111.66088675291603},{"vid":"2064300","name":"Gaston Cormier","party":"","address":"136 W 200 S, Apt 108, Provo, UT 84601","precinct":"25PR54","hd":"62","v_score":"1.121327652","decile":"3","lat":40.23122890339156,"lng":-111.66102464120655},{"vid":"2064365","name":"Joey Christiansen-Keebler","party":"","address":"136 W 200 S, Apt 108, Provo, UT 84601","precinct":"25PR54","hd":"62","v_score":"1.121327652","decile":"3","lat":40.23122890339156,"lng":-111.66102464120655},{"vid":"4fc71fb4695d73eda0bb471d29b87ef2d6960cce850d49638710bedb849fe86c","name":"Barb Ledner","party":"","address":"475 S 400 W, Apt B1, Provo, UT 84601","precinct":"25PR54","hd":"62","v_score":"3.781490609","decile":"6","lat":40.22752986737547,"lng":-111.66492213572994},{"vid":"2e3b1369389e2ba302d986e9d57f910baf84a6e3df8b5dc737f1c0780cd9b138","name":"Jacklyn Streich","party":"Rep","address":"136 W 200 S, Apt 312, Provo, UT 84601","precinct":"25PR54","hd":"62","v_score":"18.26998056","decile":"10","lat":40.23122890339156,"lng":-111.66102464120655},{"vid":"2077894","name":"Branson Towne","party":"","address":"61 W 400 S, Apt 105, Provo, UT 84601","precinct":"25PR54","hd":"62","v_score":"8.280646305","decile":"8","lat":40.22793188431221,"lng":-111.65984587026517},{"vid":"9cfdca3f7fb2b6613d44f36871df1adeedfe2bee4ac44d7957a342dda98a22a6","name":"Tyquan Reinger","party":"","address":"475 S 400 W, Apt A3, Provo, UT 84601","precinct":"25PR54","hd":"62","v_score":"5.40460374","decile":"7","lat":40.22752986737547,"lng":-111.66492213572994},{"vid":"cc636349d16cda0a0cc54453941c8178c964479d5cdaa4dee1a29617db9b5163","name":"Amani Kulas","party":"Rep","address":"245 W 200 S, Provo, UT 84601","precinct":"25PR54","hd":"62","v_score":"2.998909327","decile":"6","lat":40.23080569756273,"lng":-111.66304022288156},{"vid":"2086710","name":"Annie Vandervort","party":"Rep","address":"193 S 400 W, Provo, UT 84601","precinct":"25PR54","hd":"62","v_score":"0","decile":"1","lat":40.23123066363968,"lng":-111.66537364785636},{"vid":"2092815","name":"Dr. Paxton Sporer V","party":"Rep","address":"61 W 400 S, Apt 424, Provo, UT 84601","precinct":"25PR54","hd":"62","v_score":"2.315214949","decile":"5","lat":40.22793188431221,"lng":-111.65984587026517},{"vid":"c02597fa0abc1455bbf7b4de66ee52591167cc3875f78b62a2dc498f4876a675","name":"Carmine Bechtelar II","party":"","address":"136 W 200 S, Apt 309, Provo, UT 84601","precinct":"25PR54","hd":"62","v_score":"1.121327652","decile":"3","lat":40.23122890339156,"lng":-111.66102464120655},{"vid":"328235f3ba73cfcf04291e25b4f049af3705045695cd0005613145de2eaa5e41","name":"Amparo Hammes","party":"","address":"77 W 500 S, Apt 425, Provo, UT 84601","precinct":"25PR54","hd":"62","v_score":"1.121327652","decile":"3","lat":40.226422226935725,"lng":-111.65990325573439},{"vid":"2100122","name":"Clarence Powlowski","party":"Rep","address":"575 S Freedom Blvd, Apt 307, Provo, UT 84601","precinct":"25PR54","hd":"62","v_score":"15.48823048","decile":"9","lat":40.226311184765635,"lng":-111.66152772009521},{"vid":"8ec633bea7c11a4b39d3b2139924572ac441c58f02c907b99a80ab7ccaa0477b","name":"Arbie Adams Jr.","party":"","address":"95 W 100 S, Unit 955, Provo, UT 84601","precinct":"25PR54","hd":"62","v_score":"7.995565619","decile":"8","lat":40.23125389735097,"lng":-111.66017351411631},{"vid":"2125471","name":"Pryor Mosciski","party":"Rep","address":"431 W 200 S, Apt 3, Provo, UT 84601","precinct":"25PR54","hd":"62","v_score":"2.587603312","decile":"5","lat":40.230706212896976,"lng":-111.6663458208265},{"vid":"2131321","name":"Trisha Reynolds","party":"","address":"77 W 500 S, Apt 125, Provo, UT 84601","precinct":"25PR54","hd":"62","v_score":"1.46627566","decile":"4","lat":40.226422226935725,"lng":-111.65990325573439},{"vid":"2132617","name":"Terrell Fritsch","party":"","address":"95 W 100 S, Provo, UT 84601","precinct":"25PR54","hd":"62","v_score":"1.46627566","decile":"4","lat":40.23125389735097,"lng":-111.66017351411631},{"vid":"208d2c3fdeeb126ab60d530396e67bd57cc6a54becfaccfd95418635c12166b4","name":"Mrs. Lesta Schuster","party":"","address":"228 S 300 W, Provo, UT 84601","precinct":"25PR54","hd":"62","v_score":"5.60307055","decile":"7","lat":40.23059935065238,"lng":-111.6643584662154},{"vid":"a2a5742766bcdf3f0959f024b85c8282f457b0c1ce0c20ba1797232321977b35","name":"Wiliam Parker","party":"Dem","address":"431 W 200 S, Apt 3, Provo, UT 84601","precinct":"25PR54","hd":"62","v_score":"1.46627566","decile":"4","lat":40.230706212896976,"lng":-111.6663458208265},{"vid":"2139251","name":"Jazmyne Becker","party":"Rep","address":"241 S 400 W, Apt 2, Provo, UT 84601","precinct":"25PR54","hd":"62","v_score":"1.46627566","decile":"4","lat":40.23046268396209,"lng":-111.66541045165388},{"vid":"2151019","name":"Andreas Jast","party":"Rep","address":"575 S Freedom Blvd, Apt 302, Provo, UT 84601","precinct":"25PR54","hd":"62","v_score":"2.744440783","decile":"5","lat":40.226311184765635,"lng":-111.66152772009521},{"vid":"2157004","name":"Maurice Ryan-Koepp","party":"Rep","address":"294 W 300 S, Provo, UT 84601","precinct":"25PR54","hd":"62","v_score":"3.781490609","decile":"6","lat":40.22998771663771,"lng":-111.66375637258214},{"vid":"2166099","name":"Kamron Lynch","party":"Rep","address":"61 W 400 S, Apt 201, Provo, UT 84601","precinct":"25PR54","hd":"62","v_score":"1.46627566","decile":"4","lat":40.22793188431221,"lng":-111.65984587026517},{"vid":"2166652","name":"Mrs. Sophie Leuschke DDS","party":"","address":"251 S 400 W, Provo, UT 84601","precinct":"25PR54","hd":"62","v_score":"1.46627566","decile":"4","lat":40.23032012310445,"lng":-111.665411077061},{"vid":"2169391","name":"Dr. Harriett Gutkowski","party":"Dem","address":"244 S 300 W, Provo, UT 84601","precinct":"25PR54","hd":"62","v_score":"21.56366115","decile":"10","lat":40.23041775908763,"lng":-111.66440708684145},{"vid":"5fc268dcd00cd3a9afa081d1cc0b72fdfa6864d682b887b9d8d5021bf0fc3ecc","name":"India Kozey","party":"Rep","address":"61 W 400 S, Apt 425, Provo, UT 84601","precinct":"25PR54","hd":"62","v_score":"1.121327652","decile":"3","lat":40.22793188431221,"lng":-111.65984587026517},{"vid":"2174085","name":"Benjaman Lindgren","party":"Dem","address":"61 W 400 S, Apt 426, Provo, UT 84601","precinct":"25PR54","hd":"62","v_score":"3.93832808","decile":"6","lat":40.22793188431221,"lng":-111.65984587026517},{"vid":"2178932","name":"Ms. Brandie Muller DDS","party":"Rep","address":"260 S 100 W, Apt 2, Provo, UT 84601","precinct":"25PR54","hd":"62","v_score":"23.01313801","decile":"10","lat":40.23027434263956,"lng":-111.66088675291603},{"vid":"2183185","name":"Margueritte Gerhold","party":"","address":"330 S 400 W, Provo, UT 84601","precinct":"25PR54","hd":"62","v_score":"2.315214949","decile":"5","lat":40.22927755015742,"lng":-111.66606844496197},{"vid":"363e9d271035cf7c2deff01a9c5b0918f1a65145b8354cd7056ad831d4a5a4e6","name":"Lovell Boyer II","party":"","address":"341 S 300 W, Provo, UT 84601","precinct":"25PR54","hd":"62","v_score":"15.2589308","decile":"9","lat":40.229104908008196,"lng":-111.66354659781732},{"vid":"2188536","name":"Cass Dickinson-Schumm","party":"Dem","address":"575 S Freedom Blvd, Apt 127, Provo, UT 84601","precinct":"25PR54","hd":"62","v_score":"2.315214949","decile":"5","lat":40.226311184765635,"lng":-111.66152772009521},{"vid":"c4dc690fd8d3c599330e26be0f236159e4d9098d67253a7ff65ae7a07fcd9d18","name":"Sam Hermann Jr.","party":"Rep","address":"448 W 500 S, Provo, UT 84601","precinct":"25PR54","hd":"62","v_score":"20.69989699","decile":"10","lat":40.227323768465794,"lng":-111.66657821481087},{"vid":"9f4a22779222e04ec56db0bfc21af4e382ff8d21f687922fa2a4dfb59d81ecff","name":"Waldemar Keebler","party":"Dem","address":"175 W 200 S, Provo, UT 84601","precinct":"25PR54","hd":"62","v_score":"0","decile":"1","lat":40.23078492400125,"lng":-111.66170937507634},{"vid":"2198545","name":"Dillard Daugherty","party":"","address":"191 S 300 W, Unit A, Provo, UT 84601","precinct":"25PR54","hd":"62","v_score":"9.424470668","decile":"8","lat":40.231254962144625,"lng":-111.66367931545639},{"vid":"48d1d2051be2602024239e4ec5cfbdc944ee15580146a660f56558f32f8aff58","name":"Shane Hermiston","party":"Dem","address":"354 W 300 S, Provo, UT 84601","precinct":"25PR54","hd":"62","v_score":"1.121327652","decile":"3","lat":40.230044997630785,"lng":-111.66490996715109},{"vid":"2204333","name":"Dr. Early Batz II","party":"","address":"156 S 300 W, Provo, UT 84601","precinct":"25PR54","hd":"62","v_score":"15.76105332","decile":"9","lat":40.23163472708033,"lng":-111.66435436615474},{"vid":"9fcd1282ee3ef4a4f486cb4df999d8bf2cf358a0dd945a9d868e896a68a63803","name":"Palmer Lemke","party":"","address":"444 S 300 W, Provo, UT 84601","precinct":"25PR54","hd":"62","v_score":"0","decile":"1","lat":40.227816392534116,"lng":-111.6643426526624},{"vid":"2222898","name":"Lulu Parker","party":"Dem","address":"294 W 300 S, Provo, UT 84601","precinct":"25PR54","hd":"62","v_score":"2.315214949","decile":"5","lat":40.22998771663771,"lng":-111.66375637258214},{"vid":"9f9540754aad1de5d4df4e154e547d8b7fbb5fa4ac24e0e3540e7b5b637831b0","name":"Harlan Connelly","party":"Dem","address":"61 W 400 S, Apt 205, Provo, UT 84601","precinct":"25PR54","hd":"62","v_score":"1.193887297","decile":"3","lat":40.22793188431221,"lng":-111.65984587026517},{"vid":"e8c514f772c0d56eaab31d576d79f65820b80fcceee6c4e1dd5a5609028766c3","name":"Mr. Lou Carter I","party":"","address":"467 W 400 S, Provo, UT 84601","precinct":"25PR54","hd":"62","v_score":"1.121327652","decile":"3","lat":40.228179827799956,"lng":-111.66685883970213},{"vid":"c8c6c7195e990aa317d18d7c94e6ec0c7ff274fc239939d6b5b67f345053ccda","name":"Carson Marks DVM","party":"Dem","address":"390 W 500 S, Provo, UT 84601","precinct":"25PR54","hd":"62","v_score":"33.68120686","decile":"10","lat":40.22735032369906,"lng":-111.66545753559186},{"vid":"d8830a1e7b06aed6d92a5c1db8606796d6f152fed1daeb0440fde5488c99026b","name":"Jayden Bosco","party":"","address":"235 S 400 W, Provo, UT 84601","precinct":"25PR54","hd":"62","v_score":"3.93832808","decile":"6","lat":40.051236407675695,"lng":-111.68108494573903},{"vid":"2247372","name":"Gwyneth Johnston","party":"Dem","address":"346 W 300 S, Provo, UT 84601","precinct":"25PR54","hd":"62","v_score":"1.193887297","decile":"3","lat":40.230020728652526,"lng":-111.66466497765718},{"vid":"2bfd3c6f0099efe76c6934eca1be3e9d65862fd0145056979d47ccddded4495f","name":"Kerry Berge","party":"","address":"372 S 100 W, Provo, UT 84601","precinct":"25PR54","hd":"62","v_score":"0","decile":"1","lat":40.22885056876806,"lng":-111.66096736036347},{"vid":"ec3048f8db3c5a0dbc77734eda47bd9fbab9faa76cab21f894fe0db81f54a1b5","name":"Miss Myranda Hirthe PhD","party":"Rep","address":"330 S 400 W, Provo, UT 84601","precinct":"25PR54","hd":"62","v_score":"1.121327652","decile":"3","lat":40.22927755015742,"lng":-111.66606844496197},{"vid":"2252060","name":"Camden Towne","party":"Dem","address":"171 S 300 W, Provo, UT 84601","precinct":"25PR54","hd":"62","v_score":"0","decile":"1","lat":39.97288228094944,"lng":-111.79078169302903},{"vid":"2252221","name":"Guilford Kuvalis DVM","party":"Rep","address":"61 W 400 S, Apt 124, Provo, UT 84601","precinct":"25PR54","hd":"62","v_score":"10.24124245","decile":"9","lat":40.22793188431221,"lng":-111.65984587026517},{"vid":"2252453","name":"Earnestine Hackett","party":"","address":"136 W 200 S, Apt 312, Provo, UT 84601","precinct":"25PR54","hd":"62","v_score":"6.027167436","decile":"7","lat":40.23122890339156,"lng":-111.66102464120655},{"vid":"45a32deeedd6667ce570e43b9ca9e1a159eea7d1213892aaff3dcb8b8ee1c535","name":"Shirley Grady III","party":"","address":"141 W 200 S, Provo, UT 84601","precinct":"25PR54","hd":"62","v_score":"14.28316013","decile":"9","lat":40.23066163399371,"lng":-111.66127019158287},{"vid":"d53ed24f3c301844d9ad7d56e88c4c1276c94119dfff98dffd661a3536cb1537","name":"Ms. Georgiana Lubowitz","party":"","address":"444 S 100 W, Provo, UT 84601","precinct":"25PR54","hd":"62","v_score":"2.315214949","decile":"5","lat":40.22776491056388,"lng":-111.66084093021271},{"vid":"2268551","name":"Mikeal Harris DVM","party":"Rep","address":"136 W 200 S, Apt 326, Provo, UT 84601","precinct":"25PR54","hd":"62","v_score":"1.193887297","decile":"3","lat":40.23122890339156,"lng":-111.66102464120655},{"vid":"2da451524c9cabda8e9070c312dad2cfc8d375f7bdf82af1a6c15f13342fc2ab","name":"Londyn Wehner","party":"","address":"346 W 300 S, Provo, UT 84601","precinct":"25PR54","hd":"62","v_score":"0","decile":"1","lat":40.230020728652526,"lng":-111.66466497765718},{"vid":"82d029caa668129cf3776245a6843a6c360edb7951634209730b16eee55b8ab1","name":"Crissy Quitzon-Hauck","party":"Rep","address":"349 W 300 S, Provo, UT 84601","precinct":"25PR54","hd":"62","v_score":"1.121327652","decile":"3","lat":40.22938763152057,"lng":-111.66649617940148},{"vid":"aa8a6484ac458c0dd8a340e2d436a73a93d9ef9c441416a2119adbf53e0a5623","name":"Arden Littel","party":"","address":"431 W 200 S, Apt 5, Provo, UT 84601","precinct":"25PR54","hd":"62","v_score":"1.121327652","decile":"3","lat":40.230706212896976,"lng":-111.6663458208265},{"vid":"ebaf6fbcc7ab0d2219af28dd2dd528489a16e72c79067943ff736df06a143e28","name":"Raul Lubowitz DDS","party":"","address":"443 S 300 W, Provo, UT 84601","precinct":"25PR54","hd":"62","v_score":"0","decile":"1","lat":40.22778494680442,"lng":-111.66355313934923},{"vid":"a49fb8b84b7dc3edebacf15a14947a8fa8033320b005881f67dad4d49e361742","name":"Antonio Hudson DDS","party":"Rep","address":"458 W 400 S, Provo, UT 84601","precinct":"25PR54","hd":"62","v_score":"0","decile":"1","lat":40.2286242071425,"lng":-111.66671629988375},{"vid":"e4a7dddff7a728f72d8215647238b43fe6b07906d26c0f3bd9c1e85543708771","name":"Carry Roob","party":"Dem","address":"391 W 400 S, Provo, UT 84601","precinct":"25PR54","hd":"62","v_score":"8.373412339","decile":"8","lat":40.22817565525973,"lng":-111.66546060890812},{"vid":"1ec9a0dddbfe7643fc51b0b8199689a0f0e6f62f989bd82ac8e1ddd7a7a1ada5","name":"Mr. Douglas Raynor","party":"Rep","address":"61 W 400 S, Apt 116, Provo, UT 84601","precinct":"25PR54","hd":"62","v_score":"4.064235245","decile":"6","lat":40.22793188431221,"lng":-111.65984587026517},{"vid":"2297850","name":"Dillan Reilly","party":"","address":"143 S 300 W, Provo, UT 84601","precinct":"25PR54","hd":"62","v_score":"6.881235673","decile":"8","lat":40.2317547932035,"lng":-111.66370481449503},{"vid":"2298573","name":"Wilson Tromp","party":"","address":"575 S Freedom Blvd, Apt 302, Provo, UT 84601","precinct":"25PR54","hd":"62","v_score":"4.064235245","decile":"6","lat":40.226311184765635,"lng":-111.66152772009521},{"vid":"fe9c2125f235a192b328e0c2b884fd8d23951d9ad77243d2f4f0f4e7298416b7","name":"Sheyla Lockman-Mante","party":"","address":"61 W 400 S, Apt 116, Provo, UT 84601","precinct":"25PR54","hd":"62","v_score":"1.121327652","decile":"3","lat":40.22793188431221,"lng":-111.65984587026517},{"vid":"99ddc817f4bc640c341dbc17666c722e11ea074816a38b27bbcf582e5558f718","name":"Britni Little","party":"Dem","address":"575 S Freedom Blvd, Apt 305, Provo, UT 84601","precinct":"25PR54","hd":"62","v_score":"1.193887297","decile":"3","lat":40.226311184765635,"lng":-111.66152772009521},{"vid":"2311460","name":"Vergil Goldner","party":"","address":"136 W 200 S, Apt 206, Provo, UT 84601","precinct":"25PR54","hd":"62","v_score":"2.744440783","decile":"5","lat":40.23122890339156,"lng":-111.66102464120655},{"vid":"763506784c95aa139bb0df59fa275d858b20315ee169709a4010bee5ee2bcc2f","name":"Dr. Orange Kirlin MD","party":"","address":"354 S 400 W, Provo, UT 84601","precinct":"25PR54","hd":"62","v_score":"2.744440783","decile":"5","lat":40.228976973731434,"lng":-111.6661422636611},{"vid":"caf3be02581defc81358b8417a0e4135d32a9c624d289231b0787393bba15c7e","name":"Matteo Kutch","party":"Dem","address":"322 W 400 S, Provo, UT 84601","precinct":"25PR54","hd":"62","v_score":"1.193887297","decile":"3","lat":40.22865932133379,"lng":-111.66438634272379},{"vid":"2323618","name":"Dr. Casper Tremblay DVM","party":"Dem","address":"77 W 500 S, Apt 405, Provo, UT 84601","precinct":"25PR54","hd":"62","v_score":"0","decile":"1","lat":40.226422226935725,"lng":-111.65990325573439},{"vid":"2329967","name":"Elroy Buckridge","party":"Rep","address":"185 S 400 W, Apt 2, Provo, UT 84601","precinct":"25PR54","hd":"62","v_score":"1.121327652","decile":"3","lat":40.23139555659512,"lng":-111.66535829115656},{"vid":"2341020","name":"Doretta Littel","party":"","address":"358 W 400 S, Provo, UT 84601","precinct":"25PR54","hd":"62","v_score":"3.93832808","decile":"6","lat":40.228618366255425,"lng":-111.66496631990617},{"vid":"2341764","name":"Adyson Reichert","party":"Rep","address":"136 W 200 S, Apt 206, Provo, UT 84601","precinct":"25PR54","hd":"62","v_score":"2.744440783","decile":"5","lat":40.23122890339156,"lng":-111.66102464120655},{"vid":"2343184","name":"Ms. Amanda Walker DVM","party":"","address":"575 S Freedom Blvd, Apt 403, Provo, UT 84601","precinct":"25PR54","hd":"62","v_score":"1.121327652","decile":"3","lat":40.226311184765635,"lng":-111.66152772009521},{"vid":"2344528","name":"Alissa Ebert","party":"Rep","address":"365 W 400 S, Provo, UT 84601","precinct":"25PR54","hd":"62","v_score":"0","decile":"1","lat":40.228176265386914,"lng":-111.66513836524939},{"vid":"2345003","name":"Sincere Hammes","party":"Dem","address":"61 W 400 S, Apt 410, Provo, UT 84601","precinct":"25PR54","hd":"62","v_score":"5.761032035","decile":"7","lat":40.22793188431221,"lng":-111.65984587026517},{"vid":"2346194","name":"Yoel Watsica","party":"Dem","address":"127 W 200 S, Provo, UT 84601","precinct":"25PR54","hd":"62","v_score":"1.121327652","decile":"3","lat":40.23079931355887,"lng":-111.66108036609056},{"vid":"2347587","name":"Alvis Padberg","party":"","address":"136 W 200 S, Apt 114, Provo, UT 84601","precinct":"25PR54","hd":"62","v_score":"2.315214949","decile":"5","lat":40.23122890339156,"lng":-111.66102464120655},{"vid":"2348027","name":"Fleta Bernier","party":"Dem","address":"191 S 300 W, Unit A, Provo, UT 84601","precinct":"25PR54","hd":"62","v_score":"6.481563075","decile":"7","lat":40.231254962144625,"lng":-111.66367931545639},{"vid":"2353832","name":"Canyon Veum","party":"","address":"492 W 470 S, Provo, UT 84601","precinct":"25PR54","hd":"62","v_score":"10.6918867","decile":"9","lat":40.22759477577713,"lng":-111.66709146285666},{"vid":"2357614","name":"Kendall Rolfson","party":"","address":"136 W 200 S, Apt 333, Provo, UT 84601","precinct":"25PR54","hd":"62","v_score":"2.315214949","decile":"5","lat":40.23122890339156,"lng":-111.66102464120655},{"vid":"2358101","name":"Mrs. Lillis Abshire","party":"","address":"126 W 400 S, Santaquin, UT 84655","precinct":"25PR54","hd":"62","v_score":"2.315214949","decile":"5","lat":40.22860553679501,"lng":-111.66102876003346},{"vid":"2363148","name":"Fount Sauer","party":"","address":"61 W 400 S, Apt 410, Provo, UT 84601","precinct":"25PR54","hd":"62","v_score":"5.761032035","decile":"7","lat":40.22793188431221,"lng":-111.65984587026517},{"vid":"2363858","name":"Asa Howe-Dach","party":"Rep","address":"77 W 500 S, Apt 111, Provo, UT 84601","precinct":"25PR54","hd":"62","v_score":"1.121327652","decile":"3","lat":40.226422226935725,"lng":-111.65990325573439},{"vid":"2373237","name":"Rosie Wyman DDS","party":"Rep","address":"455 W 400 S, Provo, UT 84601","precinct":"25PR54","hd":"62","v_score":"2.315214949","decile":"5","lat":40.22817924977027,"lng":-111.66668085559655},{"vid":"2373240","name":"Leopoldo Walker","party":"","address":"455 W 400 S, Provo, UT 84601","precinct":"25PR54","hd":"62","v_score":"2.315214949","decile":"5","lat":40.22817924977027,"lng":-111.66668085559655},{"vid":"2378056","name":"Tobin Pollich","party":"Rep","address":"165 S 500 W, # 165, Provo, UT 84601","precinct":"25PR54","hd":"62","v_score":"0","decile":"1","lat":40.231475767394,"lng":-111.66696565254634},{"vid":"2384539","name":"Arlis Kiehn","party":"Rep","address":"467 W 400 S, Provo, UT 84601","precinct":"25PR54","hd":"62","v_score":"3.93832808","decile":"6","lat":40.228179827799956,"lng":-111.66685883970213},{"vid":"2385399","name":"Mrs. Rosia Grady","party":"Dem","address":"61 W 400 S, Apt 105, Provo, UT 84601","precinct":"25PR54","hd":"62","v_score":"5.620483348","decile":"7","lat":40.22793188431221,"lng":-111.65984587026517},{"vid":"2387519","name":"Dr. Ladarius Ledner","party":"","address":"575 S Freedom Blvd, Apt 205, Provo, UT 84601","precinct":"25PR54","hd":"62","v_score":"1.121327652","decile":"3","lat":40.226311184765635,"lng":-111.66152772009521},{"vid":"2399743","name":"Littie Bergnaum","party":"Rep","address":"341 S 300 W, Provo, UT 84601","precinct":"25PR54","hd":"62","v_score":"6.814370645","decile":"8","lat":40.229104908008196,"lng":-111.66354659781732},{"vid":"2399944","name":"Jayme Schiller","party":"Dem","address":"61 W 400 S, Apt 208, Provo, UT 84601","precinct":"25PR54","hd":"62","v_score":"5.858606566","decile":"7","lat":40.22793188431221,"lng":-111.65984587026517},{"vid":"2404879","name":"Ms. Reese Boyle DVM","party":"Dem","address":"156 S 300 W, Provo, UT 84601","precinct":"25PR54","hd":"62","v_score":"1.121327652","decile":"3","lat":40.23163472708033,"lng":-111.66435436615474},{"vid":"2408492","name":"Christophe Roberts DDS","party":"","address":"425 S Freedom Blvd, Apt 8, Provo, UT 84601","precinct":"25PR54","hd":"62","v_score":"1.121327652","decile":"3","lat":40.22811696341133,"lng":-111.66193942086451},{"vid":"2411402","name":"Dr. Jose Kuphal V","party":"Dem","address":"189 S 500 W, Provo, UT 84601","precinct":"25PR54","hd":"62","v_score":"11.04986408","decile":"9","lat":40.23129045228516,"lng":-111.66715379020688},{"vid":"2411571","name":"Dr. Felicia Carter","party":"Rep","address":"575 S Freedom Blvd, Provo, UT 84601","precinct":"25PR54","hd":"62","v_score":"1.121327652","decile":"3","lat":40.226311184765635,"lng":-111.66152772009521},{"vid":"2418980","name":"Hershell Wehner-Kshlerin","party":"Dem","address":"575 S Freedom Blvd, Apt 421, Provo, UT 84601","precinct":"25PR54","hd":"62","v_score":"3.93832808","decile":"6","lat":40.226311184765635,"lng":-111.66152772009521},{"vid":"2419801","name":"Dr. Albina Kohler DDS","party":"","address":"161 W 400 S, Apt 8, Provo, UT 84601","precinct":"25PR54","hd":"62","v_score":"0","decile":"1","lat":40.228054571237706,"lng":-111.66149540967072},{"vid":"2424976","name":"Huy Bernhard","party":"","address":"575 S Freedom Blvd, Apt 325, Provo, UT 84601","precinct":"25PR54","hd":"62","v_score":"1.193887297","decile":"3","lat":40.226311184765635,"lng":-111.66152772009521},{"vid":"2429017","name":"Mr. Spenser Zulauf I","party":"Rep","address":"321 W 100 S, Provo, UT 84601","precinct":"25PR54","hd":"62","v_score":"1.623113131","decile":"5","lat":40.23211313663472,"lng":-111.6644656081296},{"vid":"2439711","name":"Fidelia Rosenbaum-Tromp","party":"","address":"263 N 300 W, Apt 22, Provo, UT 84601","precinct":"25PR54","hd":"62","v_score":"3.711952487","decile":"6","lat":40.237464280809256,"lng":-111.66453833950796},{"vid":"2442292","name":"Tayla Casper","party":"Dem","address":"161 W 400 S, Apt 4, Provo, UT 84601","precinct":"25PR54","hd":"62","v_score":"2.315214949","decile":"5","lat":40.228054571237706,"lng":-111.66149540967072},{"vid":"2444665","name":"Rupert Veum","party":"","address":"61 W 400 S, Apt 425, Provo, UT 84601","precinct":"25PR54","hd":"62","v_score":"0","decile":"1","lat":40.22793188431221,"lng":-111.65984587026517},{"vid":"2445135","name":"Wendy Prosacco-Weber","party":"","address":"241 S 400 W, Apt 2, Provo, UT 84601","precinct":"25PR54","hd":"62","v_score":"7.090117576","decile":"8","lat":40.23046268396209,"lng":-111.66541045165388},{"vid":"2446842","name":"Chas Rau","party":"Rep","address":"267 S 400 W, Provo, UT 84601","precinct":"25PR54","hd":"62","v_score":"18.35167816","decile":"10","lat":40.230156519349414,"lng":-111.66541202945484},{"vid":"2447703","name":"Maxwell Jenkins","party":"Rep","address":"263 N 300 W, Apt 24, Provo, UT 84601","precinct":"25PR54","hd":"62","v_score":"1.623113131","decile":"5","lat":40.237464280809256,"lng":-111.66453833950796},{"vid":"2447849","name":"Kaeden Ziemann","party":"Dem","address":"575 S Freedom Blvd, Apt 129, Provo, UT 84601","precinct":"25PR54","hd":"62","v_score":"1.121327652","decile":"3","lat":40.226311184765635,"lng":-111.66152772009521},{"vid":"2448726","name":"Sylva Stark","party":"Dem","address":"575 S Freedom Blvd, Apt 216, Provo, UT 84601","precinct":"25PR54","hd":"62","v_score":"1.121327652","decile":"3","lat":40.226311184765635,"lng":-111.66152772009521},{"vid":"2451421","name":"Shyla Mertz","party":"Dem","address":"393 W 300 S, Provo, UT 84601","precinct":"25PR54","hd":"62","v_score":"2.315214949","decile":"5","lat":40.229452077628956,"lng":-111.66544774072132},{"vid":"2452428","name":"Olar Cronin","party":"","address":"575 S Freedom Blvd, Apt 316, Provo, UT 84601","precinct":"25PR54","hd":"62","v_score":"1.121327652","decile":"3","lat":40.226311184765635,"lng":-111.66152772009521},{"vid":"2458389","name":"Colonel Bergnaum","party":"Rep","address":"61 W 400 S, Apt 305, Provo, UT 84601","precinct":"25PR54","hd":"62","v_score":"2.817000428","decile":"6","lat":40.22793188431221,"lng":-111.65984587026517},{"vid":"2458974","name":"Danielle Skiles","party":"Rep","address":"390 W 300 S, Provo, UT 84601","precinct":"25PR54","hd":"62","v_score":"4.069929862","decile":"6","lat":40.05037651262566,"lng":-111.68114563322467},{"vid":"2459560","name":"Dr. Zavion Rau PhD","party":"Rep","address":"274 W 200 S, Apt 4, Provo, UT 84601","precinct":"25PR54","hd":"62","v_score":"0","decile":"1","lat":40.23136132099733,"lng":-111.66336034489923},{"vid":"2460764","name":"Cayla Hyatt","party":"","address":"331 S 300 W, Provo, UT 84601","precinct":"25PR54","hd":"62","v_score":"0","decile":"1","lat":40.22927558937968,"lng":-111.66351111618589},{"vid":"2464550","name":"Mordechai McCullough","party":"Dem","address":"575 S Freedom Blvd, Apt 403, Provo, UT 84601","precinct":"25PR54","hd":"62","v_score":"0","decile":"1","lat":40.226311184765635,"lng":-111.66152772009521},{"vid":"2465970","name":"Treasure Green","party":"Rep","address":"617 S 500 W, Apt 23, Provo, UT 84601","precinct":"25PR54","hd":"62","v_score":"9.907118004","decile":"8","lat":40.22556507538977,"lng":-111.66638962110274},{"vid":"2472000","name":"Huldah Kuhic","party":"Dem","address":"446 W 400 S, Provo, UT 84601","precinct":"25PR54","hd":"62","v_score":"0","decile":"1","lat":40.22862340553285,"lng":-111.66647651527988},{"vid":"2472922","name":"Pairlee Stiedemann","party":"Dem","address":"575 S Freedom Blvd, Apt 120, Provo, UT 84601","precinct":"25PR54","hd":"62","v_score":"0","decile":"1","lat":40.226311184765635,"lng":-111.66152772009521},{"vid":"2472926","name":"Lacey Upton Jr.","party":"Rep","address":"95 W 100 S, Unit 1225, Provo, UT 84603","precinct":"25PR54","hd":"62","v_score":"1.46627566","decile":"4","lat":40.23125389735097,"lng":-111.66017351411631},{"vid":"2475808","name":"Gearldine Jaskolski","party":"","address":"354 W 300 S, Provo, UT 84601","precinct":"25PR54","hd":"62","v_score":"2.543234995","decile":"5","lat":40.230044997630785,"lng":-111.66490996715109},{"vid":"2477610","name":"Sina Goyette","party":"Rep","address":"575 S Freedom Blvd, Apt 212, Provo, UT 84601","precinct":"25PR54","hd":"62","v_score":"4.905839784","decile":"7","lat":40.226311184765635,"lng":-111.66152772009521},{"vid":"2480551","name":"Luigi O'Hara","party":"","address":"77 W 500 S, Apt 223, Provo, UT 84601","precinct":"25PR54","hd":"62","v_score":"0","decile":"1","lat":40.226422226935725,"lng":-111.65990325573439},{"vid":"2483448","name":"Edison Rogahn","party":"Rep","address":"273 W 400 S, Provo, UT 84601","precinct":"25PR54","hd":"62","v_score":"0","decile":"1","lat":40.382755142484484,"lng":-111.85316834733827},{"vid":"2485928","name":"Atha Abbott","party":"Rep","address":"133 S 300 W, Provo, UT 84601","precinct":"25PR54","hd":"62","v_score":"0","decile":"1","lat":40.231895771902636,"lng":-111.66369707946147},{"vid":"2493998","name":"Shelbi Swaniawski","party":"","address":"381 S 300 W, Provo, UT 84601","precinct":"25PR54","hd":"62","v_score":"0","decile":"1","lat":40.22869667061448,"lng":-111.66370371513682},{"vid":"2500002","name":"Bobby Koch-Kautzer","party":"Rep","address":"244 S 300 W, Provo, UT 84601","precinct":"25PR54","hd":"62","v_score":"1.193887297","decile":"3","lat":40.23041775908763,"lng":-111.66440708684145},{"vid":"2503315","name":"Jalissa Ziemann","party":"","address":"462 W 500 S, Provo, UT 84601","precinct":"25PR54","hd":"62","v_score":"1.193887297","decile":"3","lat":40.22732355368828,"lng":-111.66672859285852},{"vid":"2503379","name":"Michal Ritchie","party":"","address":"40 W 300 S, Apt 211, Provo, UT 84601","precinct":"25PR54","hd":"62","v_score":"4.235493435","decile":"7","lat":40.23004857750263,"lng":-111.65945195961199},{"vid":"2504211","name":"Lars Stracke","party":"Rep","address":"255 S 300 W, Provo, UT 84601","precinct":"25PR54","hd":"62","v_score":"0","decile":"1","lat":40.2303148664103,"lng":-111.66366020128343},{"vid":"2504800","name":"Cordie Schamberger DVM","party":"","address":"250 S University Ave, Apt 207, Provo, UT 84601","precinct":"25PR54","hd":"62","v_score":"0","decile":"1","lat":40.23073122746707,"lng":-111.65953091780386},{"vid":"2515617","name":"Dr. Welton Block PhD","party":"","address":"575 S Freedom Blvd, Apt 223, Provo, UT 84601","precinct":"25PR54","hd":"62","v_score":"8.709634245","decile":"8","lat":40.226311184765635,"lng":-111.66152772009521},{"vid":"2517428","name":"Miss Richelle Mosciski","party":"Rep","address":"136 W 200 S, Apt 115, Provo, UT 84601","precinct":"25PR54","hd":"62","v_score":"8.35165687","decile":"8","lat":40.23122890339156,"lng":-111.66102464120655},{"vid":"2517672","name":"Mr. Vester Dicki","party":"Dem","address":"77 W 500 S, Apt 223, Provo, UT 84601","precinct":"25PR54","hd":"62","v_score":"4.210478549","decile":"7","lat":40.226422226935725,"lng":-111.65990325573439},{"vid":"2520856","name":"Moshe Metz","party":"","address":"250 S University Ave, Provo, UT 84601","precinct":"25PR54","hd":"62","v_score":"0","decile":"1","lat":40.23073122746707,"lng":-111.65953091780386},{"vid":"2523917","name":"Dr. Peyton Jacobson","party":"Rep","address":"372 S 100 W, Provo, UT 84601","precinct":"25PR54","hd":"62","v_score":"5.693042993","decile":"7","lat":40.22885056876806,"lng":-111.66096736036347},{"vid":"2525214","name":"Khiry Von-Deckow","party":"Rep","address":"232 S 100 W, Provo, UT 84601","precinct":"25PR54","hd":"62","v_score":"1.193887297","decile":"4","lat":40.23062590466249,"lng":-111.66089176985288},{"vid":"2525834","name":"Katlyn Keeling","party":"","address":"136 W 200 S, Apt 309, Provo, UT 84601","precinct":"25PR54","hd":"62","v_score":"0","decile":"1","lat":40.23122890339156,"lng":-111.66102464120655},{"vid":"2526063","name":"Tarik Hegmann","party":"Rep","address":"623 S 500 W, Apt 19, Provo, UT 84601","precinct":"25PR54","hd":"62","v_score":"0","decile":"1","lat":40.22547143230911,"lng":-111.66621654389469},{"vid":"2526090","name":"Efrem O'Reilly PhD","party":"Dem","address":"61 W 400 S, Apt 413, Provo, UT 84601","precinct":"25PR54","hd":"62","v_score":"18.88777439","decile":"10","lat":40.22793188431221,"lng":-111.65984587026517},{"vid":"2533008","name":"Dr. Curtis Hammes","party":"Rep","address":"330 W 400 S, Provo, UT 84601","precinct":"25PR54","hd":"62","v_score":"1.623113131","decile":"5","lat":40.22861740333613,"lng":-111.6645597812158},{"vid":"2533573","name":"Deanna Lueilwitz-Herzog","party":"Dem","address":"263 N 300 W, Apt 22, Provo, UT 84601","precinct":"25PR54","hd":"62","v_score":"14.13760315","decile":"9","lat":40.237464280809256,"lng":-111.66453833950796},{"vid":"2534357","name":"Mr. Tracey Botsford I","party":"","address":"136 W 200 S, Apt 320, Provo, UT 84601","precinct":"25PR54","hd":"62","v_score":"2.817000428","decile":"6","lat":40.23122890339156,"lng":-111.66102464120655},{"vid":"2541871","name":"Dr. Aiyana Brown","party":"Dem","address":"136 W 200 S, Apt 115, Provo, UT 84601","precinct":"25PR54","hd":"62","v_score":"5.335065618","decile":"7","lat":40.23122890339156,"lng":-111.66102464120655},{"vid":"2548923","name":"Bea Lowe","party":"","address":"575 S Freedom Blvd, Apt 222, Provo, UT 84601","precinct":"25PR54","hd":"62","v_score":"1.193887297","decile":"4","lat":40.226311184765635,"lng":-111.66152772009521},{"vid":"2549488","name":"Mr. Winford Cronin","party":"Rep","address":"359 W 500 S, Provo, UT 84601","precinct":"25PR54","hd":"62","v_score":"0","decile":"1","lat":40.2268263507186,"lng":-111.6649291846303},{"vid":"2558906","name":"Emma Hyatt","party":"Rep","address":"256 W 300 S, Provo, UT 84601","precinct":"25PR54","hd":"62","v_score":"0","decile":"1","lat":40.23003770785395,"lng":-111.66320651397639},{"vid":"2561953","name":"Marolyn Weissnat","party":"Rep","address":"77 W 500 S, Apt S109, Provo, UT 84601","precinct":"25PR54","hd":"62","v_score":"1.193887297","decile":"4","lat":40.226422226935725,"lng":-111.65990325573439},{"vid":"2571312","name":"Ahmad Lemke","party":"Dem","address":"575 S Freedom Blvd, Apt 208, Provo, UT 84601","precinct":"25PR54","hd":"62","v_score":"16.53026448","decile":"9","lat":40.226311184765635,"lng":-111.66152772009521},{"vid":"2575753","name":"Lucky Kessler-Moore","party":"","address":"40 W 300 S, Apt 105, Provo, UT 84601","precinct":"25PR54","hd":"62","v_score":"0","decile":"1","lat":40.23004857750263,"lng":-111.65945195961199},{"vid":"2576395","name":"Verna Frami","party":"Dem","address":"425 S Freedom Blvd, Apt, Provo, UT 84601","precinct":"25PR54","hd":"62","v_score":"0","decile":"1","lat":40.22811696341133,"lng":-111.66193942086451},{"vid":"2576428","name":"Miss Marisol Emard DDS","party":"","address":"575 S Freedom Blvd, Apt 205, Provo, UT 84601","precinct":"25PR54","hd":"62","v_score":"1.193887297","decile":"4","lat":40.226311184765635,"lng":-111.66152772009521},{"vid":"2588025","name":"Kurt Torphy DDS","party":"Rep","address":"380 W 400 S, Provo, UT 84601","precinct":"25PR54","hd":"62","v_score":"1.623113131","decile":"5","lat":40.22861987016526,"lng":-111.66531313715915},{"vid":"2593852","name":"Morgan Thiel","party":"Dem","address":"575 S Freedom Blvd, Apt 302, Provo, UT 84601","precinct":"25PR54","hd":"62","v_score":"1.623113131","decile":"5","lat":40.226311184765635,"lng":-111.66152772009521},{"vid":"2594209","name":"Michaele Lakin-Emmerich","party":"Rep","address":"153 S 300 W, Provo, UT 84601","precinct":"25PR54","hd":"62","v_score":"0","decile":"1","lat":40.23161898027736,"lng":-111.66368085768407},{"vid":"2615762","name":"Ah VonRueden-Reichert","party":"","address":"349 W 300 S, Provo, UT 84601","precinct":"25PR54","hd":"62","v_score":"11.26156058","decile":"9","lat":40.22938763152057,"lng":-111.66649617940148},{"vid":"2630927","name":"Mae Turcotte-Zulauf","party":"","address":"575 S Freedom Blvd, Apt 320, Provo, UT 84601","precinct":"25PR54","hd":"62","v_score":"6.355720798","decile":"7","lat":40.226311184765635,"lng":-111.66152772009521},{"vid":"2631435","name":"Eathel Kutch","party":"Rep","address":"61 W 400 S, Apt 315, Provo, UT 84601","precinct":"25PR54","hd":"62","v_score":"2.817000428","decile":"6","lat":40.22793188431221,"lng":-111.65984587026517},{"vid":"2632478","name":"Tamatha Herzog","party":"Rep","address":"456 W 470 S, Provo, UT 84601","precinct":"25PR54","hd":"62","v_score":"1.193887297","decile":"4","lat":40.22759529374654,"lng":-111.66672943810408},{"vid":"2632712","name":"Falon Kiehn","party":"Dem","address":"575 S Freedom Blvd, Apt 305, Provo, UT 84601","precinct":"25PR54","hd":"62","v_score":"5.693042993","decile":"7","lat":40.226311184765635,"lng":-111.66152772009521},{"vid":"2634444","name":"Junie Hilll PhD","party":"","address":"575 S Freedom Blvd, Apt 205, Provo, UT 84601","precinct":"25PR54","hd":"62","v_score":"0","decile":"1","lat":40.226311184765635,"lng":-111.66152772009521},{"vid":"2638261","name":"Allie Dickens-Volkman","party":"Dem","address":"354 S 400 W, Provo, UT 84601","precinct":"25PR54","hd":"62","v_score":"1.193887297","decile":"4","lat":40.228976973731434,"lng":-111.6661422636611},{"vid":"2639424","name":"Desiree Flatley DVM","party":"Rep","address":"372 S 100 W, Provo, UT 84601","precinct":"25PR54","hd":"62","v_score":"4.069929862","decile":"6","lat":40.22885056876806,"lng":-111.66096736036347},{"vid":"2643472","name":"Amarion Schinner","party":"Dem","address":"136 W 200 S, Apt 321, Provo, UT 84601","precinct":"25PR54","hd":"62","v_score":"1.623113131","decile":"5","lat":40.23122890339156,"lng":-111.66102464120655},{"vid":"2643709","name":"Dr. Linette Denesik DVM","party":"Rep","address":"430 S 300 W, Provo, UT 84601","precinct":"25PR54","hd":"62","v_score":"2.817000428","decile":"6","lat":40.22789070673774,"lng":-111.66448707337335},{"vid":"2643747","name":"Elzy Reichert-Sawayn","party":"Dem","address":"617 S 500 W, Apt 21, Provo, UT 84601","precinct":"25PR54","hd":"62","v_score":"2.817000428","decile":"6","lat":40.22556507538977,"lng":-111.66638962110274},{"vid":"2643748","name":"Lewis Konopelski","party":"Rep","address":"331 S 300 W, Provo, UT 84601","precinct":"25PR54","hd":"62","v_score":"2.817000428","decile":"6","lat":40.22927558937968,"lng":-111.66351111618589},{"vid":"2644693","name":"Jaylee Rau PhD","party":"Rep","address":"95 W 100 S, Unit 794, Provo, UT 84603","precinct":"25PR54","hd":"62","v_score":"1.623113131","decile":"5","lat":40.23125389735097,"lng":-111.66017351411631},{"vid":"2646569","name":"Dosia Skiles-Wisoky","party":"","address":"365 W 400 S, Provo, UT 84601","precinct":"25PR54","hd":"62","v_score":"3.711952487","decile":"6","lat":40.228176265386914,"lng":-111.66513836524939},{"vid":"2647540","name":"Valentine Stoltenberg","party":"Rep","address":"248 W 400 S, Provo, UT 84601","precinct":"25PR54","hd":"62","v_score":"16.72856503","decile":"9","lat":40.228627270103374,"lng":-111.66303905345472},{"vid":"2651712","name":"Clinton Abbott-Sporer","party":"","address":"136 W 200 S, Apt 319, Provo, UT 84601","precinct":"25PR54","hd":"62","v_score":"0","decile":"1","lat":40.23122890339156,"lng":-111.66102464120655},{"vid":"2655932","name":"Shade Johnston","party":"Dem","address":"136 W 200 S, Apt 110, Provo, UT 84601","precinct":"25PR54","hd":"62","v_score":"1.193887297","decile":"4","lat":40.23122890339156,"lng":-111.66102464120655},{"vid":"2658298","name":"Cruz Miller","party":"Dem","address":"61 W 400 S, Apt 416, Provo, UT 84601","precinct":"25PR54","hd":"62","v_score":"5.268703899","decile":"7","lat":40.22793188431221,"lng":-111.65984587026517},{"vid":"2661842","name":"Dr. Neal Jacobson","party":"Dem","address":"441 W 400 S, Provo, UT 84601","precinct":"25PR54","hd":"62","v_score":"1.193887297","decile":"4","lat":40.22817858751895,"lng":-111.66650231974577},{"vid":"2664432","name":"Mr. Jettie Breitenberg","party":"","address":"547 S 300 W, Provo, UT 84601","precinct":"25PR54","hd":"62","v_score":"0","decile":"1","lat":40.22645951084274,"lng":-111.6636823724233},{"vid":"2664538","name":"Javen Greenholt","party":"Dem","address":"438 W 470 S, Provo, UT 84601","precinct":"25PR54","hd":"62","v_score":"6.462591196","decile":"7","lat":40.227595630956245,"lng":-111.666493126986},{"vid":"2664643","name":"Naoma Wilkinson","party":"Rep","address":"322 W 400 S, Provo, UT 84601","precinct":"25PR54","hd":"62","v_score":"0","decile":"1","lat":40.22865932133379,"lng":-111.66438634272379},{"vid":"2668608","name":"Mr. Lott Friesen","party":"Rep","address":"61 W 400 S, Apt 216, Provo, UT 84601","precinct":"25PR54","hd":"62","v_score":"0","decile":"1","lat":40.22793188431221,"lng":-111.65984587026517},{"vid":"2668947","name":"Cornelious Farrell","party":"Rep","address":"444 S 300 W, Provo, UT 84601","precinct":"25PR54","hd":"62","v_score":"1.193887297","decile":"4","lat":40.227816392534116,"lng":-111.6643426526624},{"vid":"2674680","name":"Jacques Halvorson","party":"Dem","address":"136 W 200 S, Apt 322, Provo, UT 84601","precinct":"25PR54","hd":"62","v_score":"1.193887297","decile":"4","lat":40.23122890339156,"lng":-111.66102464120655},{"vid":"2675376","name":"Capitola Schimmel DDS","party":"","address":"363 S 400 W, Provo, UT 84601","precinct":"25PR54","hd":"62","v_score":"1.193887297","decile":"4","lat":40.2289636562977,"lng":-111.66522135448996},{"vid":"2691733","name":"Desiree Gusikowski","party":"","address":"575 S Freedom Blvd, Apt 415, Provo, UT 84601","precinct":"25PR54","hd":"62","v_score":"5.926494964","decile":"7","lat":40.226311184765635,"lng":-111.66152772009521},{"vid":"2691785","name":"Damion Rohan","party":"","address":"575 S Freedom Blvd, Apt 415, Provo, UT 84601","precinct":"25PR54","hd":"62","v_score":"5.926494964","decile":"7","lat":40.226311184765635,"lng":-111.66152772009521},{"vid":"2694316","name":"Racquel Ward-Ledner","party":"Dem","address":"474 W 470 S, Provo, UT 84601","precinct":"25PR54","hd":"62","v_score":"1.193887297","decile":"4","lat":40.22759511382513,"lng":-111.66685515153895},{"vid":"2694387","name":"Dayne Lockman","party":"","address":"77 W 500 S, Apt 306, Provo, UT 84601","precinct":"25PR54","hd":"62","v_score":"0","decile":"2","lat":40.226422226935725,"lng":-111.65990325573439},{"vid":"2703799","name":"Mrs. Liliana Berge","party":"","address":"580 S 300 W, Provo, UT 84601","precinct":"25PR54","hd":"62","v_score":"1.193887297","decile":"4","lat":40.2263530057481,"lng":-111.66428336475198},{"vid":"2705193","name":"Hurley Reynolds","party":"","address":"136 W 200 S, Apt 303, Provo, UT 84601","precinct":"25PR54","hd":"62","v_score":"0","decile":"2","lat":40.23122890339156,"lng":-111.66102464120655},{"vid":"2705779","name":"Gil Weber III","party":"Dem","address":"359 W 500 S, Provo, UT 84601","precinct":"25PR54","hd":"62","v_score":"1.193887297","decile":"4","lat":40.2268263507186,"lng":-111.6649291846303},{"vid":"2705930","name":"Lige Kreiger","party":"Rep","address":"248 W 400 S, Provo, UT 84601","precinct":"25PR54","hd":"62","v_score":"16.72856503","decile":"9","lat":40.228627270103374,"lng":-111.66303905345472},{"vid":"2706046","name":"Jeffrey Parisian","party":"Rep","address":"580 S 300 W, Provo, UT 84601","precinct":"25PR54","hd":"62","v_score":"1.193887297","decile":"4","lat":40.2263530057481,"lng":-111.66428336475198},{"vid":"2708222","name":"Cecil Heathcote DVM","party":"Rep","address":"136 W 200 S, Apt 117, Provo, UT 84601","precinct":"25PR54","hd":"62","v_score":"4.069929862","decile":"7","lat":40.23122890339156,"lng":-111.66102464120655},{"vid":"2710283","name":"Dow Harvey","party":"Rep","address":"77 W 500 S, Apt 524, Provo, UT 84601","precinct":"25PR54","hd":"62","v_score":"7.781882349","decile":"8","lat":40.226422226935725,"lng":-111.65990325573439},{"vid":"2719519","name":"Winona Heathcote-Anderson","party":"","address":"250 S University Ave, # 112, Provo, UT 84601","precinct":"25PR54","hd":"62","v_score":"0","decile":"2","lat":40.23073122746707,"lng":-111.65953091780386},{"vid":"2725107","name":"French Jakubowski","party":"","address":"486 W 500 S, Provo, UT 84601","precinct":"25PR54","hd":"62","v_score":"0","decile":"2","lat":40.227323123552885,"lng":-111.6670293516488},{"vid":"2729619","name":"Gaven Sipes","party":"Dem","address":"77 W 500 S, Apt 433, Provo, UT 84601","precinct":"25PR54","hd":"62","v_score":"1.193887297","decile":"4","lat":40.226422226935725,"lng":-111.65990325573439},{"vid":"2730850","name":"Frank Nicolas","party":"Dem","address":"575 S Freedom Blvd, Apt 411, Provo, UT 84601","precinct":"25PR54","hd":"62","v_score":"13.61907049","decile":"9","lat":40.226311184765635,"lng":-111.66152772009521},{"vid":"2731652","name":"Ardelia Oberbrunner MD","party":"","address":"61 W 400 S, Apt 328, Provo, UT 84601","precinct":"25PR54","hd":"62","v_score":"4.214075011","decile":"7","lat":40.22793188431221,"lng":-111.65984587026517},{"vid":"2731653","name":"Reyes Walter IV","party":"","address":"61 W 400 S, Apt 328, Provo, UT 84601","precinct":"25PR54","hd":"62","v_score":"4.214075011","decile":"7","lat":40.22793188431221,"lng":-111.65984587026517},{"vid":"2732160","name":"Aubrey Medhurst-Nikolaus","party":"Dem","address":"77 W 500 S, Apt 117, Provo, UT 84601","precinct":"25PR54","hd":"62","v_score":"17.26466126","decile":"9","lat":40.226422226935725,"lng":-111.65990325573439},{"vid":"2734706","name":"Mr. Randal White","party":"Rep","address":"156 S 300 W, Provo, UT 84601","precinct":"25PR54","hd":"62","v_score":"8.284004873","decile":"8","lat":40.23163472708033,"lng":-111.66435436615474},{"vid":"2739086","name":"Carlisle Graham IV","party":"Rep","address":"575 S Freedom Blvd, Apt 225, Provo, UT 84601","precinct":"25PR54","hd":"62","v_score":"0","decile":"2","lat":40.226311184765635,"lng":-111.66152772009521},{"vid":"2752134","name":"Dianne Gottlieb","party":"Rep","address":"136 W 200 S, Apt 326, Provo, UT 84601","precinct":"25PR54","hd":"62","v_score":"0","decile":"2","lat":40.23122890339156,"lng":-111.66102464120655},{"vid":"2752292","name":"Carroll Torphy","party":"Rep","address":"372 S 100 W, Provo, UT 84601","precinct":"25PR54","hd":"62","v_score":"0","decile":"2","lat":40.22885056876806,"lng":-111.66096736036347},{"vid":"2755468","name":"Jessi Rogahn-Kshlerin","party":"","address":"575 S Freedom Blvd, Apt 402, Provo, UT 84601","precinct":"25PR54","hd":"62","v_score":"1.193887297","decile":"4","lat":40.226311184765635,"lng":-111.66152772009521},{"vid":"2759575","name":"Mr. Linzy Casper Jr.","party":"Rep","address":"77 W 500 S, Apt 302, Provo, UT 84601","precinct":"25PR54","hd":"62","v_score":"0","decile":"2","lat":40.226422226935725,"lng":-111.65990325573439},{"vid":"2760201","name":"Josefa Welch","party":"","address":"61 W 400 S, Apt 317, Provo, UT 84601","precinct":"25PR54","hd":"62","v_score":"4.069929862","decile":"7","lat":40.22793188431221,"lng":-111.65984587026517},{"vid":"2761081","name":"Lazaro Gleichner","party":"Rep","address":"61 W 400 S, Apt 124, Provo, UT 84601","precinct":"25PR54","hd":"62","v_score":"5.407962308","decile":"7","lat":40.22793188431221,"lng":-111.65984587026517},{"vid":"2763638","name":"Mrs. Zadie Dach DVM","party":"","address":"77 W 500 S, Apt 525, Provo, UT 84601","precinct":"25PR54","hd":"62","v_score":"1.193887297","decile":"4","lat":40.226422226935725,"lng":-111.65990325573439},{"vid":"2768875","name":"Mr. Marquez Yundt MD","party":"","address":"341 S 300 W, Provo, UT 84601","precinct":"25PR54","hd":"62","v_score":"4.069929862","decile":"7","lat":40.229104908008196,"lng":-111.66354659781732},{"vid":"2771502","name":"Lacey Crist","party":"","address":"232 S 100 W, Provo, UT 84601","precinct":"25PR54","hd":"62","v_score":"1.193887297","decile":"4","lat":40.23062590466249,"lng":-111.66089176985288},{"vid":"2772184","name":"Mr. Crockett Bashirian I","party":"Dem","address":"474 S 300 W, Provo, UT 84601","precinct":"25PR54","hd":"62","v_score":"1.193887297","decile":"4","lat":40.227528276318765,"lng":-111.66437806974346},{"vid":"2772665","name":"Burnett Gusikowski","party":"Dem","address":"133 S 300 W, Provo, UT 84601","precinct":"25PR54","hd":"62","v_score":"0","decile":"2","lat":40.231895771902636,"lng":-111.66369707946147},{"vid":"2773748","name":"Brittany Langosh","party":"","address":"575 S Freedom Blvd, Apt 416, Provo, UT 84601","precinct":"25PR54","hd":"62","v_score":"1.193887297","decile":"4","lat":40.226311184765635,"lng":-111.66152772009521},{"vid":"2776992","name":"Audriana Bednar PhD","party":"Dem","address":"77 W 500 S, Apt 413, Provo, UT 84601","precinct":"25PR54","hd":"62","v_score":"1.193887297","decile":"4","lat":40.226422226935725,"lng":-111.65990325573439},{"vid":"2779313","name":"Makena Ferry DVM","party":"","address":"136 W 200 S, Apt 333, Provo, UT 84601","precinct":"25PR54","hd":"62","v_score":"0","decile":"2","lat":40.23122890339156,"lng":-111.66102464120655},{"vid":"2780617","name":"Hunter Hickle","party":"Rep","address":"480 S 400 W, Provo, UT 84601","precinct":"25PR54","hd":"62","v_score":"0","decile":"2","lat":40.22738898905044,"lng":-111.66600836761204},{"vid":"2781976","name":"Signe Brekke","party":"","address":"61 W 400 S, Apt 125, Provo, UT 84601","precinct":"25PR54","hd":"62","v_score":"0","decile":"2","lat":40.22793188431221,"lng":-111.65984587026517},{"vid":"2782148","name":"Zola Walsh","party":"","address":"575 S Freedom Blvd, Apt 222, Provo, UT 84601","precinct":"25PR54","hd":"62","v_score":"1.193887297","decile":"4","lat":40.226311184765635,"lng":-111.66152772009521},{"vid":"2798591","name":"Miss Genesis Gerlach","party":"Dem","address":"260 S 100 W, Provo, UT 84601","precinct":"25PR54","hd":"62","v_score":"5.407962308","decile":"7","lat":40.23027434263956,"lng":-111.66088675291603},{"vid":"2799628","name":"Josiah Marquardt","party":"","address":"492 W 470 S, Provo, UT 84601","precinct":"25PR54","hd":"62","v_score":"0","decile":"2","lat":40.22759477577713,"lng":-111.66709146285666},{"vid":"2810009","name":"Mr. Braylen Towne IV","party":"","address":"462 S 300 W, Provo, UT 84601","precinct":"25PR54","hd":"62","v_score":"0","decile":"2","lat":40.227616283839446,"lng":-111.66434818293834},{"vid":"2810427","name":"Arjun Kuvalis Sr.","party":"Rep","address":"77 W 500 S, Apt 416, Provo, UT 84601","precinct":"25PR54","hd":"62","v_score":"4.069929862","decile":"7","lat":40.226422226935725,"lng":-111.65990325573439},{"vid":"2821376","name":"Dr. Keanu Purdy III","party":"Rep","address":"77 W 500 S, Apt 333, Provo, UT 84601","precinct":"25PR54","hd":"62","v_score":"4.069929862","decile":"7","lat":40.226422226935725,"lng":-111.65990325573439},{"vid":"2821877","name":"Penni Paucek","party":"","address":"136 W 200 S, Apt 306, Provo, UT 84601","precinct":"25PR54","hd":"62","v_score":"1.193887297","decile":"4","lat":40.23122890339156,"lng":-111.66102464120655},{"vid":"2822445","name":"Jabbar Dicki","party":"","address":"161 W 200 S, Provo, UT 84601","precinct":"25PR54","hd":"62","v_score":"1.193887297","decile":"4","lat":40.23079535158895,"lng":-111.66146631970655},{"vid":"2826503","name":"Adriana Tromp","party":"Rep","address":"77 W 500 S, Provo, UT 84601","precinct":"25PR54","hd":"62","v_score":"1.193887297","decile":"4","lat":40.226422226935725,"lng":-111.65990325573439},{"vid":"2826523","name":"Ryann O'Kon-Herman","party":"","address":"141 S 500 W, Provo, UT 84601","precinct":"25PR54","hd":"62","v_score":"1.193887297","decile":"4","lat":40.231830373561316,"lng":-111.66687998148495},{"vid":"2827460","name":"Rihanna Rogahn","party":"","address":"245 S 300 W, Provo, UT 84601","precinct":"25PR54","hd":"62","v_score":"0","decile":"2","lat":40.23041433903173,"lng":-111.66361318094617},{"vid":"2832206","name":"Kiel Schmeler","party":"Rep","address":"126 W 400 S, Apt 2, Provo, UT 84601","precinct":"25PR54","hd":"62","v_score":"0","decile":"2","lat":40.22860553679501,"lng":-111.66102876003346},{"vid":"2834452","name":"Mrs. Joni Brown","party":"","address":"474 S 300 W, Provo, UT 84601","precinct":"25PR54","hd":"62","v_score":"0","decile":"2","lat":40.227528276318765,"lng":-111.66437806974346},{"vid":"2834969","name":"Lovett Bosco","party":"","address":"292 S 100 W, Provo, UT 84601","precinct":"25PR54","hd":"62","v_score":"0","decile":"2","lat":40.229893747288955,"lng":-111.66080912679737},{"vid":"2840100","name":"Dr. Cindy Jerde","party":"Dem","address":"61 W 400 S, Apt 411, Provo, UT 84601","precinct":"25PR54","hd":"62","v_score":"1.193887297","decile":"4","lat":40.22793188431221,"lng":-111.65984587026517},{"vid":"2840215","name":"Rolland Hane","party":"Rep","address":"61 W 400 S, Apt 329, Provo, UT 84601","precinct":"25PR54","hd":"62","v_score":"0","decile":"2","lat":40.22793188431221,"lng":-111.65984587026517},{"vid":"2844584","name":"Shane Carter-Funk","party":"","address":"358 W 500 S, Provo, UT 84601","precinct":"25PR54","hd":"62","v_score":"1.193887297","decile":"4","lat":40.227290398245486,"lng":-111.66492560268796},{"vid":"2850389","name":"Matt Hagenes","party":"Rep","address":"250 S University Ave, # 107, Provo, UT 84601","precinct":"25PR54","hd":"62","v_score":"1.193887297","decile":"4","lat":40.23073122746707,"lng":-111.65953091780386},{"vid":"2850907","name":"Dalton Tromp","party":"Rep","address":"77 W 500 S, Apt 319, Provo, UT 84601","precinct":"25PR54","hd":"62","v_score":"1.193887297","decile":"4","lat":40.226422226935725,"lng":-111.65990325573439},{"vid":"2851704","name":"Burgess Hansen III","party":"","address":"308 W 400 S, Provo, UT 84601","precinct":"25PR54","hd":"62","v_score":"1.193887297","decile":"4","lat":40.22867094103097,"lng":-111.66423517625611},{"vid":"2852290","name":"Leonor Towne","party":"","address":"128 W 300 S, Provo, UT 84601","precinct":"25PR54","hd":"62","v_score":"5.407962308","decile":"7","lat":40.29203503847015,"lng":-111.69857308358559},{"vid":"2856402","name":"Aurore Schultz","party":"","address":"61 W 400 S, Apt 326, Provo, UT 84601","precinct":"25PR54","hd":"62","v_score":"5.407962308","decile":"7","lat":40.22793188431221,"lng":-111.65984587026517},{"vid":"2858051","name":"Demetric Von","party":"Dem","address":"153 S 300 W, Provo, UT 84601","precinct":"25PR54","hd":"62","v_score":"1.193887297","decile":"4","lat":40.23161898027736,"lng":-111.66368085768407},{"vid":"2860411","name":"Dr. Moody Morissette PhD","party":"","address":"145 S 500 W, Provo, UT 84601","precinct":"25PR54","hd":"62","v_score":"1.193887297","decile":"4","lat":40.294755238839976,"lng":-111.70727411709818},{"vid":"2860661","name":"Onnie Bahringer-Gerlach","party":"Rep","address":"414 W 400 S, Provo, UT 84601","precinct":"25PR54","hd":"62","v_score":"4.069929862","decile":"7","lat":40.228622017118546,"lng":-111.66605630782418},{"vid":"2862917","name":"Devon Buckridge PhD","party":"Dem","address":"77 W 500 S, Apt 302, Provo, UT 84601","precinct":"25PR54","hd":"62","v_score":"1.193887297","decile":"4","lat":40.226422226935725,"lng":-111.65990325573439},{"vid":"2870927","name":"Dr. Sally Koelpin DVM","party":"Rep","address":"580 S 300 W, Apt 1, Provo, UT 84601","precinct":"25PR54","hd":"62","v_score":"1.193887297","decile":"4","lat":40.2263530057481,"lng":-111.66428336475198},{"vid":"2874191","name":"Marylin Braun","party":"Dem","address":"136 W 200 S, Apt 301, Provo, UT 84601","precinct":"25PR54","hd":"62","v_score":"0","decile":"2","lat":40.23122890339156,"lng":-111.66102464120655},{"vid":"2874315","name":"Kanisha Oberbrunner","party":"Rep","address":"136 W 200 S, Apt 301, Provo, UT 84601","precinct":"25PR54","hd":"62","v_score":"1.193887297","decile":"4","lat":40.23122890339156,"lng":-111.66102464120655},{"vid":"2874669","name":"Mahalia Treutel DDS","party":"Dem","address":"435 S 300 W, Provo, UT 84601","precinct":"25PR54","hd":"62","v_score":"1.193887297","decile":"4","lat":40.227922356114924,"lng":-111.6635524580669},{"vid":"2877232","name":"Lloyd Brakus Jr.","party":"Rep","address":"136 W 200 S, Apt 108, Provo, UT 84601","precinct":"25PR54","hd":"62","v_score":"0","decile":"2","lat":40.23122890339156,"lng":-111.66102464120655},{"vid":"2878539","name":"Clytie Ferry","party":"Dem","address":"136 W 200 S, Apt 327, Provo, UT 84601","precinct":"25PR54","hd":"62","v_score":"1.193887297","decile":"4","lat":40.23122890339156,"lng":-111.66102464120655},{"vid":"2883964","name":"Shellie Jakubowski","party":"Dem","address":"61 W 400 S, Provo, UT 84601","precinct":"25PR54","hd":"62","v_score":"1.193887297","decile":"4","lat":40.22793188431221,"lng":-111.65984587026517},{"vid":"2887121","name":"Denita Ortiz","party":"Rep","address":"136 W 200 S, Apt 303, Provo, UT 84601","precinct":"25PR54","hd":"62","v_score":"4.069929862","decile":"7","lat":40.23122890339156,"lng":-111.66102464120655},{"vid":"2887123","name":"Ms. Berdie Nikolaus DDS","party":"Dem","address":"77 W 500 S, Apt 318, Provo, UT 84601","precinct":"25PR54","hd":"62","v_score":"1.193887297","decile":"4","lat":40.226422226935725,"lng":-111.65990325573439},{"vid":"2887419","name":"Mrs. Johana Herzog DVM","party":"Dem","address":"77 W 500 S, Apt 429, Provo, UT 84601","precinct":"25PR54","hd":"62","v_score":"1.193887297","decile":"4","lat":40.226422226935725,"lng":-111.65990325573439},{"vid":"2888047","name":"Walker Harris","party":"Dem","address":"161 W 400 S, Apt 17, Provo, UT 84601","precinct":"25PR54","hd":"62","v_score":"1.193887297","decile":"4","lat":40.228054571237706,"lng":-111.66149540967072},{"vid":"2888493","name":"Marie Schinner","party":"","address":"175 W 500 S, Apt 104, Provo, UT 84601","precinct":"25PR54","hd":"62","v_score":"1.193887297","decile":"4","lat":40.22659737072141,"lng":-111.66141866298642},{"vid":"2888553","name":"Maceo Green","party":"Dem","address":"492 W 470 S, Provo, UT 84601","precinct":"25PR54","hd":"62","v_score":"1.193887297","decile":"4","lat":40.22759477577713,"lng":-111.66709146285666},{"vid":"2888770","name":"Kadin Mraz-Wiza","party":"Dem","address":"161 W 400 S, Apt 17, Provo, UT 84601","precinct":"25PR54","hd":"62","v_score":"1.193887297","decile":"4","lat":40.228054571237706,"lng":-111.66149540967072},{"vid":"2889023","name":"Jerry Gutkowski","party":"","address":"61 W 400 S, Apt 112, Provo, UT 84601","precinct":"25PR54","hd":"62","v_score":"1.193887297","decile":"4","lat":40.22793188431221,"lng":-111.65984587026517},{"vid":"2889026","name":"Galilea Prosacco PhD","party":"Dem","address":"220 S 400 W, Provo, UT 84601","precinct":"25PR54","hd":"62","v_score":"1.193887297","decile":"4","lat":40.23072497525094,"lng":-111.66598992645693},{"vid":"2889155","name":"Tristin Keebler","party":"","address":"61 W 400 S, Apt 112, Provo, UT 84601","precinct":"25PR54","hd":"62","v_score":"1.193887297","decile":"4","lat":40.22793188431221,"lng":-111.65984587026517},{"vid":"2889291","name":"Ms. Annice Cassin","party":"Dem","address":"77 W 500 S, Apt 403, Provo, UT 84601","precinct":"25PR54","hd":"62","v_score":"1.193887297","decile":"4","lat":40.226422226935725,"lng":-111.65990325573439},{"vid":"2889374","name":"Daijah Hodkiewicz","party":"Rep","address":"77 W 500 S, Apt 318, Provo, UT 84601","precinct":"25PR54","hd":"62","v_score":"0","decile":"2","lat":40.226422226935725,"lng":-111.65990325573439},{"vid":"2889437","name":"Dr. Zander Ziemann Sr.","party":"Dem","address":"77 W 500 S, Apt 305, Provo, UT 84601","precinct":"25PR54","hd":"62","v_score":"1.193887297","decile":"4","lat":40.226422226935725,"lng":-111.65990325573439},{"vid":"2889771","name":"Theodora Altenwerth","party":"Rep","address":"136 W 200 S, Apt 115, Provo, UT 84601","precinct":"25PR54","hd":"62","v_score":"1.193887297","decile":"4","lat":40.23122890339156,"lng":-111.66102464120655},{"vid":"2889792","name":"Adele Erdman","party":"","address":"77 W 500 S, Apt 529, Provo, UT 84601","precinct":"25PR54","hd":"62","v_score":"0","decile":"2","lat":40.226422226935725,"lng":-111.65990325573439},{"vid":"2900340","name":"Seamus Marquardt","party":"","address":"161 W 400 S, Apt 10, Provo, UT 84601","precinct":"25PR54","hd":"62","v_score":"2.876042565","decile":"6","lat":40.228054571237706,"lng":-111.66149540967072},{"vid":"2901369","name":"Ms. Chastity Fadel DVM","party":"","address":"61 W 400 S, Apt 421, Provo, UT 84601","precinct":"25PR54","hd":"62","v_score":"0","decile":"2","lat":40.22793188431221,"lng":-111.65984587026517},{"vid":"2906217","name":"Dr. Kelby Dickens IV","party":"","address":"156 S 300 W, Provo, UT 84601","precinct":"25PR54","hd":"62","v_score":"4.214075011","decile":"7","lat":40.23163472708033,"lng":-111.66435436615474},{"vid":"2908817","name":"Marni Jaskolski DDS","party":"Rep","address":"575 S Freedom Blvd, Apt 204, Provo, UT 84601","precinct":"25PR54","hd":"62","v_score":"7.090117576","decile":"8","lat":40.226311184765635,"lng":-111.66152772009521},{"vid":"2909435","name":"Mr. Quintin Schroeder MD","party":"","address":"323 W 100 S, Provo, UT 84601","precinct":"25PR54","hd":"62","v_score":"0","decile":"2","lat":40.042198895399615,"lng":-111.73655132623837},{"vid":"2912237","name":"Alvan Zboncak","party":"Dem","address":"190 S 300 W, Apt 2, Provo, UT 84601","precinct":"25PR54","hd":"62","v_score":"0","decile":"2","lat":40.23121640214658,"lng":-111.6643474541576},{"vid":"2916052","name":"Kimberly Price","party":"Dem","address":"250 S University Ave, Provo, UT 84601","precinct":"25PR54","hd":"62","v_score":"0","decile":"2","lat":40.23073122746707,"lng":-111.65953091780386},{"vid":"2920413","name":"Mrs. Gabriella Bradtke","party":"Rep","address":"431 W 200 S, Apt 8, Provo, UT 84601","precinct":"25PR54","hd":"62","v_score":"0","decile":"2","lat":40.230706212896976,"lng":-111.6663458208265},{"vid":"2923885","name":"Vergie Flatley","party":"","address":"242 W 500 S, Provo, UT 84601","precinct":"25PR54","hd":"62","v_score":"0","decile":"2","lat":40.22732447294239,"lng":-111.66305722008471},{"vid":"2925226","name":"Damaris Larson MD","party":"Rep","address":"136 W 200 S, Provo, UT 84601","precinct":"25PR54","hd":"62","v_score":"0","decile":"2","lat":40.23122890339156,"lng":-111.66102464120655},{"vid":"2925248","name":"Ali Shields","party":"Rep","address":"136 W 200 S, Apt 315, Provo, UT 84601","precinct":"25PR54","hd":"62","v_score":"0","decile":"2","lat":40.23122890339156,"lng":-111.66102464120655},{"vid":"2927356","name":"Gilford Lockman-Schaden","party":"","address":"61 W 400 S, Apt 122, Provo, UT 84601","precinct":"25PR54","hd":"62","v_score":"0","decile":"2","lat":40.22793188431221,"lng":-111.65984587026517},{"vid":"2929587","name":"Miss Tracee Gibson","party":"Dem","address":"77 W 500 S, Apt 314, Provo, UT 84601","precinct":"25PR54","hd":"62","v_score":"2.876042565","decile":"6","lat":40.226422226935725,"lng":-111.65990325573439},{"vid":"2929588","name":"Ms. Lavona Borer","party":"Dem","address":"77 W 500 S, Apt 314, Provo, UT 84601","precinct":"25PR54","hd":"62","v_score":"0","decile":"2","lat":40.226422226935725,"lng":-111.65990325573439},{"vid":"2930408","name":"Lary Bosco-Blanda","party":"Rep","address":"575 S Freedom Blvd, Apt 301, Provo, UT 84601","precinct":"25PR54","hd":"62","v_score":"0","decile":"2","lat":40.226311184765635,"lng":-111.66152772009521},{"vid":"2934094","name":"Matteo Stroman","party":"Rep","address":"354 S 400 W, Unit B, Provo, UT 84601","precinct":"25PR54","hd":"62","v_score":"0","decile":"2","lat":40.228976973731434,"lng":-111.6661422636611},{"vid":"2941250","name":"Wong Pouros","party":"Rep","address":"77 W 500 S, Apt 402, Provo, UT 84601","precinct":"25PR54","hd":"62","v_score":"0","decile":"2","lat":40.226422226935725,"lng":-111.65990325573439},{"vid":"2941275","name":"Mr. Halley Russel","party":"","address":"250 S 300 W, Provo, UT 84601","precinct":"25PR54","hd":"62","v_score":"0","decile":"2","lat":40.230283877227045,"lng":-111.66440782274131},{"vid":"2941338","name":"Clyde Schmeler","party":"Rep","address":"590 S 300 W, Provo, UT 84601","precinct":"25PR54","hd":"62","v_score":"0","decile":"2","lat":40.226217161002495,"lng":-111.66428421455825},{"vid":"2942290","name":"Chante Wiza","party":"Dem","address":"77 W 500 S, Apt 223, Provo, UT 84601","precinct":"25PR54","hd":"62","v_score":"0","decile":"2","lat":40.226422226935725,"lng":-111.65990325573439},{"vid":"2947703","name":"Hideo Bode-Tremblay","party":"Rep","address":"345 W 200 S, Provo, UT 84601","precinct":"25PR54","hd":"62","v_score":"0","decile":"2","lat":40.36109200934549,"lng":-111.74620023760461},{"vid":"2947920","name":"Docia Heller-Lemke","party":"Dem","address":"61 W 400 S, Apt 304, Provo, UT 84601","precinct":"25PR54","hd":"62","v_score":"0","decile":"2","lat":40.22793188431221,"lng":-111.65984587026517},{"vid":"2947992","name":"Ivonne Ledner-Bergstrom","party":"Dem","address":"383 W 400 S, Provo, UT 84601","precinct":"25PR54","hd":"62","v_score":"0","decile":"2","lat":40.2281758541546,"lng":-111.66532025505015},{"vid":"2949235","name":"Loran Nienow","party":"Dem","address":"77 W 500 S, Apt 511, Provo, UT 84601","precinct":"25PR54","hd":"62","v_score":"2.876042565","decile":"6","lat":40.226422226935725,"lng":-111.65990325573439},{"vid":"2953060","name":"Bobby Ratke","party":"Rep","address":"623 S 500 W, Apt 20, Provo, UT 84601","precinct":"25PR54","hd":"62","v_score":"0","decile":"2","lat":40.22547143230911,"lng":-111.66621654389469},{"vid":"2955172","name":"Cornelia Dibbert-Windler","party":"Dem","address":"136 W 200 S, Apt 314, Provo, UT 84601","precinct":"25PR54","hd":"62","v_score":"0","decile":"2","lat":40.23122890339156,"lng":-111.66102464120655},{"vid":"2955832","name":"Shirlie Ferry","party":"","address":"136 W 200 S, Apt 107, Provo, UT 84601","precinct":"25PR54","hd":"62","v_score":"0","decile":"2","lat":40.23122890339156,"lng":-111.66102464120655},{"vid":"2955925","name":"Phoebe Lynch","party":"Rep","address":"40 W 300 S, Provo, UT 84601","precinct":"25PR54","hd":"62","v_score":"0","decile":"2","lat":40.23004857750263,"lng":-111.65945195961199},{"vid":"2957996","name":"Mr. Akeem Bergstrom MD","party":"Dem","address":"410 S 100 W, Provo, UT 84601","precinct":"25PR54","hd":"62","v_score":"0","decile":"2","lat":40.228197704194386,"lng":-111.66096789683733},{"vid":"2958743","name":"Rilla Glover PhD","party":"Dem","address":"333 W 200 S, Provo, UT 84601","precinct":"25PR54","hd":"62","v_score":"2.876042565","decile":"6","lat":40.230809906152075,"lng":-111.66458702406409},{"vid":"2964018","name":"Jeannette Torphy DVM","party":"","address":"292 S 100 W, Provo, UT 84601","precinct":"25PR54","hd":"62","v_score":"2.876042565","decile":"6","lat":40.229893747288955,"lng":-111.66080912679737},{"vid":"2967433","name":"Soledad Connelly-Pagac","party":"Dem","address":"77 W 500 S, Apt 422, Provo, UT 84601","precinct":"25PR54","hd":"62","v_score":"0","decile":"2","lat":40.226422226935725,"lng":-111.65990325573439},{"vid":"2967691","name":"Tierra West","party":"Dem","address":"136 W 200 S, Apt 114, Provo, UT 84601","precinct":"25PR54","hd":"62","v_score":"0","decile":"2","lat":40.23122890339156,"lng":-111.66102464120655},{"vid":"2976410","name":"Altie Feest","party":"Rep","address":"575 S Freedom Blvd, Apt 325, Provo, UT 84601","precinct":"25PR54","hd":"62","v_score":"0","decile":"2","lat":40.226311184765635,"lng":-111.66152772009521},{"vid":"2981624","name":"Virgel Thompson","party":"","address":"349 W 300 S, Provo, UT 84601","precinct":"25PR54","hd":"62","v_score":"0","decile":"2","lat":40.22938763152057,"lng":-111.66649617940148},{"vid":"cc00a6e4f512c0afecbc9d2ca2a75e06388e75dd3ce72cf11ebb8d573d991f83","name":"Angelina Stehr","party":"","address":"575 S Freedom Blvd, Apt 103, Provo, UT 84601","precinct":"25PR54","hd":"62","v_score":"2.315214949","decile":"5","lat":40.226311184765635,"lng":-111.66152772009521},{"vid":"3335836","name":"Delos Bergnaum","party":"","address":"156 S 300 W, Provo, UT 84601","precinct":"25PR54","hd":"62","v_score":"1.121327652","decile":"3","lat":40.23163472708033,"lng":-111.66435436615474},{"vid":"3341751","name":"Margot Harris","party":"Rep","address":"575 S Freedom Blvd, Apt 112, Provo, UT 84601","precinct":"25PR54","hd":"62","v_score":"0","decile":"2","lat":40.226311184765635,"lng":-111.66152772009521},{"vid":"3494574","name":"Alwine Hamill","party":"Rep","address":"575 S Freedom Blvd, Apt 306, Provo, UT 84601","precinct":"25PR54","hd":"62","v_score":"21.80471057","decile":"10","lat":40.226311184765635,"lng":-111.66152772009521},{"vid":"3543289","name":"Dr. Danette Hand MD","party":"Dem","address":"431 W 200 S, Apt 2, Provo, UT 84601","precinct":"25PR54","hd":"62","v_score":"2.817000428","decile":"6","lat":40.230706212896976,"lng":-111.6663458208265},{"vid":"5528732","name":"Ricardo Torp-Hyatt","party":"Rep","address":"471 W 100 S, Provo, UT 84601","precinct":"25PR54","hd":"62","v_score":"16.8717942","decile":"9","lat":40.23213779816218,"lng":-111.66684278752663},{"vid":"5534190","name":"Dr. Meggan Grant","party":"Rep","address":"274 W 200 S, Apt 4, Provo, UT 84601","precinct":"25PR54","hd":"62","v_score":"14.34769735","decile":"9","lat":40.23136132099733,"lng":-111.66336034489923},{"vid":"6067020","name":"Mr. Tyrone Will","party":"","address":"367 S 400 W, Provo, UT 84601","precinct":"25PR54","hd":"62","v_score":"8.347511332","decile":"8","lat":40.22891519096173,"lng":-111.66527730012857},{"vid":"6070197","name":"Dr. Taurean Emard","party":"","address":"475 S 400 W, Apt C4, Provo, UT 84601","precinct":"25PR54","hd":"62","v_score":"8.347511332","decile":"8","lat":40.22752986737547,"lng":-111.66492213572994},{"vid":"6073863","name":"Jerry Rolfson","party":"Dem","address":"368 W 500 S, Provo, UT 84601","precinct":"25PR54","hd":"62","v_score":"14.13332036","decile":"9","lat":40.22729637436018,"lng":-111.66518278388594},{"vid":"6145162","name":"French Feil","party":"","address":"250 S University Ave, Provo, UT 84601","precinct":"25PR54","hd":"62","v_score":"0","decile":"3","lat":40.23073122746707,"lng":-111.65953091780386},{"vid":"6156755","name":"Irvine Harvey-Towne","party":"Dem","address":"457 S 300 W, Provo, UT 84601","precinct":"25PR54","hd":"62","v_score":"2.315214949","decile":"5","lat":40.22767599325365,"lng":-111.6636733540565},{"vid":"6157021","name":"Dr. Edsel Kohler","party":"Rep","address":"244 W 400 S, Provo, UT 84601","precinct":"25PR54","hd":"62","v_score":"0","decile":"3","lat":40.22862662980329,"lng":-111.66284954126914},{"vid":"6160175","name":"Omarion Jast","party":"Rep","address":"575 S Freedom Blvd, Apt 111, Provo, UT 84601","precinct":"25PR54","hd":"62","v_score":"8.347511332","decile":"8","lat":40.226311184765635,"lng":-111.66152772009521},{"vid":"7372e07ec2eed68d22172f3e396227d95bf41707a25e54ca821728cab17e03ce","name":"Tonja Thompson","party":"Rep","address":"370 S 400 W, Provo, UT 84601","precinct":"25PR54","hd":"62","v_score":"37.19555298","decile":"10","lat":40.22884079969662,"lng":-111.66614304052416},{"vid":"6207894","name":"Cory Friesen","party":"Rep","address":"407 S 300 W, Provo, UT 84601","precinct":"25PR54","hd":"62","v_score":"5.530510904","decile":"7","lat":40.22821971334292,"lng":-111.66362227710708},{"vid":"6215479","name":"Zion Bernier MD","party":"Dem","address":"575 S Freedom Blvd, Apt 410, Provo, UT 84601","precinct":"25PR54","hd":"62","v_score":"3.93832808","decile":"6","lat":40.226311184765635,"lng":-111.66152772009521},{"vid":"6217167","name":"Brent Kautzer I","party":"Rep","address":"448 W 500 S, Provo, UT 84601","precinct":"25PR54","hd":"62","v_score":"22.10816128","decile":"10","lat":40.227323768465794,"lng":-111.66657821481087},{"vid":"6234422","name":"Elwin Wiza Jr.","party":"Dem","address":"575 S Freedom Blvd, Apt 410, Provo, UT 84601","precinct":"25PR54","hd":"62","v_score":"3.93832808","decile":"6","lat":40.226311184765635,"lng":-111.66152772009521},{"vid":"6235931","name":"Ashlynn Langworth MD","party":"","address":"260 W 500 S, Provo, UT 84601","precinct":"25PR54","hd":"62","v_score":"34.09285363","decile":"10","lat":40.22741309274069,"lng":-111.66326263178351},{"vid":"6240414","name":"Makena Stoltenberg","party":"","address":"425 S Freedom Blvd, Apt 3, Provo, UT 84601","precinct":"25PR54","hd":"62","v_score":"5.40460374","decile":"7","lat":40.22811696341133,"lng":-111.66193942086451},{"vid":"6253564","name":"Dr. Kami Powlowski DDS","party":"","address":"365 W 400 S, Provo, UT 84601","precinct":"25PR54","hd":"62","v_score":"0","decile":"3","lat":40.228176265386914,"lng":-111.66513836524939},{"vid":"6277336","name":"Jaslene McClure","party":"Rep","address":"61 W 400 S, Apt 322, Provo, UT 84601","precinct":"25PR54","hd":"62","v_score":"6.884189957","decile":"8","lat":40.22793188431221,"lng":-111.65984587026517},{"vid":"6284429","name":"Dorthy Parisian","party":"Dem","address":"380 S Freedom Blvd, Apt 15, Provo, UT 84601","precinct":"25PR54","hd":"62","v_score":"0","decile":"3","lat":40.228953104565925,"lng":-111.66297458316342},{"vid":"6284683","name":"Junia Monahan","party":"","address":"391 W 400 S, Provo, UT 84601","precinct":"25PR54","hd":"62","v_score":"2.315214949","decile":"5","lat":40.22817565525973,"lng":-111.66546060890812},{"vid":"6292011","name":"Mr. Darcy Gleichner V","party":"","address":"507 S 300 W, Provo, UT 84601","precinct":"25PR54","hd":"62","v_score":"1.193887297","decile":"4","lat":40.22689922502215,"lng":-111.66363012389108},{"vid":"6294482","name":"Jasper Daugherty","party":"","address":"365 W 400 S, Provo, UT 84601","precinct":"25PR54","hd":"62","v_score":"9.40499548","decile":"8","lat":40.228176265386914,"lng":-111.66513836524939},{"vid":"3ef11667d54f32861b9da37af40ec5c9e1e3ef0225d011acdc18906db0061bca","name":"Aleen Bogisich","party":"","address":"575 S Freedom Blvd, Apt 311, Provo, UT 84601","precinct":"25PR54","hd":"62","v_score":"12.52587952","decile":"9","lat":40.226311184765635,"lng":-111.66152772009521},{"vid":"6296768","name":"Mrs. Verena Jerde DDS","party":"Dem","address":"255 S 300 W, Provo, UT 84601","precinct":"25PR54","hd":"62","v_score":"22.70538588","decile":"10","lat":40.2303148664103,"lng":-111.66366020128343},{"vid":"5ec7f5a8e5cd01f1aedb96c9b5970e54f393fe3b2de02929b0ee9f50cf9e8884","name":"Dr. Ivy Gleason DDS","party":"Rep","address":"394 W 400 S, Provo, UT 84601","precinct":"25PR54","hd":"62","v_score":"12.51613974","decile":"9","lat":40.22867497971325,"lng":-111.66549217139526},{"vid":"99f2f7dbb23a3944a51fcff360473e984039d382d8c252f098798d0d199acf3d","name":"Mr. Colin Weimann V","party":"Dem","address":"270 W 400 S, Provo, UT 84601","precinct":"25PR54","hd":"62","v_score":"15.4533012","decile":"9","lat":40.22861313507961,"lng":-111.66339932854862},{"vid":"6322248","name":"Pasquale Lakin","party":"Dem","address":"260 W 500 S, Provo, UT 84601","precinct":"25PR54","hd":"62","v_score":"34.09285363","decile":"10","lat":40.22741309274069,"lng":-111.66326263178351},{"vid":"6327491","name":"Dr. Adan Zieme","party":"","address":"279 W 200 S, Provo, UT 84601","precinct":"25PR54","hd":"62","v_score":"6.481563075","decile":"7","lat":40.230781041448225,"lng":-111.66355914225127},{"vid":"6327968","name":"Susannah Pacocha","party":"Rep","address":"462 W 200 S, Provo, UT 84601","precinct":"25PR54","hd":"62","v_score":"11.72035151","decile":"9","lat":40.23137681929253,"lng":-111.66665991761259},{"vid":"6334243","name":"Miss Estella Stokes","party":"Rep","address":"255 W 400 S, Apt 3, Provo, UT 84601","precinct":"25PR54","hd":"62","v_score":"31.14994604","decile":"10","lat":40.22816888830673,"lng":-111.6631949009157},{"vid":"1dc39dc70f8656b203554bfde6bdd6563c7b040e53ff7ae7bc41dd2298d36265","name":"Mr. Keenan Abernathy","party":"","address":"471 W 100 S, Provo, UT 84601","precinct":"25PR54","hd":"62","v_score":"31.14994604","decile":"10","lat":40.23213779816218,"lng":-111.66684278752663},{"vid":"60ba5375f0aa7f11211254b9d13f8a4b88b134f1a991adf1678bcf1ef73da447","name":"Carl Veum DVM","party":"","address":"269 S 300 W, Provo, UT 84601","precinct":"25PR54","hd":"62","v_score":"32.1831565","decile":"10","lat":40.230151852451556,"lng":-111.66366100922818},{"vid":"6351821","name":"Dr. Jaelyn Effertz","party":"Rep","address":"346 W 300 S, Provo, UT 84601","precinct":"25PR54","hd":"62","v_score":"2.315214949","decile":"5","lat":40.230020728652526,"lng":-111.66466497765718},{"vid":"6352993","name":"Noah Shields","party":"Rep","address":"214 S 300 W, Provo, UT 84601","precinct":"25PR54","hd":"62","v_score":"2.315214949","decile":"5","lat":40.23075408454153,"lng":-111.66426362984318},{"vid":"6360067","name":"Alexandre Stoltenberg","party":"","address":"126 W 400 S, Santaquin, UT 84655","precinct":"25PR54","hd":"62","v_score":"2.744440783","decile":"6","lat":40.22860553679501,"lng":-111.66102876003346},{"vid":"6360947","name":"Anneliese Keebler","party":"","address":"575 S Freedom Blvd, Apt 414, Provo, UT 84601","precinct":"25PR54","hd":"62","v_score":"5.191257514","decile":"7","lat":40.226311184765635,"lng":-111.66152772009521},{"vid":"6362602","name":"Akeem Homenick Sr.","party":"Dem","address":"343 W 300 S, Provo, UT 84601","precinct":"25PR54","hd":"62","v_score":"19.43000671","decile":"10","lat":40.22932452944596,"lng":-111.66474641178566},{"vid":"7092c7e46bc4cfc67bd1633fd43a78880b8b30d03d45dc2002f0e872356ff48a","name":"Sherwin McGlynn","party":"","address":"153 S 300 W, Provo, UT 84601","precinct":"25PR54","hd":"62","v_score":"12.51613974","decile":"9","lat":40.23161898027736,"lng":-111.66368085768407},{"vid":"6377268","name":"Les Kuvalis","party":"","address":"371 S 300 W, Provo, UT 84601","precinct":"25PR54","hd":"62","v_score":"1.193887297","decile":"4","lat":40.22882317764341,"lng":-111.6636440093301},{"vid":"6386331","name":"Clemmie Hills","party":"Dem","address":"444 S 400 W, Provo, UT 84601","precinct":"25PR54","hd":"62","v_score":"9.600440767","decile":"8","lat":40.22782882676853,"lng":-111.66603630874154},{"vid":"024e5bba80b9a572dca0a0bd674184630b55fdc2c5eea6e0a331217a168401f8","name":"Kareen Rowe","party":"","address":"435 S 300 W, Provo, UT 84601","precinct":"25PR54","hd":"62","v_score":"2.315214949","decile":"5","lat":40.227922356114924,"lng":-111.6635524580669},{"vid":"6394273","name":"Elvina Dickens PhD","party":"Dem","address":"507 S 300 W, Provo, UT 84601","precinct":"25PR54","hd":"62","v_score":"1.193887297","decile":"4","lat":40.22689922502215,"lng":-111.66363012389108},{"vid":"6396282","name":"Albin Swaniawski","party":"Dem","address":"180 S 400 W, Provo, UT 84601","precinct":"25PR54","hd":"62","v_score":"1.121327652","decile":"3","lat":40.23136920481928,"lng":-111.66598802903538},{"vid":"6399572","name":"Wava Cremin","party":"","address":"269 S 300 W, Provo, UT 84601","precinct":"25PR54","hd":"62","v_score":"0","decile":"3","lat":40.230151852451556,"lng":-111.66366100922818},{"vid":"6403531","name":"Mrs. Laurie DuBuque DVM","party":"Rep","address":"358 S 300 W, Provo, UT 84601","precinct":"25PR54","hd":"62","v_score":"22.17900605","decile":"10","lat":40.22899718107249,"lng":-111.66431545706551},{"vid":"3cd3c5ea6928754ded0eb394b82a2ebe45934e82ff011f4b5eb21961095a9b65","name":"Tobin Cronin-Towne","party":"","address":"155 S 400 W, Provo, UT 84601","precinct":"25PR54","hd":"62","v_score":"19.3272208","decile":"10","lat":40.23164096897432,"lng":-111.66535888296667},