[{"id":"945","name":"Ms. Giada Marks","party":"Dem","address":"558 S State St, Provo, UT 84606","precinct":"25PR52","hd":"62","v_score":"5.40460374","decile":"7","lat":40.226429108689,"lng":-111.644101446717},{"id":"2376","name":"Verlin Mayert DVM","party":"","address":"466 S 500 E, Provo, UT 84606","precinct":"25PR52","hd":"62","v_score":"0","decile":"1","lat":40.227467560687,"lng":-111.650101733555},{"id":"3348","name":"Darline Heidenreich","party":"Dem","address":"454 S 300 E, Provo, UT 84606","precinct":"25PR52","hd":"62","v_score":"11.2235539","decile":"9","lat":40.227628187495,"lng":-111.653541847571},{"id":"4825","name":"Miss Fronie Smitham PhD","party":"Rep","address":"590 E 400 S, Provo, UT 84606","precinct":"25PR52","hd":"62","v_score":"43.09903656","decile":"10","lat":40.228272771608,"lng":-111.648477749141},{"id":"5054","name":"Romeo Okuneva","party":"Dem","address":"754 E 500 S, Provo, UT 84606","precinct":"25PR52","hd":"62","v_score":"1.121327652","decile":"3","lat":40.22695448578,"lng":-111.645313113456},{"id":"5179","name":"Theo Durgan DDS","party":"","address":"420 E 400 S, Provo, UT 84606","precinct":"25PR52","hd":"62","v_score":"1.46627566","decile":"4","lat":40.228287640231,"lng":-111.651322087665},{"id":"5511","name":"Sharyl Becker","party":"Rep","address":"444 E 400 S, Provo, UT 84606","precinct":"25PR52","hd":"62","v_score":"19.6135545","decile":"10","lat":40.228285629067,"lng":-111.650938966442},{"id":"6374","name":"Gauge Lebsack","party":"Dem","address":"216 E 400 S, Provo, UT 84606","precinct":"25PR52","hd":"62","v_score":"5.40460374","decile":"7","lat":40.228298709018,"lng":-111.654842158017},{"id":"8016","name":"Deangelo Schuster","party":"Dem","address":"454 S 300 E, Provo, UT 84606","precinct":"25PR52","hd":"62","v_score":"0","decile":"1","lat":40.227628187495,"lng":-111.653541847571},{"id":"8879","name":"Dillon Gibson III","party":"Dem","address":"490 S State St, Unit B303, Provo, UT 84606","precinct":"25PR52","hd":"62","v_score":"5.191257514","decile":"7","lat":40.227540145271,"lng":-111.644932277675},{"id":"8987","name":"Besse Bernhard","party":"Dem","address":"693 E 500 S, Provo, UT 84606","precinct":"25PR52","hd":"62","v_score":"5.40460374","decile":"7","lat":40.227054299939,"lng":-111.646732966593},{"id":"10045","name":"Shaina Gutkowski DDS","party":"","address":"440 S 600 E, Provo, UT 84606","precinct":"25PR52","hd":"62","v_score":"6.724398202","decile":"8","lat":40.227774954931,"lng":-111.648350301933},{"id":"11723","name":"Manson Ernser","party":"","address":"662 E 400 S, Provo, UT 84606","precinct":"25PR52","hd":"62","v_score":"1.121327652","decile":"3","lat":40.228265897374,"lng":-111.647351184246},{"id":"11997","name":"Oris Stamm","party":"Rep","address":"444 S 500 E, Provo, UT 84606","precinct":"25PR52","hd":"62","v_score":"0","decile":"1","lat":40.227740434261,"lng":-111.650095562384},{"id":"12560","name":"Reid Erdman","party":"","address":"463 S 500 E, Provo, UT 84606","precinct":"25PR52","hd":"62","v_score":"23.55166177","decile":"10","lat":40.227515695319,"lng":-111.649950975909},{"id":"14476","name":"Richmond O'Keefe III","party":"","address":"700 E 400 S, Provo, UT 84606","precinct":"25PR52","hd":"62","v_score":"30.29823163","decile":"10","lat":40.228262624235,"lng":-111.646831579723},{"id":"15669","name":"Ms. Bird Ondricka","party":"Rep","address":"506 S 300 E, Provo, UT 84606","precinct":"25PR52","hd":"62","v_score":"6.74007049","decile":"8","lat":40.226893576205,"lng":-111.65354682188},{"id":"17096","name":"Ursula Eichmann","party":"","address":"562 E 400 S, Provo, UT 84606","precinct":"25PR52","hd":"62","v_score":"1.193887297","decile":"3","lat":40.228275119725,"lng":-111.648928581034},{"id":"17135","name":"Dr. Brock Hegmann DVM","party":"","address":"444 E 400 S, Provo, UT 84606","precinct":"25PR52","hd":"62","v_score":"11.16899434","decile":"9","lat":40.228285629067,"lng":-111.650938966442},{"id":"18136","name":"Osvaldo Johnson","party":"Dem","address":"216 E 400 S, Provo, UT 84606","precinct":"25PR52","hd":"62","v_score":"5.40460374","decile":"7","lat":40.228298709018,"lng":-111.654842158017},{"id":"18323","name":"Damarcus Zulauf","party":"Rep","address":"238 E 500 S, Provo, UT 84606","precinct":"25PR52","hd":"62","v_score":"8.601979876","decile":"8","lat":40.226972131821,"lng":-111.654498739044},{"id":"18983","name":"Ermina Kutch","party":"Dem","address":"490 S State St, Unit A104, Provo, UT 84606","precinct":"25PR52","hd":"62","v_score":"5.40460374","decile":"7","lat":40.227540145271,"lng":-111.644932277675},{"id":"20114","name":"Mr. Raekwon McClure","party":"","address":"521 S 300 E, Provo, UT 84606","precinct":"25PR52","hd":"62","v_score":"0","decile":"1","lat":40.226721632668,"lng":-111.653397908929},{"id":"22677","name":"Bret Nader-Hahn","party":"","address":"456 S 600 E, Provo, UT 84606","precinct":"25PR52","hd":"62","v_score":"6.881235673","decile":"8","lat":40.227576194303,"lng":-111.648350973447},{"id":"23694","name":"Leota Larson","party":"Dem","address":"488 S 450 E, Provo, UT 84606","precinct":"25PR52","hd":"62","v_score":"8.363183621","decile":"8","lat":40.227104175531,"lng":-111.65094834898},{"id":"24438","name":"Miss Leisa Gottlieb DDS","party":"Dem","address":"626 E 500 S, Provo, UT 84606","precinct":"25PR52","hd":"62","v_score":"2.315214949","decile":"5","lat":40.226939708631,"lng":-111.647728098263},{"id":"25155","name":"Dr. Dwyane Franecki V","party":"Dem","address":"489 S 500 E, Apt 1, Provo, UT 84606","precinct":"25PR52","hd":"62","v_score":"0","decile":"1","lat":40.227195030476,"lng":-111.64995536862},{"id":"25210","name":"Mrs. Lillia Simonis","party":"","address":"430 S State St, Provo, UT 84606","precinct":"25PR52","hd":"62","v_score":"0","decile":"1","lat":40.228150432127,"lng":-111.645383674332},{"id":"25438","name":"Reyes Renner","party":"Dem","address":"662 E 400 S, Provo, UT 84606","precinct":"25PR52","hd":"62","v_score":"5.546183193","decile":"7","lat":40.228265897374,"lng":-111.647351184246},{"id":"26724","name":"Hernan Metz","party":"Dem","address":"655 E 600 S, Apt 2, Provo, UT 84606","precinct":"25PR52","hd":"62","v_score":"0","decile":"1","lat":40.22569643253,"lng":-111.647122685501},{"id":"26983","name":"Dr. Killian Brown","party":"Dem","address":"460 S 400 E, Provo, UT 84606","precinct":"25PR52","hd":"62","v_score":"13.45445245","decile":"9","lat":40.227550015614,"lng":-111.651793640344},{"id":"27472","name":"Cleta Fay-Larson","party":"Dem","address":"440 S 600 E, Provo, UT 84606","precinct":"25PR52","hd":"62","v_score":"10.93847321","decile":"9","lat":40.227774954931,"lng":-111.648350301933},{"id":"28443","name":"Demonte Luettgen","party":"Rep","address":"238 E 500 S, Provo, UT 84606","precinct":"25PR52","hd":"62","v_score":"11.2235539","decile":"9","lat":40.226972131821,"lng":-111.654498739044},{"id":"28950","name":"Mr. Aydin Harber","party":"Dem","address":"788 E 500 S, Provo, UT 84606","precinct":"25PR52","hd":"62","v_score":"7.324882226","decile":"8","lat":40.226963102182,"lng":-111.644715706461},{"id":"31717","name":"Natosha Buckridge","party":"Dem","address":"460 S 400 E, Provo, UT 84606","precinct":"25PR52","hd":"62","v_score":"3.781490609","decile":"6","lat":40.227550015614,"lng":-111.651793640344},{"id":"33954","name":"Mathilde Rosenbaum-Grant","party":"Rep","address":"519 S 500 E, Apt 2, Provo, UT 84606","precinct":"25PR52","hd":"62","v_score":"14.00603612","decile":"9","lat":40.226727779167,"lng":-111.649955949035},{"id":"34838","name":"Kallie Gulgowski","party":"","address":"478 S 450 E, Provo, UT 84606","precinct":"25PR52","hd":"62","v_score":"9.567299636","decile":"8","lat":40.227126462743,"lng":-111.650948047798},{"id":"35503","name":"Fanny Erdman","party":"","address":"542 S State St, Provo, UT 84606","precinct":"25PR52","hd":"62","v_score":"4.214075011","decile":"7","lat":40.226571616701,"lng":-111.64420964721},{"id":"35616","name":"Coolidge Hartmann","party":"","address":"506 S 300 E, Provo, UT 84606","precinct":"25PR52","hd":"62","v_score":"6.74007049","decile":"8","lat":40.226893576205,"lng":-111.65354682188},{"id":"36216","name":"Florie Gibson","party":"","address":"429 S 600 E, Provo, UT 84606","precinct":"25PR52","hd":"62","v_score":"4.152467179","decile":"7","lat":40.227923729824,"lng":-111.648199707288},{"id":"36249","name":"Gerhard Eichmann","party":"Rep","address":"429 S 600 E, Provo, UT 84606","precinct":"25PR52","hd":"62","v_score":"6.74007049","decile":"8","lat":40.227923729824,"lng":-111.648199707288},{"id":"36680","name":"Nevada Wiegand","party":"Rep","address":"673 E 500 S, Provo, UT 84606","precinct":"25PR52","hd":"62","v_score":"2.315214949","decile":"5","lat":40.227054299964,"lng":-111.647052504281},{"id":"37128","name":"Dr. Jared Jones","party":"Rep","address":"490 S State St, Unit A103, Provo, UT 84606","precinct":"25PR52","hd":"62","v_score":"1.121327652","decile":"3","lat":40.227540145271,"lng":-111.644932277675},{"id":"39317","name":"Roslyn Osinski MD","party":"","address":"487 S 400 E, Provo, UT 84606","precinct":"25PR52","hd":"62","v_score":"1.46627566","decile":"4","lat":40.22722911976,"lng":-111.651644639814},{"id":"40562","name":"Alberta Harvey","party":"","address":"525 S 300 E, Provo, UT 84606","precinct":"25PR52","hd":"62","v_score":"0","decile":"1","lat":40.226672677157,"lng":-111.653398244247},{"id":"40732","name":"Lyndon Lang","party":"Rep","address":"445 S 500 E, Provo, UT 84606","precinct":"25PR52","hd":"62","v_score":"7.047822616","decile":"8","lat":40.227736063022,"lng":-111.649945580776},{"id":"41327","name":"Demarcus Mayert-Baumbach","party":"Dem","address":"490 S State St, Unit A107, Provo, UT 84606","precinct":"25PR52","hd":"62","v_score":"1.121327652","decile":"3","lat":40.227540145271,"lng":-111.644932277675},{"id":"41763","name":"Daisey Hodkiewicz","party":"Dem","address":"445 S 500 E, Provo, UT 84606","precinct":"25PR52","hd":"62","v_score":"9.990730209","decile":"9","lat":40.227736063022,"lng":-111.649945580776},{"id":"42067","name":"Kristofer Cronin","party":"Dem","address":"460 S 500 E, Provo, UT 84606","precinct":"25PR52","hd":"62","v_score":"6.724398202","decile":"8","lat":40.227541560266,"lng":-111.650100719852},{"id":"42749","name":"Gilbert Ratke MD","party":"Rep","address":"662 E 400 S, Provo, UT 84606","precinct":"25PR52","hd":"62","v_score":"5.546183193","decile":"7","lat":40.228265897374,"lng":-111.647351184246},{"id":"45238","name":"Nels Heidenreich-Schmitt","party":"","address":"490 S State St, Unit A202, Provo, UT 84606","precinct":"25PR52","hd":"62","v_score":"2.587603312","decile":"5","lat":40.227540145271,"lng":-111.644932277675},{"id":"47012","name":"Thalia Schneider DDS","party":"","address":"695 E 600 S, Apt 3, Provo, UT 84606","precinct":"25PR52","hd":"62","v_score":"12.39907958","decile":"9","lat":40.226036221692,"lng":-111.646486263594},{"id":"47895","name":"Wash Fritsch","party":"","address":"440 S 600 E, Provo, UT 84606","precinct":"25PR52","hd":"62","v_score":"13.81451578","decile":"9","lat":40.227774954931,"lng":-111.648350301933},{"id":"48262","name":"Devonte Aufderhar","party":"Rep","address":"490 S State St, Unit B308, Provo, UT 84606","precinct":"25PR52","hd":"62","v_score":"6.814370645","decile":"8","lat":40.227540145271,"lng":-111.644932277675},{"id":"49004","name":"Kenisha Olson-Rempel","party":"Dem","address":"490 S State St, Unit B203, Provo, UT 84606","precinct":"25PR52","hd":"62","v_score":"1.193887297","decile":"3","lat":40.227540145271,"lng":-111.644932277675},{"id":"50105","name":"Dr. Jazlynn Moen DDS","party":"Rep","address":"472 S 450 E, Provo, UT 84606","precinct":"25PR52","hd":"62","v_score":"4.283276088","decile":"7","lat":40.22713983507,"lng":-111.650947867089},{"id":"50144","name":"Rock Gleichner","party":"","address":"483 S 450 E, Provo, UT 84606","precinct":"25PR52","hd":"62","v_score":"1.121327652","decile":"3","lat":40.227116365625,"lng":-111.650798086905},{"id":"50440","name":"Reynolds Haley DVM","party":"","address":"464 S 500 E, Provo, UT 84606","precinct":"25PR52","hd":"62","v_score":"23.14124903","decile":"10","lat":40.227492227214,"lng":-111.650101395654},{"id":"50442","name":"Alabama Pollich MD","party":"Rep","address":"464 S 500 E, Provo, UT 84606","precinct":"25PR52","hd":"62","v_score":"12.78815801","decile":"9","lat":40.227492227214,"lng":-111.650101395654},{"id":"51043","name":"Lucious Heller","party":"","address":"760 E 500 S, Provo, UT 84606","precinct":"25PR52","hd":"62","v_score":"3.781490609","decile":"6","lat":40.226956006321,"lng":-111.645207688693},{"id":"51144","name":"Miss Evie Kulas MD","party":"Dem","address":"486 S 500 E, Provo, UT 84606","precinct":"25PR52","hd":"62","v_score":"7.583918848","decile":"8","lat":40.227220895424,"lng":-111.650105112563},{"id":"51719","name":"Mrs. Sarina Schinner DVM","party":"Dem","address":"673 E 500 S, Provo, UT 84606","precinct":"25PR52","hd":"62","v_score":"1.46627566","decile":"4","lat":40.227054299964,"lng":-111.647052504281},{"id":"51925","name":"Wendy Kertzmann","party":"","address":"675 E 600 S, Provo, UT 84606","precinct":"25PR52","hd":"62","v_score":"1.46627566","decile":"4","lat":40.22585188675,"lng":-111.646813458155},{"id":"52817","name":"Erving Block II","party":"","address":"490 S State St, Unit A205, Provo, UT 84606","precinct":"25PR52","hd":"62","v_score":"12.3551312","decile":"9","lat":40.227540145271,"lng":-111.644932277675},{"id":"53417","name":"Tobias Waelchi PhD","party":"Rep","address":"675 E 600 S, Apt 4, Provo, UT 84606","precinct":"25PR52","hd":"62","v_score":"1.46627566","decile":"4","lat":40.22585188675,"lng":-111.646813458155},{"id":"54523","name":"Chip Marks","party":"Rep","address":"472 S 300 E, Provo, UT 84606","precinct":"25PR52","hd":"62","v_score":"5.258122542","decile":"7","lat":40.227404581579,"lng":-111.653543358451},{"id":"54764","name":"Ruby Deckow","party":"","address":"555 S 700 E, Provo, UT 84606","precinct":"25PR52","hd":"62","v_score":"1.121327652","decile":"3","lat":40.226488146063,"lng":-111.646251095619},{"id":"56484","name":"Sheron Sporer","party":"Dem","address":"408 S 500 E, Provo, UT 84606","precinct":"25PR52","hd":"62","v_score":"2.315214949","decile":"5","lat":40.228182690237,"lng":-111.650078718262},{"id":"58735","name":"Hilmer Buckridge","party":"","address":"626 E 400 S, Provo, UT 84606","precinct":"25PR52","hd":"62","v_score":"1.193887297","decile":"3","lat":40.228268998243,"lng":-111.647843441162},{"id":"61730","name":"Verna Tillman IV","party":"Rep","address":"675 E 600 S, Provo, UT 84606","precinct":"25PR52","hd":"62","v_score":"4.13679489","decile":"7","lat":40.22585188675,"lng":-111.646813458155},{"id":"62720","name":"Caren Robel DDS","party":"","address":"264 E 400 S, Provo, UT 84606","precinct":"25PR52","hd":"62","v_score":"0","decile":"1","lat":40.22829870896,"lng":-111.654078121404},{"id":"63430","name":"Doreen Kunze-Leannon","party":"","address":"487 S 400 E, Provo, UT 84606","precinct":"25PR52","hd":"62","v_score":"2.817000428","decile":"6","lat":40.22722911976,"lng":-111.651644639814},{"id":"65398","name":"Gilmer Veum","party":"Rep","address":"540 S 700 E, Provo, UT 84606","precinct":"25PR52","hd":"62","v_score":"1.121327652","decile":"3","lat":40.226603390143,"lng":-111.646403979726},{"id":"66548","name":"Velva Glover","party":"Dem","address":"541 E 500 S, Provo, UT 84606","precinct":"25PR52","hd":"62","v_score":"1.121327652","decile":"3","lat":40.22706480666,"lng":-111.649301767068},{"id":"66622","name":"Dr. Brittany Bechtelar V","party":"Rep","address":"469 S 600 E, Provo, UT 84606","precinct":"25PR52","hd":"62","v_score":"1.121327652","decile":"3","lat":40.227426828255,"lng":-111.648201386074},{"id":"67433","name":"Price Ritchie","party":"","address":"484 S 500 E, Provo, UT 84606","precinct":"25PR52","hd":"62","v_score":"1.193887297","decile":"3","lat":40.22724556195,"lng":-111.650104774662},{"id":"67565","name":"Mr. Prentiss Miller","party":"Dem","address":"474 S 450 E, Provo, UT 84606","precinct":"25PR52","hd":"62","v_score":"3.93832808","decile":"6","lat":40.227135377628,"lng":-111.650947927326},{"id":"68500","name":"Kenney Jacobson PhD","party":"Dem","address":"490 S State St, Provo, UT 84606","precinct":"25PR52","hd":"62","v_score":"9.405332525","decile":"8","lat":40.227540145271,"lng":-111.644932277675},{"id":"69672","name":"Rylee Johns","party":"Dem","address":"456 E 400 S, Provo, UT 84606","precinct":"25PR52","hd":"62","v_score":"2.315214949","decile":"5","lat":40.228284623484,"lng":-111.650747405831},{"id":"70221","name":"Ola Senger","party":"Dem","address":"441 S 500 E, Provo, UT 84606","precinct":"25PR52","hd":"62","v_score":"5.407962308","decile":"7","lat":40.227785362864,"lng":-111.649943115777},{"id":"70914","name":"Susie Prosacco","party":"Rep","address":"708 E 400 S, Provo, UT 84606","precinct":"25PR52","hd":"62","v_score":"5.191257514","decile":"7","lat":40.228261935153,"lng":-111.646722189297},{"id":"73902","name":"Martina Nitzsche","party":"","address":"348 E 400 S, Provo, UT 84606","precinct":"25PR52","hd":"62","v_score":"3.93832808","decile":"6","lat":40.2282942941,"lng":-111.652605674671},{"id":"74347","name":"Tom Gottlieb Sr.","party":"","address":"490 S State St, Unit C104, Provo, UT 84606","precinct":"25PR52","hd":"62","v_score":"2.315214949","decile":"5","lat":40.227540145271,"lng":-111.644932277675},{"id":"74874","name":"Ms. Nelie Morar","party":"","address":"540 S 700 E, Provo, UT 84606","precinct":"25PR52","hd":"62","v_score":"6.814370645","decile":"8","lat":40.226603390143,"lng":-111.646403979726},{"id":"74978","name":"Ramon Tromp MD","party":"","address":"461 S 400 E, Provo, UT 84606","precinct":"25PR52","hd":"62","v_score":"8.15240309","decile":"8","lat":40.227549718026,"lng":-111.651643549303},{"id":"76167","name":"Curtiss Reinger-Price","party":"","address":"660 E 400 S, Provo, UT 84606","precinct":"25PR52","hd":"62","v_score":"1.121327652","decile":"3","lat":40.228266069645,"lng":-111.647378531852},{"id":"76321","name":"Millie Barton","party":"Dem","address":"426 S 300 E, Provo, UT 84606","precinct":"25PR52","hd":"62","v_score":"1.121327652","decile":"3","lat":40.22797601892,"lng":-111.653539497314},{"id":"76782","name":"Frederick Schuster","party":"","address":"486 S 600 E, Provo, UT 84606","precinct":"25PR52","hd":"62","v_score":"2.315214949","decile":"5","lat":40.227203518126,"lng":-111.648352232536},{"id":"78041","name":"Laylah Haley DDS","party":"","address":"490 S State St, Unit A107, Provo, UT 84606","precinct":"25PR52","hd":"62","v_score":"1.121327652","decile":"3","lat":40.227540145271,"lng":-111.644932277675},{"id":"78244","name":"Hermine Wolf","party":"","address":"360 E 400 S, Provo, UT 84606","precinct":"25PR52","hd":"62","v_score":"2.587603312","decile":"5","lat":40.228293286777,"lng":-111.652410256936},{"id":"79829","name":"Ms. Emma Kozey","party":"Dem","address":"489 S 400 E, Provo, UT 84606","precinct":"25PR52","hd":"62","v_score":"3.93832808","decile":"6","lat":40.227204458355,"lng":-111.6516447237},{"id":"79834","name":"Socorro Gerhold DVM","party":"Dem","address":"480 S 450 E, Provo, UT 84606","precinct":"25PR52","hd":"62","v_score":"1.121327652","decile":"3","lat":40.227122005301,"lng":-111.650948108034},{"id":"80098","name":"Theta Fahey PhD","party":"","address":"458 E 500 S, Apt 1, Provo, UT 84606","precinct":"25PR52","hd":"62","v_score":"1.121327652","decile":"3","lat":40.22696555981,"lng":-111.650767472869},{"id":"80121","name":"Miss Latoya Abshire","party":"Dem","address":"438 E 500 S, Provo, UT 84606","precinct":"25PR52","hd":"62","v_score":"2.315214949","decile":"5","lat":40.226966708889,"lng":-111.65115562394},{"id":"81608","name":"Vessie Parker","party":"","address":"490 S State St, Unit A202, Provo, UT 84606","precinct":"25PR52","hd":"62","v_score":"0","decile":"1","lat":40.227540145271,"lng":-111.644932277675},{"id":"81657","name":"Emmanuel Cruickshank","party":"Rep","address":"479 S 450 E, # 479, Provo, UT 84606","precinct":"25PR52","hd":"62","v_score":"0","decile":"1","lat":40.227125280509,"lng":-111.650797966432},{"id":"81988","name":"Mrs. Stephany Bartoletti DVM","party":"","address":"626 E 500 S, Provo, UT 84606","precinct":"25PR52","hd":"62","v_score":"1.193887297","decile":"3","lat":40.226939708631,"lng":-111.647728098263},{"id":"82422","name":"Ms. Audrey Jenkins","party":"Dem","address":"744 E 500 S, Provo, UT 84606","precinct":"25PR52","hd":"62","v_score":"0","decile":"1","lat":40.226951951544,"lng":-111.645488821396},{"id":"82566","name":"Abigayle Lebsack-Huel","party":"","address":"264 E 400 S, Provo, UT 84606","precinct":"25PR52","hd":"62","v_score":"0","decile":"1","lat":40.22829870896,"lng":-111.654078121404},{"id":"84767","name":"Mrs. Mistie Gislason DVM","party":"Rep","address":"754 E 500 S, Provo, UT 84606","precinct":"25PR52","hd":"62","v_score":"0","decile":"1","lat":40.22695448578,"lng":-111.645313113456},{"id":"88458","name":"Dr. Luda Ruecker PhD","party":"Dem","address":"435 S 500 E, Provo, UT 84606","precinct":"25PR52","hd":"62","v_score":"7.549608095","decile":"8","lat":40.227859312628,"lng":-111.64993941828},{"id":"89317","name":"Calvin Kuvalis","party":"Dem","address":"519 E 500 S, Apt 2, Provo, UT 84604","precinct":"25PR52","hd":"62","v_score":"2.817000428","decile":"6","lat":40.227068501962,"lng":-111.649662056266},{"id":"89466","name":"Hays Ernser","party":"Rep","address":"434 E 500 S, Provo, UT 84606","precinct":"25PR52","hd":"62","v_score":"0","decile":"1","lat":40.226966708893,"lng":-111.651207172919},{"id":"89540","name":"Tashina Zboncak-Daniel","party":"Rep","address":"555 E 500 S, Provo, UT 84606","precinct":"25PR52","hd":"62","v_score":"9.907118004","decile":"8","lat":40.227062455105,"lng":-111.649072492125},{"id":"90552","name":"Verlin Trantow","party":"Rep","address":"490 S State St, Provo, UT 84606","precinct":"25PR52","hd":"62","v_score":"0","decile":"1","lat":40.227540145271,"lng":-111.644932277675},{"id":"90873","name":"Luciana Schaden DVM","party":"Rep","address":"695 E 600 S, Apt 4, Provo, UT 84606","precinct":"25PR52","hd":"62","v_score":"6.355720798","decile":"7","lat":40.226036221692,"lng":-111.646486263594},{"id":"92517","name":"Kamari Nitzsche","party":"","address":"490 S State St, Unit A305, Provo, UT 84606","precinct":"25PR52","hd":"62","v_score":"1.193887297","decile":"4","lat":40.227540145271,"lng":-111.644932277675},{"id":"92840","name":"Sammie Conroy","party":"Rep","address":"534 S 400 E, Apt 2, Provo, UT 84606","precinct":"25PR52","hd":"62","v_score":"10.06767328","decile":"9","lat":40.226547614035,"lng":-111.651797048537},{"id":"93245","name":"Jerusha Marks","party":"Rep","address":"330 E 500 S, Provo, UT 84606","precinct":"25PR52","hd":"62","v_score":"0","decile":"1","lat":40.226966709023,"lng":-111.652905917139},{"id":"93435","name":"Rexford Jakubowski-Aufderhar","party":"Dem","address":"576 E 400 S, Apt 1, Provo, UT 84606","precinct":"25PR52","hd":"62","v_score":"0","decile":"1","lat":40.228273945667,"lng":-111.648703165088},{"id":"94818","name":"Cale Koelpin","party":"","address":"490 S State St, Unit B208, Provo, UT 84606","precinct":"25PR52","hd":"62","v_score":"0","decile":"1","lat":40.227540145271,"lng":-111.644932277675},{"id":"94950","name":"Mavis Greenholt","party":"","address":"490 S State St, Unit B302, Provo, UT 84606","precinct":"25PR52","hd":"62","v_score":"0","decile":"1","lat":40.227540145271,"lng":-111.644932277675},{"id":"95223","name":"Kaelynn Upton","party":"","address":"516 S 600 E, Provo, UT 84606","precinct":"25PR52","hd":"62","v_score":"4.214075011","decile":"7","lat":40.226738009338,"lng":-111.648352928553},{"id":"95516","name":"Regan Blick","party":"Rep","address":"490 S State St, Unit A301, Provo, UT 84606","precinct":"25PR52","hd":"62","v_score":"1.193887297","decile":"4","lat":40.227540145271,"lng":-111.644932277675},{"id":"96747","name":"Clarance Feeney","party":"Dem","address":"447 S 500 E, Provo, UT 84606","precinct":"25PR52","hd":"62","v_score":"2.817000428","decile":"6","lat":40.227711413101,"lng":-111.649946813275},{"id":"96949","name":"Gwendolyn Daniel","party":"","address":"410 S 300 E, Provo, UT 84606","precinct":"25PR52","hd":"62","v_score":"1.623113131","decile":"5","lat":40.228174779735,"lng":-111.65353815431},{"id":"96950","name":"Mr. Jason Daugherty DVM","party":"","address":"490 S State St, Provo, UT 84606","precinct":"25PR52","hd":"62","v_score":"1.193887297","decile":"4","lat":40.227540145271,"lng":-111.644932277675},{"id":"97518","name":"Sonya Brakus","party":"Dem","address":"526 S 300 E, Provo, UT 84606","precinct":"25PR52","hd":"62","v_score":"0","decile":"1","lat":40.226648798648,"lng":-111.65354849847},{"id":"97543","name":"Wells Wintheiser","party":"","address":"441 S 500 E, Provo, UT 84606","precinct":"25PR52","hd":"62","v_score":"8.284004873","decile":"8","lat":40.227785362864,"lng":-111.649943115777},{"id":"97949","name":"Karol Bayer","party":"Dem","address":"490 S State St, Unit B107, Provo, UT 84606","precinct":"25PR52","hd":"62","v_score":"1.193887297","decile":"4","lat":40.227540145271,"lng":-111.644932277675},{"id":"98486","name":"Anabelle Welch-Rowe","party":"Dem","address":"467 S 500 E, Provo, UT 84606","precinct":"25PR52","hd":"62","v_score":"0","decile":"1","lat":40.227466362266,"lng":-111.649951651711},{"id":"98700","name":"Derrick Rempel","party":"Rep","address":"489 S 500 E, Apt 3, Provo, UT 84606","precinct":"25PR52","hd":"62","v_score":"0","decile":"1","lat":40.227195030476,"lng":-111.64995536862},{"id":"99219","name":"Miss Cordia Murphy PhD","party":"Dem","address":"490 S State St, Unit B101, Provo, UT 84606","precinct":"25PR52","hd":"62","v_score":"0","decile":"1","lat":40.227540145271,"lng":-111.644932277675},{"id":"100714","name":"Kerry Hirthe","party":"","address":"489 S 200 E, Provo, UT 84606","precinct":"25PR52","hd":"62","v_score":"1.193887297","decile":"4","lat":40.227151182342,"lng":-111.655100934819},{"id":"101449","name":"Aubra Little","party":"","address":"442 S 400 E, Provo, UT 84606","precinct":"25PR52","hd":"62","v_score":"0","decile":"2","lat":40.22777196826,"lng":-111.651792885375},{"id":"101482","name":"Dr. Emeline Schimmel","party":"","address":"489 S 500 E, Provo, UT 84606","precinct":"25PR52","hd":"62","v_score":"0","decile":"2","lat":40.227195030476,"lng":-111.64995536862},{"id":"103105","name":"Bertha O'Kon","party":"Rep","address":"696 E 400 S, Provo, UT 84606","precinct":"25PR52","hd":"62","v_score":"0","decile":"2","lat":40.228262968776,"lng":-111.646886274936},{"id":"103220","name":"Mrs. Marcie Hudson","party":"Dem","address":"477 S 300 E, Provo, UT 84606","precinct":"25PR52","hd":"62","v_score":"18.35167816","decile":"10","lat":40.227354300238,"lng":-111.653393604632},{"id":"103715","name":"Conor Kutch","party":"","address":"562 E 400 S, Provo, UT 84606","precinct":"25PR52","hd":"62","v_score":"1.193887297","decile":"4","lat":40.228275119725,"lng":-111.648928581034},{"id":"103992","name":"Junie Beer","party":"Rep","address":"490 S State St, Unit B401, Provo, UT 84606","precinct":"25PR52","hd":"62","v_score":"1.193887297","decile":"4","lat":40.227540145271,"lng":-111.644932277675},{"id":"104819","name":"Miss Cristi Rempel","party":"","address":"490 S State St, Provo, UT 84606","precinct":"25PR52","hd":"62","v_score":"0","decile":"2","lat":40.227540145271,"lng":-111.644932277675},{"id":"105074","name":"Dr. Zakary Parker PhD","party":"","address":"418 S State St, Provo, UT 84606","precinct":"25PR52","hd":"62","v_score":"1.193887297","decile":"4","lat":40.228183449531,"lng":-111.645408002938},{"id":"106004","name":"Jacob McKenzie","party":"Rep","address":"697 E 500 S, Provo, UT 84606","precinct":"25PR52","hd":"62","v_score":"1.193887297","decile":"4","lat":40.227054299934,"lng":-111.646669059056},{"id":"106657","name":"Mr. Tylor McClure","party":"","address":"490 S State St, Unit A106, Provo, UT 84606","precinct":"25PR52","hd":"62","v_score":"0","decile":"2","lat":40.227540145271,"lng":-111.644932277675},{"id":"108436","name":"Benny Herzog-Towne","party":"Dem","address":"461 S 400 E, Provo, UT 84606","precinct":"25PR52","hd":"62","v_score":"5.407962308","decile":"7","lat":40.227549718026,"lng":-111.651643549303},{"id":"108496","name":"Jarrad Breitenberg-Olson","party":"Dem","address":"453 S 300 E, Provo, UT 84606","precinct":"25PR52","hd":"62","v_score":"0","decile":"2","lat":40.22765244146,"lng":-111.653391590125},{"id":"109958","name":"Jermey McClure","party":"Rep","address":"697 E 500 S, Provo, UT 84606","precinct":"25PR52","hd":"62","v_score":"0","decile":"2","lat":40.227054299934,"lng":-111.646669059056},{"id":"110406","name":"Harding Dach","party":"Dem","address":"420 E 400 S, Provo, UT 84606","precinct":"25PR52","hd":"62","v_score":"0","decile":"2","lat":40.228287640231,"lng":-111.651322087665},{"id":"110732","name":"Regena Wisoky","party":"","address":"488 S 500 E, Provo, UT 84606","precinct":"25PR52","hd":"62","v_score":"1.193887297","decile":"4","lat":40.227196228898,"lng":-111.650105450463},{"id":"111450","name":"Lola Franecki DVM","party":"Dem","address":"435 S 500 E, Provo, UT 84606","precinct":"25PR52","hd":"62","v_score":"1.193887297","decile":"4","lat":40.227859312628,"lng":-111.64993941828},{"id":"111575","name":"Jerilyn Leannon","party":"Rep","address":"486 S 600 E, Provo, UT 84606","precinct":"25PR52","hd":"62","v_score":"1.193887297","decile":"4","lat":40.227203518126,"lng":-111.648352232536},{"id":"111619","name":"Miss Angelique Will","party":"Rep","address":"360 E 400 S, Provo, UT 84606","precinct":"25PR52","hd":"62","v_score":"1.193887297","decile":"4","lat":40.228293286777,"lng":-111.652410256936},{"id":"112260","name":"Jayden Mertz","party":"Dem","address":"490 S State St, Provo, UT 84606","precinct":"25PR52","hd":"62","v_score":"1.193887297","decile":"4","lat":40.227540145271,"lng":-111.644932277675},{"id":"114112","name":"Ruthie Franecki","party":"","address":"647 E 500 S, Provo, UT 84606","precinct":"25PR52","hd":"62","v_score":"1.193887297","decile":"4","lat":40.227054299995,"lng":-111.647467903274},{"id":"115664","name":"Albertina Schuster","party":"Rep","address":"462 S 500 E, Provo, UT 84606","precinct":"25PR52","hd":"62","v_score":"0","decile":"2","lat":40.22751689374,"lng":-111.650101057753},{"id":"115740","name":"Linwood Smitham","party":"Dem","address":"647 E 500 S, Provo, UT 84606","precinct":"25PR52","hd":"62","v_score":"1.193887297","decile":"4","lat":40.227054299995,"lng":-111.647467903274},{"id":"117460","name":"Anabel Reichel-Buckridge","party":"","address":"238 E 500 S, Provo, UT 84606","precinct":"25PR52","hd":"62","v_score":"1.193887297","decile":"4","lat":40.226972131821,"lng":-111.654498739044},{"id":"118099","name":"Fuller Bins V","party":"Dem","address":"470 E 400 S, Provo, UT 84606","precinct":"25PR52","hd":"62","v_score":"8.284004873","decile":"8","lat":40.228283450305,"lng":-111.650523918451},{"id":"118397","name":"Soren Kuvalis-Hartmann","party":"Rep","address":"554 S 300 E, Provo, UT 84606","precinct":"25PR52","hd":"62","v_score":"1.193887297","decile":"4","lat":40.226306110067,"lng":-111.653550845697},{"id":"118983","name":"Macel Gislason","party":"Dem","address":"788 E 500 S, Provo, UT 84606","precinct":"25PR52","hd":"62","v_score":"8.284004873","decile":"8","lat":40.226963102182,"lng":-111.644715706461},{"id":"120146","name":"Nia McLaughlin-Fadel","party":"Dem","address":"472 S 300 E, Provo, UT 84606","precinct":"25PR52","hd":"62","v_score":"0","decile":"2","lat":40.227404581579,"lng":-111.653543358451},{"id":"120243","name":"Dejuan Greenholt","party":"Dem","address":"417 S 300 E, Provo, UT 84606","precinct":"25PR52","hd":"62","v_score":"1.193887297","decile":"4","lat":40.228099653292,"lng":-111.653388568366},{"id":"123170","name":"Marquis Gutkowski","party":"","address":"395 E 500 S, Provo, UT 84606","precinct":"25PR52","hd":"62","v_score":"1.193887297","decile":"4","lat":40.227081300327,"lng":-111.651860750738},{"id":"123352","name":"Mr. Herbert Farrell","party":"Dem","address":"264 E 400 S, Provo, UT 84606","precinct":"25PR52","hd":"62","v_score":"1.193887297","decile":"4","lat":40.22829870896,"lng":-111.654078121404},{"id":"123768","name":"Margrett Metz","party":"","address":"490 S State St, Unit B302, Provo, UT 84606","precinct":"25PR52","hd":"62","v_score":"1.193887297","decile":"4","lat":40.227540145271,"lng":-111.644932277675},{"id":"123857","name":"Ebenezer Gutkowski PhD","party":"Rep","address":"699 E 500 S, Provo, UT 84606","precinct":"25PR52","hd":"62","v_score":"1.193887297","decile":"4","lat":40.227054299932,"lng":-111.646637105287},{"id":"124057","name":"Ms. Marva Altenwerth MD","party":"Dem","address":"456 S 600 E, Provo, UT 84606","precinct":"25PR52","hd":"62","v_score":"1.193887297","decile":"4","lat":40.227576194303,"lng":-111.648350973447},{"id":"124137","name":"Dr. David Lind III","party":"Rep","address":"490 S State St, Apt 6405, Provo, UT 84606","precinct":"25PR52","hd":"62","v_score":"1.193887297","decile":"4","lat":40.227540145271,"lng":-111.644932277675},{"id":"125187","name":"Mrs. Sadye Wiza DVM","party":"Rep","address":"655 E 600 S, Provo, UT 84606","precinct":"25PR52","hd":"62","v_score":"0","decile":"2","lat":40.22569643253,"lng":-111.647122685501},{"id":"126161","name":"Braden Lindgren","party":"Rep","address":"493 S 450 E, Provo, UT 84606","precinct":"25PR52","hd":"62","v_score":"0","decile":"2","lat":40.227094078413,"lng":-111.650798388086},{"id":"126182","name":"Altie Gutkowski","party":"","address":"754 E 500 S, Provo, UT 84606","precinct":"25PR52","hd":"62","v_score":"0","decile":"2","lat":40.22695448578,"lng":-111.645313113456},{"id":"127271","name":"Donavan Padberg","party":"Dem","address":"490 S State St, Provo, UT 84606","precinct":"25PR52","hd":"62","v_score":"0","decile":"2","lat":40.227540145271,"lng":-111.644932277675},{"id":"127306","name":"Merilyn Stroman","party":"Rep","address":"486 S 600 E, Provo, UT 84606","precinct":"25PR52","hd":"62","v_score":"0","decile":"2","lat":40.227203518126,"lng":-111.648352232536},{"id":"128536","name":"Luther Brown-Bednar","party":"Dem","address":"460 S 500 E, Provo, UT 84606","precinct":"25PR52","hd":"62","v_score":"0","decile":"2","lat":40.227541560266,"lng":-111.650100719852},{"id":"128864","name":"Linn Ruecker","party":"Rep","address":"228 E 400 S, Provo, UT 84606","precinct":"25PR52","hd":"62","v_score":"0","decile":"2","lat":40.228298709003,"lng":-111.654651148864},{"id":"130110","name":"Dr. Mamie O'Connell","party":"Rep","address":"490 S State St, Unit A207, Provo, UT 84606","precinct":"25PR52","hd":"62","v_score":"0","decile":"2","lat":40.227540145271,"lng":-111.644932277675},{"id":"131374","name":"Yulissa Runolfsdottir-Botsford","party":"Dem","address":"324 E 500 S, Provo, UT 84606","precinct":"25PR52","hd":"62","v_score":"0","decile":"2","lat":40.22696670903,"lng":-111.653003901488},{"id":"131505","name":"Ms. Christie Jones","party":"Rep","address":"457 S 500 E, Provo, UT 84606","precinct":"25PR52","hd":"62","v_score":"0","decile":"2","lat":40.227589694898,"lng":-111.649949962207},{"id":"131971","name":"Brooks Dickinson Jr.","party":"","address":"534 S 400 E, Apt 4, Provo, UT 84606","precinct":"25PR52","hd":"62","v_score":"0","decile":"2","lat":40.226547614035,"lng":-111.651797048537},{"id":"132094","name":"Arch Pfeffer","party":"Rep","address":"490 S State St, Unit C101, Provo, UT 84606","precinct":"25PR52","hd":"62","v_score":"0","decile":"2","lat":40.227540145271,"lng":-111.644932277675},{"id":"132125","name":"Lizbeth Abbott","party":"","address":"552 S 400 E, Apt 4, Provo, UT 84606","precinct":"25PR52","hd":"62","v_score":"0","decile":"2","lat":40.226325661389,"lng":-111.651797803507},{"id":"132473","name":"Willene Lockman","party":"","address":"534 S 400 E, Apt 2, Provo, UT 84606","precinct":"25PR52","hd":"62","v_score":"0","decile":"2","lat":40.226547614035,"lng":-111.651797048537},{"id":"132513","name":"Sharyn Lehner-Towne","party":"","address":"534 S 400 E, Apt 4, Provo, UT 84606","precinct":"25PR52","hd":"62","v_score":"0","decile":"2","lat":40.226547614035,"lng":-111.651797048537},{"id":"133562","name":"Dr. Ferrell Smith I","party":"Dem","address":"418 E 500 S, Provo, UT 84606","precinct":"25PR52","hd":"62","v_score":"0","decile":"2","lat":40.226966708909,"lng":-111.651413368834},{"id":"133823","name":"Jaylene Ebert","party":"","address":"483 S 450 E, Provo, UT 84606","precinct":"25PR52","hd":"62","v_score":"0","decile":"2","lat":40.227116365625,"lng":-111.650798086905},{"id":"135490","name":"Ms. Madlyn Kuhn","party":"Rep","address":"650 E 500 S, Apt 6, Provo, UT 84606","precinct":"25PR52","hd":"62","v_score":"2.315214949","decile":"5","lat":40.226939708598,"lng":-111.647289875149},{"id":"144563","name":"Deforest Schuster","party":"Dem","address":"490 S State St, Unit B106, Provo, UT 84606","precinct":"25PR52","hd":"62","v_score":"0","decile":"3","lat":40.227540145271,"lng":-111.644932277675},{"id":"144697","name":"Mr. Lincoln Lockman","party":"Dem","address":"434 E 500 S, Provo, UT 84606","precinct":"25PR52","hd":"62","v_score":"0","decile":"3","lat":40.226966708893,"lng":-111.651207172919},{"id":"145163","name":"Chasity Hoppe","party":"Dem","address":"526 S 300 E, Provo, UT 84606","precinct":"25PR52","hd":"62","v_score":"6.724398202","decile":"8","lat":40.226648798648,"lng":-111.65354849847},{"id":"150256","name":"Audy Gusikowski","party":"Rep","address":"408 E 500 S, Provo, UT 84606","precinct":"25PR52","hd":"62","v_score":"2.744440783","decile":"6","lat":40.226966708919,"lng":-111.65154224128},{"id":"150886","name":"Mrs. Joleen Dooley","party":"Dem","address":"526 S 300 E, Provo, UT 84606","precinct":"25PR52","hd":"62","v_score":"0","decile":"3","lat":40.226648798648,"lng":-111.65354849847},{"id":"152534","name":"Meghan Bechtelar","party":"Rep","address":"456 S 600 E, Provo, UT 84606","precinct":"25PR52","hd":"62","v_score":"6.881235673","decile":"8","lat":40.227576194303,"lng":-111.648350973447},{"id":"152804","name":"Kymani West","party":"","address":"490 S State St, Unit B101, Provo, UT 84606","precinct":"25PR52","hd":"62","v_score":"0","decile":"3","lat":40.227540145271,"lng":-111.644932277675},{"id":"154928","name":"Dorian Will","party":"Rep","address":"662 E 400 S, Provo, UT 84606","precinct":"25PR52","hd":"62","v_score":"1.121327652","decile":"3","lat":40.228265897374,"lng":-111.647351184246},{"id":"156314","name":"Miss Tarsha Hodkiewicz PhD","party":"Rep","address":"544 S State St, Provo, UT 84606","precinct":"25PR52","hd":"62","v_score":"0","decile":"3","lat":40.2265538032,"lng":-111.644196122149},{"id":"159429","name":"Rodrick Schinner","party":"Rep","address":"206 E 400 S, Provo, UT 84606","precinct":"25PR52","hd":"62","v_score":"43.94216596","decile":"10","lat":40.22829870903,"lng":-111.655001332311},{"id":"159430","name":"Dr. Trudie Hermann","party":"","address":"206 E 400 S, Provo, UT 84606","precinct":"25PR52","hd":"62","v_score":"43.94216596","decile":"10","lat":40.22829870903,"lng":-111.655001332311},{"id":"159434","name":"Krysta Jenkins","party":"Dem","address":"546 S 300 E, Provo, UT 84606","precinct":"25PR52","hd":"62","v_score":"12.78815801","decile":"9","lat":40.22640402109,"lng":-111.653550175061},{"id":"159570","name":"Shoji Hahn Sr.","party":"Rep","address":"608 E 500 S, Provo, UT 84606","precinct":"25PR52","hd":"62","v_score":"37.84600495","decile":"10","lat":40.226939708656,"lng":-111.648056765599},{"id":"160483","name":"Bettina Wuckert DVM","party":"","address":"541 S 300 E, Provo, UT 84606","precinct":"25PR52","hd":"62","v_score":"11.6113657","decile":"9","lat":40.226476855111,"lng":-111.65339958552},{"id":"161651","name":"Dr. Kade McDermott","party":"","address":"467 S 200 E, Provo, UT 84606","precinct":"25PR52","hd":"62","v_score":"14.25581744","decile":"9","lat":40.227285449991,"lng":-111.655100478109},{"id":"163188","name":"Ms. Arabella Leannon MD","party":"Rep","address":"571 E 500 S, Provo, UT 84606","precinct":"25PR52","hd":"62","v_score":"26.44286492","decile":"10","lat":40.227059767613,"lng":-111.648810463618},{"id":"163516","name":"Adela Larson","party":"Dem","address":"455 S 200 E, Provo, UT 84606","precinct":"25PR52","hd":"62","v_score":"25.24361259","decile":"10","lat":40.227358686892,"lng":-111.655100228994},{"id":"163581","name":"Manson Hilpert","party":"","address":"662 E 400 S, Provo, UT 84606","precinct":"25PR52","hd":"62","v_score":"5.546183193","decile":"7","lat":40.228265897374,"lng":-111.647351184246},{"id":"164256","name":"Mr. Wong Nolan I","party":"Dem","address":"490 S State St, Unit A107, Provo, UT 84606","precinct":"25PR52","hd":"62","v_score":"1.121327652","decile":"3","lat":40.227540145271,"lng":-111.644932277675},{"id":"165518","name":"Atticus Pagac DDS","party":"","address":"558 S State St, Provo, UT 84606","precinct":"25PR52","hd":"62","v_score":"5.40460374","decile":"7","lat":40.226429108689,"lng":-111.644101446717},{"id":"165653","name":"Josef Kassulke","party":"","address":"734 E 400 S, Provo, UT 84606","precinct":"25PR52","hd":"62","v_score":"5.40460374","decile":"7","lat":40.228259695637,"lng":-111.646366670414},{"id":"168607","name":"Ballard Bartell","party":"","address":"540 S 700 E, Provo, UT 84606","precinct":"25PR52","hd":"62","v_score":"1.121327652","decile":"3","lat":40.226603390143,"lng":-111.646403979726},{"id":"168646","name":"Ms. Brittnee Prosacco MD","party":"","address":"648 E 400 S, Provo, UT 84606","precinct":"25PR52","hd":"62","v_score":"1.121327652","decile":"3","lat":40.228267103268,"lng":-111.647542617491},{"id":"169227","name":"Renea Gaylord","party":"Dem","address":"455 S 200 E, Provo, UT 84606","precinct":"25PR52","hd":"62","v_score":"25.24361259","decile":"10","lat":40.227358686892,"lng":-111.655100228994},{"id":"171651","name":"Star Buckridge","party":"Dem","address":"486 S 600 E, Provo, UT 84606","precinct":"25PR52","hd":"62","v_score":"1.121327652","decile":"3","lat":40.227203518126,"lng":-111.648352232536},{"id":"175112","name":"Jeremiah Murazik","party":"Rep","address":"408 S 500 E, Provo, UT 84606","precinct":"25PR52","hd":"62","v_score":"2.315214949","decile":"5","lat":40.228182690237,"lng":-111.650078718262},{"id":"176108","name":"Jonna Hilpert-Wintheiser","party":"Dem","address":"362 E 500 S, Provo, UT 84606","precinct":"25PR52","hd":"62","v_score":"0","decile":"3","lat":40.226966708983,"lng":-111.652383333946},{"id":"176728","name":"Ms. Arely Kirlin","party":"","address":"348 E 400 S, Provo, UT 84606","precinct":"25PR52","hd":"62","v_score":"7.367763134","decile":"8","lat":40.2282942941,"lng":-111.652605674671},{"id":"177498","name":"Dr. Fitzgerald Bruen II","party":"Dem","address":"626 E 400 S, Provo, UT 84606","precinct":"25PR52","hd":"62","v_score":"1.193887297","decile":"4","lat":40.228268998243,"lng":-111.647843441162},{"id":"177652","name":"Adrain Kertzmann II","party":"Dem","address":"453 S 300 E, Provo, UT 84606","precinct":"25PR52","hd":"62","v_score":"1.623113131","decile":"5","lat":40.22765244146,"lng":-111.653391590125},{"id":"177832","name":"Keeley Johnston","party":"","address":"264 E 400 S, Provo, UT 84606","precinct":"25PR52","hd":"62","v_score":"13.97430753","decile":"9","lat":40.22829870896,"lng":-111.654078121404},{"id":"181303","name":"Asha Reichert-Ebert","party":"Dem","address":"398 E 400 S, Provo, UT 84606","precinct":"25PR52","hd":"62","v_score":"0","decile":"3","lat":40.228290096921,"lng":-111.651791434106}]