[{"id":"158","name":"Howard Hickle","party":"Dem","address":"4312 N Edgewood Cir, Provo, UT 84604","precinct":"25PR09","hd":"58","v_score":"26.41733837","decile":"10","lat":40.289820983689,"lng":-111.659324237388},{"id":"2121","name":"Dr. Marquis Zieme MD","party":"","address":"3962 N Edgewood Dr, Provo, UT 84604","precinct":"25PR09","hd":"58","v_score":"11.2235539","decile":"9","lat":40.286479339222,"lng":-111.659566860191},{"id":"2200","name":"Conard Huels","party":"Dem","address":"3962 N Edgewood Dr, Provo, UT 84604","precinct":"25PR09","hd":"58","v_score":"11.2235539","decile":"9","lat":40.286479339222,"lng":-111.659566860191},{"id":"4097","name":"Ms. Alverda Hand","party":"Rep","address":"3867 N 450 W, Provo, UT 84604","precinct":"25PR09","hd":"58","v_score":"1.193887297","decile":"3","lat":40.285011903276,"lng":-111.666342120328},{"id":"5370","name":"Norberto Hackett","party":"","address":"336 W 3700 N, Provo, UT 84604","precinct":"25PR09","hd":"58","v_score":"39.36155753","decile":"10","lat":40.282885948195,"lng":-111.663832027487},{"id":"5372","name":"Dr. Amelia Von DVM","party":"Dem","address":"336 W 3700 N, Provo, UT 84604","precinct":"25PR09","hd":"58","v_score":"39.36155753","decile":"10","lat":40.282885948195,"lng":-111.663832027487},{"id":"6281","name":"Ferris Terry","party":"Dem","address":"366 W 3900 N, Provo, UT 84604","precinct":"25PR09","hd":"58","v_score":"10.0064025","decile":"9","lat":40.285444387192,"lng":-111.665036902197},{"id":"6517","name":"Mrs. Jaylee Schinner DDS","party":"Dem","address":"3742 N 300 W, Provo, UT 84604","precinct":"25PR09","hd":"58","v_score":"1.121327652","decile":"3","lat":40.283451023518,"lng":-111.663055657232},{"id":"7105","name":"Joseluis Carroll","party":"Dem","address":"3802 N 60 E, Provo, UT 84604","precinct":"25PR09","hd":"58","v_score":"8.347511332","decile":"8","lat":40.286010335405,"lng":-111.657090264738},{"id":"7859","name":"Bebe Powlowski","party":"Rep","address":"404 W 3700 N, Provo, UT 84604","precinct":"25PR09","hd":"58","v_score":"2.315214949","decile":"5","lat":40.282881294968,"lng":-111.665145818778},{"id":"8417","name":"Lane Bergnaum MD","party":"Dem","address":"3802 N 60 E, Provo, UT 84604","precinct":"25PR09","hd":"58","v_score":"2.744440783","decile":"5","lat":40.286010335405,"lng":-111.657090264738},{"id":"8844","name":"Mrs. Lulu Pollich","party":"","address":"359 W 3950 N, Provo, UT 84604","precinct":"25PR09","hd":"58","v_score":"23.46055266","decile":"10","lat":40.286181495486,"lng":-111.664267274908},{"id":"8914","name":"Gerhardt Jaskolski","party":"Dem","address":"365 W 3800 N, Provo, UT 84604","precinct":"25PR09","hd":"58","v_score":"11.40478976","decile":"9","lat":40.283943704971,"lng":-111.664373379151},{"id":"9316","name":"Jenelle Steuber","party":"","address":"336 W 3700 N, Provo, UT 84604","precinct":"25PR09","hd":"58","v_score":"26.91962716","decile":"10","lat":40.282885948195,"lng":-111.663832027487},{"id":"10354","name":"Peyton Langworth","party":"Rep","address":"206 W 4130 N, Provo, UT 84604","precinct":"25PR09","hd":"58","v_score":"2.587603312","decile":"5","lat":40.288506294091,"lng":-111.662064880641},{"id":"11732","name":"Hadley Jenkins","party":"Dem","address":"403 W 3800 N, Provo, UT 84604","precinct":"25PR09","hd":"58","v_score":"1.193887297","decile":"3","lat":40.284051181043,"lng":-111.664886577145},{"id":"12666","name":"Luanne Bergnaum DVM","party":"","address":"3891 N 450 W, Provo, UT 84604","precinct":"25PR09","hd":"58","v_score":"5.273794831","decile":"7","lat":40.285193052405,"lng":-111.666343513759},{"id":"12771","name":"Miss Kasie Frami","party":"","address":"185 E 3700 N, Provo, UT 84604","precinct":"25PR09","hd":"58","v_score":"9.830961897","decile":"8","lat":40.282755294248,"lng":-111.65553916096},{"id":"12983","name":"Miss Jena Vandervort","party":"Rep","address":"206 W 4130 N, Provo, UT 84604","precinct":"25PR09","hd":"58","v_score":"2.587603312","decile":"5","lat":40.288506294091,"lng":-111.662064880641},{"id":"13699","name":"Permelia Connelly","party":"Dem","address":"336 W 3700 N, Provo, UT 84604","precinct":"25PR09","hd":"58","v_score":"39.36155753","decile":"10","lat":40.282885948195,"lng":-111.663832027487},{"id":"14150","name":"Remy Walsh","party":"Rep","address":"359 W 3950 N, Provo, UT 84604","precinct":"25PR09","hd":"58","v_score":"6.032296384","decile":"7","lat":40.286181495486,"lng":-111.664267274908},{"id":"14259","name":"Evie Yundt","party":"Dem","address":"3752 N 450 W, Provo, UT 84604","precinct":"25PR09","hd":"58","v_score":"0","decile":"1","lat":40.282007755078,"lng":-111.651650260461},{"id":"14815","name":"Melony Haley","party":"Dem","address":"259 Stone Brook Ln, Provo, UT 84604","precinct":"25PR09","hd":"58","v_score":"12.79826788","decile":"9","lat":40.289348040526,"lng":-111.663126184875},{"id":"15695","name":"Edrie Shields","party":"Dem","address":"3962 N Edgewood Dr, Provo, UT 84604","precinct":"25PR09","hd":"58","v_score":"6.814370645","decile":"8","lat":40.286479339222,"lng":-111.659566860191},{"id":"16082","name":"Libbie Parisian-Leffler","party":"Dem","address":"4146 N University Ave, Apt 2132, Provo, UT 84604","precinct":"25PR09","hd":"58","v_score":"19.26956617","decile":"10","lat":40.288249222226,"lng":-111.658576476672},{"id":"17607","name":"Benita Price MD","party":"Rep","address":"396 W 3700 N, Provo, UT 84604","precinct":"25PR09","hd":"58","v_score":"12.57725863","decile":"9","lat":40.282881294949,"lng":-111.664893852379},{"id":"19798","name":"Dr. Kieth Hoeger III","party":"Rep","address":"344 W 3900 N, Provo, UT 84604","precinct":"25PR09","hd":"58","v_score":"6.52928996","decile":"7","lat":40.285449301003,"lng":-111.664528300968},{"id":"20244","name":"Margrett Towne","party":"Rep","address":"3886 N 100 E, Provo, UT 84604","precinct":"25PR09","hd":"58","v_score":"5.40460374","decile":"7","lat":40.284926459306,"lng":-111.656085408638},{"id":"21560","name":"Kendal Swaniawski","party":"Dem","address":"151 E 3700 N, Provo, UT 84604","precinct":"25PR09","hd":"58","v_score":"2.315214949","decile":"5","lat":40.282755294279,"lng":-111.655942739301},{"id":"21764","name":"Johnnie Hoppe","party":"","address":"365 Stone Brook Ln, Provo, UT 84604","precinct":"25PR09","hd":"58","v_score":"5.40460374","decile":"7","lat":40.289273929689,"lng":-111.664528947823},{"id":"22338","name":"Percy Trantow-Lebsack","party":"","address":"150 W 3700 N, Provo, UT 84604","precinct":"25PR09","hd":"58","v_score":"2.315214949","decile":"5","lat":40.282881294612,"lng":-111.660492712972},{"id":"23166","name":"Mrs. Quinn Feeney DDS","party":"","address":"3792 N 300 W, Provo, UT 84604","precinct":"25PR09","hd":"58","v_score":"2.315214949","decile":"5","lat":40.284094692949,"lng":-111.663304475063},{"id":"23652","name":"Harmony Lemke-Farrell","party":"Dem","address":"3962 N Edgewood Dr, Provo, UT 84604","precinct":"25PR09","hd":"58","v_score":"1.121327652","decile":"3","lat":40.286479339222,"lng":-111.659566860191},{"id":"25285","name":"Krysten Walter","party":"Rep","address":"3729 Riverwood Dr, Provo, UT 84604","precinct":"25PR09","hd":"58","v_score":"1.46627566","decile":"4","lat":40.283097733171,"lng":-111.667782737586},{"id":"25829","name":"Lenard Gibson","party":"","address":"3973 N 300 W, Provo, UT 84604","precinct":"25PR09","hd":"58","v_score":"5.40460374","decile":"7","lat":40.286521199275,"lng":-111.663715764737},{"id":"26667","name":"Justus Kertzmann","party":"Rep","address":"3745 N 100 E, Provo, UT 84604","precinct":"25PR09","hd":"58","v_score":"1.193887297","decile":"3","lat":40.28331687717,"lng":-111.65675007929},{"id":"27568","name":"Calista Rodriguez DDS","party":"Rep","address":"4237 N Edgewood Cir, Provo, UT 84604","precinct":"25PR09","hd":"58","v_score":"0","decile":"1","lat":40.28927104051,"lng":-111.659476062553},{"id":"27883","name":"Omie Kling","party":"Dem","address":"4101 N 190 W, Provo, UT 84604","precinct":"25PR09","hd":"58","v_score":"17.09190024","decile":"9","lat":40.288018082441,"lng":-111.661532245269},{"id":"28378","name":"Lona Denesik","party":"","address":"145 W 3960 N, Provo, UT 84604","precinct":"25PR09","hd":"58","v_score":"12.4440162","decile":"9","lat":40.286436645399,"lng":-111.660358892077},{"id":"28854","name":"Marcia Abbott-Monahan","party":"Dem","address":"3897 N Cove Dr, Provo, UT 84604","precinct":"25PR09","hd":"58","v_score":"1.193887297","decile":"3","lat":40.285199175929,"lng":-111.662741456482},{"id":"29597","name":"Garnet Bergnaum","party":"Rep","address":"3784 N 60 E, Provo, UT 84604","precinct":"25PR09","hd":"58","v_score":"16.05971545","decile":"9","lat":40.285991798688,"lng":-111.65709026474},{"id":"29665","name":"Miss Lina Beatty","party":"Rep","address":"3889 N 200 E, Provo, UT 84604","precinct":"25PR09","hd":"58","v_score":"1.46627566","decile":"4","lat":40.284879709673,"lng":-111.654847000649},{"id":"30561","name":"Ivey O'Keefe I","party":"Rep","address":"3929 N Riverwood Dr, Provo, UT 84604","precinct":"25PR09","hd":"58","v_score":"2.942907593","decile":"6","lat":40.285843652551,"lng":-111.667466781078},{"id":"31364","name":"Lou Torp","party":"","address":"4146 N University Ave, Provo, UT 84604","precinct":"25PR09","hd":"58","v_score":"5.901487474","decile":"7","lat":40.288249222226,"lng":-111.658576476672},{"id":"32102","name":"Fredie Hoppe-Abshire","party":"Dem","address":"401 Stone Gate Ln, Provo, UT 84604","precinct":"25PR09","hd":"58","v_score":"8.485051914","decile":"8","lat":40.290603049462,"lng":-111.664751762012},{"id":"32512","name":"Teddie Stracke","party":"","address":"3876 N 200 E, Provo, UT 84604","precinct":"25PR09","hd":"58","v_score":"13.909617859999999","decile":"9","lat":40.284873249193,"lng":-111.654690762889},{"id":"32766","name":"Zettie Donnelly","party":"","address":"50 E 3900 N, Provo, UT 84604","precinct":"25PR09","hd":"58","v_score":"4.210716443","decile":"7","lat":40.285084574322,"lng":-111.656635545285},{"id":"32844","name":"Golden White","party":"Rep","address":"404 W 3700 N, Provo, UT 84604","precinct":"25PR09","hd":"58","v_score":"1.623113131","decile":"4","lat":40.282881294968,"lng":-111.665145818778},{"id":"33798","name":"Georgette Lubowitz DVM","party":"Rep","address":"3729 Riverwood Dr, Provo, UT 84604","precinct":"25PR09","hd":"58","v_score":"10.9541455","decile":"9","lat":40.283097733171,"lng":-111.667782737586},{"id":"34025","name":"Vera O'Hara PhD","party":"Dem","address":"4378 Stonecrossing, Provo, UT 84604","precinct":"25PR09","hd":"58","v_score":"2.315214949","decile":"5","lat":40.291742486287,"lng":-111.660711365319},{"id":"35321","name":"Delisa Terry","party":"Dem","address":"3802 N 60 E, Provo, UT 84604","precinct":"25PR09","hd":"58","v_score":"1.121327652","decile":"3","lat":40.286010335405,"lng":-111.657090264738},{"id":"36199","name":"Lish Sipes III","party":"Rep","address":"3877 N 200 E, Provo, UT 84604","precinct":"25PR09","hd":"58","v_score":"0","decile":"1","lat":40.284866703802,"lng":-111.654840734648},{"id":"36954","name":"Orvel Wolf","party":"Dem","address":"26 E 3960 N, Provo, UT 84604","precinct":"25PR09","hd":"58","v_score":"6.881235673","decile":"8","lat":40.285797160055,"lng":-111.657985847078},{"id":"36977","name":"Mallory Simonis","party":"","address":"4334 Stonecrossing, Provo, UT 84604","precinct":"25PR09","hd":"58","v_score":"5.40460374","decile":"7","lat":40.291114619856,"lng":-111.660708813099},{"id":"37925","name":"Elizah Mayer","party":"Dem","address":"3886 N 100 E, Provo, UT 84604","precinct":"25PR09","hd":"58","v_score":"5.40460374","decile":"7","lat":40.284926459306,"lng":-111.656085408638},{"id":"42236","name":"Kenna Grimes","party":"","address":"151 E 3700 N, Provo, UT 84604","precinct":"25PR09","hd":"58","v_score":"9.923865181","decile":"9","lat":40.282755294279,"lng":-111.655942739301},{"id":"43727","name":"Mya Bartoletti","party":"Rep","address":"50 E 3900 N, Provo, UT 84604","precinct":"25PR09","hd":"58","v_score":"5.273794831","decile":"7","lat":40.285084574322,"lng":-111.656635545285},{"id":"43856","name":"Mr. George Block","party":"Dem","address":"293 Stone Brook Ln, Provo, UT 84604","precinct":"25PR09","hd":"58","v_score":"15.93147224","decile":"9","lat":40.289381702712,"lng":-111.663609489057},{"id":"44172","name":"Amina Hayes","party":"","address":"4146 N University Ave, Apt 1240, Provo, UT 84604","precinct":"25PR09","hd":"58","v_score":"12.4315644","decile":"9","lat":40.288249222226,"lng":-111.658576476672},{"id":"44179","name":"Gail Willms DDS","party":"Dem","address":"4050 N Cove Dr, Provo, UT 84604","precinct":"25PR09","hd":"58","v_score":"23.95587272","decile":"10","lat":40.287524523036,"lng":-111.662467469446},{"id":"46579","name":"Liller Dach","party":"","address":"4272 Stonecrossing, Provo, UT 84604","precinct":"25PR09","hd":"58","v_score":"11.28331605","decile":"9","lat":40.290257269035,"lng":-111.660482936585},{"id":"46954","name":"Dr. Bina Schamberger","party":"","address":"3857 N 100 E, Provo, UT 84604","precinct":"25PR09","hd":"58","v_score":"35.30276996","decile":"10","lat":40.284654236068,"lng":-111.656233396523},{"id":"47272","name":"Dr. Cherry Mitchell","party":"Dem","address":"3898 N 200 E, Provo, UT 84604","precinct":"25PR09","hd":"58","v_score":"4.210716443","decile":"7","lat":40.284957476152,"lng":-111.654729506977},{"id":"51766","name":"Mr. Wright Corwin IV","party":"","address":"4282 N Edgewood Cir, Provo, UT 84604","precinct":"25PR09","hd":"58","v_score":"5.40460374","decile":"7","lat":40.289603800549,"lng":-111.659324868763},{"id":"53044","name":"Georgie Leuschke-McLaughlin","party":"","address":"79 E 3900 N, Provo, UT 84604","precinct":"25PR09","hd":"58","v_score":"9.82542041","decile":"8","lat":40.285196601946,"lng":-111.656729331029},{"id":"53345","name":"Daneen Kreiger","party":"Rep","address":"282 W 4100 N, Provo, UT 84604","precinct":"25PR09","hd":"58","v_score":"5.530510904","decile":"7","lat":40.288063415389,"lng":-111.663411060766},{"id":"53394","name":"Miss Delfina Lesch PhD","party":"","address":"3753 N 500 W, Provo, UT 84604","precinct":"25PR09","hd":"58","v_score":"12.63527","decile":"9","lat":40.28288732719,"lng":-111.650848060524},{"id":"53596","name":"Dr. Lora Reinger","party":"Dem","address":"3944 N 450 W, Provo, UT 84604","precinct":"25PR09","hd":"58","v_score":"2.660162957","decile":"5","lat":40.286323577577,"lng":-111.665862819995},{"id":"54593","name":"Mike Medhurst III","party":"Dem","address":"51 E 3900 N, Provo, UT 84604","precinct":"25PR09","hd":"58","v_score":"12.88501076","decile":"9","lat":40.285193287683,"lng":-111.656846987693},{"id":"54996","name":"Mossie Gerhold","party":"","address":"432 W 4020 N, Provo, UT 84604","precinct":"25PR09","hd":"58","v_score":"1.623113131","decile":"5","lat":40.28709329449,"lng":-111.665184625758},{"id":"55034","name":"Karma Braun-Dickinson","party":"Dem","address":"3926 Riverwood Dr, Provo, UT 84604","precinct":"25PR09","hd":"58","v_score":"1.623113131","decile":"5","lat":40.285470581695,"lng":-111.667681724953},{"id":"55243","name":"Mr. Hezzie Pfannerstill","party":"Rep","address":"3926 Riverwood Dr, Provo, UT 84604","precinct":"25PR09","hd":"58","v_score":"7.650280567","decile":"8","lat":40.285470581695,"lng":-111.667681724953},{"id":"55918","name":"Kyler Wuckert","party":"","address":"4334 Stone Xing, Provo, UT 84604","precinct":"25PR09","hd":"58","v_score":"1.193887297","decile":"3","lat":40.291114619856,"lng":-111.660708813099},{"id":"56215","name":"Ms. Katlynn Abernathy","party":"","address":"4312 N Edgewood Cir, Provo, UT 84604","precinct":"25PR09","hd":"58","v_score":"19.41769655","decile":"10","lat":40.289820983689,"lng":-111.659324237388},{"id":"56632","name":"Mr. Hideo Schmitt DDS","party":"","address":"4378 Stonecrossing, Provo, UT 84604","precinct":"25PR09","hd":"58","v_score":"1.193887297","decile":"3","lat":40.291742486287,"lng":-111.660711365319},{"id":"57189","name":"Gertha Sawayn","party":"","address":"50 E 3900 N, Provo, UT 84604","precinct":"25PR09","hd":"58","v_score":"1.193887297","decile":"3","lat":40.285084574322,"lng":-111.656635545285},{"id":"57385","name":"Ms. Starla Nicolas DDS","party":"Dem","address":"4308 Stonecrossing, Provo, UT 84604","precinct":"25PR09","hd":"58","v_score":"4.235493435","decile":"7","lat":40.290763677622,"lng":-111.660666811746},{"id":"59825","name":"Malinda Lueilwitz","party":"Dem","address":"3891 N 450 W, Provo, UT 84604","precinct":"25PR09","hd":"58","v_score":"0","decile":"1","lat":40.285193052405,"lng":-111.666343513759},{"id":"59924","name":"Rhea Langosh","party":"Rep","address":"3944 N 450 W, Provo, UT 84604","precinct":"25PR09","hd":"58","v_score":"1.121327652","decile":"3","lat":40.286323577577,"lng":-111.665862819995},{"id":"59984","name":"Randal Kuphal","party":"","address":"3751 Riverwood Dr, Provo, UT 84604","precinct":"25PR09","hd":"58","v_score":"0","decile":"1","lat":40.283382965148,"lng":-111.667793658592},{"id":"59986","name":"Ms. Kassidy Schuster","party":"","address":"285 Stone Gate Ln, Provo, UT 84604","precinct":"25PR09","hd":"58","v_score":"13.06674493","decile":"9","lat":40.292064124991,"lng":-111.663378038629},{"id":"60563","name":"Sigmund McDermott V","party":"Dem","address":"157 E 3800 N, Provo, UT 84604","precinct":"25PR09","hd":"58","v_score":"1.193887297","decile":"3","lat":40.283895855351,"lng":-111.655550780138},{"id":"61155","name":"Stella Senger","party":"Rep","address":"3876 N 200 E, Provo, UT 84604","precinct":"25PR09","hd":"58","v_score":"12.51949831","decile":"9","lat":40.284873249193,"lng":-111.654690762889},{"id":"61943","name":"Dr. Tobias Brown","party":"Rep","address":"3931 N Cove Dr, Provo, UT 84604","precinct":"25PR09","hd":"58","v_score":"1.623113131","decile":"5","lat":40.285648973318,"lng":-111.662724589022},{"id":"62681","name":"Orvel Leannon","party":"","address":"3753 N 500 W, Provo, UT 84604","precinct":"25PR09","hd":"58","v_score":"5.243007221","decile":"7","lat":40.28288732719,"lng":-111.650848060524},{"id":"63331","name":"Viridiana Kreiger","party":"Dem","address":"3982 N 450 W, Provo, UT 84604","precinct":"25PR09","hd":"58","v_score":"0","decile":"1","lat":40.286661318205,"lng":-111.66585872682},{"id":"63904","name":"Kelan Bosco","party":"Dem","address":"4312 N Edgewood Cir, Provo, UT 84604","precinct":"25PR09","hd":"58","v_score":"5.837188142","decile":"7","lat":40.289820983689,"lng":-111.659324237388},{"id":"63984","name":"Marlo Kohler","party":"","address":"408 W 3900 N, Provo, UT 84604","precinct":"25PR09","hd":"58","v_score":"5.693042993","decile":"7","lat":40.285435270768,"lng":-111.665401560251},{"id":"64481","name":"Ms. Ilona O'Reilly","party":"","address":"4237 N Edgewood Cir, Provo, UT 84604","precinct":"25PR09","hd":"58","v_score":"2.315214949","decile":"5","lat":40.28927104051,"lng":-111.659476062553},{"id":"65223","name":"Alver Kirlin","party":"Dem","address":"4032 N 60 E, Provo, UT 84604","precinct":"25PR09","hd":"58","v_score":"2.744440783","decile":"5","lat":40.28658036071,"lng":-111.657090263824},{"id":"65664","name":"Corbin Olson","party":"Rep","address":"161 W 3960 N, Provo, UT 84604","precinct":"25PR09","hd":"58","v_score":"6.814370645","decile":"8","lat":40.286439393631,"lng":-111.660586077806},{"id":"65737","name":"Hazen Murray IV","party":"Dem","address":"192 W 4130 N, Provo, UT 84604","precinct":"25PR09","hd":"58","v_score":"5.687348376","decile":"7","lat":40.288506294086,"lng":-111.662008366256},{"id":"67380","name":"Stephanie Hyatt","party":"Dem","address":"53 E 3850 N, Provo, UT 84604","precinct":"25PR09","hd":"58","v_score":"2.315214949","decile":"5","lat":40.284600294054,"lng":-111.655755937878},{"id":"67413","name":"Carmen Jakubowski-Mann","party":"Rep","address":"4291 Stonecrossing, Provo, UT 84604","precinct":"25PR09","hd":"58","v_score":"2.315214949","decile":"5","lat":40.290486269463,"lng":-111.660689901474},{"id":"67419","name":"Alfredo Schaden","party":"","address":"4291 Stonecrossing, Provo, UT 84604","precinct":"25PR09","hd":"58","v_score":"1.121327652","decile":"3","lat":40.290486269463,"lng":-111.660689901474},{"id":"67893","name":"Shonna Murray","party":"","address":"25 W 4200 N, Provo, UT 84604","precinct":"25PR09","hd":"58","v_score":"4.905839784","decile":"7","lat":40.288909924396,"lng":-111.658860143307},{"id":"68561","name":"Brooks Stanton","party":"Dem","address":"388 W 4150 N, Provo, UT 84604","precinct":"25PR09","hd":"58","v_score":"0","decile":"1","lat":40.288544040046,"lng":-111.665579417925},{"id":"68630","name":"Dr. Beverley Cartwright","party":"","address":"3709 Riverwood Dr, Provo, UT 84604","precinct":"25PR09","hd":"58","v_score":"8.428290059","decile":"8","lat":40.282834893911,"lng":-111.667767681839},{"id":"70030","name":"Cheryle Tillman PhD","party":"Dem","address":"136 E 3800 N, Provo, UT 84604","precinct":"25PR09","hd":"58","v_score":"0","decile":"1","lat":40.283782356381,"lng":-111.655746323716},{"id":"70310","name":"Mistie O'Keefe","party":"Dem","address":"4245 N Edgewood Cir, Provo, UT 84604","precinct":"25PR09","hd":"58","v_score":"5.191257514","decile":"7","lat":40.289328956014,"lng":-111.659475894187},{"id":"70440","name":"Laddie Baumbach","party":"Dem","address":"397 W 3950 N, Provo, UT 84604","precinct":"25PR09","hd":"58","v_score":"10.52632313","decile":"9","lat":40.286178493124,"lng":-111.66462606036},{"id":"70503","name":"Mr. Metro Upton","party":"","address":"3898 N 200 E, Provo, UT 84604","precinct":"25PR09","hd":"58","v_score":"6.954919332","decile":"8","lat":40.284957476152,"lng":-111.654729506977},{"id":"70560","name":"Mr. Garrett Kihn DDS","party":"Dem","address":"392 Stone Brook Ln, Provo, UT 84604","precinct":"25PR09","hd":"58","v_score":"2.744440783","decile":"5","lat":40.289456626927,"lng":-111.665781510363},{"id":"70578","name":"Mr. Clemente Eichmann","party":"Dem","address":"4268 Stone Creek Ln, Provo, UT 84604","precinct":"25PR09","hd":"58","v_score":"12.42158673","decile":"9","lat":40.290372390682,"lng":-111.663282932344},{"id":"70865","name":"Keion Rath-Nader","party":"Dem","address":"3778 N 60 E, Provo, UT 84604","precinct":"25PR09","hd":"58","v_score":"0","decile":"1","lat":40.285985619782,"lng":-111.657090264741},{"id":"76000","name":"Blanch Anderson","party":"","address":"4050 N Cove Dr, Provo, UT 84604","precinct":"25PR09","hd":"58","v_score":"14.56356956","decile":"9","lat":40.287524523036,"lng":-111.662467469446},{"id":"77194","name":"Anastasia Nicolas","party":"","address":"3915 N Cove Dr, Provo, UT 84604","precinct":"25PR09","hd":"58","v_score":"9.35760564","decile":"8","lat":40.285437303959,"lng":-111.66273252665},{"id":"77848","name":"Ms. Almeda Lemke DDS","party":"Rep","address":"4282 N Edgewood Cir, Provo, UT 84604","precinct":"25PR09","hd":"58","v_score":"3.93832808","decile":"6","lat":40.289603800549,"lng":-111.659324868763},{"id":"78810","name":"Shanelle Powlowski","party":"","address":"3923 N 300 W, Provo, UT 84604","precinct":"25PR09","hd":"58","v_score":"1.193887297","decile":"3","lat":40.285791684671,"lng":-111.663732527637},{"id":"79351","name":"Girtha Wilderman","party":"Rep","address":"25 E 3990 N, Provo, UT 84604","precinct":"25PR09","hd":"58","v_score":"1.121327652","decile":"3","lat":40.286310294029,"lng":-111.657983338823},{"id":"80510","name":"Mrs. Carroll Balistreri MD","party":"","address":"4267 N Edgewood Cir, Provo, UT 84604","precinct":"25PR09","hd":"58","v_score":"7.650280567","decile":"8","lat":40.28948822365,"lng":-111.659475431179},{"id":"80954","name":"Keila Russel","party":"","address":"3931 N Cove Dr, Provo, UT 84604","precinct":"25PR09","hd":"58","v_score":"1.623113131","decile":"5","lat":40.285648973318,"lng":-111.662724589022},{"id":"81821","name":"Dolphus Rohan","party":"Dem","address":"4166 N 300 W, Provo, UT 84604","precinct":"25PR09","hd":"58","v_score":"1.193887297","decile":"3","lat":40.288333610223,"lng":-111.663570261168},{"id":"81834","name":"Kadeem Goyette V","party":"Rep","address":"266 W 4020 N, Provo, UT 84604","precinct":"25PR09","hd":"58","v_score":"7.031075439","decile":"8","lat":40.287093294336,"lng":-111.663169066417},{"id":"82202","name":"Cindy Feeney-Terry","party":"Dem","address":"4141 N 300 W, Provo, UT 84604","precinct":"25PR09","hd":"58","v_score":"24.95106271","decile":"10","lat":40.288227910005,"lng":-111.663720485134},{"id":"82516","name":"Delma Boehm MD","party":"","address":"4105 N Edgewood Dr, Provo, UT 84604","precinct":"25PR09","hd":"58","v_score":"1.193887297","decile":"3","lat":40.287793329768,"lng":-111.659771929735},{"id":"82979","name":"Ingeborg Smith","party":"Rep","address":"3891 N 450 W, Provo, UT 84604","precinct":"25PR09","hd":"58","v_score":"1.193887297","decile":"3","lat":40.285193052405,"lng":-111.666343513759},{"id":"83248","name":"Charley Cole","party":"Rep","address":"3933 Riverwood Dr, Provo, UT 84604","precinct":"25PR09","hd":"58","v_score":"0","decile":"1","lat":40.28586118527,"lng":-111.667387079011},{"id":"83291","name":"Leota Rippin","party":"Dem","address":"3766 Riverwood Dr, Provo, UT 84604","precinct":"25PR09","hd":"58","v_score":"20.89491315","decile":"10","lat":40.28343817103,"lng":-111.667645491233},{"id":"83298","name":"Beula Welch-Reynolds","party":"","address":"4146 N University Ave, Apt 1250, Provo, UT 84604","precinct":"25PR09","hd":"58","v_score":"13.60780548","decile":"9","lat":40.288249222226,"lng":-111.658576476672},{"id":"83401","name":"Miss Natalie Carter MD","party":"Rep","address":"3742 N 450 W, Provo, UT 84604","precinct":"25PR09","hd":"58","v_score":"5.926494964","decile":"7","lat":40.284620973136,"lng":-111.651920246737},{"id":"83530","name":"Bailee Waters","party":"","address":"411 W 4020 N, Provo, UT 84604","precinct":"25PR09","hd":"58","v_score":"10.06908511","decile":"9","lat":40.286978703089,"lng":-111.664960747044},{"id":"83762","name":"Dr. Nannie Hand DDS","party":"","address":"4106 N Edgewood Dr, Provo, UT 84604","precinct":"25PR09","hd":"58","v_score":"0","decile":"1","lat":40.287983673819,"lng":-111.659622115297},{"id":"84127","name":"Twyla Effertz","party":"","address":"4016 N Edgewood Dr, Provo, UT 84604","precinct":"25PR09","hd":"58","v_score":"21.92578407","decile":"10","lat":40.287087218054,"lng":-111.659620199911},{"id":"85495","name":"Wendel Nader","party":"","address":"151 E 3700 N, Provo, UT 84604","precinct":"25PR09","hd":"58","v_score":"5.693042993","decile":"7","lat":40.282755294279,"lng":-111.655942739301},{"id":"85518","name":"Miss Infant Hoeger DDS","party":"","address":"157 E 3800 N, Provo, UT 84604","precinct":"25PR09","hd":"58","v_score":"0","decile":"1","lat":40.283895855351,"lng":-111.655550780138},{"id":"86386","name":"Jazmyne Olson","party":"Rep","address":"3853 N 370 W, Provo, UT 84604","precinct":"25PR09","hd":"58","v_score":"5.83359168","decile":"7","lat":40.285148919674,"lng":-111.665034482358},{"id":"88229","name":"Malissie Gorczany","party":"Dem","address":"4245 N Edgewood Cir, Provo, UT 84604","precinct":"25PR09","hd":"58","v_score":"0","decile":"1","lat":40.289328956014,"lng":-111.659475894187},{"id":"88790","name":"Mr. Reynaldo Gerhold DDS","party":"Dem","address":"3751 Riverwood Dr, Provo, UT 84604","precinct":"25PR09","hd":"58","v_score":"5.693042993","decile":"7","lat":40.283382965148,"lng":-111.667793658592},{"id":"89021","name":"Verdell Marquardt","party":"Rep","address":"3866 N 300 W, Provo, UT 84604","precinct":"25PR09","hd":"58","v_score":"1.193887297","decile":"4","lat":40.284974130974,"lng":-111.663595927148},{"id":"89062","name":"Davie Gerhold","party":"Dem","address":"4245 N Edgewood Cir, Provo, UT 84604","precinct":"25PR09","hd":"58","v_score":"0","decile":"1","lat":40.289328956014,"lng":-111.659475894187},{"id":"93220","name":"Mr. Jabbar Schulist I","party":"","address":"88 W 4420 N, Provo, UT 84604","precinct":"25PR09","hd":"58","v_score":"5.41927756","decile":"7","lat":40.292235287664,"lng":-111.660862989723},{"id":"93316","name":"Nicki Cole","party":"","address":"4016 N Edgewood Dr, Provo, UT 84604","precinct":"25PR09","hd":"58","v_score":"1.623113131","decile":"5","lat":40.287087218054,"lng":-111.659620199911},{"id":"93727","name":"Mrs. Kristyn Rolfson","party":"Rep","address":"4290 N Edgewood Cir, Provo, UT 84604","precinct":"25PR09","hd":"58","v_score":"2.817000428","decile":"6","lat":40.289661716053,"lng":-111.659324700396},{"id":"94211","name":"Hollie Boehm","party":"","address":"4290 N Edgewood Cir, Provo, UT 84604","precinct":"25PR09","hd":"58","v_score":"8.085704327","decile":"8","lat":40.289661716053,"lng":-111.659324700396},{"id":"94248","name":"Caddie Walker MD","party":"","address":"430 W 3900 N, Provo, UT 84604","precinct":"25PR09","hd":"58","v_score":"1.193887297","decile":"4","lat":40.285430495498,"lng":-111.665592571613},{"id":"94309","name":"Dione Hodkiewicz","party":"Rep","address":"4146 N University Ave, Apt 1101, Provo, UT 84604","precinct":"25PR09","hd":"58","v_score":"2.817000428","decile":"6","lat":40.288249222226,"lng":-111.658576476672},{"id":"94988","name":"Erle Bradtke","party":"","address":"3875 N Cove Dr, Provo, UT 84604","precinct":"25PR09","hd":"58","v_score":"1.193887297","decile":"4","lat":40.284899493636,"lng":-111.662728679764},{"id":"95005","name":"Lorean Skiles-Nader","party":"Rep","address":"461 W 4150 N, Provo, UT 84604","precinct":"25PR09","hd":"58","v_score":"0","decile":"1","lat":40.288435148077,"lng":-111.666032317313},{"id":"95126","name":"Bonnie Dach","party":"Rep","address":"516 Riverwood Cir, Provo, UT 84604","precinct":"25PR09","hd":"58","v_score":"2.817000428","decile":"6","lat":40.284959092564,"lng":-111.66751858063},{"id":"95218","name":"Cleon Tremblay","party":"Rep","address":"3845 N 100 E, Provo, UT 84604","precinct":"25PR09","hd":"58","v_score":"1.193887297","decile":"4","lat":40.284437597581,"lng":-111.656234517539},{"id":"95533","name":"Ms. Elayne Stamm","party":"Rep","address":"401 Stone Gate Ln, Provo, UT 84604","precinct":"25PR09","hd":"58","v_score":"5.837188142","decile":"7","lat":40.290603049462,"lng":-111.664751762012},{"id":"97529","name":"Dr. Ellsworth Spencer MD","party":"Rep","address":"3753 N 500 W, Provo, UT 84604","precinct":"25PR09","hd":"58","v_score":"1.193887297","decile":"4","lat":40.28288732719,"lng":-111.650848060524},{"id":"97607","name":"Adrian Gusikowski","party":"Dem","address":"3929 Riverwood Dr, Provo, UT 84604","precinct":"25PR09","hd":"58","v_score":"1.193887297","decile":"4","lat":40.285843652551,"lng":-111.667466781078},{"id":"98473","name":"Acie Gutmann Jr.","party":"","address":"388 W 4150 N, Provo, UT 84604","precinct":"25PR09","hd":"58","v_score":"1.193887297","decile":"4","lat":40.288544040046,"lng":-111.665579417925},{"id":"99146","name":"Jeramy Ondricka","party":"","address":"151 E 3700 N, Provo, UT 84604","precinct":"25PR09","hd":"58","v_score":"4.069929862","decile":"6","lat":40.282755294279,"lng":-111.655942739301},{"id":"100150","name":"Isaac Gutkowski-Wunsch","party":"Rep","address":"182 Stone Gate Ln, Provo, UT 84604","precinct":"25PR09","hd":"58","v_score":"2.876042565","decile":"6","lat":40.292144171242,"lng":-111.661881577227},{"id":"100466","name":"Mrs. Aida Rogahn","party":"Dem","address":"412 W 4150 N, Provo, UT 84604","precinct":"25PR09","hd":"58","v_score":"0","decile":"1","lat":40.288561582353,"lng":-111.665740524759},{"id":"101329","name":"Dr. Julious Walter","party":"Rep","address":"3836 N 100 E, Provo, UT 84604","precinct":"25PR09","hd":"58","v_score":"4.214075011","decile":"7","lat":40.284338013194,"lng":-111.656086201781},{"id":"101788","name":"Mrs. Iva Reichert DDS","party":"Dem","address":"187 Stone Brook Ln, Provo, UT 84604","precinct":"25PR09","hd":"58","v_score":"1.193887297","decile":"4","lat":40.289254669437,"lng":-111.662085765161},{"id":"103243","name":"Kameron Runte","party":"","address":"4312 N Edgewood Cir, Provo, UT 84604","precinct":"25PR09","hd":"58","v_score":"4.214075011","decile":"7","lat":40.289820983689,"lng":-111.659324237388},{"id":"104136","name":"Claude Crona","party":"","address":"282 W 4020 N, Provo, UT 84604","precinct":"25PR09","hd":"58","v_score":"1.193887297","decile":"4","lat":40.287093294346,"lng":-111.663298298415},{"id":"104554","name":"Dr. Dian Hoeger","party":"Dem","address":"4106 N Edgewood Dr, Provo, UT 84604","precinct":"25PR09","hd":"58","v_score":"0","decile":"2","lat":40.287983673819,"lng":-111.659622115297},{"id":"104873","name":"Silvio Pagac","party":"Dem","address":"4215 N Edgewood Cir, Provo, UT 84604","precinct":"25PR09","hd":"58","v_score":"0","decile":"2","lat":40.289111772875,"lng":-111.659476525561},{"id":"105736","name":"Dr. Chimere Ratke","party":"","address":"3770 N 100 E, Provo, UT 84604","precinct":"25PR09","hd":"58","v_score":"0","decile":"2","lat":40.283496787708,"lng":-111.656399382142},{"id":"106868","name":"Amber Reichert","party":"Dem","address":"50 E 3900 N, Provo, UT 84604","precinct":"25PR09","hd":"58","v_score":"1.193887297","decile":"4","lat":40.285084574322,"lng":-111.656635545285},{"id":"107085","name":"Colton Lowe PhD","party":"Rep","address":"397 W 3950 N, Provo, UT 84604","precinct":"25PR09","hd":"58","v_score":"4.905839784","decile":"7","lat":40.286178493124,"lng":-111.66462606036},{"id":"107197","name":"Aaron Hamill","party":"Rep","address":"192 W 4130 N, Provo, UT 84604","precinct":"25PR09","hd":"58","v_score":"2.876042565","decile":"6","lat":40.288506294086,"lng":-111.662008366256},{"id":"107484","name":"Eric Bogan V","party":"Rep","address":"418 W 3700 N, Provo, UT 84604","precinct":"25PR09","hd":"58","v_score":"1.193887297","decile":"4","lat":40.282881294986,"lng":-111.665378005219},{"id":"107685","name":"Jamal O'Keefe DVM","party":"Rep","address":"3845 N 100 E, Provo, UT 84604","precinct":"25PR09","hd":"58","v_score":"1.193887297","decile":"4","lat":40.284437597581,"lng":-111.656234517539},{"id":"108277","name":"Mr. Darrius Mosciski","party":"Rep","address":"4123 N Cove Dr, Provo, UT 84604","precinct":"25PR09","hd":"58","v_score":"0","decile":"2","lat":40.288393028561,"lng":-111.662588184094},{"id":"108342","name":"Caitlynn O'Keefe-Murray","party":"","address":"4296 Stonecrossing, Provo, UT 84604","precinct":"25PR09","hd":"58","v_score":"0","decile":"2","lat":40.290607102098,"lng":-111.660589533188},{"id":"108815","name":"Mr. Hurbert Hermiston","party":"Rep","address":"408 W 3900 N, Provo, UT 84604","precinct":"25PR09","hd":"58","v_score":"4.214075011","decile":"7","lat":40.285435270768,"lng":-111.665401560251},{"id":"108819","name":"Hobson Grady","party":"Rep","address":"4378 Stone Xing, Provo, UT 84604","precinct":"25PR09","hd":"58","v_score":"0","decile":"2","lat":40.291742486287,"lng":-111.660711365319},{"id":"109059","name":"Toccara Gibson MD","party":"","address":"3857 N 100 E, Provo, UT 84604","precinct":"25PR09","hd":"58","v_score":"0","decile":"2","lat":40.284654236068,"lng":-111.656233396523},{"id":"109134","name":"Elihu O'Keefe","party":"","address":"59 E 3850 N, Provo, UT 84604","precinct":"25PR09","hd":"58","v_score":"1.193887297","decile":"4","lat":40.284600294051,"lng":-111.655718284515},{"id":"109576","name":"Lulie Harvey DDS","party":"Rep","address":"4245 N Edgewood Cir, Provo, UT 84604","precinct":"25PR09","hd":"58","v_score":"0","decile":"2","lat":40.289328956014,"lng":-111.659475894187},{"id":"111595","name":"Dr. Taja Shields","party":"Rep","address":"4277 Stone Creek Ln, Provo, UT 84604","precinct":"25PR09","hd":"58","v_score":"0","decile":"2","lat":40.290537962876,"lng":-111.66332488065},{"id":"113167","name":"Mrs. Fawn Murphy","party":"Dem","address":"188 E 3800 N, Provo, UT 84604","precinct":"25PR09","hd":"58","v_score":"8.284004873","decile":"8","lat":40.283779524157,"lng":-111.655240778566},{"id":"114440","name":"Beau Brown","party":"","address":"44 E 3960 N, Provo, UT 84604","precinct":"25PR09","hd":"58","v_score":"1.193887297","decile":"4","lat":40.28579569431,"lng":-111.657799699214},{"id":"114461","name":"Mr. Calvin Eichmann V","party":"Rep","address":"419 W 3900 N, Provo, UT 84604","precinct":"25PR09","hd":"58","v_score":"0","decile":"2","lat":40.285319112962,"lng":-111.665461757385},{"id":"115026","name":"Ebb Monahan DDS","party":"Dem","address":"3875 N Cove Dr, Provo, UT 84604","precinct":"25PR09","hd":"58","v_score":"0","decile":"2","lat":40.284899493636,"lng":-111.662728679764},{"id":"115834","name":"Everett Padberg","party":"Rep","address":"313 Stone Gate Ln, Provo, UT 84604","precinct":"25PR09","hd":"58","v_score":"0","decile":"2","lat":40.291810785123,"lng":-111.663578803908},{"id":"115963","name":"Margarita Lemke-Fahey","party":"Rep","address":"3857 N 300 W, Provo, UT 84604","precinct":"25PR09","hd":"58","v_score":"1.193887297","decile":"4","lat":40.284860331151,"lng":-111.66374699566},{"id":"117930","name":"Effie Johnston-Bradtke","party":"","address":"293 Stone Brook Ln, Provo, UT 84604","precinct":"25PR09","hd":"58","v_score":"8.284004873","decile":"8","lat":40.289381702712,"lng":-111.663609489057},{"id":"118742","name":"Jordyn Cartwright PhD","party":"Dem","address":"3876 N 200 E, Provo, UT 84604","precinct":"25PR09","hd":"58","v_score":"5.407962308","decile":"7","lat":40.284873249193,"lng":-111.654690762889},{"id":"118818","name":"Mr. Douglas Cruickshank","party":"Rep","address":"151 E 3700 N, Provo, UT 84604","precinct":"25PR09","hd":"58","v_score":"1.193887297","decile":"4","lat":40.282755294279,"lng":-111.655942739301},{"id":"119903","name":"Algernon Rau I","party":"","address":"282 W 4100 N, Provo, UT 84604","precinct":"25PR09","hd":"58","v_score":"1.193887297","decile":"4","lat":40.288063415389,"lng":-111.663411060766},{"id":"120572","name":"Arch Stokes MD","party":"","address":"388 W 4150 N, Provo, UT 84604","precinct":"25PR09","hd":"58","v_score":"4.069929862","decile":"7","lat":40.288544040046,"lng":-111.665579417925},{"id":"120730","name":"Dr. Orvis Crona PhD","party":"Dem","address":"388 W 4150 N, Provo, UT 84604","precinct":"25PR09","hd":"58","v_score":"4.069929862","decile":"7","lat":40.288544040046,"lng":-111.665579417925},{"id":"120736","name":"Dr. Greene Aufderhar III","party":"Rep","address":"176 E 3800 N, Provo, UT 84604","precinct":"25PR09","hd":"58","v_score":"1.193887297","decile":"4","lat":40.283780177747,"lng":-111.655357442831},{"id":"121295","name":"Felicity Feest","party":"Dem","address":"3857 N 300 W, Provo, UT 84604","precinct":"25PR09","hd":"58","v_score":"1.193887297","decile":"4","lat":40.284860331151,"lng":-111.66374699566},{"id":"121485","name":"Mr. Otha Kemmer","party":"","address":"3919 Riverwood Dr, Provo, UT 84604","precinct":"25PR09","hd":"58","v_score":"4.069929862","decile":"7","lat":40.285758261073,"lng":-111.667656118808},{"id":"121846","name":"Charly Hills-Marks","party":"Dem","address":"4334 Stone Xing, Provo, UT 84604","precinct":"25PR09","hd":"58","v_score":"1.193887297","decile":"4","lat":40.291114619856,"lng":-111.660708813099},{"id":"122000","name":"Kylan Simonis","party":"Rep","address":"4146 N University Ave, Apt 1246, Provo, UT 84604","precinct":"25PR09","hd":"58","v_score":"23.05611481","decile":"10","lat":40.288249222226,"lng":-111.658576476672},{"id":"123767","name":"Theda Herman","party":"Rep","address":"3853 N 370 W, Provo, UT 84604","precinct":"25PR09","hd":"58","v_score":"1.193887297","decile":"4","lat":40.285148919674,"lng":-111.665034482358},{"id":"124180","name":"Emilie Hahn","party":"","address":"3805 N 450 W, Provo, UT 84604","precinct":"25PR09","hd":"58","v_score":"1.193887297","decile":"4","lat":40.284529152089,"lng":-111.666304870671},{"id":"124216","name":"Stefan Steuber-Kuvalis","party":"Dem","address":"3778 N 60 E, Provo, UT 84604","precinct":"25PR09","hd":"58","v_score":"1.193887297","decile":"4","lat":40.285985619782,"lng":-111.657090264741},{"id":"124364","name":"Pansy Turner","party":"Rep","address":"25 W 4200 N, Provo, UT 84604","precinct":"25PR09","hd":"58","v_score":"0","decile":"2","lat":40.288909924396,"lng":-111.658860143307},{"id":"126733","name":"Garrett Tillman PhD","party":"Dem","address":"3751 Riverwood Dr, Provo, UT 84604","precinct":"25PR09","hd":"58","v_score":"2.876042565","decile":"6","lat":40.283382965148,"lng":-111.667793658592},{"id":"126739","name":"Maxx Kuphal","party":"Rep","address":"3778 N 60 E, Provo, UT 84604","precinct":"25PR09","hd":"58","v_score":"0","decile":"2","lat":40.285985619782,"lng":-111.657090264741},{"id":"126932","name":"Burl Schuppe","party":"Rep","address":"144 E 3850 N, Provo, UT 84604","precinct":"25PR09","hd":"58","v_score":"0","decile":"2","lat":40.284485702652,"lng":-111.655524382516},{"id":"127060","name":"Brandie Funk","party":"","address":"4230 N Edgewood Cir, Provo, UT 84604","precinct":"25PR09","hd":"58","v_score":"0","decile":"2","lat":40.289227349774,"lng":-111.659325963145},{"id":"130397","name":"Muhammad Leffler","party":"","address":"188 E 3800 N, Provo, UT 84604","precinct":"25PR09","hd":"58","v_score":"0","decile":"2","lat":40.283779524157,"lng":-111.655240778566},{"id":"130452","name":"Bayard Green","party":"Rep","address":"430 W 3900 N, Provo, UT 84604","precinct":"25PR09","hd":"58","v_score":"0","decile":"2","lat":40.285430495498,"lng":-111.665592571613},{"id":"130874","name":"Arvin Labadie","party":"","address":"364 W 3700 N, Provo, UT 84604","precinct":"25PR09","hd":"58","v_score":"0","decile":"2","lat":40.282882925099,"lng":-111.664327821465},{"id":"131950","name":"Kaylee Ruecker","party":"Rep","address":"312 W 3700 N, Provo, UT 84604","precinct":"25PR09","hd":"58","v_score":"0","decile":"2","lat":40.282888539421,"lng":-111.663407061221},{"id":"132449","name":"Reagan Weissnat-Kuvalis","party":"Dem","address":"51 E 3900 N, Provo, UT 84604","precinct":"25PR09","hd":"58","v_score":"0","decile":"2","lat":40.285193287683,"lng":-111.656846987693},{"id":"133669","name":"Timmy Hettinger-Sanford","party":"Dem","address":"4146 University Ave, Apt 1247, Provo, UT 84604","precinct":"25PR09","hd":"58","v_score":"0","decile":"2","lat":40.288249222226,"lng":-111.658576476672},{"id":"136382","name":"Orlena Lang","party":"Dem","address":"4230 N Edgewood Cir, Provo, UT 84604","precinct":"25PR09","hd":"58","v_score":"6.481563075","decile":"7","lat":40.289227349774,"lng":-111.659325963145},{"id":"137293","name":"Maverick Lemke Sr.","party":"Dem","address":"4245 N Edgewood Cir, Provo, UT 84604","precinct":"25PR09","hd":"58","v_score":"6.814370645","decile":"8","lat":40.289328956014,"lng":-111.659475894187},{"id":"137633","name":"Takisha Blanda","party":"","address":"447 W 4150 N, Provo, UT 84604","precinct":"25PR09","hd":"58","v_score":"28.91462548","decile":"10","lat":40.288472117848,"lng":-111.665994743999},{"id":"137647","name":"Dr. Sonny Effertz MD","party":"Dem","address":"447 W 4150 N, Provo, UT 84604","precinct":"25PR09","hd":"58","v_score":"31.45786048","decile":"10","lat":40.288472117848,"lng":-111.665994743999},{"id":"138420","name":"Gussie Renner","party":"","address":"430 W 3900 N, Provo, UT 84604","precinct":"25PR09","hd":"58","v_score":"5.659072284","decile":"7","lat":40.285430495498,"lng":-111.665592571613},{"id":"143659","name":"Mrs. Margaretta Jast MD","party":"","address":"3784 N 60 E, Provo, UT 84604","precinct":"25PR09","hd":"58","v_score":"14.18213378","decile":"9","lat":40.285991798688,"lng":-111.65709026474},{"id":"145307","name":"Horton Gorczany","party":"Dem","address":"4380 N Stone Creek Ln, Provo, UT 84604","precinct":"25PR09","hd":"58","v_score":"6.881235673","decile":"8","lat":40.291798284559,"lng":-111.662186508312},{"id":"147361","name":"Dr. Link Reichel","party":"Dem","address":"3770 N 100 E, Provo, UT 84604","precinct":"25PR09","hd":"58","v_score":"18.49131087","decile":"10","lat":40.283496787708,"lng":-111.656399382142},{"id":"147781","name":"Marsha Dickinson","party":"Rep","address":"144 E 3850 N, Provo, UT 84604","precinct":"25PR09","hd":"58","v_score":"13.34346464","decile":"9","lat":40.284485702652,"lng":-111.655524382516},{"id":"147791","name":"Francina Schneider-Ledner","party":"","address":"363 W 4100 N, Provo, UT 84604","precinct":"25PR09","hd":"58","v_score":"21.70848868","decile":"10","lat":40.287950702931,"lng":-111.664342873953},{"id":"147844","name":"Cap Schmeler","party":"","address":"54 E 3960 N, Provo, UT 84604","precinct":"25PR09","hd":"58","v_score":"34.09285363","decile":"10","lat":40.285794880007,"lng":-111.657696283734},{"id":"147927","name":"Kaylyn Lemke DDS","party":"Dem","address":"4004 N Cove Dr, Provo, UT 84604","precinct":"25PR09","hd":"58","v_score":"26.41733837","decile":"10","lat":40.287126268616,"lng":-111.662482357512},{"id":"148033","name":"Vern Walsh-Ledner","party":"Rep","address":"313 Stone Gate Ln, Provo, UT 84604","precinct":"25PR09","hd":"58","v_score":"41.61636965","decile":"10","lat":40.291810785123,"lng":-111.663578803908},{"id":"148466","name":"Jahiem Daugherty","party":"","address":"3865 N Edgewood Dr, Provo, UT 84604","precinct":"25PR09","hd":"58","v_score":"4.069929862","decile":"7","lat":40.284851715342,"lng":-111.659575251001},{"id":"148467","name":"Dr. Emile Pollich DVM","party":"Rep","address":"3865 N Edgewood Dr, Provo, UT 84604","precinct":"25PR09","hd":"58","v_score":"17.74242502","decile":"10","lat":40.284851715342,"lng":-111.659575251001},{"id":"148703","name":"Tad Corkery","party":"Rep","address":"3888 N 300 W, Provo, UT 84604","precinct":"25PR09","hd":"58","v_score":"12.57725863","decile":"9","lat":40.285225925756,"lng":-111.66359404805},{"id":"149341","name":"Virgie Zemlak DVM","party":"","address":"348 W 4020 N, Provo, UT 84604","precinct":"25PR09","hd":"58","v_score":"34.09285363","decile":"10","lat":40.287093294407,"lng":-111.664097921951},{"id":"149357","name":"Abigale Walter","party":"Rep","address":"3709 Riverwood Dr, Provo, UT 84604","precinct":"25PR09","hd":"58","v_score":"19.44550052","decile":"10","lat":40.282834893911,"lng":-111.667767681839},{"id":"150466","name":"Donia Trantow","party":"Dem","address":"3854 N 370 W, Provo, UT 84604","precinct":"25PR09","hd":"58","v_score":"36.88376198","decile":"10","lat":40.285156866776,"lng":-111.664884264226},{"id":"150493","name":"Dale Dietrich","party":"Rep","address":"4146 N University Ave, Provo, UT 84604","precinct":"25PR09","hd":"58","v_score":"21.51711252","decile":"10","lat":40.288249222226,"lng":-111.658576476672},{"id":"150998","name":"Metta Reichel","party":"","address":"3891 N 450 W, Provo, UT 84604","precinct":"25PR09","hd":"58","v_score":"4.152467179","decile":"7","lat":40.285193052405,"lng":-111.666343513759},{"id":"151139","name":"Mr. Solon Mills","party":"Dem","address":"3982 N 450 W, Provo, UT 84604","precinct":"25PR09","hd":"58","v_score":"16.56360994","decile":"9","lat":40.286661318205,"lng":-111.66585872682},{"id":"152397","name":"Teddy Paucek-Brown","party":"","address":"3792 N 300 W, Provo, UT 84604","precinct":"25PR09","hd":"58","v_score":"11.38887958","decile":"9","lat":40.284094692949,"lng":-111.663304475063},{"id":"152460","name":"Miss Reba Thompson DVM","party":"Dem","address":"396 W 3700 N, Provo, UT 84604","precinct":"25PR09","hd":"58","v_score":"6.814370645","decile":"8","lat":40.282881294949,"lng":-111.664893852379},{"id":"152499","name":"Brittny Anderson-Jaskolski","party":"","address":"3932 Riverwood Dr, Provo, UT 84604","precinct":"25PR09","hd":"58","v_score":"7.282185415","decile":"8","lat":40.285575984377,"lng":-111.66765192912},{"id":"152881","name":"Mrs. Dorcas Lebsack MD","party":"Rep","address":"3897 N Cove Dr, Provo, UT 84604","precinct":"25PR09","hd":"58","v_score":"35.97043531","decile":"10","lat":40.285199175929,"lng":-111.662741456482},{"id":"153801","name":"Arianna Klein-Mueller","party":"","address":"4378 Stonecrossing, Provo, UT 84604","precinct":"25PR09","hd":"58","v_score":"8.280646305","decile":"8","lat":40.291742486287,"lng":-111.660711365319},{"id":"153920","name":"Simone Little","party":"Dem","address":"157 E 3800 N, Provo, UT 84604","precinct":"25PR09","hd":"58","v_score":"3.93832808","decile":"6","lat":40.283895855351,"lng":-111.655550780138},{"id":"154852","name":"Ossie McKenzie-Rowe","party":"Rep","address":"4053 N 380 W, Provo, UT 84604","precinct":"25PR09","hd":"58","v_score":"8.347511332","decile":"8","lat":40.28754844828,"lng":-111.664856611928},{"id":"156437","name":"Tobie Tremblay","party":"Rep","address":"3853 N 370 W, Provo, UT 84604","precinct":"25PR09","hd":"58","v_score":"19.82934332","decile":"10","lat":40.285148919674,"lng":-111.665034482358},{"id":"156817","name":"Corina Parisian","party":"Dem","address":"3919 Riverwood Dr, Provo, UT 84604","precinct":"25PR09","hd":"58","v_score":"22.45300412","decile":"10","lat":40.285758261073,"lng":-111.667656118808},{"id":"157023","name":"Maliyah Rath","party":"","address":"366 W 4100 N, Provo, UT 84604","precinct":"25PR09","hd":"58","v_score":"18.5581759","decile":"10","lat":40.288065294318,"lng":-111.664383028053},{"id":"157137","name":"Dr. Elisha Christiansen","party":"","address":"266 W 4020 N, Provo, UT 84604","precinct":"25PR09","hd":"58","v_score":"10.71001167","decile":"9","lat":40.287093294336,"lng":-111.663169066417},{"id":"157537","name":"Shaquille Mohr-Schoen","party":"Rep","address":"4312 N Edgewood Cir, Provo, UT 84604","precinct":"25PR09","hd":"58","v_score":"22.70538588","decile":"10","lat":40.289820983689,"lng":-111.659324237388},{"id":"158031","name":"Delina Kling-Rutherford","party":"","address":"88 W 4420 N, Provo, UT 84604","precinct":"25PR09","hd":"58","v_score":"19.18884873","decile":"10","lat":40.292235287664,"lng":-111.660862989723},{"id":"158270","name":"Christin Emard","party":"Rep","address":"3777 N 500 W, Provo, UT 84604","precinct":"25PR09","hd":"58","v_score":"1.121327652","decile":"3","lat":40.28303052997,"lng":-111.650851043897},{"id":"158335","name":"Andre Mosciski-Lowe","party":"Dem","address":"3881 N Cove Dr, Provo, UT 84604","precinct":"25PR09","hd":"58","v_score":"3.93832808","decile":"6","lat":40.284978129514,"lng":-111.662743165308},{"id":"158711","name":"Harper Wolff","party":"Rep","address":"449 W 3800 N, Provo, UT 84604","precinct":"25PR09","hd":"58","v_score":"12.63527","decile":"9","lat":40.284181283655,"lng":-111.665507816822},{"id":"158997","name":"Miguel Friesen-Ziemann","party":"Rep","address":"4146 N University Ave, Apt 1212, Provo, UT 84604","precinct":"25PR09","hd":"58","v_score":"19.68555491","decile":"10","lat":40.288249222226,"lng":-111.658576476672},{"id":"159279","name":"Tory Zemlak","party":"Rep","address":"4045 N Edgewood Dr, Provo, UT 84604","precinct":"25PR09","hd":"58","v_score":"1.193887297","decile":"4","lat":40.287087031287,"lng":-111.659770420642},{"id":"159590","name":"Noretta Jacobs","party":"Rep","address":"4146 N University Ave, Apt 1114, Provo, UT 84604","precinct":"25PR09","hd":"58","v_score":"30.38090114","decile":"10","lat":40.288249222226,"lng":-111.658576476672},{"id":"159762","name":"Kesha Labadie","party":"","address":"141 Stone Brook Ln, Provo, UT 84604","precinct":"25PR09","hd":"58","v_score":"26.60266161","decile":"10","lat":40.289195015686,"lng":-111.661421052565},{"id":"159763","name":"Riya Rowe","party":"Dem","address":"141 W Stone Brook Ln, Provo, UT 84604","precinct":"25PR09","hd":"58","v_score":"23.45875849","decile":"10","lat":40.289195015686,"lng":-111.661421052565},{"id":"159768","name":"Brooklyn Collins","party":"","address":"3879 N 300 W, Provo, UT 84604","precinct":"25PR09","hd":"58","v_score":"8.363183621","decile":"8","lat":40.285112125934,"lng":-111.663745116562},{"id":"159838","name":"Bonita Price","party":"","address":"4146 N University Ave, Apt 1128, Provo, UT 84604","precinct":"25PR09","hd":"58","v_score":"20.36889255","decile":"10","lat":40.288249222226,"lng":-111.658576476672},{"id":"159864","name":"Chester Gorczany PhD","party":"","address":"366 W 4100 N, Provo, UT 84604","precinct":"25PR09","hd":"58","v_score":"30.41487485","decile":"10","lat":40.288065294318,"lng":-111.664383028053},{"id":"159972","name":"Jannie Yundt","party":"Dem","address":"366 W 4100 N, Provo, UT 84604","precinct":"25PR09","hd":"58","v_score":"25.14617095","decile":"10","lat":40.288065294318,"lng":-111.664383028053},{"id":"160079","name":"Cristopher Williamson IV","party":"","address":"323 W 3800 N, Provo, UT 84604","precinct":"25PR09","hd":"58","v_score":"31.78759067","decile":"10","lat":40.284011025539,"lng":-111.663762058774},{"id":"160080","name":"Mr. Verl Rodriguez Jr.","party":"Dem","address":"323 W 3800 N, Provo, UT 84604","precinct":"25PR09","hd":"58","v_score":"34.33082567","decile":"10","lat":40.284011025539,"lng":-111.663762058774},{"id":"160125","name":"Santos Steuber-Roob","party":"","address":"4146 N University Ave, Provo, UT 84604","precinct":"25PR09","hd":"58","v_score":"5.40460374","decile":"7","lat":40.288249222226,"lng":-111.658576476672},{"id":"160202","name":"Raelynn Moen-Torp","party":"","address":"112 E 3800 N, Provo, UT 84604","precinct":"25PR09","hd":"58","v_score":"31.14994604","decile":"10","lat":40.283783663562,"lng":-111.655979652248},{"id":"160601","name":"Jazlynn Kovacek","party":"Rep","address":"109 E 3700 N, Provo, UT 84604","precinct":"25PR09","hd":"58","v_score":"8.507303088","decile":"8","lat":40.282782403549,"lng":-111.656428783171},{"id":"161570","name":"Harlie Jenkins","party":"","address":"3883 N 100 E, Provo, UT 84604","precinct":"25PR09","hd":"58","v_score":"36.36686118","decile":"10","lat":40.284889541914,"lng":-111.656235325228},{"id":"161759","name":"Javon Marvin","party":"Rep","address":"4146 N University Ave, Provo, UT 84604","precinct":"25PR09","hd":"58","v_score":"31.15555998","decile":"10","lat":40.288249222226,"lng":-111.658576476672},{"id":"161815","name":"Hubbard Effertz","party":"Dem","address":"4245 N Edgewood Cir, Provo, UT 84604","precinct":"25PR09","hd":"58","v_score":"6.814370645","decile":"8","lat":40.289328956014,"lng":-111.659475894187},{"id":"162050","name":"Anahi Connelly","party":"Dem","address":"408 W 3900 N, Provo, UT 84604","precinct":"25PR09","hd":"58","v_score":"28.86710314","decile":"10","lat":40.285435270768,"lng":-111.665401560251},{"id":"162307","name":"Alwin Schulist","party":"Rep","address":"3862 N 100 E, Provo, UT 84604","precinct":"25PR09","hd":"58","v_score":"12.59867706","decile":"9","lat":40.284709253909,"lng":-111.656083628294},{"id":"162585","name":"Elie Baumbach II","party":"Dem","address":"366 W 3900 N, Provo, UT 84604","precinct":"25PR09","hd":"58","v_score":"11.47267816","decile":"9","lat":40.285444387192,"lng":-111.665036902197},{"id":"162766","name":"Devontae Kertzmann-Doyle","party":"","address":"3891 N 450 W, Provo, UT 84604","precinct":"25PR09","hd":"58","v_score":"2.958579882","decile":"6","lat":40.285193052405,"lng":-111.666343513759},{"id":"163255","name":"Tommie Borer","party":"","address":"136 E 3800 N, Provo, UT 84604","precinct":"25PR09","hd":"58","v_score":"4.210716443","decile":"7","lat":40.283782356381,"lng":-111.655746323716},{"id":"163434","name":"Dr. Page Legros IV","party":"Rep","address":"4105 N Edgewood Dr, Provo, UT 84604","precinct":"25PR09","hd":"58","v_score":"6.798081861","decile":"8","lat":40.287793329768,"lng":-111.659771929735},{"id":"163435","name":"Hertha Wehner","party":"Rep","address":"4105 N Edgewood Dr, Provo, UT 84604","precinct":"25PR09","hd":"58","v_score":"5.604194564","decile":"7","lat":40.287793329768,"lng":-111.659771929735},{"id":"163620","name":"Mr. Anton Jakubowski II","party":"Rep","address":"394 W 3800 N, Provo, UT 84604","precinct":"25PR09","hd":"58","v_score":"8.347511332","decile":"8","lat":40.284139057703,"lng":-111.664738768326},{"id":"164160","name":"Ruth Schamberger PhD","party":"Dem","address":"316 W 3800 N, Provo, UT 84604","precinct":"25PR09","hd":"58","v_score":"1.193887297","decile":"4","lat":40.284142158922,"lng":-111.663753344598},{"id":"164369","name":"Campbell Douglas-Tremblay","party":"","address":"254 Stone Gate Ln, Provo, UT 84604","precinct":"25PR09","hd":"58","v_score":"6.724398202","decile":"8","lat":40.292252084458,"lng":-111.663295217065},{"id":"164447","name":"Budd Gibson","party":"","address":"26 E 3960 N, Provo, UT 84604","precinct":"25PR09","hd":"58","v_score":"14.32268247","decile":"9","lat":40.285797160055,"lng":-111.657985847078},{"id":"164557","name":"Florencio Ullrich","party":"Dem","address":"4106 N Edgewood Dr, Provo, UT 84604","precinct":"25PR09","hd":"58","v_score":"3.016591252","decile":"6","lat":40.287983673819,"lng":-111.659622115297},{"id":"164722","name":"Miss Lexie Mohr","party":"Dem","address":"3857 N 300 W, Provo, UT 84604","precinct":"25PR09","hd":"58","v_score":"2.315214949","decile":"5","lat":40.284860331151,"lng":-111.66374699566},{"id":"165814","name":"Bryant Hodkiewicz-Schultz","party":"","address":"408 W 3900 N, Provo, UT 84604","precinct":"25PR09","hd":"58","v_score":"23.89786135","decile":"10","lat":40.285435270768,"lng":-111.665401560251},{"id":"165938","name":"Elmire Conn","party":"Rep","address":"365 W 3800 N, Provo, UT 84604","precinct":"25PR09","hd":"58","v_score":"1.121327652","decile":"3","lat":40.283943704971,"lng":-111.664373379151},{"id":"166087","name":"Griffin Johns-Miller","party":"Rep","address":"188 E 3800 N, Provo, UT 84604","precinct":"25PR09","hd":"58","v_score":"11.99595736","decile":"9","lat":40.283779524157,"lng":-111.655240778566},{"id":"166801","name":"Taryn Ruecker","party":"","address":"312 W 3700 N, Provo, UT 84604","precinct":"25PR09","hd":"58","v_score":"2.315214949","decile":"5","lat":40.282888539421,"lng":-111.663407061221},{"id":"167815","name":"Gayle Lang","party":"","address":"4215 N Edgewood Cir, Provo, UT 84604","precinct":"25PR09","hd":"58","v_score":"21.23410193","decile":"10","lat":40.289111772875,"lng":-111.659476525561},{"id":"168584","name":"Inell Ritchie","party":"Rep","address":"187 Stone Brook Ln, Provo, UT 84604","precinct":"25PR09","hd":"58","v_score":"10.25407585","decile":"9","lat":40.289254669437,"lng":-111.662085765161},{"id":"169696","name":"Iza Abernathy","party":"","address":"3875 N Cove Dr, Provo, UT 84604","precinct":"25PR09","hd":"58","v_score":"15.0180437","decile":"9","lat":40.284899493636,"lng":-111.662728679764},{"id":"169699","name":"Rachelle Quigley","party":"Rep","address":"4215 N Edgewood Cir, Provo, UT 84604","precinct":"25PR09","hd":"58","v_score":"20.7369877","decile":"10","lat":40.289111772875,"lng":-111.659476525561},{"id":"170664","name":"Mykel Schaefer","party":"","address":"4358 Stone Creek Ln, Provo, UT 84604","precinct":"25PR09","hd":"58","v_score":"46.88507355","decile":"10","lat":40.291471229732,"lng":-111.662296863817},{"id":"170867","name":"Miss Bobbye Cassin","party":"Rep","address":"4152 N 380 W, Provo, UT 84604","precinct":"25PR09","hd":"58","v_score":"10.51003435","decile":"9","lat":40.288608006722,"lng":-111.66470635917},{"id":"171065","name":"Audra Gerlach","party":"Dem","address":"4101 N 190 W, Provo, UT 84604","precinct":"25PR09","hd":"58","v_score":"21.43421847","decile":"10","lat":40.288018082441,"lng":-111.661532245269},{"id":"171509","name":"Ms. Daijah Haag","party":"Dem","address":"176 E 3800 N, Provo, UT 84604","precinct":"25PR09","hd":"58","v_score":"2.817000428","decile":"6","lat":40.283780177747,"lng":-111.655357442831},{"id":"171996","name":"Marlee Steuber","party":"","address":"3845 N 100 E, Provo, UT 84604","precinct":"25PR09","hd":"58","v_score":"1.193887297","decile":"4","lat":40.284437597581,"lng":-111.656234517539},{"id":"172646","name":"Drema Kertzmann","party":"Rep","address":"3857 N 300 W, Provo, UT 84604","precinct":"25PR09","hd":"58","v_score":"28.19136616","decile":"10","lat":40.284860331151,"lng":-111.66374699566},{"id":"172914","name":"Jamal Wiza","party":"","address":"125 E 3850 N, Provo, UT 84604","precinct":"25PR09","hd":"58","v_score":"35.30276996","decile":"10","lat":40.28460029402,"lng":-111.655304097519},{"id":"173131","name":"Suzanne McGlynn","party":"","address":"348 W 4020 N, Provo, UT 84604","precinct":"25PR09","hd":"58","v_score":"34.09285363","decile":"10","lat":40.287093294407,"lng":-111.664097921951},{"id":"173693","name":"Kristan Mitchell","party":"","address":"3897 N Cove Dr, Provo, UT 84604","precinct":"25PR09","hd":"58","v_score":"31.14994604","decile":"10","lat":40.285199175929,"lng":-111.662741456482},{"id":"174002","name":"Kaleigh Corkery","party":"Dem","address":"3867 N 450 W, Provo, UT 84604","precinct":"25PR09","hd":"58","v_score":"2.315214949","decile":"5","lat":40.285011903276,"lng":-111.666342120328},{"id":"174029","name":"Charmaine Schinner","party":"","address":"3919 Riverwood Dr, Provo, UT 84604","precinct":"25PR09","hd":"58","v_score":"6.814370645","decile":"8","lat":40.285758261073,"lng":-111.667656118808},{"id":"175015","name":"Dr. Gardner Smitham","party":"Dem","address":"3888 N 300 W, Provo, UT 84604","precinct":"25PR09","hd":"58","v_score":"26.01482689","decile":"10","lat":40.285225925756,"lng":-111.66359404805},{"id":"175283","name":"Zion Feeney","party":"Dem","address":"363 W 3900 N, Provo, UT 84604","precinct":"25PR09","hd":"58","v_score":"2.315214949","decile":"5","lat":40.285332930799,"lng":-111.664782879353},{"id":"178173","name":"Kanesha Daugherty-Cruickshank","party":"","address":"3854 N 450 W, Provo, UT 84604","precinct":"25PR09","hd":"58","v_score":"9.050194508","decile":"8","lat":40.284955273401,"lng":-111.666191465603},{"id":"178201","name":"Rayne Volkman DDS","party":"","address":"363 W 4100 N, Provo, UT 84604","precinct":"25PR09","hd":"58","v_score":"11.02844566","decile":"9","lat":40.287950702931,"lng":-111.664342873953},{"id":"178335","name":"Joann Ruecker DVM","party":"Dem","address":"175 E 3800 N, Provo, UT 84604","precinct":"25PR09","hd":"58","v_score":"31.14994604","decile":"10","lat":40.283894874965,"lng":-111.65537578374},{"id":"179075","name":"Miss Sheilah Stanton","party":"Rep","address":"4146 N University Ave, Provo, UT 84604","precinct":"25PR09","hd":"58","v_score":"14.78401086","decile":"9","lat":40.288249222226,"lng":-111.658576476672}]