[{"id":"703","name":"Dr. Ewart Okuneva I","party":"Rep","address":"510 E 3460 N, Provo, UT 84604","precinct":"25PR11","hd":"58","v_score":"1.193887297","decile":"3","lat":40.279609123874,"lng":-111.650041474208},{"id":"2750","name":"Abigayle Collier PhD","party":"","address":"485 E 3460 N, Provo, UT 84604","precinct":"25PR11","hd":"58","v_score":"9.35760564","decile":"8","lat":40.279703018212,"lng":-111.65037637475},{"id":"2998","name":"Dr. Tyra Durgan","party":"","address":"604 E 3125 N, Provo, UT 84604","precinct":"25PR11","hd":"58","v_score":"0","decile":"1","lat":40.274959005589,"lng":-111.649195555324},{"id":"3119","name":"Floyd O'Kon DVM","party":"Rep","address":"3135 Timpview Dr, Provo, UT 84604","precinct":"25PR11","hd":"58","v_score":"2.817000428","decile":"6","lat":40.275202219729,"lng":-111.647678436384},{"id":"3301","name":"Brayan Lindgren","party":"Rep","address":"3325 N 500 E, Provo, UT 84604","precinct":"25PR11","hd":"58","v_score":"2.315214949","decile":"5","lat":40.27790492978,"lng":-111.650200630697},{"id":"3942","name":"Gina Fahey","party":"Dem","address":"711 E 3230 N, Provo, UT 84604","precinct":"25PR11","hd":"58","v_score":"20.29520889","decile":"10","lat":40.276541578837,"lng":-111.646754968163},{"id":"4317","name":"Keifer Daugherty MD","party":"Rep","address":"711 E 3100 N, Provo, UT 84604","precinct":"25PR11","hd":"58","v_score":"11.16899434","decile":"9","lat":40.274947363602,"lng":-111.647033362278},{"id":"4766","name":"Vertie Abernathy","party":"Dem","address":"440 E 2825 N, Provo, UT 84604","precinct":"25PR11","hd":"58","v_score":"15.4533012","decile":"9","lat":40.271163003994,"lng":-111.650910305715},{"id":"5435","name":"Dr. Marlo Wilderman","party":"Rep","address":"3166 N Timpview Dr, Provo, UT 84604","precinct":"25PR11","hd":"58","v_score":"2.744440783","decile":"5","lat":40.275564271287,"lng":-111.64753406969},{"id":"5450","name":"Denise Flatley-Carroll","party":"Rep","address":"711 E 3100 N, Provo, UT 84604","precinct":"25PR11","hd":"58","v_score":"14.12757422","decile":"9","lat":40.274947363602,"lng":-111.647033362278},{"id":"7110","name":"Eddie Zemlak","party":"","address":"697 E 3030 N, Provo, UT 84604","precinct":"25PR11","hd":"58","v_score":"12.45673421","decile":"9","lat":40.273832415498,"lng":-111.646592631588},{"id":"7838","name":"Fulton Franecki-Abernathy","party":"Dem","address":"711 E 3230 N, Provo, UT 84604","precinct":"25PR11","hd":"58","v_score":"14.46058644","decile":"9","lat":40.276541578837,"lng":-111.646754968163},{"id":"7862","name":"Iridian Hartmann","party":"","address":"526 E 3230 N, Provo, UT 84604","precinct":"25PR11","hd":"58","v_score":"1.623113131","decile":"4","lat":40.276456652531,"lng":-111.649415342738},{"id":"7868","name":"Mrs. Laraine O'Kon MD","party":"Dem","address":"526 E 3230 N, Provo, UT 84604","precinct":"25PR11","hd":"58","v_score":"0","decile":"1","lat":40.276456652531,"lng":-111.649415342738},{"id":"8835","name":"Daphne Pfeffer","party":"","address":"469 E 3125 N, Provo, UT 84604","precinct":"25PR11","hd":"58","v_score":"0","decile":"1","lat":40.27508121508,"lng":-111.650362197463},{"id":"11855","name":"Arvid Corwin-Emmerich","party":"Dem","address":"665 E 2780 N, Provo, UT 84604","precinct":"25PR11","hd":"58","v_score":"5.761032035","decile":"7","lat":40.270542295004,"lng":-111.647183652753},{"id":"12104","name":"Archie Davis II","party":"","address":"664 E 3100 N, Provo, UT 84604","precinct":"25PR11","hd":"58","v_score":"1.193887297","decile":"3","lat":40.274834565929,"lng":-111.647239599069},{"id":"12155","name":"Luca Macejkovic","party":"Dem","address":"715 E 2950 N, Provo, UT 84604","precinct":"25PR11","hd":"58","v_score":"14.37270484","decile":"9","lat":40.272856808349,"lng":-111.646785558739},{"id":"12955","name":"Mario Homenick DDS","party":"","address":"505 E 2780 N, Provo, UT 84604","precinct":"25PR11","hd":"58","v_score":"1.623113131","decile":"4","lat":40.270584268991,"lng":-111.650145241743},{"id":"14267","name":"Deegan Sawayn II","party":"","address":"461 E 2875 N, Provo, UT 84604","precinct":"25PR11","hd":"58","v_score":"41.90479252","decile":"10","lat":40.271897464157,"lng":-111.650637505338},{"id":"15139","name":"Valentine McKenzie","party":"Dem","address":"628 E 2825 N, Provo, UT 84604","precinct":"25PR11","hd":"58","v_score":"2.744440783","decile":"5","lat":40.271145693654,"lng":-111.648512849174},{"id":"15230","name":"Rondal Johnson III","party":"","address":"461 E 2780 N, Provo, UT 84604","precinct":"25PR11","hd":"58","v_score":"2.587603312","decile":"5","lat":40.270462016312,"lng":-111.650773105796},{"id":"15414","name":"Mr. Dijon Simonis","party":"Rep","address":"3568 N 480 E, Provo, UT 84604","precinct":"25PR11","hd":"58","v_score":"22.20403923","decile":"10","lat":40.281129691416,"lng":-111.65080324686},{"id":"15491","name":"Miss Marcie Mante PhD","party":"Rep","address":"3138 N 600 E, Provo, UT 84604","precinct":"25PR11","hd":"58","v_score":"1.121327652","decile":"3","lat":40.275301107749,"lng":-111.648521435675},{"id":"15662","name":"Dr. Winthrop Ferry","party":"","address":"3568 N 480 E, Provo, UT 84604","precinct":"25PR11","hd":"58","v_score":"11.30609121","decile":"9","lat":40.281129691416,"lng":-111.65080324686},{"id":"15803","name":"Mr. Emma Gibson Sr.","party":"Rep","address":"547 E 2825 N, Provo, UT 84604","precinct":"25PR11","hd":"58","v_score":"34.73081643","decile":"10","lat":40.27126783014,"lng":-111.649557127134},{"id":"16299","name":"Ireland Flatley MD","party":"","address":"461 E 2875 N, Provo, UT 84604","precinct":"25PR11","hd":"58","v_score":"36.41864994","decile":"10","lat":40.271897464157,"lng":-111.650637505338},{"id":"16705","name":"Cyntha Lowe-Moore","party":"Rep","address":"2803 N 700 E, Provo, UT 84604","precinct":"25PR11","hd":"58","v_score":"3.93832808","decile":"6","lat":40.270847119989,"lng":-111.646574970628},{"id":"16712","name":"Dr. Weaver Nitzsche","party":"","address":"2743 Timpview Dr, Provo, UT 84604","precinct":"25PR11","hd":"58","v_score":"19.10400259","decile":"10","lat":40.269961297558,"lng":-111.647583606264},{"id":"17528","name":"Mr. Rian Gutkowski I","party":"","address":"619 E 2780 N, Provo, UT 84604","precinct":"25PR11","hd":"58","v_score":"42.16479477","decile":"10","lat":40.270552459853,"lng":-111.648086318368},{"id":"17587","name":"Ralph Brakus","party":"","address":"420 E 2875 N, Provo, UT 84604","precinct":"25PR11","hd":"58","v_score":"8.15240309","decile":"8","lat":40.271785198532,"lng":-111.651144960484},{"id":"18163","name":"Bettylou Ziemann","party":"","address":"456 E 3530 N, Provo, UT 84604","precinct":"25PR11","hd":"58","v_score":"12.07513611","decile":"9","lat":40.280824234979,"lng":-111.651220178394},{"id":"20703","name":"Zita Weber","party":"Rep","address":"549 E 2825 N, Provo, UT 84604","precinct":"25PR11","hd":"58","v_score":"37.59581976","decile":"10","lat":40.271267645987,"lng":-111.649531622277},{"id":"22174","name":"Anitra Wisoky","party":"","address":"440 E 2825 N, Provo, UT 84604","precinct":"25PR11","hd":"58","v_score":"15.4533012","decile":"9","lat":40.271163003994,"lng":-111.650910305715},{"id":"22956","name":"Dr. Eston Shanahan","party":"","address":"468 E 3125 N, Provo, UT 84604","precinct":"25PR11","hd":"58","v_score":"1.46627566","decile":"4","lat":40.274966626936,"lng":-111.65036332559},{"id":"23726","name":"Winnifred Smith","party":"","address":"3166 N Timpview Dr, Provo, UT 84604","precinct":"25PR11","hd":"58","v_score":"10.08263357","decile":"9","lat":40.275564271287,"lng":-111.64753406969},{"id":"28074","name":"Torrie Ratke","party":"","address":"741 E 3230 N, Provo, UT 84604","precinct":"25PR11","hd":"58","v_score":"11.885774","decile":"9","lat":40.276540653668,"lng":-111.646539407438},{"id":"29809","name":"Dagny Mills","party":"Dem","address":"2770 N Canyon Rd, Provo, UT 84604","precinct":"25PR11","hd":"58","v_score":"5.258122542","decile":"7","lat":40.270153543094,"lng":-111.652323010336},{"id":"31975","name":"Katia Jacobson","party":"","address":"3148 N 500 E, Provo, UT 84604","precinct":"25PR11","hd":"58","v_score":"3.781490609","decile":"6","lat":40.275303607647,"lng":-111.649773359},{"id":"33600","name":"Shelly Jenkins","party":"Rep","address":"2803 N 700 E, Provo, UT 84604","precinct":"25PR11","hd":"58","v_score":"3.93832808","decile":"6","lat":40.270847119989,"lng":-111.646574970628},{"id":"33931","name":"Mrs. Simone O'Reilly DDS","party":"","address":"455 E 3460 N, Provo, UT 84604","precinct":"25PR11","hd":"58","v_score":"30.61737295","decile":"10","lat":40.279656518745,"lng":-111.6507450493},{"id":"33937","name":"Jayce Walter","party":"","address":"2818 N 760 E, Provo, UT 84604","precinct":"25PR11","hd":"58","v_score":"13.86247445","decile":"9","lat":40.270931324105,"lng":-111.645182391288},{"id":"34017","name":"Eleanore Jast MD","party":"","address":"697 E 3030 N, Provo, UT 84604","precinct":"25PR11","hd":"58","v_score":"4.152467179","decile":"7","lat":40.273832415498,"lng":-111.646592631588},{"id":"34427","name":"Dr. Kerwin Ward Jr.","party":"","address":"571 E 3050 N, Provo, UT 84604","precinct":"25PR11","hd":"58","v_score":"2.587603312","decile":"5","lat":40.274098724047,"lng":-111.648848993177},{"id":"34642","name":"Coretta Cormier","party":"Rep","address":"785 E 2780 N, Provo, UT 84604","precinct":"25PR11","hd":"58","v_score":"9.772950527","decile":"8","lat":40.270578294823,"lng":-111.644858766748},{"id":"34878","name":"Tracy Wisozk MD","party":"","address":"571 E 3050 N, Provo, UT 84604","precinct":"25PR11","hd":"58","v_score":"13.84916389","decile":"9","lat":40.274098724047,"lng":-111.648848993177},{"id":"35423","name":"Levy Cruickshank","party":"","address":"461 E 2825 N, Provo, UT 84604","precinct":"25PR11","hd":"58","v_score":"14.69317457","decile":"9","lat":40.271275748699,"lng":-111.650653835976},{"id":"36065","name":"Frederic Boyle-Wolf","party":"Rep","address":"541 E 3400 N, Provo, UT 84604","precinct":"25PR11","hd":"58","v_score":"16.91553799","decile":"9","lat":40.278857776932,"lng":-111.648909627192},{"id":"36103","name":"Lennie Dietrich-Hegmann","party":"Dem","address":"583 E 3400 N, Provo, UT 84604","precinct":"25PR11","hd":"58","v_score":"9.913499214","decile":"8","lat":40.278856063283,"lng":-111.648589545738},{"id":"36635","name":"Paisley Satterfield","party":"Dem","address":"785 E 2780 N, Provo, UT 84604","precinct":"25PR11","hd":"58","v_score":"9.426750949","decile":"8","lat":40.270578294823,"lng":-111.644858766748},{"id":"36900","name":"Maren Cassin","party":"Rep","address":"615 E 2825 N, Provo, UT 84604","precinct":"25PR11","hd":"58","v_score":"4.069929862","decile":"6","lat":40.271261568953,"lng":-111.648689962002},{"id":"36902","name":"Ms. Euphemia Glover","party":"","address":"615 E 2825 N, Provo, UT 84604","precinct":"25PR11","hd":"58","v_score":"4.069929862","decile":"6","lat":40.271261568953,"lng":-111.648689962002},{"id":"37518","name":"Mr. Al Walter","party":"Dem","address":"461 E 2780 N, Provo, UT 84604","precinct":"25PR11","hd":"58","v_score":"7.047822616","decile":"8","lat":40.270462016312,"lng":-111.650773105796},{"id":"38206","name":"Grisel Olson","party":"","address":"730 E 2950 N, Provo, UT 84604","precinct":"25PR11","hd":"58","v_score":"15.82728357","decile":"9","lat":40.272739642929,"lng":-111.646614566586},{"id":"38564","name":"Needham Goodwin","party":"Dem","address":"599 E 2875 N, Provo, UT 84604","precinct":"25PR11","hd":"58","v_score":"2.315214949","decile":"5","lat":40.271889447485,"lng":-111.648889900246},{"id":"39396","name":"Hilah Marvin","party":"Rep","address":"515 E 3400 N, Provo, UT 84604","precinct":"25PR11","hd":"58","v_score":"13.97397049","decile":"9","lat":40.27884402349,"lng":-111.649102175562},{"id":"39987","name":"Fleet Barton PhD","party":"Dem","address":"616 E 3400 N, Provo, UT 84604","precinct":"25PR11","hd":"58","v_score":"1.121327652","decile":"3","lat":40.278741875198,"lng":-111.648646111851},{"id":"40578","name":"Mrs. Felice Wyman MD","party":"","address":"3184 Timpview Dr, Provo, UT 84604","precinct":"25PR11","hd":"58","v_score":"3.781490609","decile":"6","lat":40.275843263549,"lng":-111.647538101174},{"id":"40813","name":"Gavyn Roberts III","party":"Rep","address":"3369 Timpview Dr, Provo, UT 84604","precinct":"25PR11","hd":"58","v_score":"5.40460374","decile":"7","lat":40.278410757928,"lng":-111.647723629749},{"id":"42547","name":"Jonell Kunze","party":"Rep","address":"665 E 3230 N, Provo, UT 84604","precinct":"25PR11","hd":"58","v_score":"21.23911022","decile":"10","lat":40.276542997431,"lng":-111.64708549461},{"id":"42568","name":"Ofelia Bartell","party":"Dem","address":"600 E 3400 N, Provo, UT 84604","precinct":"25PR11","hd":"58","v_score":"22.10816128","decile":"10","lat":40.278743168406,"lng":-111.648825219186},{"id":"42874","name":"Madalynn Leuschke","party":"","address":"2983 N 600 E, Provo, UT 84604","precinct":"25PR11","hd":"58","v_score":"2.817000428","decile":"6","lat":40.273326995141,"lng":-111.648426169303},{"id":"43532","name":"Mr. Tomas Haag I","party":"","address":"3328 N Canyon Rd, Provo, UT 84604","precinct":"25PR11","hd":"58","v_score":"18.03463495","decile":"10","lat":40.277914319583,"lng":-111.651282635245},{"id":"43666","name":"Manilla Buckridge PhD","party":"Rep","address":"3162 N 500 E, Provo, UT 84604","precinct":"25PR11","hd":"58","v_score":"7.169296324","decile":"8","lat":40.275369524317,"lng":-111.649772329043},{"id":"44299","name":"Christophe Weissnat","party":"","address":"3162 N 500 E, Provo, UT 84604","precinct":"25PR11","hd":"58","v_score":"7.169296324","decile":"8","lat":40.275369524317,"lng":-111.649772329043},{"id":"44569","name":"Corliss Walter","party":"","address":"496 E 3230 N, Provo, UT 84604","precinct":"25PR11","hd":"58","v_score":"18.49131087","decile":"10","lat":40.276467394742,"lng":-111.650208272547},{"id":"45344","name":"Helmer Stamm","party":"Dem","address":"2802 N 700 E, Provo, UT 84604","precinct":"25PR11","hd":"58","v_score":"1.121327652","decile":"3","lat":40.270797764057,"lng":-111.64642360482},{"id":"45357","name":"Daunte Kirlin-Miller","party":"Rep","address":"668 E 3230 N, Provo, UT 84604","precinct":"25PR11","hd":"58","v_score":"31.00346484","decile":"10","lat":40.276428284512,"lng":-111.647057598114},{"id":"45390","name":"Coty Ryan","party":"Dem","address":"515 E 2950 N, Provo, UT 84604","precinct":"25PR11","hd":"58","v_score":"0","decile":"1","lat":40.272883539729,"lng":-111.649678334002},{"id":"46867","name":"Dr. Ole Paucek","party":"","address":"2859 N Timpview Dr, Provo, UT 84604","precinct":"25PR11","hd":"58","v_score":"2.315214949","decile":"5","lat":40.271558020568,"lng":-111.647622058882},{"id":"47153","name":"Carlyle Donnelly","party":"Rep","address":"3138 N 600 E, Provo, UT 84604","precinct":"25PR11","hd":"58","v_score":"14.32268247","decile":"9","lat":40.275301107749,"lng":-111.648521435675},{"id":"49210","name":"Liane Grady","party":"","address":"3289 Timpview Dr, Provo, UT 84604","precinct":"25PR11","hd":"58","v_score":"15.16653082","decile":"9","lat":40.277377246131,"lng":-111.647711590116},{"id":"50531","name":"Shanequa Purdy","party":"","address":"717 E 3230 N, Provo, UT 84604","precinct":"25PR11","hd":"58","v_score":"0","decile":"1","lat":40.276541393804,"lng":-111.646711856018},{"id":"50646","name":"Irvine Toy","party":"","address":"3385 N 500 E, Provo, UT 84604","precinct":"25PR11","hd":"58","v_score":"28.29492005","decile":"10","lat":40.278542899797,"lng":-111.650161978261},{"id":"51473","name":"Ms. Danyell Armstrong","party":"Dem","address":"2802 N 700 E, Provo, UT 84604","precinct":"25PR11","hd":"58","v_score":"0","decile":"1","lat":40.270797764057,"lng":-111.64642360482},{"id":"53626","name":"Zola Spinka PhD","party":"","address":"603 E 3180 N, Provo, UT 84604","precinct":"25PR11","hd":"58","v_score":"2.660162957","decile":"5","lat":40.275781128918,"lng":-111.648510540554},{"id":"55432","name":"Leonore Metz","party":"","address":"441 E 2825 N, Provo, UT 84604","precinct":"25PR11","hd":"58","v_score":"11.16899434","decile":"9","lat":40.271277590225,"lng":-111.650908884545},{"id":"55685","name":"Lonie Bode","party":"Rep","address":"435 E 3460 N, Provo, UT 84604","precinct":"25PR11","hd":"58","v_score":"0","decile":"1","lat":40.279625519099,"lng":-111.650990832332},{"id":"55814","name":"Oral Stamm-Kris","party":"Rep","address":"3328 N Canyon Rd, Provo, UT 84604","precinct":"25PR11","hd":"58","v_score":"21.83706319","decile":"10","lat":40.277914319583,"lng":-111.651282635245},{"id":"56406","name":"Viney Bergnaum","party":"","address":"570 E 2950 N, Provo, UT 84604","precinct":"25PR11","hd":"58","v_score":"15.69664484","decile":"9","lat":40.272754898209,"lng":-111.648706082359},{"id":"57225","name":"Marilee Simonis","party":"Rep","address":"3324 N Canyon Rd, Provo, UT 84604","precinct":"25PR11","hd":"58","v_score":"1.193887297","decile":"3","lat":40.277830399186,"lng":-111.651285325012},{"id":"57237","name":"Bud Cronin","party":"Dem","address":"549 E 2825 N, Provo, UT 84604","precinct":"25PR11","hd":"58","v_score":"32.22690537","decile":"10","lat":40.271267645987,"lng":-111.649531622277},{"id":"57465","name":"Zana Farrell","party":"Rep","address":"491 E 3050 N, Provo, UT 84604","precinct":"25PR11","hd":"58","v_score":"1.121327652","decile":"3","lat":40.274102183581,"lng":-111.650035582083},{"id":"57948","name":"Shantel Maggio-Batz","party":"","address":"570 E 2950 N, Provo, UT 84604","precinct":"25PR11","hd":"58","v_score":"6.896907962","decile":"8","lat":40.272754898209,"lng":-111.648706082359},{"id":"58225","name":"Lessie Veum DVM","party":"","address":"3324 N Canyon Rd, Provo, UT 84604","precinct":"25PR11","hd":"58","v_score":"6.896907962","decile":"8","lat":40.277830399186,"lng":-111.651285325012},{"id":"58246","name":"Zoie O'Conner","party":"Rep","address":"668 E 3230 N, Provo, UT 84604","precinct":"25PR11","hd":"58","v_score":"12.01737578","decile":"9","lat":40.276428284512,"lng":-111.647057598114},{"id":"58821","name":"Kathern Yundt DVM","party":"Rep","address":"695 E 3230 N, Provo, UT 84604","precinct":"25PR11","hd":"58","v_score":"19.6135545","decile":"10","lat":40.276542072261,"lng":-111.646869933884},{"id":"59989","name":"Aydan Cole","party":"Dem","address":"3306 N Canyon Rd, Provo, UT 84604","precinct":"25PR11","hd":"58","v_score":"1.193887297","decile":"3","lat":40.277452757401,"lng":-111.651297428963},{"id":"60167","name":"Ola Olson DDS","party":"Rep","address":"665 E 3230 N, Provo, UT 84604","precinct":"25PR11","hd":"58","v_score":"26.7250905","decile":"10","lat":40.276542997431,"lng":-111.64708549461},{"id":"61151","name":"Rubin Hilll-Windler","party":"Rep","address":"469 E 3125 N, Provo, UT 84604","precinct":"25PR11","hd":"58","v_score":"0","decile":"1","lat":40.27508121508,"lng":-111.650362197463},{"id":"62167","name":"Dr. Deneen Jakubowski","party":"","address":"697 E 3030 N, Provo, UT 84604","precinct":"25PR11","hd":"58","v_score":"5.273794831","decile":"7","lat":40.273832415498,"lng":-111.646592631588},{"id":"62702","name":"Hayward Kunze","party":"","address":"422 E 3125 N, Provo, UT 84604","precinct":"25PR11","hd":"58","v_score":"3.93832808","decile":"6","lat":40.274970447477,"lng":-111.651030001154},{"id":"63282","name":"Ms. Chessie Ward PhD","party":"Rep","address":"573 E 2950 N, Provo, UT 84604","precinct":"25PR11","hd":"58","v_score":"12.38288823","decile":"9","lat":40.272870992583,"lng":-111.64880882144},{"id":"63629","name":"Dr. Helaine Kessler MD","party":"","address":"3147 N 500 E, Provo, UT 84604","precinct":"25PR11","hd":"58","v_score":"2.315214949","decile":"5","lat":40.275295556949,"lng":-111.649923690561},{"id":"64236","name":"Coen Hauck II","party":"Dem","address":"697 E 3030 N, Provo, UT 84604","precinct":"25PR11","hd":"58","v_score":"1.121327652","decile":"3","lat":40.273832415498,"lng":-111.646592631588},{"id":"64570","name":"Algot Maggio","party":"Dem","address":"546 E 2875 N, Provo, UT 84604","precinct":"25PR11","hd":"58","v_score":"26.7250905","decile":"10","lat":40.271777878962,"lng":-111.649549321052},{"id":"65868","name":"Dr. Lute Gutkowski","party":"","address":"2770 N Canyon Rd, Provo, UT 84604","precinct":"25PR11","hd":"58","v_score":"7.637489696","decile":"8","lat":40.270153543094,"lng":-111.652323010336},{"id":"66114","name":"Jennings Mann","party":"","address":"452 E 3050 N, Provo, UT 84604","precinct":"25PR11","hd":"58","v_score":"22.57788051","decile":"10","lat":40.27398923632,"lng":-111.650599785746},{"id":"67075","name":"Shaun Sauer","party":"","address":"491 E 3050 N, Provo, UT 84604","precinct":"25PR11","hd":"58","v_score":"0","decile":"1","lat":40.274102183581,"lng":-111.650035582083},{"id":"68754","name":"Mrs. Sylvania Boyer DVM","party":"Dem","address":"3568 N 480 E, Provo, UT 84604","precinct":"25PR11","hd":"58","v_score":"6.355720798","decile":"7","lat":40.281129691416,"lng":-111.65080324686},{"id":"69174","name":"Dr. Anabella Huels DVM","party":"Rep","address":"676 E 3030 N, Provo, UT 84604","precinct":"25PR11","hd":"58","v_score":"1.623113131","decile":"5","lat":40.273711857424,"lng":-111.646777458975},{"id":"69843","name":"Iyanna Runte MD","party":"Dem","address":"551 E 3125 N, Provo, UT 84604","precinct":"25PR11","hd":"58","v_score":"2.744440783","decile":"5","lat":40.275073711237,"lng":-111.649210850153},{"id":"70460","name":"Hoover Kris Jr.","party":"Rep","address":"514 E 2780 N, Provo, UT 84604","precinct":"25PR11","hd":"58","v_score":"2.817000428","decile":"6","lat":40.270471829562,"lng":-111.650363561147},{"id":"70799","name":"Jennie Thompson MD","party":"Dem","address":"441 E 2825 N, Provo, UT 84604","precinct":"25PR11","hd":"58","v_score":"11.84414367","decile":"9","lat":40.271277590225,"lng":-111.650908884545},{"id":"71020","name":"Rae Schiller","party":"","address":"555 E 2950 N, Provo, UT 84604","precinct":"25PR11","hd":"58","v_score":"3.711952487","decile":"6","lat":40.272874886525,"lng":-111.649078670166},{"id":"71129","name":"Essie Pfannerstill","party":"","address":"3305 N 500 E, Provo, UT 84604","precinct":"25PR11","hd":"58","v_score":"1.121327652","decile":"3","lat":40.2776913574,"lng":-111.650198132803},{"id":"71434","name":"Taya Auer","party":"","address":"785 E 2780 N, Provo, UT 84604","precinct":"25PR11","hd":"58","v_score":"2.315214949","decile":"5","lat":40.270578294823,"lng":-111.644858766748},{"id":"73435","name":"Dr. Gael Veum","party":"Dem","address":"515 E 2950 N, Provo, UT 84604","precinct":"25PR11","hd":"58","v_score":"2.315214949","decile":"5","lat":40.272883539729,"lng":-111.649678334002},{"id":"73568","name":"Bonny Carter","party":"Rep","address":"575 E 3125 N, Provo, UT 84604","precinct":"25PR11","hd":"58","v_score":"2.315214949","decile":"5","lat":40.275071769855,"lng":-111.648939059646},{"id":"74152","name":"Mr. Marsh Harvey PhD","party":"Dem","address":"616 E 3400 N, Provo, UT 84604","precinct":"25PR11","hd":"58","v_score":"3.93832808","decile":"6","lat":40.278741875198,"lng":-111.648646111851},{"id":"74362","name":"Ab Runte","party":"","address":"553 E 3400 N, Provo, UT 84604","precinct":"25PR11","hd":"58","v_score":"2.315214949","decile":"5","lat":40.278857674367,"lng":-111.648812678618},{"id":"74685","name":"Jaime Nitzsche","party":"Dem","address":"441 E 2950 N, Provo, UT 84604","precinct":"25PR11","hd":"58","v_score":"3.93832808","decile":"6","lat":40.272899548157,"lng":-111.650787712097},{"id":"75463","name":"Mackenzie Abshire","party":"","address":"603 E 3180 N, Provo, UT 84604","precinct":"25PR11","hd":"58","v_score":"2.315214949","decile":"5","lat":40.275781128918,"lng":-111.648510540554},{"id":"75802","name":"Dr. Lindsey Prohaska","party":"Dem","address":"3353 N 500 E, Provo, UT 84604","precinct":"25PR11","hd":"58","v_score":"1.121327652","decile":"3","lat":40.278213320436,"lng":-111.650161909529},{"id":"78521","name":"Bambi Kuhn DDS","party":"Dem","address":"441 E 2950 N, Provo, UT 84604","precinct":"25PR11","hd":"58","v_score":"3.93832808","decile":"6","lat":40.272899548157,"lng":-111.650787712097},{"id":"78984","name":"Glenn Harris","party":"","address":"3288 N 500 E, Provo, UT 84604","precinct":"25PR11","hd":"58","v_score":"1.121327652","decile":"3","lat":40.277521521965,"lng":-111.650045942032},{"id":"80430","name":"Mr. Stonewall Wiza I","party":"Dem","address":"508 E 3650 N, Provo, UT 84604","precinct":"25PR11","hd":"58","v_score":"1.121327652","decile":"3","lat":40.281868329876,"lng":-111.65056855532},{"id":"82861","name":"Dolores Crist-Farrell","party":"Dem","address":"3265 Timpview Dr, Provo, UT 84604","precinct":"25PR11","hd":"58","v_score":"3.711952487","decile":"6","lat":40.276979693369,"lng":-111.647705090008},{"id":"83012","name":"Dejah Thiel","party":"","address":"676 E 3030 N, Provo, UT 84604","precinct":"25PR11","hd":"58","v_score":"4.069929862","decile":"6","lat":40.273711857424,"lng":-111.646777458975},{"id":"83425","name":"Weldon Runolfsson","party":"","address":"595 E 3230 N, Provo, UT 84604","precinct":"25PR11","hd":"58","v_score":"2.817000428","decile":"6","lat":40.276547750999,"lng":-111.647789981842},{"id":"83830","name":"Jonell Beier","party":"Dem","address":"740 E 3230 N, Provo, UT 84604","precinct":"25PR11","hd":"58","v_score":"2.817000428","decile":"6","lat":40.276426064104,"lng":-111.646540252373},{"id":"83990","name":"Toma Stoltenberg","party":"","address":"555 E 3050 N, Provo, UT 84604","precinct":"25PR11","hd":"58","v_score":"2.817000428","decile":"6","lat":40.274099415954,"lng":-111.649086310959},{"id":"84647","name":"Bree Quitzon","party":"Rep","address":"3036 N 600 E, Provo, UT 84604","precinct":"25PR11","hd":"58","v_score":"0","decile":"1","lat":40.273632973947,"lng":-111.648279323977},{"id":"85620","name":"Miss Willia Waelchi","party":"Rep","address":"640 E 2950 N, Provo, UT 84604","precinct":"25PR11","hd":"58","v_score":"4.235493435","decile":"7","lat":40.272749703396,"lng":-111.647720878313},{"id":"86374","name":"Jerilyn Walker","party":"","address":"3325 N 500 E, Provo, UT 84604","precinct":"25PR11","hd":"58","v_score":"1.193887297","decile":"4","lat":40.27790492978,"lng":-111.650200630697},{"id":"86414","name":"Madelynn Powlowski-Jerde","party":"Dem","address":"604 E 3125 N, Provo, UT 84604","precinct":"25PR11","hd":"58","v_score":"7.749198919","decile":"8","lat":40.274959005589,"lng":-111.649195555324},{"id":"86963","name":"Dwan Keebler","party":"","address":"668 E 3230 N, Provo, UT 84604","precinct":"25PR11","hd":"58","v_score":"0","decile":"1","lat":40.276428284512,"lng":-111.647057598114},{"id":"89259","name":"Jaylee Klein-Sauer","party":"Rep","address":"555 E 3050 N, Provo, UT 84604","precinct":"25PR11","hd":"58","v_score":"1.193887297","decile":"4","lat":40.274099415954,"lng":-111.649086310959},{"id":"89868","name":"Kris McClure","party":"Dem","address":"597 E 2780 N, Provo, UT 84604","precinct":"25PR11","hd":"58","v_score":"16.16230549","decile":"9","lat":40.270558950969,"lng":-111.648453064773},{"id":"90208","name":"Gustavo Cruickshank-Satterfield","party":"Dem","address":"674 E 3230 N, Provo, UT 84604","precinct":"25PR11","hd":"58","v_score":"3.61989409","decile":"6","lat":40.276428099478,"lng":-111.647014485969},{"id":"90458","name":"Sharyl Morar DVM","party":"","address":"2805 N 760 E, Provo, UT 84604","precinct":"25PR11","hd":"58","v_score":"9.907118004","decile":"8","lat":40.270886907449,"lng":-111.645331251113},{"id":"90649","name":"Zoa Ernser PhD","party":"Dem","address":"3109 Timpview Dr, Provo, UT 84604","precinct":"25PR11","hd":"58","v_score":"5.693042993","decile":"7","lat":40.275010558024,"lng":-111.647675345091},{"id":"91808","name":"Toriano Schamberger","party":"","address":"3265 Timpview Dr, Provo, UT 84604","precinct":"25PR11","hd":"58","v_score":"0","decile":"1","lat":40.276979693369,"lng":-111.647705090008},{"id":"91857","name":"Evelyne Schuppe-Heaney","party":"","address":"684 E 2950 N, Provo, UT 84604","precinct":"25PR11","hd":"58","v_score":"1.193887297","decile":"4","lat":40.272747106366,"lng":-111.647114614289},{"id":"92538","name":"Dollie Abbott","party":"Rep","address":"579 E 2780 N, Provo, UT 84604","precinct":"25PR11","hd":"58","v_score":"0","decile":"1","lat":40.270566520039,"lng":-111.648879155276},{"id":"92692","name":"Ricci Boyer MD","party":"","address":"575 E 3125 N, Provo, UT 84604","precinct":"25PR11","hd":"58","v_score":"2.817000428","decile":"6","lat":40.275071769855,"lng":-111.648939059646},{"id":"93213","name":"Mr. Sylvester Jaskolski II","party":"Dem","address":"619 E 2780 N, Provo, UT 84604","precinct":"25PR11","hd":"58","v_score":"20.89491315","decile":"10","lat":40.270552459853,"lng":-111.648086318368},{"id":"93259","name":"Kate Von","party":"","address":"3247 Timpview Dr, Provo, UT 84604","precinct":"25PR11","hd":"58","v_score":"0","decile":"1","lat":40.276749285881,"lng":-111.647700823233},{"id":"93411","name":"Raquel Lindgren","party":"Dem","address":"508 E 3650 N, Provo, UT 84604","precinct":"25PR11","hd":"58","v_score":"0","decile":"1","lat":40.281868329876,"lng":-111.65056855532},{"id":"93461","name":"Durell Boehm-O'Hara","party":"Rep","address":"455 E 3460 N, Provo, UT 84604","precinct":"25PR11","hd":"58","v_score":"7.549608095","decile":"8","lat":40.279656518745,"lng":-111.6507450493},{"id":"93681","name":"Dr. Gilman Ortiz MD","party":"","address":"2821 N 700 E, Provo, UT 84604","precinct":"25PR11","hd":"58","v_score":"0","decile":"1","lat":40.270901095042,"lng":-111.646576235661},{"id":"93738","name":"Mr. Gregory Schroeder PhD","party":"","address":"3568 N 480 E, Provo, UT 84604","precinct":"25PR11","hd":"58","v_score":"0","decile":"1","lat":40.281129691416,"lng":-111.65080324686},{"id":"94424","name":"Unknown Hodkiewicz-Romaguera","party":"Dem","address":"528 E 3400 N, Provo, UT 84604","precinct":"25PR11","hd":"58","v_score":"0","decile":"1","lat":40.278722301253,"lng":-111.649630356989},{"id":"95968","name":"Bettylou Padberg-Macejkovic","party":"Dem","address":"557 E 3460 N, Provo, UT 84604","precinct":"25PR11","hd":"58","v_score":"5.693042993","decile":"7","lat":40.27972834798,"lng":-111.649470125654},{"id":"96383","name":"Ephram Nader-Carter","party":"Dem","address":"555 E 3050 N, Provo, UT 84604","precinct":"25PR11","hd":"58","v_score":"1.623113131","decile":"5","lat":40.274099415954,"lng":-111.649086310959},{"id":"97944","name":"Dr. North Borer","party":"","address":"3353 N 500 E, Provo, UT 84604","precinct":"25PR11","hd":"58","v_score":"1.623113131","decile":"5","lat":40.278213320436,"lng":-111.650161909529},{"id":"98683","name":"Kathern Rowe","party":"","address":"579 E 2780 N, Provo, UT 84604","precinct":"25PR11","hd":"58","v_score":"0","decile":"1","lat":40.270566520039,"lng":-111.648879155276},{"id":"98740","name":"Lonzo Nienow","party":"Rep","address":"2791 Timpview Dr, Provo, UT 84604","precinct":"25PR11","hd":"58","v_score":"0","decile":"1","lat":40.270871701036,"lng":-111.647605146451},{"id":"100888","name":"Rylee Conn-Labadie","party":"","address":"447 E 3125 N, Provo, UT 84604","precinct":"25PR11","hd":"58","v_score":"0","decile":"2","lat":40.275083042295,"lng":-111.650681042298},{"id":"100961","name":"Tressie Jones-Walker","party":"Dem","address":"3325 Timpview Dr, Provo, UT 84604","precinct":"25PR11","hd":"58","v_score":"0","decile":"2","lat":40.277843130567,"lng":-111.647717720113},{"id":"101239","name":"Bernetta Blick-Price","party":"","address":"3292 N Canyon Rd, Provo, UT 84604","precinct":"25PR11","hd":"58","v_score":"11.99595736","decile":"9","lat":40.277157901573,"lng":-111.651305339404},{"id":"101401","name":"Melisa Yundt","party":"Dem","address":"528 E 3400 N, Provo, UT 84604","precinct":"25PR11","hd":"58","v_score":"1.193887297","decile":"4","lat":40.278722301253,"lng":-111.649630356989},{"id":"101620","name":"Trinidad Price","party":"Rep","address":"695 E 3230 N, Provo, UT 84604","precinct":"25PR11","hd":"58","v_score":"1.193887297","decile":"4","lat":40.276542072261,"lng":-111.646869933884},{"id":"101867","name":"Gaige Torp","party":"","address":"628 E 2825 N, Provo, UT 84604","precinct":"25PR11","hd":"58","v_score":"0","decile":"2","lat":40.271145693654,"lng":-111.648512849174},{"id":"103012","name":"Doretta Hermiston","party":"","address":"2797 N 700 E, Provo, UT 84604","precinct":"25PR11","hd":"58","v_score":"0","decile":"2","lat":40.270829128304,"lng":-111.64657454895},{"id":"103963","name":"Carmel Batz","party":"Dem","address":"575 E 3125 N, Provo, UT 84604","precinct":"25PR11","hd":"58","v_score":"1.193887297","decile":"4","lat":40.275071769855,"lng":-111.648939059646},{"id":"104929","name":"Ms. Shae Gulgowski","party":"","address":"548 E 3400 N, Provo, UT 84604","precinct":"25PR11","hd":"58","v_score":"0","decile":"2","lat":40.27871874813,"lng":-111.649406511299},{"id":"105268","name":"Dr. Mervin Murray","party":"","address":"3138 N 600 E, Provo, UT 84604","precinct":"25PR11","hd":"58","v_score":"16.72856503","decile":"9","lat":40.275301107749,"lng":-111.648521435675},{"id":"107267","name":"Andre Heidenreich","party":"Rep","address":"619 E 2780 N, Provo, UT 84604","precinct":"25PR11","hd":"58","v_score":"11.99595736","decile":"9","lat":40.270552459853,"lng":-111.648086318368},{"id":"107664","name":"Alijah Medhurst","party":"Rep","address":"3306 N Canyon Rd, Provo, UT 84604","precinct":"25PR11","hd":"58","v_score":"4.069929862","decile":"7","lat":40.277452757401,"lng":-111.651297428963},{"id":"107729","name":"Hezzie Runte","party":"Rep","address":"676 E 3030 N, Provo, UT 84604","precinct":"25PR11","hd":"58","v_score":"0","decile":"2","lat":40.273711857424,"lng":-111.646777458975},{"id":"107903","name":"Theda Jaskolski","party":"Dem","address":"445 E 3050 N, Provo, UT 84604","precinct":"25PR11","hd":"58","v_score":"1.193887297","decile":"4","lat":40.274104172813,"lng":-111.650717870703},{"id":"108582","name":"Patty Cormier-Parker","party":"","address":"514 E 2780 N, Provo, UT 84604","precinct":"25PR11","hd":"58","v_score":"1.193887297","decile":"4","lat":40.270471829562,"lng":-111.650363561147},{"id":"108666","name":"Arch Abbott","party":"Rep","address":"785 E 2780 N, Provo, UT 84604","precinct":"25PR11","hd":"58","v_score":"4.069929862","decile":"7","lat":40.270578294823,"lng":-111.644858766748},{"id":"110259","name":"Asberry Russel","party":"","address":"668 E 3230 N, Provo, UT 84604","precinct":"25PR11","hd":"58","v_score":"0","decile":"2","lat":40.276428284512,"lng":-111.647057598114},{"id":"110282","name":"Eligah Ankunding III","party":"Rep","address":"3109 Timpview Dr, Provo, UT 84604","precinct":"25PR11","hd":"58","v_score":"4.069929862","decile":"7","lat":40.275010558024,"lng":-111.647675345091},{"id":"110683","name":"Parlee Oberbrunner-Smith","party":"","address":"515 E 2950 N, Provo, UT 84604","precinct":"25PR11","hd":"58","v_score":"1.193887297","decile":"4","lat":40.272883539729,"lng":-111.649678334002},{"id":"111269","name":"Barb Erdman","party":"Dem","address":"578 E 3400 N, Provo, UT 84604","precinct":"25PR11","hd":"58","v_score":"1.193887297","decile":"4","lat":40.278731726378,"lng":-111.649063039233},{"id":"111309","name":"Myrtie Stiedemann","party":"Dem","address":"447 E 3125 N, Provo, UT 84604","precinct":"25PR11","hd":"58","v_score":"0","decile":"2","lat":40.275083042295,"lng":-111.650681042298},{"id":"111957","name":"Mr. Donnell Sipes","party":"Dem","address":"485 E 3460 N, Provo, UT 84604","precinct":"25PR11","hd":"58","v_score":"1.193887297","decile":"4","lat":40.279703018212,"lng":-111.65037637475},{"id":"112353","name":"Grady Rogahn","party":"Dem","address":"515 E 2950 N, Provo, UT 84604","precinct":"25PR11","hd":"58","v_score":"0","decile":"2","lat":40.272883539729,"lng":-111.649678334002},{"id":"113918","name":"Mr. Zain Abshire","party":"Dem","address":"571 E 3050 N, Provo, UT 84604","precinct":"25PR11","hd":"58","v_score":"4.069929862","decile":"7","lat":40.274098724047,"lng":-111.648848993177},{"id":"114236","name":"Mr. Lambert Stiedemann","party":"","address":"547 E 2825 N, Provo, UT 84604","precinct":"25PR11","hd":"58","v_score":"5.407962308","decile":"7","lat":40.27126783014,"lng":-111.649557127134},{"id":"115098","name":"Julian Larson","party":"Dem","address":"441 E 2950 N, Provo, UT 84604","precinct":"25PR11","hd":"58","v_score":"0","decile":"2","lat":40.272899548157,"lng":-111.650787712097},{"id":"115753","name":"Malik Orn IV","party":"Dem","address":"555 E 3050 N, Provo, UT 84604","precinct":"25PR11","hd":"58","v_score":"0","decile":"2","lat":40.274099415954,"lng":-111.649086310959},{"id":"116503","name":"Collie Hintz","party":"Dem","address":"441 E 2825 N, Provo, UT 84604","precinct":"25PR11","hd":"58","v_score":"8.284004873","decile":"8","lat":40.271277590225,"lng":-111.650908884545},{"id":"116921","name":"Mrs. Dortha Mante","party":"Rep","address":"572 E 3400 N, Provo, UT 84604","precinct":"25PR11","hd":"58","v_score":"1.193887297","decile":"4","lat":40.278726949542,"lng":-111.649129915007},{"id":"117663","name":"Loda Krajcik","party":"","address":"575 E 3125 N, Provo, UT 84604","precinct":"25PR11","hd":"58","v_score":"5.407962308","decile":"7","lat":40.275071769855,"lng":-111.648939059646},{"id":"117945","name":"Hope Leuschke","party":"","address":"466 E 2950 N, Provo, UT 84604","precinct":"25PR11","hd":"58","v_score":"1.193887297","decile":"4","lat":40.272778593261,"lng":-111.650348140564},{"id":"118745","name":"Randolph Rath","party":"","address":"2801 N 760 E, Provo, UT 84604","precinct":"25PR11","hd":"58","v_score":"1.193887297","decile":"4","lat":40.270874985405,"lng":-111.645330884282},{"id":"119184","name":"Johannah Bauch-Bogan","party":"Rep","address":"2805 N 760 E, Provo, UT 84604","precinct":"25PR11","hd":"58","v_score":"1.193887297","decile":"4","lat":40.270886907449,"lng":-111.645331251113},{"id":"119329","name":"Breanne Schroeder","party":"Rep","address":"664 E 3100 N, Provo, UT 84604","precinct":"25PR11","hd":"58","v_score":"1.193887297","decile":"4","lat":40.274834565929,"lng":-111.647239599069},{"id":"119553","name":"Dr. Rube Dickinson PhD","party":"","address":"572 E 3400 N, Provo, UT 84604","precinct":"25PR11","hd":"58","v_score":"1.193887297","decile":"4","lat":40.278726949542,"lng":-111.649129915007},{"id":"120440","name":"Shelvie Hilll","party":"","address":"510 E 3460 N, Provo, UT 84604","precinct":"25PR11","hd":"58","v_score":"1.193887297","decile":"4","lat":40.279609123874,"lng":-111.650041474208},{"id":"120915","name":"Azariah Predovic-Ward","party":"Rep","address":"2791 Timpview Dr, Provo, UT 84604","precinct":"25PR11","hd":"58","v_score":"1.193887297","decile":"4","lat":40.270871701036,"lng":-111.647605146451},{"id":"121745","name":"Magen Hagenes","party":"Rep","address":"2791 Timpview Dr, Provo, UT 84604","precinct":"25PR11","hd":"58","v_score":"1.193887297","decile":"4","lat":40.270871701036,"lng":-111.647605146451},{"id":"121931","name":"Nichole Heaney DDS","party":"","address":"491 E 3125 N, Provo, UT 84604","precinct":"25PR11","hd":"58","v_score":"1.193887297","decile":"4","lat":40.275079387864,"lng":-111.650043352628},{"id":"121973","name":"Dr. Marques O'Keefe","party":"","address":"555 E 3050 N, Provo, UT 84604","precinct":"25PR11","hd":"58","v_score":"1.193887297","decile":"4","lat":40.274099415954,"lng":-111.649086310959},{"id":"122180","name":"Marge Lakin","party":"Dem","address":"435 E 3460 N, Provo, UT 84604","precinct":"25PR11","hd":"58","v_score":"1.193887297","decile":"4","lat":40.279625519099,"lng":-111.650990832332},{"id":"124738","name":"Purl Von","party":"","address":"515 E 2950 N, Provo, UT 84604","precinct":"25PR11","hd":"58","v_score":"0","decile":"2","lat":40.272883539729,"lng":-111.649678334002},{"id":"127461","name":"Chip Fadel","party":"","address":"515 E 3400 N, Provo, UT 84604","precinct":"25PR11","hd":"58","v_score":"0","decile":"2","lat":40.27884402349,"lng":-111.649102175562},{"id":"127834","name":"Pascal White","party":"Dem","address":"720 E 3230 N, Provo, UT 84604","precinct":"25PR11","hd":"58","v_score":"0","decile":"2","lat":40.276426680884,"lng":-111.646683959523},{"id":"127899","name":"Mauricio Schinner","party":"Rep","address":"3292 N Canyon Rd, Provo, UT 84604","precinct":"25PR11","hd":"58","v_score":"7.090117576","decile":"8","lat":40.277157901573,"lng":-111.651305339404},{"id":"128587","name":"Dr. Otha Connelly","party":"","address":"3336 N Canyon Rd, Provo, UT 84604","precinct":"25PR11","hd":"58","v_score":"0","decile":"2","lat":40.278118238151,"lng":-111.651292214455},{"id":"129158","name":"Garvin Goyette III","party":"","address":"468 E 3125 N, Provo, UT 84604","precinct":"25PR11","hd":"58","v_score":"7.090117576","decile":"8","lat":40.274966626936,"lng":-111.65036332559},{"id":"129506","name":"Dorthy Lowe","party":"Dem","address":"468 E 3125 N, Provo, UT 84604","precinct":"25PR11","hd":"58","v_score":"7.090117576","decile":"8","lat":40.274966626936,"lng":-111.65036332559},{"id":"130816","name":"Ryland Bauch","party":"Dem","address":"665 E 3230 N, Provo, UT 84604","precinct":"25PR11","hd":"58","v_score":"2.876042565","decile":"6","lat":40.276542997431,"lng":-111.64708549461},{"id":"130913","name":"Miss Neveah Upton","party":"","address":"3132 N 600 E, Provo, UT 84604","precinct":"25PR11","hd":"58","v_score":"0","decile":"2","lat":40.275264592614,"lng":-111.648520973463},{"id":"130919","name":"Suzanna Sporer","party":"Dem","address":"604 E 3125 N, Provo, UT 84604","precinct":"25PR11","hd":"58","v_score":"0","decile":"2","lat":40.274959005589,"lng":-111.649195555324},{"id":"131391","name":"Vere Kris","party":"","address":"3020 N 600 E, Provo, UT 84604","precinct":"25PR11","hd":"58","v_score":"0","decile":"2","lat":40.273542597182,"lng":-111.648278334462},{"id":"131940","name":"Ms. Joy Klein MD","party":"Rep","address":"2818 N 760 E, Provo, UT 84604","precinct":"25PR11","hd":"58","v_score":"0","decile":"2","lat":40.270931324105,"lng":-111.645182391288},{"id":"132435","name":"Camron Nienow","party":"Rep","address":"515 E 3400 N, Provo, UT 84604","precinct":"25PR11","hd":"58","v_score":"0","decile":"2","lat":40.27884402349,"lng":-111.649102175562},{"id":"133464","name":"Jalen Streich","party":"Rep","address":"597 E 2780 N, Provo, UT 84604","precinct":"25PR11","hd":"58","v_score":"0","decile":"2","lat":40.270558950969,"lng":-111.648453064773},{"id":"134605","name":"Delle Raynor","party":"","address":"717 E 3100 N, Provo, UT 84604","precinct":"25PR11","hd":"58","v_score":"4.13679489","decile":"7","lat":40.27494713062,"lng":-111.647006686072},{"id":"135334","name":"Ramsey Powlowski","party":"Rep","address":"548 E 3400 N, Provo, UT 84604","precinct":"25PR11","hd":"58","v_score":"1.193887297","decile":"4","lat":40.27871874813,"lng":-111.649406511299},{"id":"135453","name":"Mrs. Lillie Becker","party":"","address":"3132 N 600 E, Provo, UT 84604","precinct":"25PR11","hd":"58","v_score":"4.424855541","decile":"7","lat":40.275264592614,"lng":-111.648520973463},{"id":"135712","name":"Darryn Jacobson","party":"","address":"2793 N 840 E, Provo, UT 84604","precinct":"25PR11","hd":"58","v_score":"7.169296324","decile":"8","lat":40.27102900215,"lng":-111.644235717897},{"id":"136314","name":"Jermey Fahey","party":"Dem","address":"491 E 3050 N, Provo, UT 84604","precinct":"25PR11","hd":"58","v_score":"8.648882542","decile":"8","lat":40.274102183581,"lng":-111.650035582083},{"id":"138800","name":"Hilah Lubowitz","party":"","address":"2891 N 840 E, Provo, UT 84604","precinct":"25PR11","hd":"58","v_score":"16.05971545","decile":"9","lat":40.272020360003,"lng":-111.644370188294},{"id":"139579","name":"Brett Lang","party":"Rep","address":"3289 Timpview Dr, Provo, UT 84604","precinct":"25PR11","hd":"58","v_score":"39.36155753","decile":"10","lat":40.277377246131,"lng":-111.647711590116},{"id":"140085","name":"Dana Franecki","party":"Rep","address":"2755 Brereton Dr, Provo, UT 84604","precinct":"25PR11","hd":"58","v_score":"22.51101549","decile":"10","lat":40.270100717996,"lng":-111.650896751962},{"id":"143073","name":"Alfred Nikolaus DDS","party":"Rep","address":"461 E 2780 N, Provo, UT 84604","precinct":"25PR11","hd":"58","v_score":"14.48926941","decile":"9","lat":40.270462016312,"lng":-111.650773105796},{"id":"143279","name":"Reino Kuhic","party":"Rep","address":"571 E 3050 N, Provo, UT 84604","precinct":"25PR11","hd":"58","v_score":"20.96069989","decile":"10","lat":40.274098724047,"lng":-111.648848993177},{"id":"143343","name":"Dell Thompson","party":"","address":"571 E 3050 N, Provo, UT 84604","precinct":"25PR11","hd":"58","v_score":"21.04323721","decile":"10","lat":40.274098724047,"lng":-111.648848993177},{"id":"145628","name":"Blain Fisher","party":"Rep","address":"3332 N Canyon Rd, Provo, UT 84604","precinct":"25PR11","hd":"58","v_score":"22.07502015","decile":"10","lat":40.278061857162,"lng":-111.651287720326},{"id":"146127","name":"Ms. Shawnda Cummings","party":"","address":"558 E 3125 N, Provo, UT 84604","precinct":"25PR11","hd":"58","v_score":"34.62894986","decile":"10","lat":40.274960847286,"lng":-111.649453390258},{"id":"146484","name":"Sannie Orn","party":"Dem","address":"562 E 3050 N, Provo, UT 84604","precinct":"25PR11","hd":"58","v_score":"1.193887297","decile":"4","lat":40.273984479461,"lng":-111.648968226001},{"id":"146773","name":"Hardin Considine-Kertzmann","party":"Dem","address":"3318 N 500 E, Provo, UT 84604","precinct":"25PR11","hd":"58","v_score":"5.287675778","decile":"7","lat":40.277841880535,"lng":-111.650049688873},{"id":"146888","name":"Orrie Pfannerstill","party":"","address":"531 E 2950 N, Provo, UT 84604","precinct":"25PR11","hd":"58","v_score":"2.315214949","decile":"5","lat":40.272880078447,"lng":-111.649438468468},{"id":"148224","name":"Mrs. Unique Hermiston DDS","party":"Dem","address":"475 E 3460 N, Provo, UT 84604","precinct":"25PR11","hd":"58","v_score":"25.64829348","decile":"10","lat":40.27968751839,"lng":-111.650499266267},{"id":"148260","name":"Mr. Augustus Howell","party":"Rep","address":"471 E 3230 N, Provo, UT 84604","precinct":"25PR11","hd":"58","v_score":"30.91699738","decile":"10","lat":40.276584089422,"lng":-111.6505072992},{"id":"148434","name":"Colette Hickle PhD","party":"Dem","address":"471 E 3230 N, Provo, UT 84604","precinct":"25PR11","hd":"58","v_score":"12.57725863","decile":"9","lat":40.276584089422,"lng":-111.6505072992},{"id":"148533","name":"Neola Bode","party":"Rep","address":"475 E 3460 N, Provo, UT 84604","precinct":"25PR11","hd":"58","v_score":"11.30609121","decile":"9","lat":40.27968751839,"lng":-111.650499266267},{"id":"148736","name":"Breann Flatley","party":"","address":"546 E 2875 N, Provo, UT 84604","precinct":"25PR11","hd":"58","v_score":"34.09285363","decile":"10","lat":40.271777878962,"lng":-111.649549321052},{"id":"149218","name":"Alicia Jerde PhD","party":"Dem","address":"583 E 3400 N, Provo, UT 84604","precinct":"25PR11","hd":"58","v_score":"21.41280004","decile":"10","lat":40.278856063283,"lng":-111.648589545738},{"id":"150206","name":"Rosalyn Koch","party":"","address":"735 E 2950 N, Provo, UT 84604","precinct":"25PR11","hd":"58","v_score":"19.78968691","decile":"10","lat":40.272853563376,"lng":-111.646568146693},{"id":"150434","name":"Vicy Weimann","party":"","address":"3184 Timpview Dr, Provo, UT 84604","precinct":"25PR11","hd":"58","v_score":"10.9941379","decile":"9","lat":40.275843263549,"lng":-111.647538101174},{"id":"150476","name":"Hazle Nolan","party":"Rep","address":"3148 N 500 E, Provo, UT 84604","precinct":"25PR11","hd":"58","v_score":"34.62894986","decile":"10","lat":40.275303607647,"lng":-111.649773359},{"id":"150711","name":"Alexandra Greenfelder","party":"Dem","address":"697 E 3030 N, Provo, UT 84604","precinct":"25PR11","hd":"58","v_score":"14.25581744","decile":"9","lat":40.273832415498,"lng":-111.646592631588},{"id":"150712","name":"Nigel Thompson","party":"Dem","address":"697 E 3030 N, Provo, UT 84604","precinct":"25PR11","hd":"58","v_score":"14.25581744","decile":"9","lat":40.273832415498,"lng":-111.646592631588},{"id":"150915","name":"Shayla Kuvalis","party":"Rep","address":"3138 N 600 E, Provo, UT 84604","precinct":"25PR11","hd":"58","v_score":"39.36155753","decile":"10","lat":40.275301107749,"lng":-111.648521435675},{"id":"151225","name":"Melanie Lockman","party":"","address":"452 E 3050 N, Provo, UT 84604","precinct":"25PR11","hd":"58","v_score":"31.14994604","decile":"10","lat":40.27398923632,"lng":-111.650599785746},{"id":"151226","name":"Braylon Kovacek","party":"Rep","address":"452 E 3050 N, Provo, UT 84604","precinct":"25PR11","hd":"58","v_score":"31.14994604","decile":"10","lat":40.27398923632,"lng":-111.650599785746},{"id":"152288","name":"Mr. Jobe Rogahn DDS","party":"Dem","address":"473 E 2950 N, Provo, UT 84604","precinct":"25PR11","hd":"58","v_score":"19.05529013","decile":"10","lat":40.272892625594,"lng":-111.650307981029},{"id":"152688","name":"Francis Botsford","party":"","address":"616 E 3400 N, Provo, UT 84604","precinct":"25PR11","hd":"58","v_score":"11.23922619","decile":"9","lat":40.278741875198,"lng":-111.648646111851},{"id":"153931","name":"Mrs. Hortensia Franecki","party":"Rep","address":"435 E 3460 N, Provo, UT 84604","precinct":"25PR11","hd":"58","v_score":"1.193887297","decile":"4","lat":40.279625519099,"lng":-111.650990832332},{"id":"154110","name":"Dr. Kameron Marks","party":"","address":"2745 N 600 E, Provo, UT 84604","precinct":"25PR11","hd":"58","v_score":"30.91198908","decile":"10","lat":40.270240865034,"lng":-111.648602241949},{"id":"154214","name":"Elliot Lindgren","party":"","address":"668 E 3230 N, Provo, UT 84604","precinct":"25PR11","hd":"58","v_score":"34.09285363","decile":"10","lat":40.276428284512,"lng":-111.647057598114},{"id":"154233","name":"Lauren Mante","party":"","address":"424 E 2825 N, Provo, UT 84604","precinct":"25PR11","hd":"58","v_score":"18.46989245","decile":"10","lat":40.271164477215,"lng":-111.651114344569},{"id":"154997","name":"Randel Leffler","party":"Dem","address":"466 E 2950 N, Provo, UT 84604","precinct":"25PR11","hd":"58","v_score":"5.40460374","decile":"7","lat":40.272778593261,"lng":-111.650348140564},{"id":"155395","name":"Suzanna Rippin DVM","party":"Dem","address":"441 E 2950 N, Provo, UT 84604","precinct":"25PR11","hd":"58","v_score":"6.896907962","decile":"8","lat":40.272899548157,"lng":-111.650787712097},{"id":"155501","name":"Magdalena Von","party":"Dem","address":"572 E 3400 N, Provo, UT 84604","precinct":"25PR11","hd":"58","v_score":"5.693042993","decile":"7","lat":40.278726949542,"lng":-111.649129915007},{"id":"156175","name":"Dandre Kassulke","party":"Rep","address":"785 E 2780 N, Provo, UT 84604","precinct":"25PR11","hd":"58","v_score":"10.89302661","decile":"9","lat":40.270578294823,"lng":-111.644858766748},{"id":"156579","name":"Tella Kulas","party":"","address":"2841 N 700 E, Provo, UT 84604","precinct":"25PR11","hd":"58","v_score":"29.8573602","decile":"10","lat":40.270961067324,"lng":-111.646577641253},{"id":"156754","name":"Vessie Hartmann","party":"Rep","address":"755 E 2780 N, Provo, UT 84604","precinct":"25PR11","hd":"58","v_score":"23.30333885","decile":"10","lat":40.270574260065,"lng":-111.645398163068},{"id":"156795","name":"Kael Smith-Hamill","party":"","address":"466 E 2780 N, Provo, UT 84604","precinct":"25PR11","hd":"58","v_score":"27.00273605","decile":"10","lat":40.270368017856,"lng":-111.650682147155},{"id":"157013","name":"Amarion Ward","party":"Rep","address":"472 E 3530 N, Provo, UT 84604","precinct":"25PR11","hd":"58","v_score":"11.2235539","decile":"9","lat":40.2808038933,"lng":-111.651132010635},{"id":"157048","name":"Barton Hayes","party":"","address":"466 E 2780 N, Provo, UT 84604","precinct":"25PR11","hd":"58","v_score":"27.00273605","decile":"10","lat":40.270368017856,"lng":-111.650682147155},{"id":"157783","name":"Bode Abernathy","party":"Dem","address":"3353 N 500 E, Provo, UT 84604","precinct":"25PR11","hd":"58","v_score":"11.23922619","decile":"9","lat":40.278213320436,"lng":-111.650161909529},{"id":"159187","name":"Mrs. Baylie Kautzer","party":"Rep","address":"446 E 3125 N, Provo, UT 84604","precinct":"25PR11","hd":"58","v_score":"26.41733837","decile":"10","lat":40.274968454151,"lng":-111.650682170424},{"id":"159271","name":"Leandra Gleichner","party":"Rep","address":"676 E 2950 N, Provo, UT 84604","precinct":"25PR11","hd":"58","v_score":"41.09946885","decile":"10","lat":40.272748404355,"lng":-111.647201579107},{"id":"159328","name":"Mr. Troy Lang","party":"Rep","address":"2727 N 550 E, Provo, UT 84604","precinct":"25PR11","hd":"58","v_score":"18.46989245","decile":"10","lat":40.270181152756,"lng":-111.649615754095},{"id":"159466","name":"Dr. Juliette Hahn PhD","party":"Dem","address":"495 E 3400 N, Provo, UT 84604","precinct":"25PR11","hd":"58","v_score":"24.43395758","decile":"10","lat":40.27883344392,"lng":-111.649250289693},{"id":"159480","name":"Mrs. Bettye Leannon DDS","party":"Dem","address":"2746 N 550 E, Provo, UT 84604","precinct":"25PR11","hd":"58","v_score":"7.650280567","decile":"8","lat":40.270260019518,"lng":-111.649465968163},{"id":"159482","name":"Norine Gerlach-Altenwerth","party":"Dem","address":"735 E 2950 N, Provo, UT 84604","precinct":"25PR11","hd":"58","v_score":"16.84677932","decile":"9","lat":40.272853563376,"lng":-111.646568146693},{"id":"159769","name":"Bill Orn","party":"Rep","address":"598 E 2825 N, Provo, UT 84604","precinct":"25PR11","hd":"58","v_score":"5.40460374","decile":"7","lat":40.271148455942,"lng":-111.648895422026},{"id":"159770","name":"Heriberto Kemmer","party":"","address":"545 E 2875 N, Provo, UT 84604","precinct":"25PR11","hd":"58","v_score":"25.12475253","decile":"10","lat":40.271892584444,"lng":-111.649573745717},{"id":"159803","name":"Ms. Benita Emmerich DVM","party":"","address":"711 E 3230 N, Provo, UT 84604","precinct":"25PR11","hd":"58","v_score":"23.8268798","decile":"10","lat":40.276541578837,"lng":-111.646754968163},{"id":"159809","name":"Kimberley Koelpin","party":"","address":"540 E 3460 N, Provo, UT 84604","precinct":"25PR11","hd":"58","v_score":"31.14994604","decile":"10","lat":40.279612149418,"lng":-111.649667815936},{"id":"159810","name":"Zariah Rodriguez-Goodwin","party":"Dem","address":"625 E 3180 N, Provo, UT 84604","precinct":"25PR11","hd":"58","v_score":"28.2488703","decile":"10","lat":40.275782842809,"lng":-111.648322010927},{"id":"159811","name":"Zada Powlowski","party":"Rep","address":"3339 N Timpview Dr, Provo, UT 84604","precinct":"25PR11","hd":"58","v_score":"29.8573602","decile":"10","lat":40.278087252962,"lng":-111.647720362065},{"id":"159831","name":"Milda Casper DDS","party":"","address":"3346 N Canyon Rd, Provo, UT 84604","precinct":"25PR11","hd":"58","v_score":"31.14994604","decile":"10","lat":40.278259190623,"lng":-111.651303449778},{"id":"160257","name":"Jaden Terry","party":"Dem","address":"625 E 3180 N, Provo, UT 84604","precinct":"25PR11","hd":"58","v_score":"28.2488703","decile":"10","lat":40.275782842809,"lng":-111.648322010927},{"id":"160474","name":"Gretchen Haag","party":"","address":"3289 N Timpview Dr, Provo, UT 84604","precinct":"25PR11","hd":"58","v_score":"41.90479252","decile":"10","lat":40.277377246131,"lng":-111.647711590116},{"id":"160603","name":"Memphis Konopelski-Stamm","party":"","address":"3265 Timpview Dr, Provo, UT 84604","precinct":"25PR11","hd":"58","v_score":"4.833280139","decile":"7","lat":40.276979693369,"lng":-111.647705090008},{"id":"161004","name":"Wilkie Kovacek","party":"Dem","address":"695 E 3230 N, Provo, UT 84604","precinct":"25PR11","hd":"58","v_score":"29.8573602","decile":"10","lat":40.276542072261,"lng":-111.646869933884},{"id":"161140","name":"Landon Crona PhD","party":"","address":"514 E 2780 N, Provo, UT 84604","precinct":"25PR11","hd":"58","v_score":"8.149837396","decile":"8","lat":40.270471829562,"lng":-111.650363561147},{"id":"161555","name":"Gabriela Kovacek","party":"","address":"495 E 3400 N, Provo, UT 84604","precinct":"25PR11","hd":"58","v_score":"22.10816128","decile":"10","lat":40.27883344392,"lng":-111.649250289693},{"id":"162974","name":"Raegan Lindgren","party":"Rep","address":"515 E 2875 N, Provo, UT 84604","precinct":"25PR11","hd":"58","v_score":"21.43421847","decile":"10","lat":40.271894327198,"lng":-111.649953659867},{"id":"163180","name":"Irven O'Hara","party":"Dem","address":"579 E 2780 N, Provo, UT 84604","precinct":"25PR11","hd":"58","v_score":"0","decile":"3","lat":40.270566520039,"lng":-111.648879155276},{"id":"163243","name":"Ms. Rae Bartell DVM","party":"Dem","address":"440 E 2875 N, Provo, UT 84604","precinct":"25PR11","hd":"58","v_score":"34.09285363","decile":"10","lat":40.271784036695,"lng":-111.650891684384},{"id":"163315","name":"Jammie McKenzie","party":"Rep","address":"441 E 2950 N, Provo, UT 84604","precinct":"25PR11","hd":"58","v_score":"17.69897802","decile":"10","lat":40.272899548157,"lng":-111.650787712097},{"id":"164234","name":"Cameron Kuphal","party":"","address":"583 E 3400 N, Provo, UT 84604","precinct":"25PR11","hd":"58","v_score":"21.41280004","decile":"10","lat":40.278856063283,"lng":-111.648589545738},{"id":"164704","name":"Elmina Crooks","party":"Rep","address":"2668 N 350 E, Provo, UT 84604","precinct":"25PR11","hd":"58","v_score":"0","decile":"3","lat":40.269332362647,"lng":-111.652646895947},{"id":"165799","name":"Toby Cummerata","party":"Rep","address":"468 E 3125 N, Provo, UT 84604","precinct":"25PR11","hd":"58","v_score":"19.75065137","decile":"10","lat":40.274966626936,"lng":-111.65036332559},{"id":"165922","name":"Mr. Wilson Altenwerth","party":"","address":"460 E 3050 N, Provo, UT 84604","precinct":"25PR11","hd":"58","v_score":"44.04237644","decile":"10","lat":40.273988890366,"lng":-111.650481126855},{"id":"167445","name":"Dr. Hedwig Hoeger PhD","party":"","address":"550 E 3230 N, Provo, UT 84604","precinct":"25PR11","hd":"58","v_score":"3.93832808","decile":"6","lat":40.276448368193,"lng":-111.648842690961},{"id":"167610","name":"Alivia Bernhard","party":"Dem","address":"579 E 2780 N, Provo, UT 84604","precinct":"25PR11","hd":"58","v_score":"1.121327652","decile":"3","lat":40.270566520039,"lng":-111.648879155276},{"id":"167764","name":"Tresa Balistreri-Stiedemann","party":"","address":"676 E 2950 N, Provo, UT 84604","precinct":"25PR11","hd":"58","v_score":"2.660162957","decile":"5","lat":40.272748404355,"lng":-111.647201579107},{"id":"168719","name":"Nolen Aufderhar Sr.","party":"","address":"600 E 3400 N, Provo, UT 84604","precinct":"25PR11","hd":"58","v_score":"30.39345643","decile":"10","lat":40.278743168406,"lng":-111.648825219186},{"id":"169477","name":"Dr. Young Thompson","party":"","address":"570 E 2950 N, Provo, UT 84604","precinct":"25PR11","hd":"58","v_score":"41.61636965","decile":"10","lat":40.272754898209,"lng":-111.648706082359},{"id":"169487","name":"Donavan Parker-Jacobson","party":"Rep","address":"676 E 2950 N, Provo, UT 84604","precinct":"25PR11","hd":"58","v_score":"2.660162957","decile":"5","lat":40.272748404355,"lng":-111.647201579107},{"id":"169630","name":"Kianna Collins","party":"Rep","address":"570 E 2950 N, Provo, UT 84604","precinct":"25PR11","hd":"58","v_score":"41.61636965","decile":"10","lat":40.272754898209,"lng":-111.648706082359},{"id":"169901","name":"Dr. Jabari Wilderman","party":"","address":"581 E 3460 N, Provo, UT 84604","precinct":"25PR11","hd":"58","v_score":"12.49472132","decile":"9","lat":40.279730768416,"lng":-111.649171199036},{"id":"170289","name":"Mr. Lawrance Grimes II","party":"","address":"3318 N 500 E, Provo, UT 84604","precinct":"25PR11","hd":"58","v_score":"4.166348126","decile":"7","lat":40.277841880535,"lng":-111.650049688873},{"id":"171063","name":"Nicki Kiehn","party":"","address":"545 E 2875 N, Provo, UT 84604","precinct":"25PR11","hd":"58","v_score":"3.781490609","decile":"6","lat":40.271892584444,"lng":-111.649573745717},{"id":"172034","name":"Ms. Maricela Towne","party":"Rep","address":"3082 N Canyon Rd, Provo, UT 84604","precinct":"25PR11","hd":"58","v_score":"4.424855541","decile":"7","lat":40.274492977182,"lng":-111.651367243657},{"id":"172118","name":"Mrs. Malvina Koepp","party":"","address":"505 E 2780 N, Provo, UT 84604","precinct":"25PR11","hd":"58","v_score":"2.744440783","decile":"6","lat":40.270584268991,"lng":-111.650145241743},{"id":"172396","name":"Mr. Colonel Maggio II","party":"Rep","address":"3109 Timpview Dr, Provo, UT 84604","precinct":"25PR11","hd":"58","v_score":"22.70538588","decile":"10","lat":40.275010558024,"lng":-111.647675345091},{"id":"172679","name":"Sondra Olson","party":"","address":"572 E 3400 N, Provo, UT 84604","precinct":"25PR11","hd":"58","v_score":"2.817000428","decile":"6","lat":40.278726949542,"lng":-111.649129915007},{"id":"172866","name":"Luvenia Tromp","party":"","address":"3516 N Canyon Rd, Provo, UT 84604","precinct":"25PR11","hd":"58","v_score":"1.121327652","decile":"3","lat":40.280298458604,"lng":-111.651472807768},{"id":"173326","name":"Sam Quitzon","party":"Rep","address":"557 E 3460 N, Provo, UT 84604","precinct":"25PR11","hd":"58","v_score":"1.193887297","decile":"4","lat":40.27972834798,"lng":-111.649470125654},{"id":"173435","name":"Mrs. Carla Bashirian","party":"Dem","address":"3636 N 480 E, Provo, UT 84604","precinct":"25PR11","hd":"58","v_score":"1.193887297","decile":"4","lat":40.281322936748,"lng":-111.650869491873},{"id":"173695","name":"Kathaleen Hodkiewicz","party":"Rep","address":"515 E 3050 N, Provo, UT 84604","precinct":"25PR11","hd":"58","v_score":"1.193887297","decile":"4","lat":40.274101145721,"lng":-111.649679605411},{"id":"174086","name":"Dion Huel","party":"","address":"574 E 2950 N, Provo, UT 84604","precinct":"25PR11","hd":"58","v_score":"10.42565066","decile":"9","lat":40.272753986861,"lng":-111.648642926274},{"id":"174183","name":"Merrie Kautzer","party":"Rep","address":"2745 N 600 E, Provo, UT 84604","precinct":"25PR11","hd":"58","v_score":"37.40229464","decile":"10","lat":40.270240865034,"lng":-111.648602241949},{"id":"174288","name":"Hjalmer Kautzer-Bartoletti","party":"","address":"3261 N 500 E, Provo, UT 84604","precinct":"25PR11","hd":"58","v_score":"33.29169328","decile":"10","lat":40.277221498163,"lng":-111.650192637435},{"id":"174456","name":"Semaj Daniel","party":"Rep","address":"598 E 3230 N, Provo, UT 84604","precinct":"25PR11","hd":"58","v_score":"17.3642886","decile":"9","lat":40.276431799518,"lng":-111.647697387406},{"id":"174483","name":"Ryne Wyman","party":"","address":"525 E 3125 N, Provo, UT 84604","precinct":"25PR11","hd":"58","v_score":"8.207848766","decile":"8","lat":40.2750758144,"lng":-111.649505289869},{"id":"174586","name":"Ms. Icey Durgan","party":"Rep","address":"2820 N 700 E, Provo, UT 84604","precinct":"25PR11","hd":"58","v_score":"0","decile":"3","lat":40.270861377513,"lng":-111.646425095752},{"id":"175690","name":"Ruben Luettgen","party":"Dem","address":"424 E 2825 N, Provo, UT 84604","precinct":"25PR11","hd":"58","v_score":"18.46989245","decile":"10","lat":40.271164477215,"lng":-111.651114344569},{"id":"178220","name":"Mrs. Bina Pfeffer","party":"Dem","address":"515 E 3050 N, Provo, UT 84604","precinct":"25PR11","hd":"58","v_score":"5.40460374","decile":"7","lat":40.274101145721,"lng":-111.649679605411},{"id":"178617","name":"Ms. Angeles Considine","party":"Rep","address":"546 E 2875 N, Provo, UT 84604","precinct":"25PR11","hd":"58","v_score":"34.62894986","decile":"10","lat":40.271777878962,"lng":-111.649549321052},{"id":"178888","name":"Roger Gibson-Dooley","party":"","address":"3148 N 500 E, Provo, UT 84604","precinct":"25PR11","hd":"58","v_score":"34.62894986","decile":"10","lat":40.275303607647,"lng":-111.649773359},{"id":"178914","name":"Hardin Kuhlman","party":"Rep","address":"3109 Timpview Dr, Provo, UT 84604","precinct":"25PR11","hd":"58","v_score":"21.23911022","decile":"10","lat":40.275010558024,"lng":-111.647675345091},{"id":"179160","name":"Adina Johns-Hessel","party":"","address":"2797 N 700 E, Provo, UT 84604","precinct":"25PR11","hd":"58","v_score":"0","decile":"3","lat":40.270829128304,"lng":-111.64657454895},{"id":"179829","name":"Dr. Arnav Ortiz II","party":"Rep","address":"2824 N Timpview Dr, Provo, UT 84604","precinct":"25PR11","hd":"58","v_score":"28.27390347","decile":"10","lat":40.271253606348,"lng":-111.647469695703},{"id":"180141","name":"Halsey Wisoky","party":"","address":"574 E 2950 N, Provo, UT 84604","precinct":"25PR11","hd":"58","v_score":"10.42565066","decile":"9","lat":40.272753986861,"lng":-111.648642926274},{"id":"180800","name":"Ms. Clementine Yost","party":"","address":"735 E 2780 N, Provo, UT 84604","precinct":"25PR11","hd":"58","v_score":"1.121327652","decile":"3","lat":40.270564221312,"lng":-111.645776290486},{"id":"180824","name":"Lalla Rolfson","party":"Dem","address":"2745 N 600 E, Provo, UT 84604","precinct":"25PR11","hd":"58","v_score":"30.91198908","decile":"10","lat":40.270240865034,"lng":-111.648602241949},{"id":"181362","name":"Henderson Thiel","party":"Dem","address":"676 E 3030 N, Provo, UT 84604","precinct":"25PR11","hd":"58","v_score":"27.3982836","decile":"10","lat":40.273711857424,"lng":-111.646777458975}]