[{"vid":"701255","name":"Ludwig Schulist V","party":"","address":"1642 W 1400 N, Provo, UT 84604","precinct":"25PR23","hd":"61","v_score":"35.12606409","decile":"10","lat":40.252849046941535,"lng":-111.68722390123666},{"vid":"1225889","name":"Bobbie Farrell","party":"Dem","address":"1665 W 1050 N, Provo, UT 84604","precinct":"25PR23","hd":"61","v_score":"2.660162957","decile":"5","lat":40.24824073622994,"lng":-111.68787464606866},{"vid":"46eab85fec79c33b5ea6ab1c2362e1f8ae45e07216bc4e83260d8dd51d465526","name":"Mr. Yahir Wolff","party":"Rep","address":"1952 W 820 N, Provo, UT 84601","precinct":"25PR23","hd":"61","v_score":"9.405332525","decile":"8","lat":40.246723009047514,"lng":-111.6940019217084},{"vid":"1238762","name":"Gayla Hirthe MD","party":"Rep","address":"2066 W 1080 N, Provo, UT 84604","precinct":"25PR23","hd":"61","v_score":"4.079907534","decile":"7","lat":40.24801022529518,"lng":-111.69390067234569},{"vid":"1240113","name":"Maria Hahn","party":"Dem","address":"1003 N Grand Ave, Provo, UT 84604","precinct":"25PR23","hd":"61","v_score":"0","decile":"1","lat":40.24754258022247,"lng":-111.68958958004211},{"vid":"c7eff646a18b2d2fbf1a5d9aa5ec0820ddb4449a170cc293f13207f66835bd20","name":"Katharina Lueilwitz","party":"","address":"1608 W 1170 N, Provo, UT 84604","precinct":"25PR23","hd":"61","v_score":"5.40460374","decile":"7","lat":40.25033651957767,"lng":-111.68687920221114},{"vid":"1307428","name":"Arlyne Christiansen","party":"Dem","address":"1034 N 1760 W, Provo, UT 84604","precinct":"25PR23","hd":"61","v_score":"0","decile":"1","lat":40.24821377555502,"lng":-111.69119264253122},{"vid":"1317882","name":"Dr. Syed Considine MD","party":"","address":"965 N 1760 W, Provo, UT 84604","precinct":"25PR23","hd":"61","v_score":"0","decile":"1","lat":40.24715132541575,"lng":-111.6910315763974},{"vid":"1386162","name":"Holland Stamm","party":"","address":"1145 N 1880 W, Provo, UT 84604","precinct":"25PR23","hd":"61","v_score":"5.546183193","decile":"7","lat":40.249166072087576,"lng":-111.69451270982012},{"vid":"1466575","name":"Squire Jaskolski DDS","party":"","address":"1128 N Independence Ave, Provo, UT 84604","precinct":"25PR23","hd":"61","v_score":"3.781490609","decile":"6","lat":40.24939909162087,"lng":-111.69342507746448},{"vid":"1466646","name":"Teela Crist","party":"Rep","address":"1912 W 960 N, Provo, UT 84604","precinct":"25PR23","hd":"61","v_score":"11.37977487","decile":"9","lat":40.246548133737114,"lng":-111.69262245216176},{"vid":"1483494","name":"Cordelia Toy","party":"","address":"1405 N 1750 W, Provo, UT 84604","precinct":"25PR23","hd":"61","v_score":"6.881235673","decile":"8","lat":40.25277498246667,"lng":-111.68905935699148},{"vid":"5d4b1fe999a94c07dc15cbfe0d8aae6efeb1a0761deec29c874c68400ac9ca67","name":"Sterling Heaney","party":"","address":"1149 N 1880 W, Provo, UT 84604","precinct":"25PR23","hd":"61","v_score":"2.315214949","decile":"5","lat":40.249212774158536,"lng":-111.694550342044},{"vid":"1485811","name":"Treena Batz","party":"Dem","address":"1267 N Wasatch Dr, Provo, UT 84604","precinct":"25PR23","hd":"61","v_score":"12.59867706","decile":"9","lat":40.25083431899247,"lng":-111.69021268817443},{"vid":"1485963","name":"Ms. Sheila Baumbach","party":"Rep","address":"1897 W 960 N, Provo, UT 84604","precinct":"25PR23","hd":"61","v_score":"29.27087773","decile":"10","lat":40.24633264811299,"lng":-111.69220528747954},{"vid":"1493496","name":"Dr. Kole Ferry Jr.","party":"","address":"1909 W 1020 N, Provo, UT 84604","precinct":"25PR23","hd":"61","v_score":"1.46627566","decile":"4","lat":40.247006334355945,"lng":-111.6930374382497},{"vid":"1494731","name":"Mrs. Celia Schamberger PhD","party":"","address":"1615 W 1100 N, Provo, UT 84604","precinct":"25PR23","hd":"61","v_score":"35.39065156","decile":"10","lat":40.24894636635552,"lng":-111.68690078890707},{"vid":"1501247","name":"Marylin Wuckert","party":"Dem","address":"1143 N Independence Ave, Provo, UT 84604","precinct":"25PR23","hd":"61","v_score":"8.363183621","decile":"8","lat":40.24931750440604,"lng":-111.69411849242219},{"vid":"a51da51483a993a6a466f109235bef1ed3b7b52d3c5ff924c69c3c1374e25cae","name":"Evalyn Kris-Reilly","party":"Rep","address":"1720 W 1320 N, Provo, UT 84604","precinct":"25PR23","hd":"61","v_score":"6.088298118","decile":"7","lat":40.25189630095549,"lng":-111.68835252133177},{"vid":"1513848","name":"Shelly Davis MD","party":"","address":"990 N Independence Ave, Provo, UT 84604","precinct":"25PR23","hd":"61","v_score":"2.315214949","decile":"5","lat":40.24730631350119,"lng":-111.69157335196222},{"vid":"1541320","name":"Everet Kuphal","party":"Rep","address":"1235 N 1500 W, Provo, UT 84604","precinct":"25PR23","hd":"61","v_score":"6.881235673","decile":"8","lat":40.250650362062,"lng":-111.68529966969967},{"vid":"1551991","name":"Jerry Treutel Jr.","party":"Rep","address":"1597 W 1050 N, Provo, UT 84604","precinct":"25PR23","hd":"61","v_score":"2.817000428","decile":"6","lat":40.248210728838416,"lng":-111.6870197296236},{"vid":"1558915","name":"Caryl Wisozk-Marvin","party":"Rep","address":"1897 W 1020 N, Provo, UT 84604","precinct":"25PR23","hd":"61","v_score":"2.315214949","decile":"5","lat":40.24709283651096,"lng":-111.69285459551611},{"vid":"1559729","name":"Lennie Rowe","party":"Rep","address":"1897 W 1020 N, Provo, UT 84604","precinct":"25PR23","hd":"61","v_score":"2.315214949","decile":"5","lat":40.24709283651096,"lng":-111.69285459551611},{"vid":"1562566","name":"Kamden Kuhlman","party":"Dem","address":"1898 W 830 N, Provo, UT 84604","precinct":"25PR23","hd":"61","v_score":"8.535114849","decile":"8","lat":40.24552796253894,"lng":-111.69150903851676},{"vid":"1562741","name":"Glinda Mills MD","party":"","address":"966 N 1760 W, Provo, UT 84604","precinct":"25PR23","hd":"61","v_score":"0","decile":"1","lat":40.247544484816245,"lng":-111.69046072039055},{"vid":"1564197","name":"Collis Franecki","party":"","address":"1645 W 1000 N, Provo, UT 84604","precinct":"25PR23","hd":"61","v_score":"2.587603312","decile":"5","lat":40.24743411647318,"lng":-111.68744990676204},{"vid":"1575017","name":"Ms. Annis Conn","party":"","address":"1349 N 1750 W, Provo, UT 84604","precinct":"25PR23","hd":"61","v_score":"0","decile":"1","lat":40.25213753881944,"lng":-111.68917705839227},{"vid":"1577194","name":"Desi Ratke-Dicki","party":"Rep","address":"1128 N Independence Ave, Provo, UT 84604","precinct":"25PR23","hd":"61","v_score":"12.49472132","decile":"9","lat":40.24939909162087,"lng":-111.69342507746448},{"vid":"90a54002f232c4a86a6b61bb7a8989144567be45512af5ddb20966a5e2864855","name":"Sigrid Daugherty","party":"","address":"1445 N 1750 W, Provo, UT 84604","precinct":"25PR23","hd":"61","v_score":"9.600440767","decile":"8","lat":40.2532584783687,"lng":-111.68914891022182},{"vid":"5ad93d7d109cace93553100f430908756ceefc793ee6a13533cc5a44be862bb8","name":"Ferd Tillman","party":"","address":"1993 W 1460 N, Provo, UT 84604","precinct":"25PR23","hd":"61","v_score":"1.121327652","decile":"3","lat":40.25321261640159,"lng":-111.69300550163669},{"vid":"1587252","name":"Thalia Effertz","party":"","address":"1046 N 1760 W, Provo, UT 84604","precinct":"25PR23","hd":"61","v_score":"3.93832808","decile":"6","lat":40.248310532252674,"lng":-111.69129845940043},{"vid":"1590469","name":"Mr. Colbert O'Reilly","party":"","address":"1585 W 1250 N, Provo, UT 84604","precinct":"25PR23","hd":"61","v_score":"5.40460374","decile":"7","lat":40.25069681737827,"lng":-111.68636830799397},{"vid":"1601220","name":"Consuela Gusikowski","party":"","address":"952 N 1760 W, Provo, UT 84604","precinct":"25PR23","hd":"61","v_score":"9.640097175","decile":"8","lat":40.24733310817591,"lng":-111.69022952062656},{"vid":"c0730f39852940b786088260a2e61bcda3387544a1c18b968f3e0250d7f98cd2","name":"Deandre Kreiger","party":"","address":"1587 W 1170 N, Provo, UT 84604","precinct":"25PR23","hd":"61","v_score":"1.121327652","decile":"3","lat":40.24991312844169,"lng":-111.68641654432766},{"vid":"1628003","name":"Nobie Deckow MD","party":"","address":"1169 N Grand Ave, Provo, UT 84604","precinct":"25PR23","hd":"61","v_score":"6.798081861","decile":"8","lat":40.249289704651076,"lng":-111.69173504670714},{"vid":"1629875","name":"Zaiden Keeling","party":"Dem","address":"1608 W 1320 N, Provo, UT 84604","precinct":"25PR23","hd":"61","v_score":"1.121327652","decile":"3","lat":40.251878175047636,"lng":-111.6862161203063},{"vid":"1629989","name":"Ossie Wiegand","party":"","address":"1445 N 1750 W, Provo, UT 84604","precinct":"25PR23","hd":"61","v_score":"13.75326469","decile":"9","lat":40.2532584783687,"lng":-111.68914891022182},{"vid":"1630677","name":"Tyriq Rosenbaum DVM","party":"Rep","address":"1815 W 1460 N, Provo, UT 84604","precinct":"25PR23","hd":"61","v_score":"0","decile":"1","lat":40.25257046541255,"lng":-111.68981966563848},{"vid":"1647496","name":"Mrs. Hester Streich DDS","party":"Dem","address":"1559 W 1050 N, Provo, UT 84604","precinct":"25PR23","hd":"61","v_score":"5.40460374","decile":"7","lat":40.24821873507394,"lng":-111.68621753048163},{"vid":"1651234","name":"Angelina Brakus","party":"Dem","address":"1777 W 1060 N, Provo, UT 84604","precinct":"25PR23","hd":"61","v_score":"9.682978083","decile":"8","lat":40.24808607155353,"lng":-111.6918754158664},{"vid":"1651570","name":"Oddie Johns V","party":"Dem","address":"1120 N 1750 W, Provo, UT 84604","precinct":"25PR23","hd":"61","v_score":"8.149837396","decile":"8","lat":40.25007636084903,"lng":-111.68846633086287},{"vid":"1652315","name":"Birt Daniel","party":"","address":"1904 W 960 N, Provo, UT 84604","precinct":"25PR23","hd":"61","v_score":"1.121327652","decile":"3","lat":40.246605802106,"lng":-111.69250055652691},{"vid":"1662966","name":"Opal Erdman","party":"Rep","address":"1425 N 2100 W, Provo, UT 84604","precinct":"25PR23","hd":"61","v_score":"8.436100008","decile":"8","lat":40.25275349720699,"lng":-111.69513011955837},{"vid":"1669733","name":"Miss Tennessee Williamson","party":"","address":"1904 W 960 N, Provo, UT 84604","precinct":"25PR23","hd":"61","v_score":"2.315214949","decile":"5","lat":40.246605802106,"lng":-111.69250055652691},{"vid":"1680413","name":"Dillan Steuber","party":"Dem","address":"1235 N 1500 W, Provo, UT 84604","precinct":"25PR23","hd":"61","v_score":"7.159318653","decile":"8","lat":40.250650362062,"lng":-111.68529966969967},{"vid":"437ffcc5767992c40b9513a31a96080d3ebffbf0d235984df6320ac3a3e4cfcd","name":"Mr. Jett Carroll DDS","party":"Dem","address":"1796 W 1010 N, Provo, UT 84604","precinct":"25PR23","hd":"61","v_score":"12.49472132","decile":"9","lat":40.24777025616391,"lng":-111.69163149745518},{"vid":"1687568","name":"Izola Ondricka","party":"","address":"1891 W 1020 N, Provo, UT 84604","precinct":"25PR23","hd":"61","v_score":"1.193887297","decile":"3","lat":40.24712167136085,"lng":-111.6927936482377},{"vid":"1692191","name":"Eura Keebler PhD","party":"Dem","address":"1615 W 1100 N, Provo, UT 84604","precinct":"25PR23","hd":"61","v_score":"35.39065156","decile":"10","lat":40.24894636635552,"lng":-111.68690078890707},{"vid":"1697801","name":"Cherryl Bergnaum","party":"Rep","address":"905 N 1760 W, Provo, UT 84604","precinct":"25PR23","hd":"61","v_score":"12.43347023","decile":"9","lat":40.24649051564649,"lng":-111.69032107512368},{"vid":"9368082ac92fd178a1dca807a1d38f4f483537bd0697b80bbd41112223d86423","name":"Vanesa Bode","party":"Rep","address":"2054 W 1080 N, Provo, UT 84604","precinct":"25PR23","hd":"61","v_score":"1.121327652","decile":"3","lat":40.24808662322168,"lng":-111.69373914232187},{"vid":"1704900","name":"Lashawn Parisian","party":"Dem","address":"836 N 1760 W, Provo, UT 84604","precinct":"25PR23","hd":"61","v_score":"5.40460374","decile":"7","lat":40.245604552922906,"lng":-111.68918149334915},{"vid":"1705034","name":"Dr. Tavaris Quigley","party":"Rep","address":"887 N 1760 W, Provo, UT 84604","precinct":"25PR23","hd":"61","v_score":"2.315214949","decile":"5","lat":40.24634720633031,"lng":-111.69013716429322},{"vid":"1707937","name":"Rubye Wuckert","party":"Dem","address":"1617 W 1050 N, Provo, UT 84604","precinct":"25PR23","hd":"61","v_score":"1.193887297","decile":"3","lat":40.248207854491966,"lng":-111.68730624656483},{"vid":"1709725","name":"Ida Jacobi DVM","party":"","address":"947 N 1760 W, Provo, UT 84604","precinct":"25PR23","hd":"61","v_score":"1.193887297","decile":"3","lat":40.24697361810659,"lng":-111.6908371806106},{"vid":"1713446","name":"Vella Huels MD","party":"Rep","address":"1903 W 890 N, Provo, UT 84604","precinct":"25PR23","hd":"61","v_score":"2.315214949","decile":"5","lat":40.24574525430187,"lng":-111.69188555263574},{"vid":"1728097","name":"Madaline Kulas","party":"","address":"1717 W 1460 N, Provo, UT 84604","precinct":"25PR23","hd":"61","v_score":"1.623113131","decile":"4","lat":40.25322801716984,"lng":-111.68837273958553},{"vid":"1738374","name":"Dr. Kraig Crona Jr.","party":"Dem","address":"1085 N Independence Ave, Provo, UT 84604","precinct":"25PR23","hd":"61","v_score":"35.30276996","decile":"10","lat":40.24834840345837,"lng":-111.69336992378065},{"vid":"1759304","name":"Royal Rau","party":"Rep","address":"1157 N 1650 W, Provo, UT 84604","precinct":"25PR23","hd":"61","v_score":"3.93832808","decile":"6","lat":40.250198889237936,"lng":-111.68795883209191},{"vid":"1765054","name":"Rashaan Runolfsson","party":"Dem","address":"1081 N 1500 W, Provo, UT 84604","precinct":"25PR23","hd":"61","v_score":"5.331806201","decile":"7","lat":40.24898395385233,"lng":-111.68528981416648},{"vid":"a289f02a94c46c26c277722dc45aacae946981d0aaf26993c4a9f2f9c06e1bb7","name":"Kristin Frami","party":"Rep","address":"1897 W 960 N, Provo, UT 84604","precinct":"25PR23","hd":"61","v_score":"28.57110921","decile":"10","lat":40.24633264811299,"lng":-111.69220528747954},{"vid":"575d8fc065f6129d9e23de61c039f372fdb0a0db150187c0d321ea346323f198","name":"Alaina Gibson","party":"Dem","address":"2046 W 1080 N, Provo, UT 84604","precinct":"25PR23","hd":"61","v_score":"8.149837396","decile":"8","lat":40.248144294256555,"lng":-111.6936172434531},{"vid":"1789713","name":"Frankie Oberbrunner","party":"","address":"2071 W 1080 N, Provo, UT 84604","precinct":"25PR23","hd":"61","v_score":"2.315214949","decile":"5","lat":40.247651638665474,"lng":-111.69378547706489},{"vid":"1802993","name":"Dr. Octavia Bernier DDS","party":"","address":"985 N 1550 W, Provo, UT 84604","precinct":"25PR23","hd":"61","v_score":"2.587603312","decile":"5","lat":40.24743400862027,"lng":-111.68611262044502},{"vid":"1807395","name":"Dani Senger-Wintheiser","party":"Rep","address":"1784 W 1060 N, Provo, UT 84604","precinct":"25PR23","hd":"61","v_score":"8.211445228","decile":"8","lat":40.248318992370365,"lng":-111.69237628951939},{"vid":"1808222","name":"Hjalmar Wolff","party":"Rep","address":"1602 W 900 N, Provo, UT 84604","precinct":"25PR23","hd":"61","v_score":"8.347511332","decile":"8","lat":40.24638606733341,"lng":-111.6866765253947},{"vid":"1811831","name":"Lalla Harvey","party":"","address":"1270 N 1750 W, Provo, UT 84604","precinct":"25PR23","hd":"61","v_score":"2.315214949","decile":"5","lat":40.25101708956525,"lng":-111.68838619288354},{"vid":"1812138","name":"Jarrell Reinger","party":"","address":"2051 W 1100 N, Provo, UT 84604","precinct":"25PR23","hd":"61","v_score":"1.193887297","decile":"3","lat":40.248410908988646,"lng":-111.69393482808943},{"vid":"c6e72f383e4b21dda7979ef4a98ae3d8ecb6bc7d3789d9592ea13b508a751252","name":"Douglas Bergnaum","party":"Dem","address":"2067 W 1100 N, Provo, UT 84604","precinct":"25PR23","hd":"61","v_score":"0","decile":"1","lat":40.24830713380686,"lng":-111.69415426854701},{"vid":"1817135","name":"Vernon Rolfson","party":"Rep","address":"932 N 1760 W, Provo, UT 84604","precinct":"25PR23","hd":"61","v_score":"3.781490609","decile":"6","lat":40.247121731561144,"lng":-111.6899982870859},{"vid":"ab4d81496b9a0f12eeaf4dfb791c1bbdce0514eb7047da72c5ce5ac316f8ce95","name":"Obed Streich","party":"","address":"935 Grand Ave, Provo, UT 84604","precinct":"25PR23","hd":"61","v_score":"5.60307055","decile":"7","lat":40.2463180077357,"lng":-111.68806300897278},{"vid":"1836412","name":"Miss Erykah Hessel","party":"Dem","address":"1241 N Wasatch Dr, Provo, UT 84604","precinct":"25PR23","hd":"61","v_score":"1.46627566","decile":"4","lat":40.25058747632086,"lng":-111.69020161679786},{"vid":"c8873d4cf0ca0f175f54e8602c47620dcf2c93b4491ee93771a42c71042307f9","name":"Aurthur Kshlerin","party":"","address":"1536 W 1170 N, Provo, UT 84604","precinct":"25PR23","hd":"61","v_score":"2.587603312","decile":"5","lat":40.250354637768936,"lng":-111.68581758973735},{"vid":"1853421","name":"Aaliyah Nolan","party":"","address":"2062 W 1100 N, Provo, UT 84604","precinct":"25PR23","hd":"61","v_score":"2.315214949","decile":"5","lat":40.2485671526097,"lng":-111.6942297176884},{"vid":"1859495","name":"Tabitha Prosacco-Watsica","party":"","address":"2075 W 1080 N, Provo, UT 84604","precinct":"25PR23","hd":"61","v_score":"2.744440783","decile":"5","lat":40.24762280239578,"lng":-111.6938464615336},{"vid":"1859498","name":"Miss Dove Little","party":"Dem","address":"2075 W 1080 N, Provo, UT 84604","precinct":"25PR23","hd":"61","v_score":"2.744440783","decile":"5","lat":40.24762280239578,"lng":-111.6938464615336},{"vid":"1867648","name":"Demetrius Schulist","party":"Rep","address":"1786 W 1060 N, Provo, UT 84604","precinct":"25PR23","hd":"61","v_score":"5.191257514","decile":"7","lat":40.24829334886523,"lng":-111.69243054147431},{"vid":"1877735","name":"Dr. Stevie Cummings","party":"Dem","address":"836 N 1760 W, Provo, UT 84604","precinct":"25PR23","hd":"61","v_score":"5.40460374","decile":"7","lat":40.245604552922906,"lng":-111.68918149334915},{"vid":"85f49675276068e82c57e767870a37be1fe7a58481c76db5c3777defd3faa184","name":"Jerald Labadie","party":"Rep","address":"1902 W 890 N, Provo, UT 84604","precinct":"25PR23","hd":"61","v_score":"10.15822798","decile":"9","lat":40.24604975138698,"lng":-111.6921168765469},{"vid":"1889836","name":"Wesley O'Reilly","party":"Rep","address":"1551 W 1100 N, Provo, UT 84604","precinct":"25PR23","hd":"61","v_score":"1.193887297","decile":"3","lat":40.24895410181574,"lng":-111.68600339852836},{"vid":"1891045","name":"Lynette Kuphal","party":"Rep","address":"1794 W 1010 N, Provo, UT 84604","precinct":"25PR23","hd":"61","v_score":"0","decile":"1","lat":40.24780305956233,"lng":-111.69158600886524},{"vid":"1894251","name":"Mrs. Maralyn Schaden MD","party":"","address":"874 N 1760 W, Provo, UT 84604","precinct":"25PR23","hd":"61","v_score":"5.40460374","decile":"7","lat":40.246455559784565,"lng":-111.68936405008483},{"vid":"1894939","name":"Mr. Raynard Gaylord","party":"","address":"1151 N Independence Ave, Provo, UT 84604","precinct":"25PR23","hd":"61","v_score":"2.587603312","decile":"5","lat":40.249417605122666,"lng":-111.69417730135092},{"vid":"1900275","name":"Domingo Walter","party":"","address":"1233 N 1650 W, Provo, UT 84604","precinct":"25PR23","hd":"61","v_score":"1.121327652","decile":"3","lat":40.25076180253094,"lng":-111.68780037293556},{"vid":"1901528","name":"Dorr Gutmann IV","party":"","address":"1637 W 1050 N, Provo, UT 84604","precinct":"25PR23","hd":"61","v_score":"29.68367038","decile":"10","lat":40.248205006748314,"lng":-111.6875927627874},{"vid":"af99c24bc8351bdfe3871807601b0ec77c0bb0000eb84077eedbd0dc06cc1e02","name":"Levie Leannon","party":"Rep","address":"1897 W 1020 N, Provo, UT 84604","precinct":"25PR23","hd":"61","v_score":"3.781490609","decile":"6","lat":40.24709283651096,"lng":-111.69285459551611},{"vid":"1906547","name":"Brook Schoen-Windler","party":"Rep","address":"1665 W 1400 N, Provo, UT 84604","precinct":"25PR23","hd":"61","v_score":"11.6505322","decile":"9","lat":40.252300302944626,"lng":-111.68751788856778},{"vid":"1916563","name":"Dr. Jarred Marquardt DDS","party":"Dem","address":"986 N 1750 W, Provo, UT 84604","precinct":"25PR23","hd":"61","v_score":"4.192796624","decile":"7","lat":40.24759582623322,"lng":-111.68904893302751},{"vid":"1921357","name":"Jenni Emmerich","party":"","address":"1115 N 1575 W, Provo, UT 84604","precinct":"25PR23","hd":"61","v_score":"9.839687999","decile":"8","lat":40.249311158985535,"lng":-111.68647992373612},{"vid":"1922250","name":"Dewayne Conn","party":"","address":"1597 W 1050 N, Provo, UT 84604","precinct":"25PR23","hd":"61","v_score":"0","decile":"1","lat":40.248210728838416,"lng":-111.6870197296236},{"vid":"566ff7f8e88e0fbd5eabdf0e7a7bc2692ec4f578c723752c682bcd494668134f","name":"Elzy Parisian","party":"Rep","address":"1905 W 960 N, Provo, UT 84604","precinct":"25PR23","hd":"61","v_score":"13.81451578","decile":"9","lat":40.24627497992281,"lng":-111.69232721635204},{"vid":"1931390","name":"Ms. Brooklyn Bailey","party":"","address":"1145 N 1880 W, Provo, UT 84604","precinct":"25PR23","hd":"61","v_score":"5.546183193","decile":"7","lat":40.249166072087576,"lng":-111.69451270982012},{"vid":"1967339","name":"Tyrique Kunde","party":"","address":"1358 N 1850 W, Provo, UT 84604","precinct":"25PR23","hd":"61","v_score":"2.660162957","decile":"5","lat":40.252035047200955,"lng":-111.6902063121721},{"vid":"1969111","name":"Ms. Tanika Roberts DDS","party":"","address":"1077 N Independence Ave, Provo, UT 84604","precinct":"25PR23","hd":"61","v_score":"15.4533012","decile":"9","lat":40.248015152466685,"lng":-111.6930710388346},{"vid":"1971741","name":"Estie Champlin-Koepp","party":"","address":"1169 N Grand Ave, Provo, UT 84604","precinct":"25PR23","hd":"61","v_score":"6.798081861","decile":"8","lat":40.249289704651076,"lng":-111.69173504670714},{"vid":"1972237","name":"Latricia Morissette","party":"","address":"1584 W 1170 N, Provo, UT 84604","precinct":"25PR23","hd":"61","v_score":"14.63972567","decile":"9","lat":40.25028599251987,"lng":-111.68644799919666},{"vid":"1973125","name":"Alba Schamberger PhD","party":"Dem","address":"1892 W 890 N, Provo, UT 84604","precinct":"25PR23","hd":"61","v_score":"1.193887297","decile":"3","lat":40.246107420728954,"lng":-111.69199494300317},{"vid":"2014574","name":"Dr. Antwan Jast","party":"","address":"2078 W 1100 N, Provo, UT 84604","precinct":"25PR23","hd":"61","v_score":"10.87160818","decile":"9","lat":40.24845183767716,"lng":-111.69447351578529},{"vid":"2017973","name":"Frida Bashirian","party":"Dem","address":"2050 W 1080 N, Provo, UT 84604","precinct":"25PR23","hd":"61","v_score":"6.814370645","decile":"8","lat":40.24811545901952,"lng":-111.69367819306716},{"vid":"2023414","name":"Miss Karie Miller","party":"Rep","address":"1602 W 900 N, Provo, UT 84604","precinct":"25PR23","hd":"61","v_score":"3.93832808","decile":"6","lat":40.24638606733341,"lng":-111.6866765253947},{"vid":"bd61c4946831ac68aa02d8959528f086d1aa8d63062257ed2294541f2f7663b3","name":"Ernie Gusikowski V","party":"Rep","address":"1608 W 1320 N, Provo, UT 84604","precinct":"25PR23","hd":"61","v_score":"12.50803187","decile":"9","lat":40.251878175047636,"lng":-111.6862161203063},{"vid":"2037043","name":"Dr. Winnie Becker V","party":"","address":"1015 N 1550 W, Provo, UT 84604","precinct":"25PR23","hd":"61","v_score":"2.958579882","decile":"6","lat":40.24786308143519,"lng":-111.68595630510524},{"vid":"2038431","name":"Amasa Hartmann MD","party":"Dem","address":"1854 W 1380 N, Provo, UT 84604","precinct":"25PR23","hd":"61","v_score":"25.93792919","decile":"10","lat":40.25246444331025,"lng":-111.6905764693052},{"vid":"2045600","name":"Dr. Adolphus Lowe","party":"","address":"1076 N 1760 W, Provo, UT 84604","precinct":"25PR23","hd":"61","v_score":"3.93832808","decile":"6","lat":40.2486728673337,"lng":-111.69168032837683},{"vid":"2057950","name":"Therese Mills","party":"","address":"1151 N Independence Ave, Provo, UT 84604","precinct":"25PR23","hd":"61","v_score":"2.587603312","decile":"5","lat":40.249417605122666,"lng":-111.69417730135092},{"vid":"2067665","name":"Chelsy Dietrich","party":"","address":"1893 W 960 N, Provo, UT 84604","precinct":"25PR23","hd":"61","v_score":"2.315214949","decile":"5","lat":40.246361481366876,"lng":-111.69214433966212},{"vid":"e3a6e767cf81cb719a7e52391bca85ec442dae92d5bd9676143be1564eb40973","name":"Krissy Erdman","party":"Dem","address":"902 N Independence Ave, Provo, UT 84604","precinct":"25PR23","hd":"61","v_score":"2.315214949","decile":"5","lat":40.24629883365782,"lng":-111.69077093938054},{"vid":"c81f740dda392be91c3df8b6e8138f99ad9810ef529c8c19a32da5437aa0e046","name":"Lissie Kihn-Botsford","party":"Dem","address":"1093 N Independence Ave, Provo, UT 84604","precinct":"25PR23","hd":"61","v_score":"1.121327652","decile":"3","lat":40.24853521435424,"lng":-111.69352045034056},{"vid":"2082944","name":"Coraima Little","party":"","address":"1897 W 1020 N, Provo, UT 84604","precinct":"25PR23","hd":"61","v_score":"3.781490609","decile":"6","lat":40.24709283651096,"lng":-111.69285459551611},{"vid":"2083310","name":"Nelda Raynor","party":"Dem","address":"1584 W 1170 N, Provo, UT 84604","precinct":"25PR23","hd":"61","v_score":"6.52928996","decile":"7","lat":40.25028599251987,"lng":-111.68644799919666},{"vid":"1178a9bae3bd9eaa38899d5db6c77247672a64f9ca4487d294c251dd361d0cf9","name":"Arielle Feil","party":"Rep","address":"1898 W 830 N, Provo, UT 84604","precinct":"25PR23","hd":"61","v_score":"2.315214949","decile":"5","lat":40.24552796253894,"lng":-111.69150903851676},{"vid":"2098682","name":"Dr. Zelia Price","party":"","address":"1775 W 1060 N, Provo, UT 84604","precinct":"25PR23","hd":"61","v_score":"1.193887297","decile":"3","lat":40.248111946747244,"lng":-111.69182136729003},{"vid":"15c50af87c2c952641516960aa7c231f6a8e3868334fdf7016222da7c9e132c6","name":"Seamus Fay-Crist","party":"Dem","address":"1682 W 900 N, Provo, UT 84604","precinct":"25PR23","hd":"61","v_score":"33.03314165","decile":"10","lat":40.246290278225814,"lng":-111.68761810597513},{"vid":"2102181","name":"Mrs. Permelia Waters","party":"Rep","address":"1425 N 1750 W, Provo, UT 84604","precinct":"25PR23","hd":"61","v_score":"1.193887297","decile":"3","lat":40.25298073896452,"lng":-111.68908908350188},{"vid":"755cde8474ed85519d5b179e170efa9eef0597b378b0e4e48f8adc4ae2f7afb0","name":"Ely Monahan","party":"Dem","address":"2055 W 1100 N, Provo, UT 84604","precinct":"25PR23","hd":"61","v_score":"1.121327652","decile":"3","lat":40.24838210060515,"lng":-111.69399577842213},{"vid":"2107226","name":"Seward Haag","party":"Dem","address":"2054 W 1080 N, Provo, UT 84604","precinct":"25PR23","hd":"61","v_score":"12.79826788","decile":"9","lat":40.24808662322168,"lng":-111.69373914232187},{"vid":"2116898","name":"Ms. Frona Howe DVM","party":"","address":"1784 W 820 N, Provo, UT 84601","precinct":"25PR23","hd":"61","v_score":"1.121327652","decile":"3","lat":40.24558604427489,"lng":-111.68989562617793},{"vid":"2120058","name":"Kenisha Medhurst-Mueller","party":"","address":"1442 Grand Ave, Provo, UT 84604","precinct":"25PR23","hd":"61","v_score":"8.347511332","decile":"8","lat":40.253309836598724,"lng":-111.69338693094784},{"vid":"94a7b65b703eb6f46d597719e327f4661d3f535e7a0c61358b4078e0a3a18925","name":"Sena Kub DVM","party":"Rep","address":"842 N 1760 W, Provo, UT 84604","precinct":"25PR23","hd":"61","v_score":"9.640097175","decile":"8","lat":40.245729467495124,"lng":-111.68911119927985},{"vid":"f7dacfb4a1f9dbaf39e1ed56fb623f8d5312e5a51b9ca87123f0b054c33ae586","name":"Burrel Lesch","party":"Dem","address":"1149 N 1880 W, Provo, UT 84604","precinct":"25PR23","hd":"61","v_score":"3.781490609","decile":"6","lat":40.249212774158536,"lng":-111.694550342044},{"vid":"2132011","name":"Jordy Pagac","party":"","address":"1909 W 960 N, Provo, UT 84604","precinct":"25PR23","hd":"61","v_score":"1.121327652","decile":"3","lat":40.246246173784264,"lng":-111.69238816345079},{"vid":"01f51775d6f32381b12d423db5a9424b8b7676526730f07bbc22690b922066b3","name":"Phoenix Luettgen","party":"Dem","address":"1536 W 1170 N, Provo, UT 84604","precinct":"25PR23","hd":"61","v_score":"7.934314529","decile":"8","lat":40.250354637768936,"lng":-111.68581758973735},{"vid":"fcc7cbfe9cdeea6a06eef46c49b6a655637e43007e000780045d8aa4f42d0871","name":"Rolla Jerde","party":"Dem","address":"1385 N 1900 W, Provo, UT 84604","precinct":"25PR23","hd":"61","v_score":"12.43077743","decile":"9","lat":40.25236591843168,"lng":-111.69141068080326},{"vid":"046a8a3491c8be19abd21a618566059846fc58f5d9f95c13a2230898633114b8","name":"Kara Anderson","party":"","address":"1076 N 1760 W, Provo, UT 84604","precinct":"25PR23","hd":"61","v_score":"3.93832808","decile":"6","lat":40.2486728673337,"lng":-111.69168032837683},{"vid":"b0580690e1f54c7479feb31de5eaca6504c34e70baba0bcce76cdd9117bc5d8a","name":"Mrs. Wendi O'Reilly DDS","party":"Dem","address":"1952 W 820 N, Provo, UT 84601","precinct":"25PR23","hd":"61","v_score":"6.657533174","decile":"7","lat":40.246723009047514,"lng":-111.6940019217084},{"vid":"2151534","name":"Timothy Grimes","party":"","address":"1701 W 1100 N, Provo, UT 84604","precinct":"25PR23","hd":"61","v_score":"12.64191471","decile":"9","lat":40.24896164640011,"lng":-111.68803540393974},{"vid":"2154460","name":"Travon Gusikowski","party":"Rep","address":"1129 N 1880 W, Provo, UT 84604","precinct":"25PR23","hd":"61","v_score":"7.159318653","decile":"8","lat":40.248979235096165,"lng":-111.69436221434192},{"vid":"2166987","name":"Arabella Crooks","party":"","address":"898 N Independence Ave, Provo, UT 84604","precinct":"25PR23","hd":"61","v_score":"26.89878031","decile":"10","lat":40.246258675722025,"lng":-111.69073856517569},{"vid":"a0ada256983f42ef3f3de7988a93986a29d6490984baf50635471ad02a0f3fd3","name":"Mr. Darcy Schaefer","party":"Dem","address":"1901 W 960 N, Provo, UT 84604","precinct":"25PR23","hd":"61","v_score":"11.30609121","decile":"9","lat":40.246303813886925,"lng":-111.69226626979226},{"vid":"d074fb03cf81cf551784fb3e2f1bdc6227956b3d5035f18f4998a95c107e58a1","name":"Mrs. Marybeth Fisher DVM","party":"","address":"1875 W 1380 N, Provo, UT 84604","precinct":"25PR23","hd":"61","v_score":"2.744440783","decile":"5","lat":40.252194744315254,"lng":-111.69076624340194},{"vid":"6174ae8cf18a06eab4e7625eabde91a5375676fae814dc484731db05b154eb01","name":"Dr. Trish Barrows","party":"Rep","address":"1705 W 1400 N, Provo, UT 84604","precinct":"25PR23","hd":"61","v_score":"3.711952487","decile":"6","lat":40.25227799580588,"lng":-111.68822795041135},{"vid":"2180131","name":"Devyn Kling","party":"","address":"1405 N 1750 W, Provo, UT 84604","precinct":"25PR23","hd":"61","v_score":"1.121327652","decile":"3","lat":40.25277498246667,"lng":-111.68905935699148},{"vid":"505dcec2fe325827e2513ca6b1165e0fee252e849cf0f7932e8ae182ee5b4dc7","name":"Reggie Nienow","party":"Rep","address":"2062 W 1100 N, Provo, UT 84604","precinct":"25PR23","hd":"61","v_score":"1.193887297","decile":"3","lat":40.2485671526097,"lng":-111.6942297176884},{"vid":"3e2a97a2a801e3bcf933ae4af055eaf6e8f6a18f6145f111aa2b23f1e5dbde81","name":"Chelsey Gerhold","party":"Dem","address":"1111 N Independence Ave, Provo, UT 84604","precinct":"25PR23","hd":"61","v_score":"0","decile":"1","lat":40.248934416164055,"lng":-111.69381889205783},{"vid":"2191742","name":"Hunt Hickle","party":"Dem","address":"1802 W 1010 N, Provo, UT 84604","precinct":"25PR23","hd":"61","v_score":"1.121327652","decile":"3","lat":40.24772523242858,"lng":-111.69175058040497},{"vid":"120be4b5a853e7e0c54f2b4b6beeb5df9202a8ef99093a257e276c1c21098c70","name":"Mr. Jalon Kirlin DVM","party":"Dem","address":"894 N 1760 W, Provo, UT 84604","precinct":"25PR23","hd":"61","v_score":"2.958579882","decile":"6","lat":40.24668271778028,"lng":-111.68961247738004},{"vid":"2224988","name":"Lucie Gusikowski","party":"Dem","address":"1616 W 1100 N, Provo, UT 84604","precinct":"25PR23","hd":"61","v_score":"16.48582198","decile":"9","lat":40.24939268788691,"lng":-111.68691685377873},{"vid":"5e375a3829ce3698908cddd986c15c31762d276091bbb83aae2b3ae389bdef30","name":"Darren Brakus","party":"","address":"1993 W 1460 N, Provo, UT 84604","precinct":"25PR23","hd":"61","v_score":"1.121327652","decile":"3","lat":40.25321261640159,"lng":-111.69300550163669},{"vid":"a64b3c55da4d6a95dfe4288817841f12ba155bccf0e6e322caecaad11f7265b2","name":"Roe Predovic II","party":"Dem","address":"905 N 1760 W, Provo, UT 84604","precinct":"25PR23","hd":"61","v_score":"6.814370645","decile":"8","lat":40.24649051564649,"lng":-111.69032107512368},{"vid":"f1189bc3d02d57973cc6be19c46f8e3a67f5b70e218b8e966a0b621d2d90e08f","name":"Ms. Leesa Huel","party":"Rep","address":"894 N 1760 W, Provo, UT 84604","precinct":"25PR23","hd":"61","v_score":"2.315214949","decile":"5","lat":40.24668271778028,"lng":-111.68961247738004},{"vid":"2246084","name":"Pheobe Rath DVM","party":"Rep","address":"855 N 1760 W, Provo, UT 84604","precinct":"25PR23","hd":"61","v_score":"2.315214949","decile":"5","lat":40.24591254163476,"lng":-111.68989871404689},{"vid":"4faba6ba70ca67f6df392a06152b18ea14d3f601e45c2baab55bf1066c131ffa","name":"Mabelle DuBuque","party":"","address":"1599 W 1460 N, Provo, UT 84604","precinct":"25PR23","hd":"61","v_score":"21.39966551","decile":"10","lat":40.25320993894074,"lng":-111.68627692526165},{"vid":"d013b7a182ff2a7e60eede68d9564d35c6cf0a1fcfe816f3c9ee0f2855b1edc1","name":"Azul Nikolaus PhD","party":"Rep","address":"1637 W 1050 N, Provo, UT 84604","precinct":"25PR23","hd":"61","v_score":"29.68367038","decile":"10","lat":40.248205006748314,"lng":-111.6875927627874},{"vid":"72427b26611d5ee82f08b8896c84cb9f389c1843fb68e2cf9ac615180e1c96e4","name":"Kenney Mayert","party":"Dem","address":"1585 W 1250 N, Provo, UT 84604","precinct":"25PR23","hd":"61","v_score":"0","decile":"1","lat":40.25069681737827,"lng":-111.68636830799397},{"vid":"1ce838de876d9dc7dd40244b3226b0edbcce6253658c58f921d95c884d1f54fb","name":"Frieda Trantow","party":"","address":"1605 W 950 N, Provo, UT 84604","precinct":"25PR23","hd":"61","v_score":"2.315214949","decile":"5","lat":40.24664251397318,"lng":-111.68687523123835},{"vid":"2262508","name":"Cleva White","party":"Dem","address":"1680 W 1000 N, Provo, UT 84604","precinct":"25PR23","hd":"61","v_score":"2.744440783","decile":"5","lat":40.24825399066607,"lng":-111.68839027433383},{"vid":"976312e9810f3ac16abe3aa11a86907ba5f2aa7460d819290747cdd17aea9f46","name":"Dr. Anderson Blick","party":"Rep","address":"2078 W 1100 N, Provo, UT 84604","precinct":"25PR23","hd":"61","v_score":"3.997370217","decile":"6","lat":40.24845183767716,"lng":-111.69447351578529},{"vid":"2266653","name":"Mr. Jamir Rohan MD","party":"Dem","address":"1055 N 1880 W, Provo, UT 84604","precinct":"25PR23","hd":"61","v_score":"6.52928996","decile":"7","lat":40.247586753921695,"lng":-111.69320499794539},{"vid":"2267584","name":"Dr. Alonza Jakubowski","party":"Rep","address":"1637 W 1050 N, Provo, UT 84604","precinct":"25PR23","hd":"61","v_score":"34.93670199","decile":"10","lat":40.248205006748314,"lng":-111.6875927627874},{"vid":"c3afab35ca88241811883eb92bff09124f3f4b4f5c8b22724c8404bb0a258905","name":"Verdie Okuneva","party":"","address":"1167 N Independence Ave, Provo, UT 84604","precinct":"25PR23","hd":"61","v_score":"2.315214949","decile":"5","lat":40.24961780707166,"lng":-111.69429491831006},{"vid":"329e590b9b904563da01c7e93af606acf0b61fccd4605ce32fcafa6940f604b8","name":"Jenelle Leuschke","party":"","address":"1536 W 1050 N, Provo, UT 84604","precinct":"25PR23","hd":"61","v_score":"2.315214949","decile":"5","lat":40.24867558368969,"lng":-111.68587213005151},{"vid":"2316748","name":"Algernon Koelpin","party":"","address":"1675 W 1000 N, Provo, UT 84604","precinct":"25PR23","hd":"61","v_score":"1.121327652","decile":"3","lat":40.24766478243209,"lng":-111.68818839115949},{"vid":"2318556","name":"Dr. Jaleel Jast","party":"Dem","address":"1797 W 1110 N, Provo, UT 84604","precinct":"25PR23","hd":"61","v_score":"2.315214949","decile":"5","lat":40.24865941979997,"lng":-111.69255232430643},{"vid":"2327201","name":"Miss Jasmine Cruickshank","party":"","address":"2051 W Lakeview Dr, Provo, UT 84604","precinct":"25PR23","hd":"61","v_score":"11.86435558","decile":"9","lat":40.251920708732946,"lng":-111.69432877544976},{"vid":"2331936","name":"Cal Bernhard","party":"","address":"2047 W 1100 N, Provo, UT 84604","precinct":"25PR23","hd":"61","v_score":"0","decile":"1","lat":40.24843974437404,"lng":-111.69387387883468},{"vid":"2340605","name":"Jess Lebsack","party":"Rep","address":"1680 W 1000 N, Provo, UT 84604","precinct":"25PR23","hd":"61","v_score":"0","decile":"1","lat":40.24825399066607,"lng":-111.68839027433383},{"vid":"2342402","name":"Dr. Harvey Fritsch","party":"","address":"903 N 1760 W, Provo, UT 84604","precinct":"25PR23","hd":"61","v_score":"2.315214949","decile":"5","lat":40.24645435137861,"lng":-111.69028151044397},{"vid":"2342406","name":"Arminda Medhurst DDS","party":"Dem","address":"903 N 1760 W, Provo, UT 84604","precinct":"25PR23","hd":"61","v_score":"2.315214949","decile":"5","lat":40.24645435137861,"lng":-111.69028151044397},{"vid":"2350452","name":"Marlene Hoeger","party":"","address":"1425 N 2100 W, Provo, UT 84604","precinct":"25PR23","hd":"61","v_score":"1.121327652","decile":"3","lat":40.25275349720699,"lng":-111.69513011955837},{"vid":"2352741","name":"Ancel Daniel-McCullough","party":"","address":"1906 W 830 N, Provo, UT 84604","precinct":"25PR23","hd":"61","v_score":"0","decile":"1","lat":40.24552586850672,"lng":-111.69158059022747},{"vid":"2374505","name":"Hilario Spinka","party":"","address":"1545 W 1050 N, Provo, UT 84604","precinct":"25PR23","hd":"61","v_score":"1.121327652","decile":"3","lat":40.24825769022697,"lng":-111.68578499232169},{"vid":"2374817","name":"Jalissa Kertzmann","party":"Dem","address":"994 N 1760 W, Provo, UT 84604","precinct":"25PR23","hd":"61","v_score":"18.44108562","decile":"10","lat":40.24788148174631,"lng":-111.69082915919411},{"vid":"2387905","name":"Janiyah Stroman-Kreiger","party":"Rep","address":"1905 W 960 N, Provo, UT 84604","precinct":"25PR23","hd":"61","v_score":"0","decile":"1","lat":40.24627497992281,"lng":-111.69232721635204},{"vid":"2390427","name":"Griselda Fahey DDS","party":"Dem","address":"1046 N 1760 W, Provo, UT 84604","precinct":"25PR23","hd":"61","v_score":"3.93832808","decile":"6","lat":40.248310532252674,"lng":-111.69129845940043},{"vid":"2392168","name":"Ms. Ottie Heathcote MD","party":"","address":"1909 W 960 N, Provo, UT 84604","precinct":"25PR23","hd":"61","v_score":"1.193887297","decile":"3","lat":40.246246173784264,"lng":-111.69238816345079},{"vid":"2409335","name":"Violet Kozey","party":"","address":"883 N 1760 W, Provo, UT 84604","precinct":"25PR23","hd":"61","v_score":"2.315214949","decile":"5","lat":40.2462735969443,"lng":-111.69005662817202},{"vid":"2410585","name":"Mrs. Chimere Steuber MD","party":"Rep","address":"1792 W 1010 N, Provo, UT 84604","precinct":"25PR23","hd":"61","v_score":"1.121327652","decile":"3","lat":40.24783045919104,"lng":-111.69152810454001},{"vid":"2410604","name":"Dr. Kamari Ortiz","party":"","address":"1571 W 1460 N, Provo, UT 84604","precinct":"25PR23","hd":"61","v_score":"3.93832808","decile":"6","lat":40.25319933998249,"lng":-111.68590428339915},{"vid":"2414411","name":"Godfrey Waters III","party":"","address":"1802 W 1010 N, Provo, UT 84604","precinct":"25PR23","hd":"61","v_score":"1.121327652","decile":"3","lat":40.24772523242858,"lng":-111.69175058040497},{"vid":"2419494","name":"Devan Brown-Metz","party":"Rep","address":"1055 N 1880 W, Provo, UT 84604","precinct":"25PR23","hd":"61","v_score":"2.315214949","decile":"5","lat":40.247586753921695,"lng":-111.69320499794539},{"vid":"2422759","name":"Mr. Greyson Rutherford","party":"","address":"1141 N 1880 W, Provo, UT 84604","precinct":"25PR23","hd":"61","v_score":"0","decile":"1","lat":40.24911936971009,"lng":-111.69447511191191},{"vid":"2422951","name":"Chadrick Welch","party":"Dem","address":"1893 W 960 N, Provo, UT 84604","precinct":"25PR23","hd":"61","v_score":"3.781490609","decile":"6","lat":40.246361481366876,"lng":-111.69214433966212},{"vid":"2426276","name":"Tamra Grady","party":"Rep","address":"2074 W 1100 N, Provo, UT 84604","precinct":"25PR23","hd":"61","v_score":"1.121327652","decile":"3","lat":40.24848067277086,"lng":-111.69441256671023},{"vid":"2427058","name":"Ingram Leffler","party":"","address":"2074 W 1100 N, Provo, UT 84604","precinct":"25PR23","hd":"61","v_score":"1.121327652","decile":"3","lat":40.24848067277086,"lng":-111.69441256671023},{"vid":"2445487","name":"Orrie Hamill","party":"","address":"1068 N 1760 W, Provo, UT 84604","precinct":"25PR23","hd":"61","v_score":"1.121327652","decile":"3","lat":40.24855507112018,"lng":-111.69155149343608},{"vid":"2450084","name":"Zachariah Schmeler","party":"Dem","address":"1109 N 1750 W, Provo, UT 84604","precinct":"25PR23","hd":"61","v_score":"1.121327652","decile":"3","lat":40.24988594233682,"lng":-111.68905783883866},{"vid":"2452009","name":"Dewayne Rippin","party":"Dem","address":"2051 W 1100 N, Provo, UT 84604","precinct":"25PR23","hd":"61","v_score":"2.315214949","decile":"5","lat":40.248410908988646,"lng":-111.69393482808943},{"vid":"2453069","name":"Miss Traci Kling PhD","party":"Dem","address":"1616 W 1100 N, Provo, UT 84604","precinct":"25PR23","hd":"61","v_score":"13.54291438","decile":"9","lat":40.24939268788691,"lng":-111.68691685377873},{"vid":"2457946","name":"Damari Lebsack I","party":"","address":"1443 N 1900 W, Provo, UT 84604","precinct":"25PR23","hd":"61","v_score":"3.93832808","decile":"6","lat":40.25330657724463,"lng":-111.69145935512444},{"vid":"2458352","name":"Glennie Thiel","party":"Dem","address":"1297 N 1750 W, Provo, UT 84604","precinct":"25PR23","hd":"61","v_score":"5.191257514","decile":"7","lat":40.251337667225854,"lng":-111.68904398753561},{"vid":"2465427","name":"Mr. Thor Hermiston","party":"Dem","address":"1581 W 1320 N, Provo, UT 84604","precinct":"25PR23","hd":"61","v_score":"0","decile":"1","lat":40.25141675167277,"lng":-111.68531171664449},{"vid":"2470368","name":"Dr. Baylie Senger MD","party":"","address":"1551 W 1100 N, Provo, UT 84604","precinct":"25PR23","hd":"61","v_score":"1.193887297","decile":"3","lat":40.24895410181574,"lng":-111.68600339852836},{"vid":"2471792","name":"Valentine Hoeger","party":"","address":"1101 N Independence Ave, Provo, UT 84604","precinct":"25PR23","hd":"61","v_score":"1.623113131","decile":"5","lat":40.2486286468972,"lng":-111.69359571335102},{"vid":"2471957","name":"Mayra Mills","party":"Rep","address":"1582 W 1000 N, Provo, UT 84604","precinct":"25PR23","hd":"61","v_score":"0","decile":"1","lat":40.24789967286174,"lng":-111.68645484328114},{"vid":"2477965","name":"Gage Robel","party":"","address":"1344 N 1850 W, Provo, UT 84604","precinct":"25PR23","hd":"61","v_score":"0","decile":"1","lat":40.251669651763436,"lng":-111.69017347776673},{"vid":"2478460","name":"Landin Beier","party":"Dem","address":"1581 W 1320 N, Provo, UT 84604","precinct":"25PR23","hd":"61","v_score":"0","decile":"1","lat":40.25141675167277,"lng":-111.68531171664449},{"vid":"2479139","name":"Dr. Johney Klocko MD","party":"Rep","address":"1799 W 1460 N, Provo, UT 84604","precinct":"25PR23","hd":"61","v_score":"0","decile":"1","lat":40.253127829671214,"lng":-111.68950922448228},{"vid":"2483435","name":"Danyell Lindgren","party":"Rep","address":"1241 Grand Ave, Provo, UT 84604","precinct":"25PR23","hd":"61","v_score":"2.817000428","decile":"6","lat":40.249881802931874,"lng":-111.69227882354873},{"vid":"2501464","name":"Zavier Lebsack","party":"","address":"2067 W 1080 N, Provo, UT 84604","precinct":"25PR23","hd":"61","v_score":"2.817000428","decile":"6","lat":40.24768047368869,"lng":-111.69372452745084},{"vid":"2512058","name":"Dr. Storm Pfannerstill","party":"Rep","address":"1536 W 1100 N, Provo, UT 84604","precinct":"25PR23","hd":"61","v_score":"15.1758219","decile":"9","lat":40.249404558875796,"lng":-111.68565834565645},{"vid":"2516856","name":"Nels Olson","party":"Dem","address":"1273 N 1650 W, Provo, UT 84604","precinct":"25PR23","hd":"61","v_score":"0","decile":"1","lat":40.25092425699409,"lng":-111.68781445747179},{"vid":"2528800","name":"Pamella Watsica DVM","party":"Dem","address":"1917 W 960 N, Provo, UT 84604","precinct":"25PR23","hd":"61","v_score":"0","decile":"1","lat":40.24618850510901,"lng":-111.69251005854665},{"vid":"2531830","name":"Jane Morissette","party":"Dem","address":"1875 W 1380 N, Provo, UT 84604","precinct":"25PR23","hd":"61","v_score":"2.817000428","decile":"6","lat":40.252194744315254,"lng":-111.69076624340194},{"vid":"2538088","name":"Shea Hudson","party":"Dem","address":"1630 W 1170 N, Provo, UT 84604","precinct":"25PR23","hd":"61","v_score":"8.284004873","decile":"8","lat":40.25024182425293,"lng":-111.68730980840536},{"vid":"2538175","name":"Dr. Verlin Lowe I","party":"Dem","address":"1875 W 1380 N, Provo, UT 84604","precinct":"25PR23","hd":"61","v_score":"1.193887297","decile":"4","lat":40.252194744315254,"lng":-111.69076624340194},{"vid":"2540116","name":"Twyla Douglas","party":"","address":"2046 W 1100 N, Provo, UT 84604","precinct":"25PR23","hd":"61","v_score":"1.193887297","decile":"4","lat":40.2486752791298,"lng":-111.69400112160145},{"vid":"2544560","name":"Electa Wilderman","party":"Rep","address":"935 Grand Ave, Provo, UT 84604","precinct":"25PR23","hd":"61","v_score":"1.193887297","decile":"4","lat":40.2463180077357,"lng":-111.68806300897278},{"vid":"2545369","name":"Anner Zieme-Lebsack","party":"Dem","address":"958 N 1760 W, Provo, UT 84604","precinct":"25PR23","hd":"61","v_score":"0","decile":"1","lat":40.24742986626964,"lng":-111.69033533605847},{"vid":"2557954","name":"Devin Ferry-Crooks","party":"","address":"1707 W 1320 N, Provo, UT 84604","precinct":"25PR23","hd":"61","v_score":"0","decile":"1","lat":40.25123998256207,"lng":-111.68816191675629},{"vid":"2562537","name":"Jarvis Hills-Satterfield","party":"Dem","address":"1224 N 1650 W, Provo, UT 84604","precinct":"25PR23","hd":"61","v_score":"2.817000428","decile":"6","lat":40.25066725534687,"lng":-111.68724855959772},{"vid":"2575683","name":"Arkie Zemlak","party":"Dem","address":"1605 W 1170 N, Provo, UT 84604","precinct":"25PR23","hd":"61","v_score":"0","decile":"1","lat":40.24990209180977,"lng":-111.68673617263126},{"vid":"2578054","name":"Ellar Bogisich","party":"Rep","address":"1445 N 1500 W, Provo, UT 84604","precinct":"25PR23","hd":"61","v_score":"14.13760315","decile":"9","lat":40.25330340222141,"lng":-111.68544516113678},{"vid":"2578076","name":"Claus Reilly","party":"","address":"1793 W 1060 N, Provo, UT 84604","precinct":"25PR23","hd":"61","v_score":"5.693042993","decile":"7","lat":40.247865594530424,"lng":-111.69234648862847},{"vid":"2590559","name":"Ms. Madison McCullough MD","party":"","address":"1645 W 1000 N, Provo, UT 84604","precinct":"25PR23","hd":"61","v_score":"0","decile":"1","lat":40.24743411647318,"lng":-111.68744990676204},{"vid":"2593872","name":"Johnathon Schmeler","party":"","address":"1141 N 1880 W, Provo, UT 84604","precinct":"25PR23","hd":"61","v_score":"0","decile":"1","lat":40.24911936971009,"lng":-111.69447511191191},{"vid":"2596618","name":"Marlin Aufderhar-Gulgowski","party":"","address":"1536 W 1250 N, Provo, UT 84604","precinct":"25PR23","hd":"61","v_score":"1.193887297","decile":"4","lat":40.25108960915395,"lng":-111.68583031473268},{"vid":"2609532","name":"Cloe Macejkovic","party":"Dem","address":"1510 W 1170 N, Provo, UT 84604","precinct":"25PR23","hd":"61","v_score":"7.781882349","decile":"8","lat":40.25024285222373,"lng":-111.6853200713397},{"vid":"2610520","name":"Zaria Brakus","party":"Rep","address":"1794 W 1010 N, Provo, UT 84604","precinct":"25PR23","hd":"61","v_score":"18.35167816","decile":"10","lat":40.24780305956233,"lng":-111.69158600886524},{"vid":"2611205","name":"Israel Bayer","party":"Dem","address":"1280 N 1750 W, Provo, UT 84604","precinct":"25PR23","hd":"61","v_score":"1.193887297","decile":"4","lat":40.25114144683467,"lng":-111.68855650306665},{"vid":"2615309","name":"Maryann Zboncak","party":"","address":"1663 W 1100 N, Provo, UT 84604","precinct":"25PR23","hd":"61","v_score":"0","decile":"1","lat":40.24893768087972,"lng":-111.68777435973736},{"vid":"2619085","name":"Birtha Jakubowski","party":"","address":"1581 W 1320 N, Provo, UT 84604","precinct":"25PR23","hd":"61","v_score":"18.88777439","decile":"10","lat":40.25141675167277,"lng":-111.68531171664449},{"vid":"2622496","name":"Terrell Daugherty","party":"Rep","address":"1445 N 1500 W, Provo, UT 84604","precinct":"25PR23","hd":"61","v_score":"14.13760315","decile":"9","lat":40.25330340222141,"lng":-111.68544516113678},{"vid":"2623047","name":"Kirby Pouros V","party":"Rep","address":"1081 N Independence Ave, Provo, UT 84604","precinct":"25PR23","hd":"61","v_score":"4.499155696","decile":"7","lat":40.24825497093997,"lng":-111.69329469598415},{"vid":"2631024","name":"Gannon Wisozk MD","party":"","address":"1116 N 1760 W, Provo, UT 84604","precinct":"25PR23","hd":"61","v_score":"13.61907049","decile":"9","lat":40.24923138305975,"lng":-111.69306888380619},{"vid":"2631304","name":"Lindbergh Hills","party":"","address":"901 N 1760 W, Provo, UT 84604","precinct":"25PR23","hd":"61","v_score":"5.693042993","decile":"7","lat":40.24641690641629,"lng":-111.69024053954148},{"vid":"2631307","name":"Bennett Ruecker DDS","party":"Dem","address":"901 N 1760 W, Provo, UT 84604","precinct":"25PR23","hd":"61","v_score":"5.693042993","decile":"7","lat":40.24641690641629,"lng":-111.69024053954148},{"vid":"2635693","name":"Rigoberto Rodriguez","party":"Dem","address":"1778 W 1060 N, Provo, UT 84604","precinct":"25PR23","hd":"61","v_score":"0","decile":"1","lat":40.24836698962834,"lng":-111.69226232154686},{"vid":"2639008","name":"Mr. Henry Turcotte PhD","party":"","address":"1786 W 1060 N, Provo, UT 84604","precinct":"25PR23","hd":"61","v_score":"5.693042993","decile":"7","lat":40.24829334886523,"lng":-111.69243054147431},{"vid":"2644102","name":"Miss Margot Murray MD","party":"","address":"901 N 1760 W, Provo, UT 84604","precinct":"25PR23","hd":"61","v_score":"5.693042993","decile":"7","lat":40.24641690641629,"lng":-111.69024053954148},{"vid":"2647748","name":"Kathryne Mitchell-Parisian","party":"","address":"1898 W 1020 N, Provo, UT 84604","precinct":"25PR23","hd":"61","v_score":"4.069929862","decile":"6","lat":40.247359792176155,"lng":-111.69317197695352},{"vid":"2659752","name":"Ethelbert Johns DDS","party":"","address":"1885 W 1020 N, Provo, UT 84604","precinct":"25PR23","hd":"61","v_score":"0","decile":"1","lat":40.24715050537568,"lng":-111.69273266358934},{"vid":"2661546","name":"Leana Morar","party":"Dem","address":"1443 N 1900 W, Provo, UT 84604","precinct":"25PR23","hd":"61","v_score":"1.193887297","decile":"4","lat":40.25330657724463,"lng":-111.69145935512444},{"vid":"2663371","name":"Shawn Smitham DDS","party":"Dem","address":"1892 W 960 N, Provo, UT 84604","precinct":"25PR23","hd":"61","v_score":"0","decile":"1","lat":40.246663470151454,"lng":-111.69237866197004},{"vid":"2668550","name":"Sanders Ziemann","party":"Dem","address":"1444 N Timpanogos Dr, Provo, UT 84604","precinct":"25PR23","hd":"61","v_score":"1.193887297","decile":"4","lat":40.2532822338617,"lng":-111.69216969734283},{"vid":"2675161","name":"Marshall Tremblay","party":"Rep","address":"1905 W 960 N, Provo, UT 84604","precinct":"25PR23","hd":"61","v_score":"1.193887297","decile":"4","lat":40.24627497992281,"lng":-111.69232721635204},{"vid":"2684765","name":"Konner Conn Jr.","party":"","address":"907 N 1760 W, Provo, UT 84604","precinct":"25PR23","hd":"61","v_score":"5.926494964","decile":"7","lat":40.246527960979506,"lng":-111.69036201117152},{"vid":"2688439","name":"Janae Purdy-O'Connell","party":"","address":"1155 N Independence Ave, Provo, UT 84604","precinct":"25PR23","hd":"61","v_score":"0","decile":"2","lat":40.249467669618,"lng":-111.69420670536611},{"vid":"2689056","name":"Gray Kutch","party":"Rep","address":"1778 W 1060 N, Provo, UT 84604","precinct":"25PR23","hd":"61","v_score":"0","decile":"2","lat":40.24836698962834,"lng":-111.69226232154686},{"vid":"2696438","name":"Annis Feil","party":"Dem","address":"1270 N 1750 W, Provo, UT 84604","precinct":"25PR23","hd":"61","v_score":"1.193887297","decile":"4","lat":40.25101708956525,"lng":-111.68838619288354},{"vid":"2699167","name":"Cal Aufderhar","party":"Rep","address":"966 N 1760 W, Provo, UT 84604","precinct":"25PR23","hd":"61","v_score":"0","decile":"2","lat":40.247544484816245,"lng":-111.69046072039055},{"vid":"2701156","name":"Mrs. Epsie Wunsch","party":"","address":"1581 W 1320 N, Provo, UT 84604","precinct":"25PR23","hd":"61","v_score":"11.99595736","decile":"9","lat":40.25141675167277,"lng":-111.68531171664449},{"vid":"2701595","name":"Mr. Yahir Schowalter DVM","party":"Dem","address":"1581 W 1320 N, Provo, UT 84604","precinct":"25PR23","hd":"61","v_score":"8.284004873","decile":"8","lat":40.25141675167277,"lng":-111.68531171664449},{"vid":"2706021","name":"Dr. Stephanie Barton","party":"","address":"1899 W 890 N, Provo, UT 84604","precinct":"25PR23","hd":"61","v_score":"0","decile":"2","lat":40.24577406188779,"lng":-111.69182460517763},{"vid":"2711126","name":"Lindsey McClure IV","party":"Rep","address":"1518 W 1100 N, Provo, UT 84604","precinct":"25PR23","hd":"61","v_score":"0","decile":"2","lat":40.24932311119615,"lng":-111.68532362097302},{"vid":"2712062","name":"Modena Botsford-Marvin","party":"","address":"1118 N 1760 W, Provo, UT 84604","precinct":"25PR23","hd":"61","v_score":"0","decile":"2","lat":40.249143290457425,"lng":-111.69318800307785},{"vid":"2713451","name":"Wade Powlowski","party":"","address":"2074 W 1080 N, Provo, UT 84604","precinct":"25PR23","hd":"61","v_score":"1.193887297","decile":"4","lat":40.24795255483174,"lng":-111.69402257085514},{"vid":"2719142","name":"Glenwood Williamson-Donnelly","party":"Dem","address":"1787 W 1060 N, Provo, UT 84604","precinct":"25PR23","hd":"61","v_score":"1.193887297","decile":"4","lat":40.24794238809977,"lng":-111.69218610611259},{"vid":"2724338","name":"Shay Grimes","party":"","address":"909 N 1760 W, Provo, UT 84604","precinct":"25PR23","hd":"61","v_score":"0","decile":"2","lat":40.246564124933755,"lng":-111.69040161160419},{"vid":"2726703","name":"Ms. Elliana Hane","party":"","address":"1605 W 950 N, Provo, UT 84604","precinct":"25PR23","hd":"61","v_score":"28.76262624","decile":"10","lat":40.24664251397318,"lng":-111.68687523123835},{"vid":"2730841","name":"Esmeralda Littel","party":"","address":"1902 W 1020 N, Provo, UT 84604","precinct":"25PR23","hd":"61","v_score":"1.193887297","decile":"4","lat":40.247330957839075,"lng":-111.69323292530993},{"vid":"2735435","name":"Mr. Theophile Cormier","party":"","address":"1589 W 1050 N, Provo, UT 84604","precinct":"25PR23","hd":"61","v_score":"0","decile":"2","lat":40.24821301723553,"lng":-111.68679052986874},{"vid":"2738714","name":"Helmer Casper","party":"Rep","address":"1875 W 1380 N, Provo, UT 84604","precinct":"25PR23","hd":"61","v_score":"0","decile":"2","lat":40.252194744315254,"lng":-111.69076624340194},{"vid":"2750579","name":"Ms. Lyndsay Kuvalis","party":"Dem","address":"2071 W 1100 N, Provo, UT 84604","precinct":"25PR23","hd":"61","v_score":"1.193887297","decile":"4","lat":40.24827829891346,"lng":-111.69421521798144},{"vid":"2761582","name":"Jewel Goldner","party":"Rep","address":"1888 W 890 N, Provo, UT 84604","precinct":"25PR23","hd":"61","v_score":"0","decile":"2","lat":40.246136254764444,"lng":-111.69193399662304},{"vid":"2765207","name":"Dasia Price","party":"Rep","address":"1797 W 1110 N, Provo, UT 84604","precinct":"25PR23","hd":"61","v_score":"1.193887297","decile":"4","lat":40.24865941979997,"lng":-111.69255232430643},{"vid":"2765984","name":"Lena Gutkowski-Grady","party":"Rep","address":"1411 N 1900 W, Provo, UT 84604","precinct":"25PR23","hd":"61","v_score":"1.193887297","decile":"4","lat":40.25269952711063,"lng":-111.69159878542388},{"vid":"2768210","name":"Author Shields-Stracke","party":"Rep","address":"1787 W 1060 N, Provo, UT 84604","precinct":"25PR23","hd":"61","v_score":"1.193887297","decile":"4","lat":40.24794238809977,"lng":-111.69218610611259},{"vid":"2775949","name":"Mrs. Vella Leuschke","party":"Rep","address":"1134 N 1750 W, Provo, UT 84604","precinct":"25PR23","hd":"61","v_score":"1.193887297","decile":"4","lat":40.25046847181428,"lng":-111.68842797609403},{"vid":"2777434","name":"Miss Harriett Kozey DDS","party":"","address":"1137 N 1650 W, Provo, UT 84604","precinct":"25PR23","hd":"61","v_score":"0","decile":"2","lat":40.24963103474006,"lng":-111.68778263232282},{"vid":"2785172","name":"Ms. Tiarra Okuneva","party":"Dem","address":"1659 W 1000 N, Provo, UT 84604","precinct":"25PR23","hd":"61","v_score":"4.069929862","decile":"7","lat":40.24754478069768,"lng":-111.68784599572061},{"vid":"2788117","name":"Michale Schuster","party":"Dem","address":"958 N 1760 W, Provo, UT 84604","precinct":"25PR23","hd":"61","v_score":"1.193887297","decile":"4","lat":40.24742986626964,"lng":-111.69033533605847},{"vid":"2788122","name":"Archibald Kris","party":"Dem","address":"958 N 1760 W, Provo, UT 84604","precinct":"25PR23","hd":"61","v_score":"1.193887297","decile":"4","lat":40.24742986626964,"lng":-111.69033533605847},{"vid":"2800638","name":"Denisse Medhurst-Auer","party":"Dem","address":"1905 W 960 N, Provo, UT 84604","precinct":"25PR23","hd":"61","v_score":"5.407962308","decile":"7","lat":40.24627497992281,"lng":-111.69232721635204},{"vid":"2801013","name":"Benedict McLaughlin I","party":"Rep","address":"2074 W 1100 N, Provo, UT 84604","precinct":"25PR23","hd":"61","v_score":"5.407962308","decile":"7","lat":40.24848067277086,"lng":-111.69441256671023},{"vid":"2802983","name":"Bernard Deckow III","party":"","address":"958 N 1760 W, Provo, UT 84604","precinct":"25PR23","hd":"61","v_score":"1.193887297","decile":"4","lat":40.24742986626964,"lng":-111.69033533605847},{"vid":"2806196","name":"Kenisha Nienow","party":"","address":"1605 W 1170 N, Provo, UT 84604","precinct":"25PR23","hd":"61","v_score":"1.193887297","decile":"4","lat":40.24990209180977,"lng":-111.68673617263126},{"vid":"2817942","name":"Ms. Aaliyah Schroeder DDS","party":"Dem","address":"1280 N 1750 W, Provo, UT 84604","precinct":"25PR23","hd":"61","v_score":"1.193887297","decile":"4","lat":40.25114144683467,"lng":-111.68855650306665},{"vid":"2819123","name":"Dr. Perri Johnston","party":"","address":"1137 N 1650 W, Provo, UT 84604","precinct":"25PR23","hd":"61","v_score":"5.407962308","decile":"7","lat":40.24963103474006,"lng":-111.68778263232282},{"vid":"2822020","name":"Florrie Lueilwitz","party":"Dem","address":"1109 N 1750 W, Provo, UT 84604","precinct":"25PR23","hd":"61","v_score":"1.193887297","decile":"4","lat":40.24988594233682,"lng":-111.68905783883866},{"vid":"2822708","name":"Mr. Alfie Anderson","party":"Rep","address":"1128 N Independence Ave, Provo, UT 84604","precinct":"25PR23","hd":"61","v_score":"1.193887297","decile":"4","lat":40.24939909162087,"lng":-111.69342507746448},{"vid":"2829536","name":"Mr. Mikal Zboncak PhD","party":"Rep","address":"2071 W 1100 N, Provo, UT 84604","precinct":"25PR23","hd":"61","v_score":"0","decile":"2","lat":40.24827829891346,"lng":-111.69421521798144},{"vid":"2841775","name":"Dr. Luana Howell MD","party":"Rep","address":"1076 N 1760 W, Provo, UT 84604","precinct":"25PR23","hd":"61","v_score":"1.193887297","decile":"4","lat":40.2486728673337,"lng":-111.69168032837683},{"vid":"2842282","name":"Alisa Grimes","party":"","address":"1783 W 1060 N, Provo, UT 84604","precinct":"25PR23","hd":"61","v_score":"5.407962308","decile":"7","lat":40.24801013890409,"lng":-111.69203396815472},{"vid":"2844611","name":"Mr. Richard Christiansen II","party":"Rep","address":"1086 N 1750 W, Provo, UT 84604","precinct":"25PR23","hd":"61","v_score":"1.193887297","decile":"4","lat":40.2485564996094,"lng":-111.68849799088837},{"vid":"2859745","name":"Floy Ledner","party":"","address":"1411 N 1900 W, Provo, UT 84604","precinct":"25PR23","hd":"61","v_score":"4.069929862","decile":"7","lat":40.25269952711063,"lng":-111.69159878542388},{"vid":"2875544","name":"Dr. Jazmyn West","party":"Dem","address":"1913 W 960 N, Provo, UT 84604","precinct":"25PR23","hd":"61","v_score":"1.193887297","decile":"4","lat":40.24621733924709,"lng":-111.69244911072923},{"vid":"2878420","name":"Pearline Grady-Glover","party":"","address":"1797 W 1110 N, Provo, UT 84604","precinct":"25PR23","hd":"61","v_score":"1.193887297","decile":"4","lat":40.24865941979997,"lng":-111.69255232430643},{"vid":"2881054","name":"Shanda Botsford PhD","party":"","address":"1133 N 1880 W, Provo, UT 84604","precinct":"25PR23","hd":"61","v_score":"1.193887297","decile":"4","lat":40.249025937570295,"lng":-111.69439984710478},{"vid":"2881102","name":"Robin Berge","party":"Dem","address":"1588 W 1250 N, Provo, UT 84604","precinct":"25PR23","hd":"61","v_score":"1.193887297","decile":"4","lat":40.250949477263426,"lng":-111.68653803255124},{"vid":"2883401","name":"Dr. Hollie Douglas III","party":"","address":"1584 W 1170 N, Provo, UT 84604","precinct":"25PR23","hd":"61","v_score":"7.090117576","decile":"8","lat":40.25028599251987,"lng":-111.68644799919666},{"vid":"2886236","name":"Gertie Rice","party":"","address":"1375 N 1750 W, Provo, UT 84604","precinct":"25PR23","hd":"61","v_score":"1.193887297","decile":"4","lat":40.25219138499874,"lng":-111.68917376193448},{"vid":"2889435","name":"Derick Hamill","party":"Rep","address":"1899 W 890 N, Provo, UT 84604","precinct":"25PR23","hd":"61","v_score":"1.193887297","decile":"4","lat":40.24577406188779,"lng":-111.69182460517763},{"vid":"2889724","name":"Mr. Wood Lueilwitz","party":"Dem","address":"1675 W 1000 N, Provo, UT 84604","precinct":"25PR23","hd":"61","v_score":"1.193887297","decile":"4","lat":40.24766478243209,"lng":-111.68818839115949},{"vid":"2890898","name":"Courtney Hyatt","party":"","address":"1788 W 820 N, Provo, UT 84601","precinct":"25PR23","hd":"61","v_score":"0","decile":"2","lat":40.24558216202196,"lng":-111.69002730805946},{"vid":"2892414","name":"Tilden Schiller","party":"Dem","address":"1533 W 1100 N, Provo, UT 84604","precinct":"25PR23","hd":"61","v_score":"0","decile":"2","lat":40.24895760513105,"lng":-111.68569900726897},{"vid":"2896261","name":"Lauretta Wyman MD","party":"Rep","address":"1796 W 1010 N, Provo, UT 84604","precinct":"25PR23","hd":"61","v_score":"7.090117576","decile":"8","lat":40.24777025616391,"lng":-111.69163149745518},{"vid":"2906502","name":"Adison Runolfsson","party":"Rep","address":"1913 W 960 N, Provo, UT 84604","precinct":"25PR23","hd":"61","v_score":"0","decile":"2","lat":40.24621733924709,"lng":-111.69244911072923},{"vid":"2908175","name":"Burrel Collier","party":"Dem","address":"1536 W 1250 N, Provo, UT 84604","precinct":"25PR23","hd":"61","v_score":"0","decile":"2","lat":40.25108960915395,"lng":-111.68583031473268},{"vid":"2910104","name":"Mrs. Vicie Lakin","party":"Dem","address":"1918 W 1020 N, Provo, UT 84604","precinct":"25PR23","hd":"61","v_score":"0","decile":"2","lat":40.247222835068015,"lng":-111.69346151439005},{"vid":"2918068","name":"Evelyne Schaefer MD","party":"","address":"1401 N 1750 W, Provo, UT 84604","precinct":"25PR23","hd":"61","v_score":"2.876042565","decile":"6","lat":40.25232393579841,"lng":-111.68930977192154},{"vid":"2919649","name":"Talan Hills","party":"Dem","address":"1109 N 1750 W, Provo, UT 84604","precinct":"25PR23","hd":"61","v_score":"0","decile":"2","lat":40.24988594233682,"lng":-111.68905783883866},{"vid":"2926811","name":"Lockie Kshlerin-Harber","party":"Rep","address":"1913 W 960 N, Provo, UT 84604","precinct":"25PR23","hd":"61","v_score":"0","decile":"2","lat":40.24621733924709,"lng":-111.69244911072923},{"vid":"2928114","name":"Rita Hegmann MD","party":"Rep","address":"1063 N 1880 W, Provo, UT 84604","precinct":"25PR23","hd":"61","v_score":"0","decile":"2","lat":40.24768018420857,"lng":-111.6932802593389},{"vid":"2963302","name":"Isis Abshire","party":"","address":"1913 W 960 N, Provo, UT 84604","precinct":"25PR23","hd":"61","v_score":"0","decile":"2","lat":40.24621733924709,"lng":-111.69244911072923},{"vid":"2976956","name":"Clarke Beatty","party":"Dem","address":"1416 N 2100 W, Provo, UT 84604","precinct":"25PR23","hd":"61","v_score":"0","decile":"2","lat":40.25270137643741,"lng":-111.69451338894649},{"vid":"2984743","name":"Ab Ryan","party":"Dem","address":"1778 W 1060 N, Provo, UT 84604","precinct":"25PR23","hd":"61","v_score":"0","decile":"2","lat":40.24836698962834,"lng":-111.69226232154686},{"vid":"3034162","name":"Georgie Bauch","party":"Dem","address":"1685 W 1320 N, Provo, UT 84604","precinct":"25PR23","hd":"61","v_score":"34.62894986","decile":"10","lat":40.251365060624416,"lng":-111.68779538546536},{"vid":"3083812","name":"Douglas Gleason","party":"Dem","address":"1818 W 1010 N, Provo, UT 84604","precinct":"25PR23","hd":"61","v_score":"0","decile":"2","lat":40.24757266550273,"lng":-111.69207631581519},{"vid":"3151687","name":"Armando Bahringer PhD","party":"Dem","address":"1011 N Independence Ave, Provo, UT 84604","precinct":"25PR23","hd":"61","v_score":"4.833280139","decile":"7","lat":40.247221290569385,"lng":-111.69243125904858},{"vid":"97116608ee3fdf514c28225f7a595b802ce1e6a03de221cea38de4021757bce1","name":"Geo Grimes-Luettgen","party":"Dem","address":"2071 W 1080 N, Provo, UT 84604","precinct":"25PR23","hd":"61","v_score":"2.587603312","decile":"5","lat":40.247651638665474,"lng":-111.69378547706489},{"vid":"3300768","name":"Carla Shanahan","party":"","address":"1783 W 1060 N, Provo, UT 84604","precinct":"25PR23","hd":"61","v_score":"23.14124903","decile":"10","lat":40.24801013890409,"lng":-111.69203396815472},{"vid":"3319896","name":"Dr. Daniel Jacobson","party":"Dem","address":"1720 W 1320 N, Provo, UT 84604","precinct":"25PR23","hd":"61","v_score":"4.210716443","decile":"7","lat":40.25189630095549,"lng":-111.68835252133177},{"vid":"4110061","name":"Miss Ginger Carroll DVM","party":"","address":"1602 W 900 N, Provo, UT 84604","precinct":"25PR23","hd":"61","v_score":"8.347511332","decile":"8","lat":40.24638606733341,"lng":-111.6866765253947},{"vid":"4110062","name":"Dr. Bartley Prohaska MD","party":"Dem","address":"1602 W 900 N, Provo, UT 84604","precinct":"25PR23","hd":"61","v_score":"5.40460374","decile":"7","lat":40.24638606733341,"lng":-111.6866765253947},{"vid":"5341790499d33fac0ba1b170eaaddb0d4da95af9b15e0a08d0532aa9c0fa7495","name":"Jacque Grimes","party":"Rep","address":"1401 N 1750 W, Provo, UT 84604","precinct":"25PR23","hd":"61","v_score":"23.79624865","decile":"10","lat":40.25232393579841,"lng":-111.68930977192154},{"vid":"5525398","name":"Mrs. Clemma Hodkiewicz","party":"Dem","address":"1642 W 1400 N, Provo, UT 84604","precinct":"25PR23","hd":"61","v_score":"26.9144526","decile":"10","lat":40.252849046941535,"lng":-111.68722390123666},{"vid":"5856372","name":"Preston Ritchie","party":"Dem","address":"1904 W 960 N, Provo, UT 84604","precinct":"25PR23","hd":"61","v_score":"4.137918904","decile":"7","lat":40.246605802106,"lng":-111.69250055652691},{"vid":"6063698","name":"Ms. Khalilah Labadie DDS","party":"Rep","address":"1677 W 1460 N, Provo, UT 84604","precinct":"25PR23","hd":"61","v_score":"0","decile":"3","lat":40.25325621619466,"lng":-111.68749587337547},{"vid":"6090316","name":"Annabella Wolf MD","party":"Rep","address":"1574 W 1050 N, Provo, UT 84604","precinct":"25PR23","hd":"61","v_score":"22.20326336","decile":"10","lat":40.24866900664969,"lng":-111.68653105078027},{"vid":"6153538","name":"Dr. Garnet Gutmann","party":"Rep","address":"1442 Grand Ave, Provo, UT 84604","precinct":"25PR23","hd":"61","v_score":"3.781490609","decile":"6","lat":40.253309836598724,"lng":-111.69338693094784},{"vid":"6165384","name":"Lee Hagenes PhD","party":"Dem","address":"2067 W 1080 N, Provo, UT 84604","precinct":"25PR23","hd":"61","v_score":"2.315214949","decile":"5","lat":40.24768047368869,"lng":-111.69372452745084},{"vid":"6169372","name":"Lyndsey Price","party":"Dem","address":"885 N 1760 W, Provo, UT 84604","precinct":"25PR23","hd":"61","v_score":"0","decile":"3","lat":40.24630976144586,"lng":-111.69009622752671},{"vid":"6184088","name":"Dwaine Hammes","party":"Dem","address":"1408 N 1750 W, Provo, UT 84604","precinct":"25PR23","hd":"61","v_score":"21.68022572","decile":"10","lat":40.252770113163116,"lng":-111.68869596725882},{"vid":"6187490","name":"Aloys Schaefer","party":"","address":"1031 N 1750 W, Provo, UT 84604","precinct":"25PR23","hd":"61","v_score":"4.069929862","decile":"7","lat":40.24783787276544,"lng":-111.68924682836757},{"vid":"6204546","name":"Fallon Eichmann","party":"","address":"1932 W Teton Dr, Provo, UT 84604","precinct":"25PR23","hd":"61","v_score":"26.41733837","decile":"10","lat":40.25167532247435,"lng":-111.69212059903272},{"vid":"6208419","name":"Stormy Auer","party":"Dem","address":"1106 N 1750 W, Provo, UT 84604","precinct":"25PR23","hd":"61","v_score":"15.4533012","decile":"9","lat":40.24983058677074,"lng":-111.68832241937692},{"vid":"3468051ba771a047b19807bde3ede91bdd8f6c61b2f356212c762ef950b03165","name":"Cristopher Stiedemann","party":"","address":"2059 W 1080 N, Provo, UT 84604","precinct":"25PR23","hd":"61","v_score":"0","decile":"3","lat":40.24773811778083,"lng":-111.69360262876177},{"vid":"6209876","name":"Mrs. Sharla Mueller","party":"Dem","address":"947 N 1760 W, Provo, UT 84604","precinct":"25PR23","hd":"61","v_score":"6.52928996","decile":"7","lat":40.24697361810659,"lng":-111.6908371806106},{"vid":"420ba215f0692cbed54d349ff243c6faa73cd83c6ac39d74f76be9f2edc9f2fb","name":"Elaine Zemlak-Paucek","party":"","address":"1241 N Wasatch Dr, Provo, UT 84604","precinct":"25PR23","hd":"61","v_score":"14.35128642","decile":"9","lat":40.25058747632086,"lng":-111.69020161679786},{"vid":"6213763","name":"Yajaira Funk","party":"","address":"1241 N Wasatch Dr, Provo, UT 84604","precinct":"25PR23","hd":"61","v_score":"1.193887297","decile":"4","lat":40.25058747632086,"lng":-111.69020161679786},{"vid":"6217500","name":"Amma Gibson","party":"Rep","address":"1405 N 1750 W, Provo, UT 84604","precinct":"25PR23","hd":"61","v_score":"13.97135325","decile":"9","lat":40.25277498246667,"lng":-111.68905935699148},{"vid":"5140b270bd0305bddeb2e34ec9705dc1eff12e1c45a1a497b5468bddd33eb924","name":"Ms. Lailah Treutel","party":"Dem","address":"1524 W 1400 N, Provo, UT 84604","precinct":"25PR23","hd":"61","v_score":"12.63270431","decile":"9","lat":40.252762820523486,"lng":-111.68535636160142},{"vid":"6226050","name":"Charlottie Turcotte","party":"","address":"1003 N Grand Ave, Provo, UT 84604","precinct":"25PR23","hd":"61","v_score":"11.71726967","decile":"9","lat":40.24754258022247,"lng":-111.68958958004211},{"vid":"6234562","name":"Cristin Stiedemann","party":"Dem","address":"1086 N 1750 W, Provo, UT 84604","precinct":"25PR23","hd":"61","v_score":"2.315214949","decile":"5","lat":40.2485564996094,"lng":-111.68849799088837},{"vid":"6236627","name":"Fairy Reynolds","party":"","address":"1584 W 1170 N, Provo, UT 84604","precinct":"25PR23","hd":"61","v_score":"12.49472132","decile":"9","lat":40.25028599251987,"lng":-111.68644799919666},{"vid":"6252982","name":"Margueritte Haley-Williamson","party":"","address":"1425 N 2100 W, Provo, UT 84604","precinct":"25PR23","hd":"61","v_score":"27.81773661","decile":"10","lat":40.25275349720699,"lng":-111.69513011955837},{"vid":"6253770","name":"Mrs. Carlotta Boyer","party":"","address":"1425 N 2100 W, Provo, UT 84604","precinct":"25PR23","hd":"61","v_score":"27.81773661","decile":"10","lat":40.25275349720699,"lng":-111.69513011955837},{"vid":"6255793","name":"Delora Nader MD","party":"Dem","address":"1427 N 1900 W, Provo, UT 84604","precinct":"25PR23","hd":"61","v_score":"3.781490609","decile":"6","lat":40.252979411244716,"lng":-111.69161196586506},{"vid":"6257510","name":"Cheryl Walter-Nikolaus","party":"Rep","address":"954 N Grand Ave, Provo, UT 84604","precinct":"25PR23","hd":"61","v_score":"10.8238813","decile":"9","lat":40.2470779291398,"lng":-111.68829229891129},{"vid":"6259093","name":"Mariela Bednar","party":"Rep","address":"1120 N 1750 W, Provo, UT 84604","precinct":"25PR23","hd":"61","v_score":"11.23922619","decile":"9","lat":40.25007636084903,"lng":-111.68846633086287},{"vid":"6262780","name":"Dr. Knox Howell","party":"","address":"1707 W 1320 N, Provo, UT 84604","precinct":"25PR23","hd":"61","v_score":"3.781490609","decile":"6","lat":40.25123998256207,"lng":-111.68816191675629},{"vid":"a2c29eeda48dad01c42af4e6b2904051d128609536408917f0ada59b757e8818","name":"Ralph Crooks","party":"","address":"1412 N Timpanogos Dr, Provo, UT 84604","precinct":"25PR23","hd":"61","v_score":"38.40546931","decile":"10","lat":40.25269577525474,"lng":-111.69206986645045},{"vid":"acc7acc893a5a45ad98400d0394402a72c03be56bb752e27e069769bc8186014","name":"Duke Lowe","party":"Rep","address":"1665 W 1400 N, Provo, UT 84604","precinct":"25PR23","hd":"61","v_score":"13.83018807","decile":"9","lat":40.252300302944626,"lng":-111.68751788856778},{"vid":"6276177","name":"Lula Osinski","party":"Rep","address":"1875 W 1380 N, Provo, UT 84604","precinct":"25PR23","hd":"61","v_score":"19.62754354","decile":"10","lat":40.252194744315254,"lng":-111.69076624340194},{"vid":"6283782","name":"Consuelo Robel","party":"Dem","address":"1665 W 1400 N, Provo, UT 84604","precinct":"25PR23","hd":"61","v_score":"30.14623239","decile":"10","lat":40.252300302944626,"lng":-111.68751788856778},{"vid":"6294197","name":"Tamisha Jaskolski PhD","party":"Dem","address":"1441 N 2100 W, Provo, UT 84604","precinct":"25PR23","hd":"61","v_score":"25.39193414","decile":"10","lat":40.25311623721253,"lng":-111.69524465955377},{"vid":"6301827","name":"Mr. Zachery Ledner","party":"Rep","address":"1121 N 1650 W, Provo, UT 84604","precinct":"25PR23","hd":"61","v_score":"6.74007049","decile":"8","lat":40.249299926762966,"lng":-111.687648503468},{"vid":"33343303a6439d158b58c9e11b1099e814150d958055fd9e53347a93c9efa8e0","name":"Yee Fahey","party":"","address":"963 N 1760 W, Provo, UT 84604","precinct":"25PR23","hd":"61","v_score":"40.69851911","decile":"10","lat":40.247115161500965,"lng":-111.69099201171768},{"vid":"6310354","name":"Bernie Christiansen-Anderson","party":"","address":"1799 W 1460 N, Provo, UT 84604","precinct":"25PR23","hd":"61","v_score":"5.40460374","decile":"7","lat":40.253127829671214,"lng":-111.68950922448228},{"vid":"5887604124308f27132bb70637e5b8a743a7ab80f5635e4a534d1fa322f05381","name":"Kolten Weber IV","party":"","address":"1717 W 1460 N, Provo, UT 84604","precinct":"25PR23","hd":"61","v_score":"1.623113131","decile":"5","lat":40.25322801716984,"lng":-111.68837273958553},{"vid":"6320385","name":"Kesha Gulgowski","party":"","address":"1086 N 1750 W, Provo, UT 84604","precinct":"25PR23","hd":"61","v_score":"13.6254517","decile":"9","lat":40.2485564996094,"lng":-111.68849799088837},{"vid":"6323220","name":"Irving Mayert","party":"Rep","address":"1637 W 1050 N, Provo, UT 84604","precinct":"25PR23","hd":"61","v_score":"43.51438145","decile":"10","lat":40.248205006748314,"lng":-111.6875927627874},{"vid":"6323442","name":"Dr. Iola Walker","party":"Rep","address":"1952 W 820 N, Provo, UT 84601","precinct":"25PR23","hd":"61","v_score":"10.87160818","decile":"9","lat":40.246723009047514,"lng":-111.6940019217084},{"vid":"6323501","name":"Furman Flatley","party":"Rep","address":"1728 W 1100 N, Provo, UT 84604","precinct":"25PR23","hd":"61","v_score":"0","decile":"3","lat":40.24923383289853,"lng":-111.68849695319307},{"vid":"6334848","name":"Donie Buckridge","party":"Rep","address":"1304 N Lakeview Dr, Provo, UT 84604","precinct":"25PR23","hd":"61","v_score":"30.83432786","decile":"10","lat":40.25119373233656,"lng":-111.69388001522641},{"vid":"6337440","name":"Carmen Moore","party":"Dem","address":"1252 N Uinta Dr, Provo, UT 84604","precinct":"25PR23","hd":"61","v_score":"10.89289441","decile":"9","lat":40.25073654643754,"lng":-111.69164639215076},{"vid":"6338835","name":"Theola Streich","party":"","address":"1348 N Grand Ave, Provo, UT 84604","precinct":"25PR23","hd":"61","v_score":"38.24567755","decile":"10","lat":40.252012469551296,"lng":-111.69324682828194},{"vid":"6343372","name":"Dr. Melissa Swaniawski DVM","party":"Dem","address":"1556 W 1050 N, Provo, UT 84604","precinct":"25PR23","hd":"61","v_score":"22.64413479","decile":"10","lat":40.248672210493616,"lng":-111.68620875286332},{"vid":"6344107","name":"Ms. Maye Rempel","party":"","address":"1697 W 1460 N, Provo, UT 84604","precinct":"25PR23","hd":"61","v_score":"35.30276996","decile":"10","lat":40.25326844154372,"lng":-111.68782887615632},{"vid":"6344552","name":"Lawerence Lubowitz PhD","party":"Rep","address":"2070 Lakeview Dr, Provo, UT 84604","precinct":"25PR23","hd":"61","v_score":"36.62256442","decile":"10","lat":40.25221737458948,"lng":-111.69376499760085},{"vid":"6346160","name":"Ms. Breanna Boehm DDS","party":"Dem","address":"1697 W 1460 N, Provo, UT 84604","precinct":"25PR23","hd":"61","v_score":"35.30276996","decile":"10","lat":40.25326844154372,"lng":-111.68782887615632},{"vid":"6347399","name":"Velia Grimes","party":"","address":"1707 W 1460 N, Provo, UT 84604","precinct":"25PR23","hd":"61","v_score":"4.424855541","decile":"7","lat":40.25325115116682,"lng":-111.68809911394777},{"vid":"fa0c91b0614aed715a48f94cdcd9f25770d370835d722992f69c36f2dcbb6550","name":"Jackson Borer","party":"Dem","address":"1648 W 1320 N, Provo, UT 84604","precinct":"25PR23","hd":"61","v_score":"0","decile":"3","lat":40.25192216420935,"lng":-111.68724105531562},{"vid":"6357985","name":"Mrs. Veva Gleichner","party":"Rep","address":"1803 W 1110 N, Provo, UT 84604","precinct":"25PR23","hd":"61","v_score":"4.079907534","decile":"7","lat":40.248543268957455,"lng":-111.69267796714799},{"vid":"6358665","name":"Pam Pfannerstill","party":"","address":"1128 N Independence Ave, Provo, UT 84604","precinct":"25PR23","hd":"61","v_score":"12.49472132","decile":"9","lat":40.24939909162087,"lng":-111.69342507746448},{"vid":"03545774e8c1fed49619bacbd1c50ca2a76d4c3105bb3c6f12c7ca4da18f3033","name":"Mr. Franklyn Franecki PhD","party":"Rep","address":"1518 W 1100 N, Provo, UT 84604","precinct":"25PR23","hd":"61","v_score":"11.2235539","decile":"9","lat":40.24932311119615,"lng":-111.68532362097302},{"vid":"6371427","name":"Magnolia Lind","party":"Dem","address":"1252 N Uinta Dr, Provo, UT 84604","precinct":"25PR23","hd":"61","v_score":"7.934314529","decile":"8","lat":40.25073654643754,"lng":-111.69164639215076},{"vid":"6376866","name":"Nelly Keeling","party":"Dem","address":"1065 N 1750 W, Provo, UT 84604","precinct":"25PR23","hd":"61","v_score":"23.33949603","decile":"10","lat":40.24839637672096,"lng":-111.68890242879732},{"vid":"6380302","name":"Mr. Elgin Oberbrunner","party":"Rep","address":"871 N Independence Ave, Provo, UT 84604","precinct":"25PR23","hd":"61","v_score":"18.49131087","decile":"10","lat":40.245863931685705,"lng":-111.6913685236807},{"vid":"dd2418d3fe34540b56d8253149e5ea45ea041534ad933006bd6a003af0331148","name":"Calista Wuckert-Quigley","party":"Dem","address":"1349 N 1750 W, Provo, UT 84604","precinct":"25PR23","hd":"61","v_score":"5.40460374","decile":"7","lat":40.25213753881944,"lng":-111.68917705839227},{"vid":"6382394","name":"Ean Schmidt","party":"","address":"1581 W 1320 N, Provo, UT 84604","precinct":"25PR23","hd":"61","v_score":"11.99595736","decile":"9","lat":40.25141675167277,"lng":-111.68531171664449},{"vid":"6383628","name":"Miss Kasandra Lynch DDS","party":"Dem","address":"1398 N 1900 W, Provo, UT 84604","precinct":"25PR23","hd":"61","v_score":"28.21265238","decile":"10","lat":40.252482842649776,"lng":-111.69102708865807},{"vid":"6385501","name":"Adron Spinka PhD","party":"","address":"1137 N 1650 W, Provo, UT 84604","precinct":"25PR23","hd":"61","v_score":"29.6901062","decile":"10","lat":40.24963103474006,"lng":-111.68778263232282},{"vid":"c251de91d0be97d651912e8e027a0372f719ac83b171549d5a101d8ef81be420","name":"Mr. Efren Prosacco Sr.","party":"Dem","address":"1637 W 1050 N, Provo, UT 84604","precinct":"25PR23","hd":"61","v_score":"42.66649422","decile":"10","lat":40.248205006748314,"lng":-111.6875927627874},{"vid":"6392462","name":"Deloris Hoppe","party":"Rep","address":"1786 W 820 N, Provo, UT 84601","precinct":"25PR23","hd":"61","v_score":"1.193887297","decile":"4","lat":40.245584232602596,"lng":-111.68995718323276},{"vid":"6392770","name":"Ciera Paucek-Boehm","party":"Dem","address":"1401 N 1750 W, Provo, UT 84604","precinct":"25PR23","hd":"61","v_score":"19.10684494","decile":"10","lat":40.25232393579841,"lng":-111.68930977192154},{"vid":"6393859","name":"Leah Leuschke","party":"","address":"1630 W 1400 N, Provo, UT 84604","precinct":"25PR23","hd":"61","v_score":"18.56245869","decile":"10","lat":40.2528495204131,"lng":-111.68692839754937},{"vid":"6399540","name":"Mr. Judson Gerlach","party":"","address":"1265 N Oquirrh Dr, Provo, UT 84604","precinct":"25PR23","hd":"61","v_score":"6.74007049","decile":"8","lat":40.250823503690135,"lng":-111.69120657216735},{"vid":"6404208","name":"Genie Goldner","party":"Rep","address":"1685 W 1320 N, Provo, UT 84604","precinct":"25PR23","hd":"61","v_score":"21.41280004","decile":"10","lat":40.251365060624416,"lng":-111.68779538546536},{"vid":"6407553","name":"Dr. Yancy Wolff DDS","party":"Rep","address":"1441 N 2100 W, Provo, UT 84604","precinct":"25PR23","hd":"61","v_score":"25.39193414","decile":"10","lat":40.25311623721253,"lng":-111.69524465955377},{"vid":"6409004","name":"Moira Parisian","party":"Rep","address":"1551 W 1100 N, Provo, UT 84604","precinct":"25PR23","hd":"61","v_score":"1.121327652","decile":"3","lat":40.24895410181574,"lng":-111.68600339852836},{"vid":"6409202","name":"Dr. Lizette Prosacco PhD","party":"Dem","address":"1551 W 1100 N, Provo, UT 84604","precinct":"25PR23","hd":"61","v_score":"1.121327652","decile":"3","lat":40.24895410181574,"lng":-111.68600339852836},{"vid":"6415538","name":"Myrta Wintheiser","party":"Dem","address":"1340 N 1750 W, Provo, UT 84604","precinct":"25PR23","hd":"61","v_score":"21.23911022","decile":"10","lat":40.25190215532934,"lng":-111.68867335925539},{"vid":"6421810","name":"Ethen Fadel","party":"Rep","address":"1007 N Independence Ave, Provo, UT 84604","precinct":"25PR23","hd":"61","v_score":"28.13335479","decile":"10","lat":40.24717458904408,"lng":-111.69239366491325},{"vid":"6424056","name":"Hassie Monahan","party":"Dem","address":"1783 W 1060 N, Provo, UT 84604","precinct":"25PR23","hd":"61","v_score":"31.06727652","decile":"10","lat":40.24801013890409,"lng":-111.69203396815472},{"vid":"6426122","name":"Rhona Hayes-Koepp","party":"","address":"1536 W 1170 N, Provo, UT 84604","precinct":"25PR23","hd":"61","v_score":"9.55742766","decile":"8","lat":40.250354637768936,"lng":-111.68581758973735},{"vid":"6434583","name":"Archie Miller","party":"Rep","address":"2050 W Lakeview Dr, Provo, UT 84604","precinct":"25PR23","hd":"61","v_score":"22.64413479","decile":"10","lat":40.250235197022846,"lng":-111.69339445003548},{"vid":"6439377","name":"Dr. Hanson Lakin","party":"Rep","address":"1668 W 1000 N, Provo, UT 84604","precinct":"25PR23","hd":"61","v_score":"39.36155753","decile":"10","lat":40.24800111652,"lng":-111.68805999938388},{"vid":"6439972","name":"Wallace Oberbrunner","party":"Dem","address":"1124 N 1575 W, Provo, UT 84604","precinct":"25PR23","hd":"61","v_score":"34.09285363","decile":"10","lat":40.249533781455085,"lng":-111.68600666924904},{"vid":"6441682","name":"Belen Kozey","party":"Rep","address":"1141 N 1500 W, Provo, UT 84604","precinct":"25PR23","hd":"61","v_score":"4.079907534","decile":"7","lat":40.24964516083191,"lng":-111.68538284705268},{"vid":"6441738","name":"Ms. Jalissa Flatley","party":"Rep","address":"1853 W 1460 N, Provo, UT 84604","precinct":"25PR23","hd":"61","v_score":"0","decile":"3","lat":40.25298991279505,"lng":-111.6906225298503},{"vid":"6447323","name":"Helene Hand","party":"Rep","address":"1630 W 1400 N, Provo, UT 84604","precinct":"25PR23","hd":"61","v_score":"31.45786048","decile":"10","lat":40.2528495204131,"lng":-111.68692839754937},{"vid":"6457520","name":"Mozell Kessler PhD","party":"Rep","address":"1680 W 1000 N, Provo, UT 84604","precinct":"25PR23","hd":"61","v_score":"9.772950527","decile":"8","lat":40.24825399066607,"lng":-111.68839027433383},{"vid":"6bce244a4415f095cc44632db5c5f0f7ea6069c7363124df75a2482e6413847c","name":"Ozell Howe","party":"","address":"926 N Independence Ave, Provo, UT 84604","precinct":"25PR23","hd":"61","v_score":"26.93587103","decile":"10","lat":40.246535832750745,"lng":-111.69096278125701},{"vid":"53e0943e623cef9de526a5d75d6f325a326e7fb244bc4281cac629273df20a1f","name":"Shasta Kirlin","party":"Rep","address":"1875 W 1380 N, Provo, UT 84604","precinct":"25PR23","hd":"61","v_score":"19.62754354","decile":"10","lat":40.252194744315254,"lng":-111.69076624340194},{"vid":"c355780649c490ef0b375cef75a7a56261d51c1d1ab2f7e5fc066e6d989e570d","name":"Glenna Tremblay","party":"Dem","address":"1092 N 1760 W, Provo, UT 84604","precinct":"25PR23","hd":"61","v_score":"15.51131257","decile":"9","lat":40.248887390967056,"lng":-111.69191501881437},{"vid":"6466677","name":"Bayard Kozey","party":"Rep","address":"1106 N 1750 W, Provo, UT 84604","precinct":"25PR23","hd":"61","v_score":"12.57725863","decile":"9","lat":40.24983058677074,"lng":-111.68832241937692},{"vid":"6467387","name":"Verlin Keebler","party":"","address":"1243 N Lakeview Dr, Provo, UT 84604","precinct":"25PR23","hd":"61","v_score":"1.121327652","decile":"3","lat":40.25006266099456,"lng":-111.69383994941161},{"vid":"68d9835aaeef6430bccd97adf61f30faa06d893a6946bc101f586bd3ec8f3295","name":"Dr. Margrett Schultz","party":"Rep","address":"1684 W 1320 N, Provo, UT 84604","precinct":"25PR23","hd":"61","v_score":"4.465184987","decile":"7","lat":40.251869219545675,"lng":-111.68780832018736},{"vid":"6468574","name":"Julisa Jakubowski","party":"","address":"963 N 1760 W, Provo, UT 84604","precinct":"25PR23","hd":"61","v_score":"39.63319319","decile":"10","lat":40.247115161500965,"lng":-111.69099201171768},{"vid":"6473311","name":"Gustie Kerluke","party":"","address":"1630 W 1400 N, Provo, UT 84604","precinct":"25PR23","hd":"61","v_score":"23.22391854","decile":"10","lat":40.2528495204131,"lng":-111.68692839754937},{"vid":"6474257","name":"Ms. Mabell Halvorson DDS","party":"","address":"1358 N 1850 W, Provo, UT 84604","precinct":"25PR23","hd":"61","v_score":"1.121327652","decile":"3","lat":40.252035047200955,"lng":-111.6902063121721},{"vid":"6478295","name":"Crystal Reynolds MD","party":"Dem","address":"1249 N Lakeview Dr, Provo, UT 84604","precinct":"25PR23","hd":"61","v_score":"35.30276996","decile":"10","lat":40.250271462711645,"lng":-111.69403116348037},{"vid":"46eefc3b9a19bad1d0b87c3e0e39d30d4eb6e1ded9b0e169e1b4535aa8e5cbbb","name":"Marie Upton","party":"Dem","address":"1398 N 1900 W, Provo, UT 84604","precinct":"25PR23","hd":"61","v_score":"34.08881476","decile":"10","lat":40.252482842649776,"lng":-111.69102708865807},{"vid":"6479307","name":"Sarina Crist","party":"","address":"1645 W 1000 N, Provo, UT 84604","precinct":"25PR23","hd":"61","v_score":"10.52646422","decile":"9","lat":40.24743411647318,"lng":-111.68744990676204},{"vid":"6484380","name":"Khalil Weimann II","party":"Dem","address":"1133 N 1750 W, Provo, UT 84604","precinct":"25PR23","hd":"61","v_score":"8.421194992","decile":"8","lat":40.25054940017988,"lng":-111.6890052272074},{"vid":"6484876","name":"Telly Parker","party":"","address":"1776 W 1060 N, Provo, UT 84604","precinct":"25PR23","hd":"61","v_score":"9.640097175","decile":"8","lat":40.248397781048034,"lng":-111.69221247382214},{"vid":"6486442","name":"Ms. Lindsey Wiegand","party":"Dem","address":"883 N Independence Ave, Provo, UT 84604","precinct":"25PR23","hd":"61","v_score":"25.34157292","decile":"10","lat":40.24600404148328,"lng":-111.69148140975224},{"vid":"6486816","name":"Jemal Bailey-Parker","party":"Rep","address":"1625 W 1000 N, Provo, UT 84604","precinct":"25PR23","hd":"61","v_score":"24.79422524","decile":"10","lat":40.24743711166389,"lng":-111.68714908846182},{"vid":"6489855","name":"Vara Mueller","party":"","address":"958 N Independence Ave, Provo, UT 84604","precinct":"25PR23","hd":"61","v_score":"0","decile":"3","lat":40.246877904024664,"lng":-111.6912384697261},{"vid":"1a319f66a297488a76cd48b03564f38008ae5ce604204f6c23f23297829b50b7","name":"Billy Hamill","party":"Rep","address":"1349 N 1750 W, Provo, UT 84604","precinct":"25PR23","hd":"61","v_score":"5.40460374","decile":"7","lat":40.25213753881944,"lng":-111.68917705839227},{"vid":"6494043","name":"Justine Larkin","party":"Dem","address":"1618 W 1320 N, Provo, UT 84604","precinct":"25PR23","hd":"61","v_score":"26.93587103","decile":"10","lat":40.25190131377968,"lng":-111.68663033222614},{"vid":"6494414","name":"Koby Gerlach","party":"Rep","address":"1153 N 1650 W, Provo, UT 84604","precinct":"25PR23","hd":"61","v_score":"16.46900944","decile":"9","lat":40.249935896854424,"lng":-111.68785222056333},{"vid":"6494449","name":"Mr. Holland Barrows","party":"","address":"1287 N 1750 W, Provo, UT 84604","precinct":"25PR23","hd":"61","v_score":"2.315214949","decile":"5","lat":40.25107302775424,"lng":-111.68908013753929},{"vid":"6495549","name":"Chet Spencer-Schmitt","party":"Dem","address":"974 N Grand Ave, Provo, UT 84604","precinct":"25PR23","hd":"61","v_score":"1.121327652","decile":"3","lat":40.247436558756235,"lng":-111.68873254794477},{"vid":"0f1335ab242213aa17142a6c005654ac455c83fe4fef2b572709693fa1b45254","name":"Manuela Schimmel","party":"","address":"1313 N Lakeview Dr, Provo, UT 84604","precinct":"25PR23","hd":"61","v_score":"9.616113056","decile":"8","lat":40.2511780990259,"lng":-111.69452894363492},{"vid":"10f3490c0a43c581e54e356ede69b4b1ce818c255a0790e51fd506d8e2e5eb98","name":"Casie Huels","party":"Dem","address":"1518 W 1100 N, Provo, UT 84604","precinct":"25PR23","hd":"61","v_score":"6.814370645","decile":"8","lat":40.24932311119615,"lng":-111.68532362097302},{"vid":"6497541","name":"Clarke Gerlach-Ritchie","party":"Dem","address":"1584 W 1170 N, Provo, UT 84604","precinct":"25PR23","hd":"61","v_score":"8.280646305","decile":"8","lat":40.25028599251987,"lng":-111.68644799919666},{"vid":"6510011","name":"Candida Adams","party":"Rep","address":"1137 N 1650 W, Provo, UT 84604","precinct":"25PR23","hd":"61","v_score":"11.23922619","decile":"9","lat":40.24963103474006,"lng":-111.68778263232282},{"vid":"7deffc17a34896c892cfc76852bcacac3c82ce7771a4dbc018e24728d662bf5f","name":"Domenica Luettgen","party":"Dem","address":"1902 W 890 N, Provo, UT 84604","precinct":"25PR23","hd":"61","v_score":"8.535114849","decile":"8","lat":40.24604975138698,"lng":-111.6921168765469},{"vid":"6512181","name":"Olevia Trantow","party":"Rep","address":"926 N Independence Ave, Provo, UT 84604","precinct":"25PR23","hd":"61","v_score":"18.97275282","decile":"10","lat":40.246535832750745,"lng":-111.69096278125701},{"vid":"ed7931b590c132c6b229d094e86b07295564cd82125e47490e9baa51a4731156","name":"Allean O'Connell","party":"","address":"1421 N Grand Ave, Provo, UT 84604","precinct":"25PR23","hd":"61","v_score":"15.61526831","decile":"9","lat":40.25277157183575,"lng":-111.69393121811963},{"vid":"6514790","name":"Fenton Wilkinson","party":"Rep","address":"1524 W 1400 N, Provo, UT 84604","precinct":"25PR23","hd":"61","v_score":"5.618742839","decile":"7","lat":40.252762820523486,"lng":-111.68535636160142},{"vid":"cc2cf4cdb24a13fddc3b4eb41a4b552c03c5245fa7399f92bb292fd545195815","name":"Bell Jacobs","party":"Rep","address":"1344 N 1850 W, Provo, UT 84604","precinct":"25PR23","hd":"61","v_score":"8.347511332","decile":"8","lat":40.251669651763436,"lng":-111.69017347776673},{"vid":"6527471","name":"Mrs. Marilla Schulist MD","party":"","address":"994 N 1760 W, Provo, UT 84604","precinct":"25PR23","hd":"61","v_score":"0","decile":"3","lat":40.24788148174631,"lng":-111.69082915919411}]