[{"vid":"1228309","name":"Dr. Ewart Okuneva I","party":"Rep","address":"510 E 3460 N, Provo, UT 84604","precinct":"25PR11","hd":"58","v_score":"1.193887297","decile":"3","lat":40.27945747544319,"lng":-111.6499923996329,"phone":"(165) 394-1438","sd":"24","ssbd":"13","lsbd":"School Board Provo 2"},{"vid":"1291135","name":"Abigayle Collier PhD","party":"","address":"485 E 3460 N, Provo, UT 84604","precinct":"25PR11","hd":"58","v_score":"9.35760564","decile":"8","lat":40.27990943066991,"lng":-111.65000865308926,"phone":"(995) 391-3582","sd":"24","ssbd":"13","lsbd":"School Board Provo 2"},{"vid":"1297594","name":"Dr. Tyra Durgan","party":"","address":"604 E 3125 N, Provo, UT 84604","precinct":"25PR11","hd":"58","v_score":"0","decile":"1","lat":40.27487323752484,"lng":-111.64849861401377,"phone":"(150) 362-8879","sd":"24","ssbd":"13","lsbd":"School Board Provo 2"},{"vid":"1313180","name":"Brayan Lindgren","party":"Rep","address":"3325 N 500 E, Provo, UT 84604","precinct":"25PR11","hd":"58","v_score":"2.315214949","decile":"5","lat":40.277740147061984,"lng":-111.65048029227069,"phone":"(285) 372-2082","sd":"24","ssbd":"13","lsbd":"School Board Provo 2"},{"vid":"1323648","name":"Gina Fahey","party":"Dem","address":"711 E 3230 N, Provo, UT 84604","precinct":"25PR11","hd":"58","v_score":"20.29520889","decile":"10","lat":40.27677561547701,"lng":-111.64641312382808,"phone":"(925) 369-0805","sd":"24","ssbd":"13","lsbd":"School Board Provo 2"},{"vid":"ae18b0184e1bc6c4218dcf5b1561dda8a756ce81384538af076dba2727acd307","name":"Keifer Daugherty MD","party":"Rep","address":"711 E 3100 N, Provo, UT 84604","precinct":"25PR11","hd":"58","v_score":"11.16899434","decile":"9","lat":40.27535897645182,"lng":-111.64664110878374,"phone":"(728) 183-8239","sd":"24","ssbd":"13","lsbd":"School Board Provo 2"},{"vid":"1345116","name":"Vertie Abernathy","party":"Dem","address":"440 E 2825 N, Provo, UT 84604","precinct":"25PR11","hd":"58","v_score":"15.4533012","decile":"9","lat":40.27108732548643,"lng":-111.6508002579815,"phone":"(686) 784-1285","sd":"24","ssbd":"13","lsbd":"School Board Provo 2"},{"vid":"1358603","name":"Dr. Marlo Wilderman","party":"Rep","address":"3166 N Timpview Dr, Provo, UT 84604","precinct":"25PR11","hd":"58","v_score":"2.744440783","decile":"5","lat":40.275634459441406,"lng":-111.64730636027717,"phone":"(516) 565-1469","sd":"24","ssbd":"13","lsbd":"School Board Provo 2"},{"vid":"1359023","name":"Denise Flatley-Carroll","party":"Rep","address":"711 E 3100 N, Provo, UT 84604","precinct":"25PR11","hd":"58","v_score":"14.12757422","decile":"9","lat":40.27535897645182,"lng":-111.64664110878374,"phone":"(782) 774-1366","sd":"24","ssbd":"13","lsbd":"School Board Provo 2"},{"vid":"95adad07dcba86669e380b13701a4bc19781046d3f7712f8cb78870da81a3641","name":"Eddie Zemlak","party":"","address":"697 E 3030 N, Provo, UT 84604","precinct":"25PR11","hd":"58","v_score":"12.45673421","decile":"9","lat":40.27418523015888,"lng":-111.64670939578461,"phone":"(958) 913-0319","sd":"24","ssbd":"13","lsbd":"School Board Provo 2"},{"vid":"1412439","name":"Fulton Franecki-Abernathy","party":"Dem","address":"711 E 3230 N, Provo, UT 84604","precinct":"25PR11","hd":"58","v_score":"14.46058644","decile":"9","lat":40.27677561547701,"lng":-111.64641312382808,"phone":"(313) 318-8252","sd":"24","ssbd":"13","lsbd":"School Board Provo 2"},{"vid":"1412722","name":"Iridian Hartmann","party":"","address":"526 E 3230 N, Provo, UT 84604","precinct":"25PR11","hd":"58","v_score":"1.623113131","decile":"4","lat":40.27614601681078,"lng":-111.64940400783796,"phone":"(700) 638-8609","sd":"24","ssbd":"13","lsbd":"School Board Provo 2"},{"vid":"698cdc93015b837aec1e8096c72d7ffc544f06db2dae415a29548f8429fc298c","name":"Mrs. Laraine O'Kon MD","party":"Dem","address":"526 E 3230 N, Provo, UT 84604","precinct":"25PR11","hd":"58","v_score":"0","decile":"1","lat":40.27614601681078,"lng":-111.64940400783796,"phone":"(457) 494-4784","sd":"24","ssbd":"13","lsbd":"School Board Provo 2"},{"vid":"1430595","name":"Daphne Pfeffer","party":"","address":"469 E 3125 N, Provo, UT 84604","precinct":"25PR11","hd":"58","v_score":"0","decile":"1","lat":40.27532572640462,"lng":-111.65049126046075,"phone":"(321) 088-3157","sd":"24","ssbd":"13","lsbd":"School Board Provo 2"},{"vid":"1499066","name":"Arvid Corwin-Emmerich","party":"Dem","address":"665 E 2780 N, Provo, UT 84604","precinct":"25PR11","hd":"58","v_score":"5.761032035","decile":"7","lat":40.270640698407675,"lng":-111.64729696591992,"phone":"(768) 922-3266","sd":"24","ssbd":"13","lsbd":"School Board Provo 2"},{"vid":"1503951","name":"Archie Davis II","party":"","address":"664 E 3100 N, Provo, UT 84604","precinct":"25PR11","hd":"58","v_score":"1.193887297","decile":"3","lat":40.274744441967506,"lng":-111.64737812968279,"phone":"(660) 359-4485","sd":"24","ssbd":"13","lsbd":"School Board Provo 2"},{"vid":"1504855","name":"Luca Macejkovic","party":"Dem","address":"715 E 2950 N, Provo, UT 84604","precinct":"25PR11","hd":"58","v_score":"14.37270484","decile":"9","lat":40.27295744325788,"lng":-111.64655546653043,"phone":"(953) 118-7418","sd":"24","ssbd":"13","lsbd":"School Board Provo 2"},{"vid":"1dc320e2fc4fc64c52880737de6909f2d471f6e01331d09d7e39fe3c9f6808df","name":"Mario Homenick DDS","party":"","address":"505 E 2780 N, Provo, UT 84604","precinct":"25PR11","hd":"58","v_score":"1.623113131","decile":"4","lat":40.27078096615645,"lng":-111.6502956737175,"phone":"(645) 469-7486","sd":"24","ssbd":"13","lsbd":"School Board Provo 2"},{"vid":"1549905","name":"Deegan Sawayn II","party":"","address":"461 E 2875 N, Provo, UT 84604","precinct":"25PR11","hd":"58","v_score":"41.90479252","decile":"10","lat":40.27207487018009,"lng":-111.65045348205103,"phone":"(212) 563-6652","sd":"24","ssbd":"13","lsbd":"School Board Provo 2"},{"vid":"1564448","name":"Valentine McKenzie","party":"Dem","address":"628 E 2825 N, Provo, UT 84604","precinct":"25PR11","hd":"58","v_score":"2.744440783","decile":"5","lat":40.271048382299504,"lng":-111.6477587377806,"phone":"(552) 630-0017","sd":"24","ssbd":"13","lsbd":"School Board Provo 2"},{"vid":"1566377","name":"Rondal Johnson III","party":"","address":"461 E 2780 N, Provo, UT 84604","precinct":"25PR11","hd":"58","v_score":"2.587603312","decile":"5","lat":40.27066960072,"lng":-111.6508339929883,"phone":"(504) 102-9102","sd":"24","ssbd":"13","lsbd":"School Board Provo 2"},{"vid":"1571186","name":"Mr. Dijon Simonis","party":"Rep","address":"3568 N 480 E, Provo, UT 84604","precinct":"25PR11","hd":"58","v_score":"22.20403923","decile":"10","lat":40.28122905320326,"lng":-111.65072577966107,"phone":"(941) 873-0781","sd":"24","ssbd":"13","lsbd":"School Board Provo 2"},{"vid":"1572338","name":"Miss Marcie Mante PhD","party":"Rep","address":"3138 N 600 E, Provo, UT 84604","precinct":"25PR11","hd":"58","v_score":"1.121327652","decile":"3","lat":40.275236062819424,"lng":-111.64842828724174,"phone":"(508) 275-1661","sd":"24","ssbd":"13","lsbd":"School Board Provo 2"},{"vid":"1575938","name":"Dr. Winthrop Ferry","party":"","address":"3568 N 480 E, Provo, UT 84604","precinct":"25PR11","hd":"58","v_score":"11.30609121","decile":"9","lat":40.28122905320326,"lng":-111.65072577966107,"phone":"(590) 615-9578","sd":"24","ssbd":"13","lsbd":"School Board Provo 2"},{"vid":"5956ac01804f43450dd2b053155872f6a3a6b15b17272e06680838eed460b3f4","name":"Mr. Emma Gibson Sr.","party":"Rep","address":"547 E 2825 N, Provo, UT 84604","precinct":"25PR11","hd":"58","v_score":"34.73081643","decile":"10","lat":40.271434406211014,"lng":-111.64936639892538,"phone":"(142) 426-6513","sd":"24","ssbd":"13","lsbd":"School Board Provo 2"},{"vid":"1587092","name":"Ireland Flatley MD","party":"","address":"461 E 2875 N, Provo, UT 84604","precinct":"25PR11","hd":"58","v_score":"36.41864994","decile":"10","lat":40.27207487018009,"lng":-111.65045348205103,"phone":"(244) 550-8625","sd":"24","ssbd":"13","lsbd":"School Board Provo 2"},{"vid":"1594082","name":"Cyntha Lowe-Moore","party":"Rep","address":"2803 N 700 E, Provo, UT 84604","precinct":"25PR11","hd":"58","v_score":"3.93832808","decile":"6","lat":40.27099373423153,"lng":-111.64683775907987,"phone":"(554) 451-1581","sd":"24","ssbd":"13","lsbd":"School Board Provo 2"},{"vid":"4961400d06fa399304a2449b96fcfbaa6e2b7a869d8714147a41983ab79e5d2f","name":"Mr. Rian Gutkowski I","party":"","address":"619 E 2780 N, Provo, UT 84604","precinct":"25PR11","hd":"58","v_score":"42.16479477","decile":"10","lat":40.270793367283986,"lng":-111.64817105173996,"phone":"(828) 822-4785","sd":"24","ssbd":"13","lsbd":"School Board Provo 2"},{"vid":"1615222","name":"Ralph Brakus","party":"","address":"420 E 2875 N, Provo, UT 84604","precinct":"25PR11","hd":"58","v_score":"8.15240309","decile":"8","lat":40.27170469423825,"lng":-111.6511288026033,"phone":"(683) 538-9774","sd":"24","ssbd":"13","lsbd":"School Board Provo 2"},{"vid":"1627649","name":"Bettylou Ziemann","party":"","address":"456 E 3530 N, Provo, UT 84604","precinct":"25PR11","hd":"58","v_score":"12.07513611","decile":"9","lat":40.2807959631373,"lng":-111.65136287080463,"phone":"(801) 115-3317","sd":"24","ssbd":"13","lsbd":"School Board Provo 2"},{"vid":"c1383e0bd8d6f6e30189e07ad5e937cea413c27892b58698208c32ae491db497","name":"Zita Weber","party":"Rep","address":"549 E 2825 N, Provo, UT 84604","precinct":"25PR11","hd":"58","v_score":"37.59581976","decile":"10","lat":40.271431858144844,"lng":-111.64897623508533,"phone":"(411) 746-5126","sd":"24","ssbd":"13","lsbd":"School Board Provo 2"},{"vid":"1695702","name":"Anitra Wisoky","party":"","address":"440 E 2825 N, Provo, UT 84604","precinct":"25PR11","hd":"58","v_score":"15.4533012","decile":"9","lat":40.27108732548643,"lng":-111.6508002579815,"phone":"(266) 701-7019","sd":"24","ssbd":"13","lsbd":"School Board Provo 2"},{"vid":"1710494","name":"Dr. Eston Shanahan","party":"","address":"468 E 3125 N, Provo, UT 84604","precinct":"25PR11","hd":"58","v_score":"1.46627566","decile":"4","lat":40.274678780959796,"lng":-111.65052674451336,"phone":"(448) 999-2344","sd":"24","ssbd":"13","lsbd":"School Board Provo 2"},{"vid":"1727078","name":"Winnifred Smith","party":"","address":"3166 N Timpview Dr, Provo, UT 84604","precinct":"25PR11","hd":"58","v_score":"10.08263357","decile":"9","lat":40.275634459441406,"lng":-111.64730636027717,"phone":"(528) 803-3419","sd":"24","ssbd":"13","lsbd":"School Board Provo 2"},{"vid":"ce12a596068d10577ce092df8b440c75248676e8d1fc0048b83fc83210cdf3c7","name":"Torrie Ratke","party":"","address":"741 E 3230 N, Provo, UT 84604","precinct":"25PR11","hd":"58","v_score":"11.885774","decile":"9","lat":40.276645227846345,"lng":-111.64491757507794,"phone":"(566) 683-7197","sd":"24","ssbd":"13","lsbd":"School Board Provo 2"},{"vid":"1835220","name":"Dagny Mills","party":"Dem","address":"2770 N Canyon Rd, Provo, UT 84604","precinct":"25PR11","hd":"58","v_score":"5.258122542","decile":"7","lat":40.26976075752465,"lng":-111.65276307895583,"phone":"(825) 215-2297","sd":"24","ssbd":"13","lsbd":"School Board Provo 2"},{"vid":"1868155","name":"Katia Jacobson","party":"","address":"3148 N 500 E, Provo, UT 84604","precinct":"25PR11","hd":"58","v_score":"3.781490609","decile":"6","lat":40.275542563819364,"lng":-111.64965061672598,"phone":"(756) 930-3653","sd":"24","ssbd":"13","lsbd":"School Board Provo 2"},{"vid":"1888757","name":"Shelly Jenkins","party":"Rep","address":"2803 N 700 E, Provo, UT 84604","precinct":"25PR11","hd":"58","v_score":"3.93832808","decile":"6","lat":40.27099373423153,"lng":-111.64683775907987,"phone":"(634) 967-0984","sd":"24","ssbd":"13","lsbd":"School Board Provo 2"},{"vid":"1892099","name":"Mrs. Simone O'Reilly DDS","party":"","address":"455 E 3460 N, Provo, UT 84604","precinct":"25PR11","hd":"58","v_score":"30.61737295","decile":"10","lat":40.27983805597164,"lng":-111.65087679637024,"phone":"(971) 584-3038","sd":"24","ssbd":"13","lsbd":"School Board Provo 2"},{"vid":"1892210","name":"Jayce Walter","party":"","address":"2818 N 760 E, Provo, UT 84604","precinct":"25PR11","hd":"58","v_score":"13.86247445","decile":"9","lat":40.27138423964748,"lng":-111.6452516706803,"phone":"(609) 248-5937","sd":"24","ssbd":"13","lsbd":"School Board Provo 2"},{"vid":"1893033","name":"Eleanore Jast MD","party":"","address":"697 E 3030 N, Provo, UT 84604","precinct":"25PR11","hd":"58","v_score":"4.152467179","decile":"7","lat":40.27418523015888,"lng":-111.64670939578461,"phone":"(680) 928-7819","sd":"24","ssbd":"13","lsbd":"School Board Provo 2"},{"vid":"1899032","name":"Dr. Kerwin Ward Jr.","party":"","address":"571 E 3050 N, Provo, UT 84604","precinct":"25PR11","hd":"58","v_score":"2.587603312","decile":"5","lat":40.27441776503258,"lng":-111.64841504408255,"phone":"(465) 968-6820","sd":"24","ssbd":"13","lsbd":"School Board Provo 2"},{"vid":"1902703","name":"Coretta Cormier","party":"Rep","address":"785 E 2780 N, Provo, UT 84604","precinct":"25PR11","hd":"58","v_score":"9.772950527","decile":"8","lat":40.27070716975174,"lng":-111.6451114367745,"phone":"(977) 679-2394","sd":"24","ssbd":"13","lsbd":"School Board Provo 2"},{"vid":"1906183","name":"Tracy Wisozk MD","party":"","address":"571 E 3050 N, Provo, UT 84604","precinct":"25PR11","hd":"58","v_score":"13.84916389","decile":"9","lat":40.27441776503258,"lng":-111.64841504408255,"phone":"(346) 328-4345","sd":"24","ssbd":"13","lsbd":"School Board Provo 2"},{"vid":"1912599","name":"Levy Cruickshank","party":"","address":"461 E 2825 N, Provo, UT 84604","precinct":"25PR11","hd":"58","v_score":"14.69317457","decile":"9","lat":40.271459168561975,"lng":-111.65052747897593,"phone":"(470) 943-2321","sd":"24","ssbd":"13","lsbd":"School Board Provo 2"},{"vid":"1920546","name":"Frederic Boyle-Wolf","party":"Rep","address":"541 E 3400 N, Provo, UT 84604","precinct":"25PR11","hd":"58","v_score":"16.91553799","decile":"9","lat":40.27898579584144,"lng":-111.64928791995263,"phone":"(617) 733-2731","sd":"24","ssbd":"13","lsbd":"School Board Provo 2"},{"vid":"1921288","name":"Lennie Dietrich-Hegmann","party":"Dem","address":"583 E 3400 N, Provo, UT 84604","precinct":"25PR11","hd":"58","v_score":"9.913499214","decile":"8","lat":40.27906070022566,"lng":-111.64847311618313,"phone":"(472) 853-3623","sd":"24","ssbd":"13","lsbd":"School Board Provo 2"},{"vid":"1928848","name":"Paisley Satterfield","party":"Dem","address":"785 E 2780 N, Provo, UT 84604","precinct":"25PR11","hd":"58","v_score":"9.426750949","decile":"8","lat":40.27070716975174,"lng":-111.6451114367745,"phone":"(880) 056-0747","sd":"24","ssbd":"13","lsbd":"School Board Provo 2"},{"vid":"1933539","name":"Maren Cassin","party":"Rep","address":"615 E 2825 N, Provo, UT 84604","precinct":"25PR11","hd":"58","v_score":"4.069929862","decile":"6","lat":40.27142446384489,"lng":-111.64790125460213,"phone":"(811) 095-3913","sd":"24","ssbd":"13","lsbd":"School Board Provo 2"},{"vid":"1933541","name":"Ms. Euphemia Glover","party":"","address":"615 E 2825 N, Provo, UT 84604","precinct":"25PR11","hd":"58","v_score":"4.069929862","decile":"6","lat":40.27142446384489,"lng":-111.64790125460213,"phone":"(470) 549-0745","sd":"24","ssbd":"13","lsbd":"School Board Provo 2"},{"vid":"1944526","name":"Mr. Al Walter","party":"Dem","address":"461 E 2780 N, Provo, UT 84604","precinct":"25PR11","hd":"58","v_score":"7.047822616","decile":"8","lat":40.27066960072,"lng":-111.6508339929883,"phone":"(558) 769-8320","sd":"24","ssbd":"13","lsbd":"School Board Provo 2"},{"vid":"1953642","name":"Grisel Olson","party":"","address":"730 E 2950 N, Provo, UT 84604","precinct":"25PR11","hd":"58","v_score":"15.82728357","decile":"9","lat":40.27268455673102,"lng":-111.64609618328382,"phone":"(278) 060-3575","sd":"24","ssbd":"13","lsbd":"School Board Provo 2"},{"vid":"1961449","name":"Needham Goodwin","party":"Dem","address":"599 E 2875 N, Provo, UT 84604","precinct":"25PR11","hd":"58","v_score":"2.315214949","decile":"5","lat":40.27202831452535,"lng":-111.64826744923444,"phone":"(923) 164-8091","sd":"24","ssbd":"13","lsbd":"School Board Provo 2"},{"vid":"1970432","name":"Hilah Marvin","party":"Rep","address":"515 E 3400 N, Provo, UT 84604","precinct":"25PR11","hd":"58","v_score":"13.97397049","decile":"9","lat":40.27901313216798,"lng":-111.64985623256212,"phone":"(983) 634-0970","sd":"24","ssbd":"13","lsbd":"School Board Provo 2"},{"vid":"1972933","name":"Fleet Barton PhD","party":"Dem","address":"616 E 3400 N, Provo, UT 84604","precinct":"25PR11","hd":"58","v_score":"1.121327652","decile":"3","lat":40.27868258960575,"lng":-111.64791649576415,"phone":"(995) 532-4470","sd":"24","ssbd":"13","lsbd":"School Board Provo 2"},{"vid":"2011825","name":"Jonell Kunze","party":"Rep","address":"665 E 3230 N, Provo, UT 84604","precinct":"25PR11","hd":"58","v_score":"21.23911022","decile":"10","lat":40.27666348562426,"lng":-111.64745753296245,"phone":"(688) 022-8991","sd":"24","ssbd":"13","lsbd":"School Board Provo 2"},{"vid":"2011958","name":"Ofelia Bartell","party":"Dem","address":"600 E 3400 N, Provo, UT 84604","precinct":"25PR11","hd":"58","v_score":"22.10816128","decile":"10","lat":40.278602305768764,"lng":-111.6482617767727,"phone":"(758) 733-2298","sd":"24","ssbd":"13","lsbd":"School Board Provo 2"},{"vid":"2015169","name":"Madalynn Leuschke","party":"","address":"2983 N 600 E, Provo, UT 84604","precinct":"25PR11","hd":"58","v_score":"2.817000428","decile":"6","lat":40.27333405192532,"lng":-111.64867349546837,"phone":"(695) 332-1370","sd":"24","ssbd":"13","lsbd":"School Board Provo 2"},{"vid":"2024017","name":"Mr. Tomas Haag I","party":"","address":"3328 N Canyon Rd, Provo, UT 84604","precinct":"25PR11","hd":"58","v_score":"18.03463495","decile":"10","lat":40.277914754516125,"lng":-111.65087176213325,"phone":"(893) 976-3495","sd":"24","ssbd":"13","lsbd":"School Board Provo 2"},{"vid":"2027334","name":"Manilla Buckridge PhD","party":"Rep","address":"3162 N 500 E, Provo, UT 84604","precinct":"25PR11","hd":"58","v_score":"7.169296324","decile":"8","lat":40.27581305349354,"lng":-111.64981512734673,"phone":"(294) 228-1881","sd":"24","ssbd":"13","lsbd":"School Board Provo 2"},{"vid":"2034204","name":"Christophe Weissnat","party":"","address":"3162 N 500 E, Provo, UT 84604","precinct":"25PR11","hd":"58","v_score":"7.169296324","decile":"8","lat":40.27581305349354,"lng":-111.64981512734673,"phone":"(711) 035-6400","sd":"24","ssbd":"13","lsbd":"School Board Provo 2"},{"vid":"2037603","name":"Corliss Walter","party":"","address":"496 E 3230 N, Provo, UT 84604","precinct":"25PR11","hd":"58","v_score":"18.49131087","decile":"10","lat":40.276139768169,"lng":-111.6501196202412,"phone":"(871) 481-9582","sd":"24","ssbd":"13","lsbd":"School Board Provo 2"},{"vid":"2055654","name":"Helmer Stamm","party":"Dem","address":"2802 N 700 E, Provo, UT 84604","precinct":"25PR11","hd":"58","v_score":"1.121327652","decile":"3","lat":40.271029764315266,"lng":-111.646279814589,"phone":"(451) 570-9411","sd":"24","ssbd":"13","lsbd":"School Board Provo 2"},{"vid":"2055718","name":"Daunte Kirlin-Miller","party":"Rep","address":"668 E 3230 N, Provo, UT 84604","precinct":"25PR11","hd":"58","v_score":"31.00346484","decile":"10","lat":40.27613486872029,"lng":-111.64679037892887,"phone":"(642) 268-4189","sd":"24","ssbd":"13","lsbd":"School Board Provo 2"},{"vid":"2055834","name":"Coty Ryan","party":"Dem","address":"515 E 2950 N, Provo, UT 84604","precinct":"25PR11","hd":"58","v_score":"0","decile":"1","lat":40.27323461687227,"lng":-111.64972488583288,"phone":"(716) 154-1789","sd":"24","ssbd":"13","lsbd":"School Board Provo 2"},{"vid":"2074668","name":"Carlyle Donnelly","party":"Rep","address":"3138 N 600 E, Provo, UT 84604","precinct":"25PR11","hd":"58","v_score":"14.32268247","decile":"9","lat":40.275236062819424,"lng":-111.64842828724174,"phone":"(782) 068-2950","sd":"24","ssbd":"13","lsbd":"School Board Provo 2"},{"vid":"2120629","name":"Irvine Toy","party":"","address":"3385 N 500 E, Provo, UT 84604","precinct":"25PR11","hd":"58","v_score":"28.29492005","decile":"10","lat":40.278745894382574,"lng":-111.65029315232997,"phone":"(953) 377-4783","sd":"24","ssbd":"13","lsbd":"School Board Provo 2"},{"vid":"6254bc5c310d34cdef25624f39b56715583eeb83f40903f2a5683ade620f1441","name":"Ms. Danyell Armstrong","party":"Dem","address":"2802 N 700 E, Provo, UT 84604","precinct":"25PR11","hd":"58","v_score":"0","decile":"1","lat":40.271029764315266,"lng":-111.646279814589,"phone":"(747) 475-8720","sd":"24","ssbd":"13","lsbd":"School Board Provo 2"},{"vid":"2165088","name":"Zola Spinka PhD","party":"","address":"603 E 3180 N, Provo, UT 84604","precinct":"25PR11","hd":"58","v_score":"2.660162957","decile":"5","lat":40.27592724433572,"lng":-111.64865547298031,"phone":"(730) 829-1294","sd":"24","ssbd":"13","lsbd":"School Board Provo 2"},{"vid":"6529c487bc57d84240447cd00a46cc081a0bf4b3987845e9121c217b63162a66","name":"Leonore Metz","party":"","address":"441 E 2825 N, Provo, UT 84604","precinct":"25PR11","hd":"58","v_score":"11.16899434","decile":"9","lat":40.27146216584213,"lng":-111.65086325755102,"phone":"(748) 035-9777","sd":"24","ssbd":"13","lsbd":"School Board Provo 2"},{"vid":"902024bf608108c79093cb7c1b79c3b2b0ee83d3d0aaeb2aef1e950b3cb21411","name":"Lonie Bode","party":"Rep","address":"435 E 3460 N, Provo, UT 84604","precinct":"25PR11","hd":"58","v_score":"0","decile":"1","lat":40.279680651019845,"lng":-111.65130594618319,"phone":"(538) 980-3542","sd":"24","ssbd":"13","lsbd":"School Board Provo 2"},{"vid":"2185610","name":"Oral Stamm-Kris","party":"Rep","address":"3328 N Canyon Rd, Provo, UT 84604","precinct":"25PR11","hd":"58","v_score":"21.83706319","decile":"10","lat":40.277914754516125,"lng":-111.65087176213325,"phone":"(177) 869-3014","sd":"24","ssbd":"13","lsbd":"School Board Provo 2"},{"vid":"651d9cc0c3bea43fff6002b115679b3d62fbd764d04a1721e41b34ce5ace557f","name":"Viney Bergnaum","party":"","address":"570 E 2950 N, Provo, UT 84604","precinct":"25PR11","hd":"58","v_score":"15.69664484","decile":"9","lat":40.27253754659939,"lng":-111.64868956899812,"phone":"(757) 799-7908","sd":"24","ssbd":"13","lsbd":"School Board Provo 2"},{"vid":"edae8698f01e8c45e9fdcaa8bd8fa7dd83cb95ef9a2859ccd043845d07ec4c92","name":"Marilee Simonis","party":"Rep","address":"3324 N Canyon Rd, Provo, UT 84604","precinct":"25PR11","hd":"58","v_score":"1.193887297","decile":"3","lat":40.27788029824392,"lng":-111.6511501458601,"phone":"(821) 770-1989","sd":"24","ssbd":"13","lsbd":"School Board Provo 2"},{"vid":"07c2341d45357a9538e5b6d9f2e8585600fdcdc9f1224501a0d7b3be80a9ac8f","name":"Bud Cronin","party":"Dem","address":"549 E 2825 N, Provo, UT 84604","precinct":"25PR11","hd":"58","v_score":"32.22690537","decile":"10","lat":40.271431858144844,"lng":-111.64897623508533,"phone":"(731) 327-7181","sd":"24","ssbd":"13","lsbd":"School Board Provo 2"},{"vid":"2204093","name":"Zana Farrell","party":"Rep","address":"491 E 3050 N, Provo, UT 84604","precinct":"25PR11","hd":"58","v_score":"1.121327652","decile":"3","lat":40.27446547842352,"lng":-111.64997426875587,"phone":"(908) 958-6805","sd":"24","ssbd":"13","lsbd":"School Board Provo 2"},{"vid":"3fb13ff61a4dba8e424b59ba8e12a8a1977d379079a996a633c96f4890f56abb","name":"Shantel Maggio-Batz","party":"","address":"570 E 2950 N, Provo, UT 84604","precinct":"25PR11","hd":"58","v_score":"6.896907962","decile":"8","lat":40.27253754659939,"lng":-111.64868956899812,"phone":"(490) 388-0382","sd":"24","ssbd":"13","lsbd":"School Board Provo 2"},{"vid":"a97a0bc9260b1902eb2d3dc5323f1a3fbf46d8cb63d79aa94bcb3f758a135224","name":"Lessie Veum DVM","party":"","address":"3324 N Canyon Rd, Provo, UT 84604","precinct":"25PR11","hd":"58","v_score":"6.896907962","decile":"8","lat":40.27788029824392,"lng":-111.6511501458601,"phone":"(920) 452-2822","sd":"24","ssbd":"13","lsbd":"School Board Provo 2"},{"vid":"fe6f082b2fd2a81181013a4270f01216eb4c71f297c81360e4543190b387451f","name":"Zoie O'Conner","party":"Rep","address":"668 E 3230 N, Provo, UT 84604","precinct":"25PR11","hd":"58","v_score":"12.01737578","decile":"9","lat":40.27613486872029,"lng":-111.64679037892887,"phone":"(764) 253-0593","sd":"24","ssbd":"13","lsbd":"School Board Provo 2"},{"vid":"51a8a79c0715827a1bacbdfe2d25cf1583ee3ca4317558589aaef43df6d25a5d","name":"Kathern Yundt DVM","party":"Rep","address":"695 E 3230 N, Provo, UT 84604","precinct":"25PR11","hd":"58","v_score":"19.6135545","decile":"10","lat":40.27676297319735,"lng":-111.6467556234185,"phone":"(163) 088-9680","sd":"24","ssbd":"13","lsbd":"School Board Provo 2"},{"vid":"1f39c75fb408f1b63fddf652731e3b13dfad4966ae6badab4c8472231b6acecd","name":"Aydan Cole","party":"Dem","address":"3306 N Canyon Rd, Provo, UT 84604","precinct":"25PR11","hd":"58","v_score":"1.193887297","decile":"3","lat":40.27738804872726,"lng":-111.6508443809823,"phone":"(692) 248-3518","sd":"24","ssbd":"13","lsbd":"School Board Provo 2"},{"vid":"d2b2f65afc7a20121b5b40d68eab83db9209bb96cfe6cda52cbdb6f8ad8760f1","name":"Ola Olson DDS","party":"Rep","address":"665 E 3230 N, Provo, UT 84604","precinct":"25PR11","hd":"58","v_score":"26.7250905","decile":"10","lat":40.27666348562426,"lng":-111.64745753296245,"phone":"(390) 329-3516","sd":"24","ssbd":"13","lsbd":"School Board Provo 2"},{"vid":"229798d4e75f85281fd2a60e32f6cb38f13fd65a30d57ff229a198410ffdb8b3","name":"Rubin Hilll-Windler","party":"Rep","address":"469 E 3125 N, Provo, UT 84604","precinct":"25PR11","hd":"58","v_score":"0","decile":"1","lat":40.27532572640462,"lng":-111.65049126046075,"phone":"(691) 150-4394","sd":"24","ssbd":"13","lsbd":"School Board Provo 2"},{"vid":"2257205","name":"Dr. Deneen Jakubowski","party":"","address":"697 E 3030 N, Provo, UT 84604","precinct":"25PR11","hd":"58","v_score":"5.273794831","decile":"7","lat":40.27418523015888,"lng":-111.64670939578461,"phone":"(534) 875-3138","sd":"24","ssbd":"13","lsbd":"School Board Provo 2"},{"vid":"6ee21ad23500660e661172c02b7aa640f69eb49cc8958230f1f8d1ac772638af","name":"Hayward Kunze","party":"","address":"422 E 3125 N, Provo, UT 84604","precinct":"25PR11","hd":"58","v_score":"3.93832808","decile":"6","lat":40.27492787135423,"lng":-111.6512692015318,"phone":"(714) 568-2743","sd":"24","ssbd":"13","lsbd":"School Board Provo 2"},{"vid":"2269204","name":"Ms. Chessie Ward PhD","party":"Rep","address":"573 E 2950 N, Provo, UT 84604","precinct":"25PR11","hd":"58","v_score":"12.38288823","decile":"9","lat":40.27306036649066,"lng":-111.64859783001269,"phone":"(915) 221-2780","sd":"24","ssbd":"13","lsbd":"School Board Provo 2"},{"vid":"2272769","name":"Dr. Helaine Kessler MD","party":"","address":"3147 N 500 E, Provo, UT 84604","precinct":"25PR11","hd":"58","v_score":"2.315214949","decile":"5","lat":40.27555133296383,"lng":-111.65006875558967,"phone":"(779) 870-7672","sd":"24","ssbd":"13","lsbd":"School Board Provo 2"},{"vid":"ec45ad5bda72a6c5158aa7c633929c722460a63eed2231125845c00a108a7038","name":"Coen Hauck II","party":"Dem","address":"697 E 3030 N, Provo, UT 84604","precinct":"25PR11","hd":"58","v_score":"1.121327652","decile":"3","lat":40.27418523015888,"lng":-111.64670939578461,"phone":"(262) 315-3008","sd":"24","ssbd":"13","lsbd":"School Board Provo 2"},{"vid":"2282866","name":"Algot Maggio","party":"Dem","address":"546 E 2875 N, Provo, UT 84604","precinct":"25PR11","hd":"58","v_score":"26.7250905","decile":"10","lat":40.27167198787347,"lng":-111.64897356888557,"phone":"(404) 598-8155","sd":"24","ssbd":"13","lsbd":"School Board Provo 2"},{"vid":"2297164","name":"Dr. Lute Gutkowski","party":"","address":"2770 N Canyon Rd, Provo, UT 84604","precinct":"25PR11","hd":"58","v_score":"7.637489696","decile":"8","lat":40.26976075752465,"lng":-111.65276307895583,"phone":"(355) 715-0080","sd":"24","ssbd":"13","lsbd":"School Board Provo 2"},{"vid":"2298894","name":"Jennings Mann","party":"","address":"452 E 3050 N, Provo, UT 84604","precinct":"25PR11","hd":"58","v_score":"22.57788051","decile":"10","lat":40.27378156213691,"lng":-111.65071073535378,"phone":"(409) 582-8428","sd":"24","ssbd":"13","lsbd":"School Board Provo 2"},{"vid":"2310590","name":"Shaun Sauer","party":"","address":"491 E 3050 N, Provo, UT 84604","precinct":"25PR11","hd":"58","v_score":"0","decile":"1","lat":40.27446547842352,"lng":-111.64997426875587,"phone":"(599) 440-2428","sd":"24","ssbd":"13","lsbd":"School Board Provo 2"},{"vid":"2330956","name":"Mrs. Sylvania Boyer DVM","party":"Dem","address":"3568 N 480 E, Provo, UT 84604","precinct":"25PR11","hd":"58","v_score":"6.355720798","decile":"7","lat":40.28122905320326,"lng":-111.65072577966107,"phone":"(378) 531-9506","sd":"24","ssbd":"13","lsbd":"School Board Provo 2"},{"vid":"2333319","name":"Dr. Anabella Huels DVM","party":"Rep","address":"676 E 3030 N, Provo, UT 84604","precinct":"25PR11","hd":"58","v_score":"1.623113131","decile":"5","lat":40.27363689477574,"lng":-111.64714934805082,"phone":"(622) 114-0951","sd":"24","ssbd":"13","lsbd":"School Board Provo 2"},{"vid":"2341919","name":"Iyanna Runte MD","party":"Dem","address":"551 E 3125 N, Provo, UT 84604","precinct":"25PR11","hd":"58","v_score":"2.744440783","decile":"5","lat":40.2752922493595,"lng":-111.64927211175315,"phone":"(719) 534-4965","sd":"24","ssbd":"13","lsbd":"School Board Provo 2"},{"vid":"2348531","name":"Hoover Kris Jr.","party":"Rep","address":"514 E 2780 N, Provo, UT 84604","precinct":"25PR11","hd":"58","v_score":"2.817000428","decile":"6","lat":40.27035225106683,"lng":-111.65029901350401,"phone":"(514) 208-3688","sd":"24","ssbd":"13","lsbd":"School Board Provo 2"},{"vid":"2352443","name":"Jennie Thompson MD","party":"Dem","address":"441 E 2825 N, Provo, UT 84604","precinct":"25PR11","hd":"58","v_score":"11.84414367","decile":"9","lat":40.27146216584213,"lng":-111.65086325755102,"phone":"(465) 162-4460","sd":"24","ssbd":"13","lsbd":"School Board Provo 2"},{"vid":"2355117","name":"Rae Schiller","party":"","address":"555 E 2950 N, Provo, UT 84604","precinct":"25PR11","hd":"58","v_score":"3.711952487","decile":"6","lat":40.273250845192756,"lng":-111.64897661769061,"phone":"(334) 128-9006","sd":"24","ssbd":"13","lsbd":"School Board Provo 2"},{"vid":"2356841","name":"Essie Pfannerstill","party":"","address":"3305 N 500 E, Provo, UT 84604","precinct":"25PR11","hd":"58","v_score":"1.121327652","decile":"3","lat":40.27754256121848,"lng":-111.65047738604109,"phone":"(609) 610-4330","sd":"24","ssbd":"13","lsbd":"School Board Provo 2"},{"vid":"2360034","name":"Taya Auer","party":"","address":"785 E 2780 N, Provo, UT 84604","precinct":"25PR11","hd":"58","v_score":"2.315214949","decile":"5","lat":40.27070716975174,"lng":-111.6451114367745,"phone":"(510) 427-8856","sd":"24","ssbd":"13","lsbd":"School Board Provo 2"},{"vid":"2386520","name":"Dr. Gael Veum","party":"Dem","address":"515 E 2950 N, Provo, UT 84604","precinct":"25PR11","hd":"58","v_score":"2.315214949","decile":"5","lat":40.27323461687227,"lng":-111.64972488583288,"phone":"(507) 170-2486","sd":"24","ssbd":"13","lsbd":"School Board Provo 2"},{"vid":"2387390","name":"Bonny Carter","party":"Rep","address":"575 E 3125 N, Provo, UT 84604","precinct":"25PR11","hd":"58","v_score":"2.315214949","decile":"5","lat":40.27519133170466,"lng":-111.64881462598628,"phone":"(358) 315-3543","sd":"24","ssbd":"13","lsbd":"School Board Provo 2"},{"vid":"2393553","name":"Mr. Marsh Harvey PhD","party":"Dem","address":"616 E 3400 N, Provo, UT 84604","precinct":"25PR11","hd":"58","v_score":"3.93832808","decile":"6","lat":40.27868258960575,"lng":-111.64791649576415,"phone":"(273) 517-0427","sd":"24","ssbd":"13","lsbd":"School Board Provo 2"},{"vid":"2395753","name":"Ab Runte","party":"","address":"553 E 3400 N, Provo, UT 84604","precinct":"25PR11","hd":"58","v_score":"2.315214949","decile":"5","lat":40.278997502736,"lng":-111.64903412026923,"phone":"(808) 340-2875","sd":"24","ssbd":"13","lsbd":"School Board Provo 2"},{"vid":"2399500","name":"Jaime Nitzsche","party":"Dem","address":"441 E 2950 N, Provo, UT 84604","precinct":"25PR11","hd":"58","v_score":"3.93832808","decile":"6","lat":40.273284445244194,"lng":-111.65074501865827,"phone":"(475) 749-9317","sd":"24","ssbd":"13","lsbd":"School Board Provo 2"},{"vid":"2408012","name":"Mackenzie Abshire","party":"","address":"603 E 3180 N, Provo, UT 84604","precinct":"25PR11","hd":"58","v_score":"2.315214949","decile":"5","lat":40.27592724433572,"lng":-111.64865547298031,"phone":"(650) 185-9230","sd":"24","ssbd":"13","lsbd":"School Board Provo 2"},{"vid":"2411691","name":"Dr. Lindsey Prohaska","party":"Dem","address":"3353 N 500 E, Provo, UT 84604","precinct":"25PR11","hd":"58","v_score":"1.121327652","decile":"3","lat":40.278169885767504,"lng":-111.65026040932993,"phone":"(748) 845-9544","sd":"24","ssbd":"13","lsbd":"School Board Provo 2"},{"vid":"2441283","name":"Bambi Kuhn DDS","party":"Dem","address":"441 E 2950 N, Provo, UT 84604","precinct":"25PR11","hd":"58","v_score":"3.93832808","decile":"6","lat":40.273284445244194,"lng":-111.65074501865827,"phone":"(704) 820-7950","sd":"24","ssbd":"13","lsbd":"School Board Provo 2"},{"vid":"2443496","name":"Glenn Harris","party":"","address":"3288 N 500 E, Provo, UT 84604","precinct":"25PR11","hd":"58","v_score":"1.121327652","decile":"3","lat":40.27734295480782,"lng":-111.64989050067597,"phone":"(795) 437-6174","sd":"24","ssbd":"13","lsbd":"School Board Provo 2"},{"vid":"2456626","name":"Mr. Stonewall Wiza I","party":"Dem","address":"508 E 3650 N, Provo, UT 84604","precinct":"25PR11","hd":"58","v_score":"1.121327652","decile":"3","lat":40.28174834793513,"lng":-111.65061073591446,"phone":"(773) 092-9779","sd":"24","ssbd":"13","lsbd":"School Board Provo 2"},{"vid":"2480397","name":"Dejah Thiel","party":"","address":"676 E 3030 N, Provo, UT 84604","precinct":"25PR11","hd":"58","v_score":"4.069929862","decile":"6","lat":40.27363689477574,"lng":-111.64714934805082,"phone":"(458) 221-9134","sd":"24","ssbd":"13","lsbd":"School Board Provo 2"},{"vid":"2484170","name":"Weldon Runolfsson","party":"","address":"595 E 3230 N, Provo, UT 84604","precinct":"25PR11","hd":"58","v_score":"2.817000428","decile":"6","lat":40.27680911925728,"lng":-111.64835314491928,"phone":"(900) 629-3659","sd":"24","ssbd":"13","lsbd":"School Board Provo 2"},{"vid":"2488334","name":"Jonell Beier","party":"Dem","address":"740 E 3230 N, Provo, UT 84604","precinct":"25PR11","hd":"58","v_score":"2.817000428","decile":"6","lat":40.27615583186029,"lng":-111.6453114952459,"phone":"(492) 276-0685","sd":"24","ssbd":"13","lsbd":"School Board Provo 2"},{"vid":"2490039","name":"Toma Stoltenberg","party":"","address":"555 E 3050 N, Provo, UT 84604","precinct":"25PR11","hd":"58","v_score":"2.817000428","decile":"6","lat":40.27443780610838,"lng":-111.64876290116969,"phone":"(867) 245-8194","sd":"24","ssbd":"13","lsbd":"School Board Provo 2"},{"vid":"2496441","name":"Bree Quitzon","party":"Rep","address":"3036 N 600 E, Provo, UT 84604","precinct":"25PR11","hd":"58","v_score":"0","decile":"1","lat":40.27388612685379,"lng":-111.64792171777515,"phone":"(944) 585-5306","sd":"24","ssbd":"13","lsbd":"School Board Provo 2"},{"vid":"2505569","name":"Miss Willia Waelchi","party":"Rep","address":"640 E 2950 N, Provo, UT 84604","precinct":"25PR11","hd":"58","v_score":"4.235493435","decile":"7","lat":40.272614916804955,"lng":-111.64790707532586,"phone":"(955) 501-5293","sd":"24","ssbd":"13","lsbd":"School Board Provo 2"},{"vid":"2512033","name":"Jerilyn Walker","party":"","address":"3325 N 500 E, Provo, UT 84604","precinct":"25PR11","hd":"58","v_score":"1.193887297","decile":"4","lat":40.277740147061984,"lng":-111.65048029227069,"phone":"(371) 956-0167","sd":"24","ssbd":"13","lsbd":"School Board Provo 2"},{"vid":"2512252","name":"Madelynn Powlowski-Jerde","party":"Dem","address":"604 E 3125 N, Provo, UT 84604","precinct":"25PR11","hd":"58","v_score":"7.749198919","decile":"8","lat":40.27487323752484,"lng":-111.64849861401377,"phone":"(801) 428-8044","sd":"24","ssbd":"13","lsbd":"School Board Provo 2"},{"vid":"2518408","name":"Dwan Keebler","party":"","address":"668 E 3230 N, Provo, UT 84604","precinct":"25PR11","hd":"58","v_score":"0","decile":"1","lat":40.27613486872029,"lng":-111.64679037892887,"phone":"(747) 149-1163","sd":"24","ssbd":"13","lsbd":"School Board Provo 2"},{"vid":"2540705","name":"Jaylee Klein-Sauer","party":"Rep","address":"555 E 3050 N, Provo, UT 84604","precinct":"25PR11","hd":"58","v_score":"1.193887297","decile":"4","lat":40.27443780610838,"lng":-111.64876290116969,"phone":"(992) 433-7643","sd":"24","ssbd":"13","lsbd":"School Board Provo 2"},{"vid":"2546745","name":"Kris McClure","party":"Dem","address":"597 E 2780 N, Provo, UT 84604","precinct":"25PR11","hd":"58","v_score":"16.16230549","decile":"9","lat":40.27079620105419,"lng":-111.64851137758703,"phone":"(901) 810-9046","sd":"24","ssbd":"13","lsbd":"School Board Provo 2"},{"vid":"2550222","name":"Gustavo Cruickshank-Satterfield","party":"Dem","address":"674 E 3230 N, Provo, UT 84604","precinct":"25PR11","hd":"58","v_score":"3.61989409","decile":"6","lat":40.276328436711196,"lng":-111.64687002530722,"phone":"(320) 058-5932","sd":"24","ssbd":"13","lsbd":"School Board Provo 2"},{"vid":"2553090","name":"Sharyl Morar DVM","party":"","address":"2805 N 760 E, Provo, UT 84604","precinct":"25PR11","hd":"58","v_score":"9.907118004","decile":"8","lat":40.27121067111754,"lng":-111.64560830772906,"phone":"(377) 747-1204","sd":"24","ssbd":"13","lsbd":"School Board Provo 2"},{"vid":"2568670","name":"Evelyne Schuppe-Heaney","party":"","address":"684 E 2950 N, Provo, UT 84604","precinct":"25PR11","hd":"58","v_score":"1.193887297","decile":"4","lat":40.27263998370441,"lng":-111.64648858824084,"phone":"(319) 019-6584","sd":"24","ssbd":"13","lsbd":"School Board Provo 2"},{"vid":"2577919","name":"Dollie Abbott","party":"Rep","address":"579 E 2780 N, Provo, UT 84604","precinct":"25PR11","hd":"58","v_score":"0","decile":"1","lat":40.27079903359057,"lng":-111.64885173757008,"phone":"(666) 341-6543","sd":"24","ssbd":"13","lsbd":"School Board Provo 2"},{"vid":"2580063","name":"Ricci Boyer MD","party":"","address":"575 E 3125 N, Provo, UT 84604","precinct":"25PR11","hd":"58","v_score":"2.817000428","decile":"6","lat":40.27519133170466,"lng":-111.64881462598628,"phone":"(263) 652-6088","sd":"24","ssbd":"13","lsbd":"School Board Provo 2"},{"vid":"2591140","name":"Mr. Sylvester Jaskolski II","party":"Dem","address":"619 E 2780 N, Provo, UT 84604","precinct":"25PR11","hd":"58","v_score":"20.89491315","decile":"10","lat":40.270793367283986,"lng":-111.64817105173996,"phone":"(462) 152-3572","sd":"24","ssbd":"13","lsbd":"School Board Provo 2"},{"vid":"2593523","name":"Raquel Lindgren","party":"Dem","address":"508 E 3650 N, Provo, UT 84604","precinct":"25PR11","hd":"58","v_score":"0","decile":"1","lat":40.28174834793513,"lng":-111.65061073591446,"phone":"(120) 453-9493","sd":"24","ssbd":"13","lsbd":"School Board Provo 2"},{"vid":"2594139","name":"Durell Boehm-O'Hara","party":"Rep","address":"455 E 3460 N, Provo, UT 84604","precinct":"25PR11","hd":"58","v_score":"7.549608095","decile":"8","lat":40.27983805597164,"lng":-111.65087679637024,"phone":"(415) 221-7321","sd":"24","ssbd":"13","lsbd":"School Board Provo 2"},{"vid":"2596140","name":"Dr. Gilman Ortiz MD","party":"","address":"2821 N 700 E, Provo, UT 84604","precinct":"25PR11","hd":"58","v_score":"0","decile":"1","lat":40.271208911557586,"lng":-111.64669794571073,"phone":"(902) 848-2341","sd":"24","ssbd":"13","lsbd":"School Board Provo 2"},{"vid":"2596653","name":"Mr. Gregory Schroeder PhD","party":"","address":"3568 N 480 E, Provo, UT 84604","precinct":"25PR11","hd":"58","v_score":"0","decile":"1","lat":40.28122905320326,"lng":-111.65072577966107,"phone":"(147) 057-3438","sd":"24","ssbd":"13","lsbd":"School Board Provo 2"},{"vid":"2606621","name":"Unknown Hodkiewicz-Romaguera","party":"Dem","address":"528 E 3400 N, Provo, UT 84604","precinct":"25PR11","hd":"58","v_score":"0","decile":"1","lat":40.278554036262236,"lng":-111.64961522229773,"phone":"(696) 771-4881","sd":"24","ssbd":"13","lsbd":"School Board Provo 2"},{"vid":"2624317","name":"Bettylou Padberg-Macejkovic","party":"Dem","address":"557 E 3460 N, Provo, UT 84604","precinct":"25PR11","hd":"58","v_score":"5.693042993","decile":"7","lat":40.279851720778,"lng":-111.64934542366314,"phone":"(101) 964-4158","sd":"24","ssbd":"13","lsbd":"School Board Provo 2"},{"vid":"2628533","name":"Ephram Nader-Carter","party":"Dem","address":"555 E 3050 N, Provo, UT 84604","precinct":"25PR11","hd":"58","v_score":"1.623113131","decile":"5","lat":40.27443780610838,"lng":-111.64876290116969,"phone":"(841) 141-8319","sd":"24","ssbd":"13","lsbd":"School Board Provo 2"},{"vid":"2642514","name":"Dr. North Borer","party":"","address":"3353 N 500 E, Provo, UT 84604","precinct":"25PR11","hd":"58","v_score":"1.623113131","decile":"5","lat":40.278169885767504,"lng":-111.65026040932993,"phone":"(862) 205-3493","sd":"24","ssbd":"13","lsbd":"School Board Provo 2"},{"vid":"2649430","name":"Kathern Rowe","party":"","address":"579 E 2780 N, Provo, UT 84604","precinct":"25PR11","hd":"58","v_score":"0","decile":"1","lat":40.27079903359057,"lng":-111.64885173757008,"phone":"(567) 284-5832","sd":"24","ssbd":"13","lsbd":"School Board Provo 2"},{"vid":"2670241","name":"Rylee Conn-Labadie","party":"","address":"447 E 3125 N, Provo, UT 84604","precinct":"25PR11","hd":"58","v_score":"0","decile":"2","lat":40.27531123265503,"lng":-111.65084233488976,"phone":"(394) 784-2401","sd":"24","ssbd":"13","lsbd":"School Board Provo 2"},{"vid":"2673624","name":"Bernetta Blick-Price","party":"","address":"3292 N Canyon Rd, Provo, UT 84604","precinct":"25PR11","hd":"58","v_score":"11.99595736","decile":"9","lat":40.27718756456439,"lng":-111.65087802466249,"phone":"(654) 250-7086","sd":"24","ssbd":"13","lsbd":"School Board Provo 2"},{"vid":"2675217","name":"Melisa Yundt","party":"Dem","address":"528 E 3400 N, Provo, UT 84604","precinct":"25PR11","hd":"58","v_score":"1.193887297","decile":"4","lat":40.278554036262236,"lng":-111.64961522229773,"phone":"(432) 128-0716","sd":"24","ssbd":"13","lsbd":"School Board Provo 2"},{"vid":"2677026","name":"Trinidad Price","party":"Rep","address":"695 E 3230 N, Provo, UT 84604","precinct":"25PR11","hd":"58","v_score":"1.193887297","decile":"4","lat":40.27676297319735,"lng":-111.6467556234185,"phone":"(172) 429-7051","sd":"24","ssbd":"13","lsbd":"School Board Provo 2"},{"vid":"2679144","name":"Gaige Torp","party":"","address":"628 E 2825 N, Provo, UT 84604","precinct":"25PR11","hd":"58","v_score":"0","decile":"2","lat":40.271048382299504,"lng":-111.6477587377806,"phone":"(334) 743-3718","sd":"24","ssbd":"13","lsbd":"School Board Provo 2"},{"vid":"2683884","name":"Mrs. Clevie Bahringer MD","party":"Dem","address":"2770 N Canyon Rd, Provo, UT 84604","precinct":"25PR11","hd":"58","v_score":"4.069929862","decile":"6","lat":40.26976075752465,"lng":-111.65276307895583,"phone":"(842) 698-6237","sd":"24","ssbd":"13","lsbd":"School Board Provo 2"},{"vid":"2689263","name":"Doretta Hermiston","party":"","address":"2797 N 700 E, Provo, UT 84604","precinct":"25PR11","hd":"58","v_score":"0","decile":"2","lat":40.27065102018064,"lng":-111.64666380620686,"phone":"(572) 608-3122","sd":"24","ssbd":"13","lsbd":"School Board Provo 2"},{"vid":"2696899","name":"Carmel Batz","party":"Dem","address":"575 E 3125 N, Provo, UT 84604","precinct":"25PR11","hd":"58","v_score":"1.193887297","decile":"4","lat":40.27519133170466,"lng":-111.64881462598628,"phone":"(389) 375-1858","sd":"24","ssbd":"13","lsbd":"School Board Provo 2"},{"vid":"2704867","name":"Ms. Shae Gulgowski","party":"","address":"548 E 3400 N, Provo, UT 84604","precinct":"25PR11","hd":"58","v_score":"0","decile":"2","lat":40.27865809012023,"lng":-111.6490274526368,"phone":"(301) 939-6922","sd":"24","ssbd":"13","lsbd":"School Board Provo 2"},{"vid":"2707548","name":"Dr. Mervin Murray","party":"","address":"3138 N 600 E, Provo, UT 84604","precinct":"25PR11","hd":"58","v_score":"16.72856503","decile":"9","lat":40.275236062819424,"lng":-111.64842828724174,"phone":"(285) 824-5897","sd":"24","ssbd":"13","lsbd":"School Board Provo 2"},{"vid":"2727735","name":"Andre Heidenreich","party":"Rep","address":"619 E 2780 N, Provo, UT 84604","precinct":"25PR11","hd":"58","v_score":"11.99595736","decile":"9","lat":40.270793367283986,"lng":-111.64817105173996,"phone":"(327) 926-1660","sd":"24","ssbd":"13","lsbd":"School Board Provo 2"},{"vid":"2731972","name":"Alijah Medhurst","party":"Rep","address":"3306 N Canyon Rd, Provo, UT 84604","precinct":"25PR11","hd":"58","v_score":"4.069929862","decile":"7","lat":40.27738804872726,"lng":-111.6508443809823,"phone":"(962) 020-4164","sd":"24","ssbd":"13","lsbd":"School Board Provo 2"},{"vid":"2732411","name":"Hezzie Runte","party":"Rep","address":"676 E 3030 N, Provo, UT 84604","precinct":"25PR11","hd":"58","v_score":"0","decile":"2","lat":40.27363689477574,"lng":-111.64714934805082,"phone":"(357) 426-9295","sd":"24","ssbd":"13","lsbd":"School Board Provo 2"},{"vid":"2735151","name":"Theda Jaskolski","party":"Dem","address":"445 E 3050 N, Provo, UT 84604","precinct":"25PR11","hd":"58","v_score":"1.193887297","decile":"4","lat":40.27434465165455,"lng":-111.65079928191702,"phone":"(854) 602-9719","sd":"24","ssbd":"13","lsbd":"School Board Provo 2"},{"vid":"2740338","name":"Patty Cormier-Parker","party":"","address":"514 E 2780 N, Provo, UT 84604","precinct":"25PR11","hd":"58","v_score":"1.193887297","decile":"4","lat":40.27035225106683,"lng":-111.65029901350401,"phone":"(440) 557-9246","sd":"24","ssbd":"13","lsbd":"School Board Provo 2"},{"vid":"2741283","name":"Arch Abbott","party":"Rep","address":"785 E 2780 N, Provo, UT 84604","precinct":"25PR11","hd":"58","v_score":"4.069929862","decile":"7","lat":40.27070716975174,"lng":-111.6451114367745,"phone":"(481) 447-9192","sd":"24","ssbd":"13","lsbd":"School Board Provo 2"},{"vid":"2755790","name":"Asberry Russel","party":"","address":"668 E 3230 N, Provo, UT 84604","precinct":"25PR11","hd":"58","v_score":"0","decile":"2","lat":40.27613486872029,"lng":-111.64679037892887,"phone":"(774) 658-9517","sd":"24","ssbd":"13","lsbd":"School Board Provo 2"},{"vid":"2760267","name":"Parlee Oberbrunner-Smith","party":"","address":"515 E 2950 N, Provo, UT 84604","precinct":"25PR11","hd":"58","v_score":"1.193887297","decile":"4","lat":40.27323461687227,"lng":-111.64972488583288,"phone":"(508) 947-2189","sd":"24","ssbd":"13","lsbd":"School Board Provo 2"},{"vid":"2766025","name":"Barb Erdman","party":"Dem","address":"578 E 3400 N, Provo, UT 84604","precinct":"25PR11","hd":"58","v_score":"1.193887297","decile":"4","lat":40.27859008156002,"lng":-111.64849508296909,"phone":"(796) 516-7097","sd":"24","ssbd":"13","lsbd":"School Board Provo 2"},{"vid":"2766787","name":"Myrtie Stiedemann","party":"Dem","address":"447 E 3125 N, Provo, UT 84604","precinct":"25PR11","hd":"58","v_score":"0","decile":"2","lat":40.27531123265503,"lng":-111.65084233488976,"phone":"(610) 450-6822","sd":"24","ssbd":"13","lsbd":"School Board Provo 2"},{"vid":"2774850","name":"Mr. Donnell Sipes","party":"Dem","address":"485 E 3460 N, Provo, UT 84604","precinct":"25PR11","hd":"58","v_score":"1.193887297","decile":"4","lat":40.27990943066991,"lng":-111.65000865308926,"phone":"(740) 019-3878","sd":"24","ssbd":"13","lsbd":"School Board Provo 2"},{"vid":"2778695","name":"Grady Rogahn","party":"Dem","address":"515 E 2950 N, Provo, UT 84604","precinct":"25PR11","hd":"58","v_score":"0","decile":"2","lat":40.27323461687227,"lng":-111.64972488583288,"phone":"(189) 045-0988","sd":"24","ssbd":"13","lsbd":"School Board Provo 2"},{"vid":"2792458","name":"Mr. Zain Abshire","party":"Dem","address":"571 E 3050 N, Provo, UT 84604","precinct":"25PR11","hd":"58","v_score":"4.069929862","decile":"7","lat":40.27441776503258,"lng":-111.64841504408255,"phone":"(248) 921-1427","sd":"24","ssbd":"13","lsbd":"School Board Provo 2"},{"vid":"2794267","name":"Mr. Lambert Stiedemann","party":"","address":"547 E 2825 N, Provo, UT 84604","precinct":"25PR11","hd":"58","v_score":"5.407962308","decile":"7","lat":40.271434406211014,"lng":-111.64936639892538,"phone":"(581) 914-8710","sd":"24","ssbd":"13","lsbd":"School Board Provo 2"},{"vid":"2800331","name":"Julian Larson","party":"Dem","address":"441 E 2950 N, Provo, UT 84604","precinct":"25PR11","hd":"58","v_score":"0","decile":"2","lat":40.273284445244194,"lng":-111.65074501865827,"phone":"(804) 094-1086","sd":"24","ssbd":"13","lsbd":"School Board Provo 2"},{"vid":"2807017","name":"Malik Orn IV","party":"Dem","address":"555 E 3050 N, Provo, UT 84604","precinct":"25PR11","hd":"58","v_score":"0","decile":"2","lat":40.27443780610838,"lng":-111.64876290116969,"phone":"(209) 055-5560","sd":"24","ssbd":"13","lsbd":"School Board Provo 2"},{"vid":"2815015","name":"Collie Hintz","party":"Dem","address":"441 E 2825 N, Provo, UT 84604","precinct":"25PR11","hd":"58","v_score":"8.284004873","decile":"8","lat":40.27146216584213,"lng":-111.65086325755102,"phone":"(456) 827-4251","sd":"24","ssbd":"13","lsbd":"School Board Provo 2"},{"vid":"2819083","name":"Mrs. Dortha Mante","party":"Rep","address":"572 E 3400 N, Provo, UT 84604","precinct":"25PR11","hd":"58","v_score":"1.193887297","decile":"4","lat":40.27860279986378,"lng":-111.6486432398503,"phone":"(577) 596-6137","sd":"24","ssbd":"13","lsbd":"School Board Provo 2"},{"vid":"2825169","name":"Loda Krajcik","party":"","address":"575 E 3125 N, Provo, UT 84604","precinct":"25PR11","hd":"58","v_score":"5.407962308","decile":"7","lat":40.27519133170466,"lng":-111.64881462598628,"phone":"(513) 695-3837","sd":"24","ssbd":"13","lsbd":"School Board Provo 2"},{"vid":"2827680","name":"Hope Leuschke","party":"","address":"466 E 2950 N, Provo, UT 84604","precinct":"25PR11","hd":"58","v_score":"1.193887297","decile":"4","lat":40.27242516737479,"lng":-111.65070472297236,"phone":"(219) 942-8950","sd":"24","ssbd":"13","lsbd":"School Board Provo 2"},{"vid":"2836596","name":"Randolph Rath","party":"","address":"2801 N 760 E, Provo, UT 84604","precinct":"25PR11","hd":"58","v_score":"1.193887297","decile":"4","lat":40.27102097748702,"lng":-111.64551091969896,"phone":"(352) 358-9497","sd":"24","ssbd":"13","lsbd":"School Board Provo 2"},{"vid":"2840665","name":"Johannah Bauch-Bogan","party":"Rep","address":"2805 N 760 E, Provo, UT 84604","precinct":"25PR11","hd":"58","v_score":"1.193887297","decile":"4","lat":40.27121067111754,"lng":-111.64560830772906,"phone":"(856) 255-6922","sd":"24","ssbd":"13","lsbd":"School Board Provo 2"},{"vid":"2841833","name":"Breanne Schroeder","party":"Rep","address":"664 E 3100 N, Provo, UT 84604","precinct":"25PR11","hd":"58","v_score":"1.193887297","decile":"4","lat":40.274744441967506,"lng":-111.64737812968279,"phone":"(241) 529-5440","sd":"24","ssbd":"13","lsbd":"School Board Provo 2"},{"vid":"2844422","name":"Dr. Rube Dickinson PhD","party":"","address":"572 E 3400 N, Provo, UT 84604","precinct":"25PR11","hd":"58","v_score":"1.193887297","decile":"4","lat":40.27860279986378,"lng":-111.6486432398503,"phone":"(500) 928-8920","sd":"24","ssbd":"13","lsbd":"School Board Provo 2"},{"vid":"2856087","name":"Shelvie Hilll","party":"","address":"510 E 3460 N, Provo, UT 84604","precinct":"25PR11","hd":"58","v_score":"1.193887297","decile":"4","lat":40.27945747544319,"lng":-111.6499923996329,"phone":"(912) 246-3425","sd":"24","ssbd":"13","lsbd":"School Board Provo 2"},{"vid":"2875506","name":"Nichole Heaney DDS","party":"","address":"491 E 3125 N, Provo, UT 84604","precinct":"25PR11","hd":"58","v_score":"1.193887297","decile":"4","lat":40.2752041259213,"lng":-111.6500611150544,"phone":"(629) 054-4745","sd":"24","ssbd":"13","lsbd":"School Board Provo 2"},{"vid":"2875621","name":"Dr. Marques O'Keefe","party":"","address":"555 E 3050 N, Provo, UT 84604","precinct":"25PR11","hd":"58","v_score":"1.193887297","decile":"4","lat":40.27443780610838,"lng":-111.64876290116969,"phone":"(183) 380-6657","sd":"24","ssbd":"13","lsbd":"School Board Provo 2"},{"vid":"2877695","name":"Marge Lakin","party":"Dem","address":"435 E 3460 N, Provo, UT 84604","precinct":"25PR11","hd":"58","v_score":"1.193887297","decile":"4","lat":40.279680651019845,"lng":-111.65130594618319,"phone":"(226) 278-5497","sd":"24","ssbd":"13","lsbd":"School Board Provo 2"},{"vid":"2893948","name":"Purl Von","party":"","address":"515 E 2950 N, Provo, UT 84604","precinct":"25PR11","hd":"58","v_score":"0","decile":"2","lat":40.27323461687227,"lng":-111.64972488583288,"phone":"(623) 466-6978","sd":"24","ssbd":"13","lsbd":"School Board Provo 2"},{"vid":"2919747","name":"Chip Fadel","party":"","address":"515 E 3400 N, Provo, UT 84604","precinct":"25PR11","hd":"58","v_score":"0","decile":"2","lat":40.27901313216798,"lng":-111.64985623256212,"phone":"(859) 669-5859","sd":"24","ssbd":"13","lsbd":"School Board Provo 2"},{"vid":"2922975","name":"Pascal White","party":"Dem","address":"720 E 3230 N, Provo, UT 84604","precinct":"25PR11","hd":"58","v_score":"0","decile":"2","lat":40.42830167350182,"lng":-111.83788475245406,"phone":"(449) 105-4030","sd":"24","ssbd":"13","lsbd":"School Board Provo 2"},{"vid":"2923715","name":"Mauricio Schinner","party":"Rep","address":"3292 N Canyon Rd, Provo, UT 84604","precinct":"25PR11","hd":"58","v_score":"7.090117576","decile":"8","lat":40.27718756456439,"lng":-111.65087802466249,"phone":"(823) 541-4389","sd":"24","ssbd":"13","lsbd":"School Board Provo 2"},{"vid":"2929673","name":"Dr. Otha Connelly","party":"","address":"3336 N Canyon Rd, Provo, UT 84604","precinct":"25PR11","hd":"58","v_score":"0","decile":"2","lat":40.27811279298974,"lng":-111.6511674433815,"phone":"(273) 559-6140","sd":"24","ssbd":"13","lsbd":"School Board Provo 2"},{"vid":"2935472","name":"Garvin Goyette III","party":"","address":"468 E 3125 N, Provo, UT 84604","precinct":"25PR11","hd":"58","v_score":"7.090117576","decile":"8","lat":40.274678780959796,"lng":-111.65052674451336,"phone":"(286) 771-7964","sd":"24","ssbd":"13","lsbd":"School Board Provo 2"},{"vid":"2938215","name":"Dorthy Lowe","party":"Dem","address":"468 E 3125 N, Provo, UT 84604","precinct":"25PR11","hd":"58","v_score":"7.090117576","decile":"8","lat":40.274678780959796,"lng":-111.65052674451336,"phone":"(857) 916-9943","sd":"24","ssbd":"13","lsbd":"School Board Provo 2"},{"vid":"2950889","name":"Ryland Bauch","party":"Dem","address":"665 E 3230 N, Provo, UT 84604","precinct":"25PR11","hd":"58","v_score":"2.876042565","decile":"6","lat":40.27666348562426,"lng":-111.64745753296245,"phone":"(470) 903-0747","sd":"24","ssbd":"13","lsbd":"School Board Provo 2"},{"vid":"2951188","name":"Suzanna Sporer","party":"Dem","address":"604 E 3125 N, Provo, UT 84604","precinct":"25PR11","hd":"58","v_score":"0","decile":"2","lat":40.27487323752484,"lng":-111.64849861401377,"phone":"(345) 063-3478","sd":"24","ssbd":"13","lsbd":"School Board Provo 2"},{"vid":"2955901","name":"Vere Kris","party":"","address":"3020 N 600 E, Provo, UT 84604","precinct":"25PR11","hd":"58","v_score":"0","decile":"2","lat":40.27360068419701,"lng":-111.6480617028747,"phone":"(523) 915-6187","sd":"24","ssbd":"13","lsbd":"School Board Provo 2"},{"vid":"2961361","name":"Ms. Joy Klein MD","party":"Rep","address":"2818 N 760 E, Provo, UT 84604","precinct":"25PR11","hd":"58","v_score":"0","decile":"2","lat":40.27138423964748,"lng":-111.6452516706803,"phone":"(902) 831-6194","sd":"24","ssbd":"13","lsbd":"School Board Provo 2"},{"vid":"2965914","name":"Camron Nienow","party":"Rep","address":"515 E 3400 N, Provo, UT 84604","precinct":"25PR11","hd":"58","v_score":"0","decile":"2","lat":40.27901313216798,"lng":-111.64985623256212,"phone":"(565) 938-5389","sd":"24","ssbd":"13","lsbd":"School Board Provo 2"},{"vid":"2974460","name":"Jalen Streich","party":"Rep","address":"597 E 2780 N, Provo, UT 84604","precinct":"25PR11","hd":"58","v_score":"0","decile":"2","lat":40.27079620105419,"lng":-111.64851137758703,"phone":"(510) 016-2752","sd":"24","ssbd":"13","lsbd":"School Board Provo 2"},{"vid":"3005505","name":"Delle Raynor","party":"","address":"717 E 3100 N, Provo, UT 84604","precinct":"25PR11","hd":"58","v_score":"4.13679489","decile":"7","lat":40.2751416857246,"lng":-111.64617095543252,"phone":"(764) 167-8682","sd":"24","ssbd":"13","lsbd":"School Board Provo 2"},{"vid":"3069067","name":"Ramsey Powlowski","party":"Rep","address":"548 E 3400 N, Provo, UT 84604","precinct":"25PR11","hd":"58","v_score":"1.193887297","decile":"4","lat":40.27865809012023,"lng":-111.6490274526368,"phone":"(737) 602-0017","sd":"24","ssbd":"13","lsbd":"School Board Provo 2"},{"vid":"3098827","name":"Darryn Jacobson","party":"","address":"2793 N 840 E, Provo, UT 84604","precinct":"25PR11","hd":"58","v_score":"7.169296324","decile":"8","lat":40.271047743497284,"lng":-111.64454176369895,"phone":"(500) 016-7147","sd":"24","ssbd":"13","lsbd":"School Board Provo 2"},{"vid":"3151230","name":"Jermey Fahey","party":"Dem","address":"491 E 3050 N, Provo, UT 84604","precinct":"25PR11","hd":"58","v_score":"8.648882542","decile":"8","lat":40.27446547842352,"lng":-111.64997426875587,"phone":"(553) 884-2586","sd":"24","ssbd":"13","lsbd":"School Board Provo 2"},{"vid":"3371485","name":"Hilah Lubowitz","party":"","address":"2891 N 840 E, Provo, UT 84604","precinct":"25PR11","hd":"58","v_score":"16.05971545","decile":"9","lat":40.272319191336415,"lng":-111.64462434892437,"phone":"(172) 414-6261","sd":"24","ssbd":"13","lsbd":"School Board Provo 2"},{"vid":"5541461","name":"Alfred Nikolaus DDS","party":"Rep","address":"461 E 2780 N, Provo, UT 84604","precinct":"25PR11","hd":"58","v_score":"14.48926941","decile":"9","lat":40.27066960072,"lng":-111.6508339929883,"phone":"(116) 786-9145","sd":"24","ssbd":"13","lsbd":"School Board Provo 2"},{"vid":"5557552","name":"Reino Kuhic","party":"Rep","address":"571 E 3050 N, Provo, UT 84604","precinct":"25PR11","hd":"58","v_score":"20.96069989","decile":"10","lat":40.27441776503258,"lng":-111.64841504408255,"phone":"(888) 160-3950","sd":"24","ssbd":"13","lsbd":"School Board Provo 2"},{"vid":"5561531","name":"Dell Thompson","party":"","address":"571 E 3050 N, Provo, UT 84604","precinct":"25PR11","hd":"58","v_score":"21.04323721","decile":"10","lat":40.27441776503258,"lng":-111.64841504408255,"phone":"(263) 010-0978","sd":"24","ssbd":"13","lsbd":"School Board Provo 2"},{"vid":"e2ea781fb73641448dc05e6b018b32ef5ef6bc3447b3465d9ab0a675147afbb5","name":"Blain Fisher","party":"Rep","address":"3332 N Canyon Rd, Provo, UT 84604","precinct":"25PR11","hd":"58","v_score":"22.07502015","decile":"10","lat":40.27812301103359,"lng":-111.650793733466,"phone":"(363) 628-3158","sd":"24","ssbd":"13","lsbd":"School Board Provo 2"},{"vid":"6163278","name":"Ms. Shawnda Cummings","party":"","address":"558 E 3125 N, Provo, UT 84604","precinct":"25PR11","hd":"58","v_score":"34.62894986","decile":"10","lat":40.27484851999137,"lng":-111.64917401195119,"phone":"(704) 847-9917","sd":"24","ssbd":"13","lsbd":"School Board Provo 2"},{"vid":"6178909","name":"Hardin Considine-Kertzmann","party":"Dem","address":"3318 N 500 E, Provo, UT 84604","precinct":"25PR11","hd":"58","v_score":"5.287675778","decile":"7","lat":40.27774196856476,"lng":-111.64989636793241,"phone":"(696) 732-8507","sd":"24","ssbd":"13","lsbd":"School Board Provo 2"},{"vid":"6182874","name":"Orrie Pfannerstill","party":"","address":"531 E 2950 N, Provo, UT 84604","precinct":"25PR11","hd":"58","v_score":"2.315214949","decile":"5","lat":40.27323121789618,"lng":-111.64938092863609,"phone":"(656) 037-2369","sd":"24","ssbd":"13","lsbd":"School Board Provo 2"},{"vid":"6208525","name":"Mrs. Unique Hermiston DDS","party":"Dem","address":"475 E 3460 N, Provo, UT 84604","precinct":"25PR11","hd":"58","v_score":"25.64829348","decile":"10","lat":40.27983525615365,"lng":-111.65028989058248,"phone":"(245) 896-4302","sd":"24","ssbd":"13","lsbd":"School Board Provo 2"},{"vid":"6208853","name":"Mr. Augustus Howell","party":"Rep","address":"471 E 3230 N, Provo, UT 84604","precinct":"25PR11","hd":"58","v_score":"30.91699738","decile":"10","lat":40.276676635726595,"lng":-111.65033153933699,"phone":"(934) 401-7164","sd":"24","ssbd":"13","lsbd":"School Board Provo 2"},{"vid":"6210592","name":"Colette Hickle PhD","party":"Dem","address":"471 E 3230 N, Provo, UT 84604","precinct":"25PR11","hd":"58","v_score":"12.57725863","decile":"9","lat":40.276676635726595,"lng":-111.65033153933699,"phone":"(224) 510-1428","sd":"24","ssbd":"13","lsbd":"School Board Provo 2"},{"vid":"6211593","name":"Neola Bode","party":"Rep","address":"475 E 3460 N, Provo, UT 84604","precinct":"25PR11","hd":"58","v_score":"11.30609121","decile":"9","lat":40.27983525615365,"lng":-111.65028989058248,"phone":"(588) 515-4468","sd":"24","ssbd":"13","lsbd":"School Board Provo 2"},{"vid":"6213828","name":"Breann Flatley","party":"","address":"546 E 2875 N, Provo, UT 84604","precinct":"25PR11","hd":"58","v_score":"34.09285363","decile":"10","lat":40.27167198787347,"lng":-111.64897356888557,"phone":"(990) 074-6886","sd":"24","ssbd":"13","lsbd":"School Board Provo 2"},{"vid":"6219136","name":"Alicia Jerde PhD","party":"Dem","address":"583 E 3400 N, Provo, UT 84604","precinct":"25PR11","hd":"58","v_score":"21.41280004","decile":"10","lat":40.27906070022566,"lng":-111.64847311618313,"phone":"(829) 674-5832","sd":"24","ssbd":"13","lsbd":"School Board Provo 2"},{"vid":"6228920","name":"Rosalyn Koch","party":"","address":"735 E 2950 N, Provo, UT 84604","precinct":"25PR11","hd":"58","v_score":"19.78968691","decile":"10","lat":40.272989840399035,"lng":-111.64575497421316,"phone":"(131) 764-3705","sd":"24","ssbd":"13","lsbd":"School Board Provo 2"},{"vid":"6232316","name":"Hazle Nolan","party":"Rep","address":"3148 N 500 E, Provo, UT 84604","precinct":"25PR11","hd":"58","v_score":"34.62894986","decile":"10","lat":40.275542563819364,"lng":-111.64965061672598,"phone":"(879) 768-7139","sd":"24","ssbd":"13","lsbd":"School Board Provo 2"},{"vid":"6235624","name":"Alexandra Greenfelder","party":"Dem","address":"697 E 3030 N, Provo, UT 84604","precinct":"25PR11","hd":"58","v_score":"14.25581744","decile":"9","lat":40.27418523015888,"lng":-111.64670939578461,"phone":"(744) 741-9989","sd":"24","ssbd":"13","lsbd":"School Board Provo 2"},{"vid":"2aa71f9deeb13a2638249b1a85d9dd5cc2fdd94060e69b76cc95c9dc0a7e341e","name":"Nigel Thompson","party":"Dem","address":"697 E 3030 N, Provo, UT 84604","precinct":"25PR11","hd":"58","v_score":"14.25581744","decile":"9","lat":40.27418523015888,"lng":-111.64670939578461,"phone":"(154) 914-1942","sd":"24","ssbd":"13","lsbd":"School Board Provo 2"},{"vid":"6237892","name":"Shayla Kuvalis","party":"Rep","address":"3138 N 600 E, Provo, UT 84604","precinct":"25PR11","hd":"58","v_score":"39.36155753","decile":"10","lat":40.275236062819424,"lng":-111.64842828724174,"phone":"(116) 202-3838","sd":"24","ssbd":"13","lsbd":"School Board Provo 2"},{"vid":"ac79a1955eb4905387285587101aca5e4f8e1f77fb9f3d4567dff0f6cdc6dcee","name":"Melanie Lockman","party":"","address":"452 E 3050 N, Provo, UT 84604","precinct":"25PR11","hd":"58","v_score":"31.14994604","decile":"10","lat":40.27378156213691,"lng":-111.65071073535378,"phone":"(558) 136-3955","sd":"24","ssbd":"13","lsbd":"School Board Provo 2"},{"vid":"6cc7f4b40dae3b5eaba50818c85a418201889eb4c4ae903cf61ffd9a79de10c9","name":"Braylon Kovacek","party":"Rep","address":"452 E 3050 N, Provo, UT 84604","precinct":"25PR11","hd":"58","v_score":"31.14994604","decile":"10","lat":40.27378156213691,"lng":-111.65071073535378,"phone":"(389) 707-5388","sd":"24","ssbd":"13","lsbd":"School Board Provo 2"},{"vid":"f51e6b3b3b6bf0ecb4941e42dfbcea353062c86f42339b7018a0607e8db687c4","name":"Mr. Jobe Rogahn DDS","party":"Dem","address":"473 E 2950 N, Provo, UT 84604","precinct":"25PR11","hd":"58","v_score":"19.05529013","decile":"10","lat":40.27334093873877,"lng":-111.65045903220218,"phone":"(734) 678-7655","sd":"24","ssbd":"13","lsbd":"School Board Provo 2"},{"vid":"6260170","name":"Francis Botsford","party":"","address":"616 E 3400 N, Provo, UT 84604","precinct":"25PR11","hd":"58","v_score":"11.23922619","decile":"9","lat":40.27868258960575,"lng":-111.64791649576415,"phone":"(884) 199-7711","sd":"24","ssbd":"13","lsbd":"School Board Provo 2"},{"vid":"6273148","name":"Mrs. Hortensia Franecki","party":"Rep","address":"435 E 3460 N, Provo, UT 84604","precinct":"25PR11","hd":"58","v_score":"1.193887297","decile":"4","lat":40.279680651019845,"lng":-111.65130594618319,"phone":"(877) 540-7629","sd":"24","ssbd":"13","lsbd":"School Board Provo 2"},{"vid":"6274858","name":"Dr. Kameron Marks","party":"","address":"2745 N 600 E, Provo, UT 84604","precinct":"25PR11","hd":"58","v_score":"30.91198908","decile":"10","lat":40.270035053762236,"lng":-111.6488249704995,"phone":"(582) 940-1869","sd":"24","ssbd":"13","lsbd":"School Board Provo 2"},{"vid":"6276124","name":"Elliot Lindgren","party":"","address":"668 E 3230 N, Provo, UT 84604","precinct":"25PR11","hd":"58","v_score":"34.09285363","decile":"10","lat":40.27613486872029,"lng":-111.64679037892887,"phone":"(993) 656-9961","sd":"24","ssbd":"13","lsbd":"School Board Provo 2"},{"vid":"6276414","name":"Lauren Mante","party":"","address":"424 E 2825 N, Provo, UT 84604","precinct":"25PR11","hd":"58","v_score":"18.46989245","decile":"10","lat":40.27110756560976,"lng":-111.65114173519929,"phone":"(968) 589-5136","sd":"24","ssbd":"13","lsbd":"School Board Provo 2"},{"vid":"6286528","name":"Randel Leffler","party":"Dem","address":"466 E 2950 N, Provo, UT 84604","precinct":"25PR11","hd":"58","v_score":"5.40460374","decile":"7","lat":40.27242516737479,"lng":-111.65070472297236,"phone":"(526) 377-8329","sd":"24","ssbd":"13","lsbd":"School Board Provo 2"},{"vid":"6291177","name":"Suzanna Rippin DVM","party":"Dem","address":"441 E 2950 N, Provo, UT 84604","precinct":"25PR11","hd":"58","v_score":"6.896907962","decile":"8","lat":40.273284445244194,"lng":-111.65074501865827,"phone":"(524) 979-3640","sd":"24","ssbd":"13","lsbd":"School Board Provo 2"},{"vid":"6292333","name":"Magdalena Von","party":"Dem","address":"572 E 3400 N, Provo, UT 84604","precinct":"25PR11","hd":"58","v_score":"5.693042993","decile":"7","lat":40.27860279986378,"lng":-111.6486432398503,"phone":"(156) 564-8863","sd":"24","ssbd":"13","lsbd":"School Board Provo 2"},{"vid":"6299680","name":"Dandre Kassulke","party":"Rep","address":"785 E 2780 N, Provo, UT 84604","precinct":"25PR11","hd":"58","v_score":"10.89302661","decile":"9","lat":40.27070716975174,"lng":-111.6451114367745,"phone":"(843) 347-6009","sd":"24","ssbd":"13","lsbd":"School Board Provo 2"},{"vid":"6304435","name":"Tella Kulas","party":"","address":"2841 N 700 E, Provo, UT 84604","precinct":"25PR11","hd":"58","v_score":"29.8573602","decile":"10","lat":40.271367859200005,"lng":-111.64664040883645,"phone":"(305) 546-3296","sd":"24","ssbd":"13","lsbd":"School Board Provo 2"},{"vid":"6306557","name":"Vessie Hartmann","party":"Rep","address":"755 E 2780 N, Provo, UT 84604","precinct":"25PR11","hd":"58","v_score":"23.30333885","decile":"10","lat":40.270695318418625,"lng":-111.64541803941738,"phone":"(914) 529-7613","sd":"24","ssbd":"13","lsbd":"School Board Provo 2"},{"vid":"6306926","name":"Kael Smith-Hamill","party":"","address":"466 E 2780 N, Provo, UT 84604","precinct":"25PR11","hd":"58","v_score":"27.00273605","decile":"10","lat":40.27025413426363,"lng":-111.6506190573362,"phone":"(629) 348-4463","sd":"24","ssbd":"13","lsbd":"School Board Provo 2"},{"vid":"6309356","name":"Amarion Ward","party":"Rep","address":"472 E 3530 N, Provo, UT 84604","precinct":"25PR11","hd":"58","v_score":"11.2235539","decile":"9","lat":40.280734158898646,"lng":-111.65096173465263,"phone":"(156) 140-5048","sd":"24","ssbd":"13","lsbd":"School Board Provo 2"},{"vid":"6309887","name":"Barton Hayes","party":"","address":"466 E 2780 N, Provo, UT 84604","precinct":"25PR11","hd":"58","v_score":"27.00273605","decile":"10","lat":40.27025413426363,"lng":-111.6506190573362,"phone":"(200) 437-3865","sd":"24","ssbd":"13","lsbd":"School Board Provo 2"},{"vid":"6317810","name":"Bode Abernathy","party":"Dem","address":"3353 N 500 E, Provo, UT 84604","precinct":"25PR11","hd":"58","v_score":"11.23922619","decile":"9","lat":40.278169885767504,"lng":-111.65026040932993,"phone":"(849) 420-8922","sd":"24","ssbd":"13","lsbd":"School Board Provo 2"},{"vid":"6334251","name":"Mrs. Baylie Kautzer","party":"Rep","address":"446 E 3125 N, Provo, UT 84604","precinct":"25PR11","hd":"58","v_score":"26.41733837","decile":"10","lat":40.2747575851389,"lng":-111.65084479996956,"phone":"(287) 061-4886","sd":"24","ssbd":"13","lsbd":"School Board Provo 2"},{"vid":"6335502","name":"Leandra Gleichner","party":"Rep","address":"676 E 2950 N, Provo, UT 84604","precinct":"25PR11","hd":"58","v_score":"41.09946885","decile":"10","lat":40.27264149352944,"lng":-111.64682361787766,"phone":"(461) 613-7403","sd":"24","ssbd":"13","lsbd":"School Board Provo 2"},{"vid":"6336181","name":"Mr. Troy Lang","party":"Rep","address":"2727 N 550 E, Provo, UT 84604","precinct":"25PR11","hd":"58","v_score":"18.46989245","decile":"10","lat":40.26981263413722,"lng":-111.64992446259319,"phone":"(219) 388-0905","sd":"24","ssbd":"13","lsbd":"School Board Provo 2"},{"vid":"6338413","name":"Dr. Juliette Hahn PhD","party":"Dem","address":"495 E 3400 N, Provo, UT 84604","precinct":"25PR11","hd":"58","v_score":"24.43395758","decile":"10","lat":40.278937967565376,"lng":-111.65005871584282,"phone":"(288) 004-5408","sd":"24","ssbd":"13","lsbd":"School Board Provo 2"},{"vid":"6338645","name":"Mrs. Bettye Leannon DDS","party":"Dem","address":"2746 N 550 E, Provo, UT 84604","precinct":"25PR11","hd":"58","v_score":"7.650280567","decile":"8","lat":40.27006648457511,"lng":-111.64919454600128,"phone":"(401) 554-0367","sd":"24","ssbd":"13","lsbd":"School Board Provo 2"},{"vid":"6338669","name":"Norine Gerlach-Altenwerth","party":"Dem","address":"735 E 2950 N, Provo, UT 84604","precinct":"25PR11","hd":"58","v_score":"16.84677932","decile":"9","lat":40.272989840399035,"lng":-111.64575497421316,"phone":"(261) 391-6456","sd":"24","ssbd":"13","lsbd":"School Board Provo 2"},{"vid":"6343618","name":"Bill Orn","party":"Rep","address":"598 E 2825 N, Provo, UT 84604","precinct":"25PR11","hd":"58","v_score":"5.40460374","decile":"7","lat":40.27105065157814,"lng":-111.64817426085155,"phone":"(318) 354-9184","sd":"24","ssbd":"13","lsbd":"School Board Provo 2"},{"vid":"6343631","name":"Heriberto Kemmer","party":"","address":"545 E 2875 N, Provo, UT 84604","precinct":"25PR11","hd":"58","v_score":"25.12475253","decile":"10","lat":40.27204982416192,"lng":-111.64904742243931,"phone":"(331) 622-1769","sd":"24","ssbd":"13","lsbd":"School Board Provo 2"},{"vid":"6344259","name":"Ms. Benita Emmerich DVM","party":"","address":"711 E 3230 N, Provo, UT 84604","precinct":"25PR11","hd":"58","v_score":"23.8268798","decile":"10","lat":40.27677561547701,"lng":-111.64641312382808,"phone":"(964) 011-5204","sd":"24","ssbd":"13","lsbd":"School Board Provo 2"},{"vid":"6344488","name":"Kimberley Koelpin","party":"","address":"540 E 3460 N, Provo, UT 84604","precinct":"25PR11","hd":"58","v_score":"31.14994604","decile":"10","lat":40.279483802010915,"lng":-111.64984764151475,"phone":"(983) 194-9463","sd":"24","ssbd":"13","lsbd":"School Board Provo 2"},{"vid":"c8ac24e20b1764ab872134ff68e03a380abce175ccd7514ca277ae98a6efe985","name":"Zariah Rodriguez-Goodwin","party":"Dem","address":"625 E 3180 N, Provo, UT 84604","precinct":"25PR11","hd":"58","v_score":"28.2488703","decile":"10","lat":40.275909125973826,"lng":-111.64798071318337,"phone":"(718) 216-9313","sd":"24","ssbd":"13","lsbd":"School Board Provo 2"},{"vid":"6344754","name":"Milda Casper DDS","party":"","address":"3346 N Canyon Rd, Provo, UT 84604","precinct":"25PR11","hd":"58","v_score":"31.14994604","decile":"10","lat":40.27842128450548,"lng":-111.65084480507714,"phone":"(252) 272-5662","sd":"24","ssbd":"13","lsbd":"School Board Provo 2"},{"vid":"acf1f79ab9b391e6d60f781018d9328eb0d171c14ac1f5d11ec7d0549934916f","name":"Jaden Terry","party":"Dem","address":"625 E 3180 N, Provo, UT 84604","precinct":"25PR11","hd":"58","v_score":"28.2488703","decile":"10","lat":40.275909125973826,"lng":-111.64798071318337,"phone":"(183) 125-0631","sd":"24","ssbd":"13","lsbd":"School Board Provo 2"},{"vid":"6357427","name":"Wilkie Kovacek","party":"Dem","address":"695 E 3230 N, Provo, UT 84604","precinct":"25PR11","hd":"58","v_score":"29.8573602","decile":"10","lat":40.27676297319735,"lng":-111.6467556234185,"phone":"(840) 139-4220","sd":"24","ssbd":"13","lsbd":"School Board Provo 2"},{"vid":"6358828","name":"Landon Crona PhD","party":"","address":"514 E 2780 N, Provo, UT 84604","precinct":"25PR11","hd":"58","v_score":"8.149837396","decile":"8","lat":40.27035225106683,"lng":-111.65029901350401,"phone":"(486) 037-7938","sd":"24","ssbd":"13","lsbd":"School Board Provo 2"},{"vid":"6362486","name":"Gabriela Kovacek","party":"","address":"495 E 3400 N, Provo, UT 84604","precinct":"25PR11","hd":"58","v_score":"22.10816128","decile":"10","lat":40.278937967565376,"lng":-111.65005871584282,"phone":"(263) 942-3627","sd":"24","ssbd":"13","lsbd":"School Board Provo 2"},{"vid":"6377167","name":"Raegan Lindgren","party":"Rep","address":"515 E 2875 N, Provo, UT 84604","precinct":"25PR11","hd":"58","v_score":"21.43421847","decile":"10","lat":40.27205489077537,"lng":-111.6498277195767,"phone":"(664) 617-9762","sd":"24","ssbd":"13","lsbd":"School Board Provo 2"},{"vid":"6379201","name":"Irven O'Hara","party":"Dem","address":"579 E 2780 N, Provo, UT 84604","precinct":"25PR11","hd":"58","v_score":"0","decile":"3","lat":40.27079903359057,"lng":-111.64885173757008,"phone":"(552) 555-6277","sd":"24","ssbd":"13","lsbd":"School Board Provo 2"},{"vid":"6379700","name":"Ms. Rae Bartell DVM","party":"Dem","address":"440 E 2875 N, Provo, UT 84604","precinct":"25PR11","hd":"58","v_score":"34.09285363","decile":"10","lat":40.27170170121831,"lng":-111.65079344641603,"phone":"(859) 905-4325","sd":"24","ssbd":"13","lsbd":"School Board Provo 2"},{"vid":"6380250","name":"Jammie McKenzie","party":"Rep","address":"441 E 2950 N, Provo, UT 84604","precinct":"25PR11","hd":"58","v_score":"17.69897802","decile":"10","lat":40.273284445244194,"lng":-111.65074501865827,"phone":"(395) 798-3328","sd":"24","ssbd":"13","lsbd":"School Board Provo 2"},{"vid":"6388877","name":"Cameron Kuphal","party":"","address":"583 E 3400 N, Provo, UT 84604","precinct":"25PR11","hd":"58","v_score":"21.41280004","decile":"10","lat":40.27906070022566,"lng":-111.64847311618313,"phone":"(518) 200-3941","sd":"24","ssbd":"13","lsbd":"School Board Provo 2"},{"vid":"6392920","name":"Elmina Crooks","party":"Rep","address":"2668 N 350 E, Provo, UT 84604","precinct":"25PR11","hd":"58","v_score":"0","decile":"3","lat":40.26956095280068,"lng":-111.65257889736398,"phone":"(593) 368-4708","sd":"24","ssbd":"13","lsbd":"School Board Provo 2"},{"vid":"6403269","name":"Toby Cummerata","party":"Rep","address":"468 E 3125 N, Provo, UT 84604","precinct":"25PR11","hd":"58","v_score":"19.75065137","decile":"10","lat":40.274678780959796,"lng":-111.65052674451336,"phone":"(479) 292-0101","sd":"24","ssbd":"13","lsbd":"School Board Provo 2"},{"vid":"6404501","name":"Mr. Wilson Altenwerth","party":"","address":"460 E 3050 N, Provo, UT 84604","precinct":"25PR11","hd":"58","v_score":"44.04237644","decile":"10","lat":40.27378770309459,"lng":-111.65040783541752,"phone":"(854) 530-7244","sd":"24","ssbd":"13","lsbd":"School Board Provo 2"},{"vid":"6417423","name":"Dr. Hedwig Hoeger PhD","party":"","address":"550 E 3230 N, Provo, UT 84604","precinct":"25PR11","hd":"58","v_score":"3.93832808","decile":"6","lat":40.27630012969556,"lng":-111.64904028424642,"phone":"(823) 628-6428","sd":"24","ssbd":"13","lsbd":"School Board Provo 2"},{"vid":"6419122","name":"Alivia Bernhard","party":"Dem","address":"579 E 2780 N, Provo, UT 84604","precinct":"25PR11","hd":"58","v_score":"1.121327652","decile":"3","lat":40.27079903359057,"lng":-111.64885173757008,"phone":"(699) 692-5994","sd":"24","ssbd":"13","lsbd":"School Board Provo 2"},{"vid":"6420511","name":"Tresa Balistreri-Stiedemann","party":"","address":"676 E 2950 N, Provo, UT 84604","precinct":"25PR11","hd":"58","v_score":"2.660162957","decile":"5","lat":40.27264149352944,"lng":-111.64682361787766,"phone":"(466) 247-2760","sd":"24","ssbd":"13","lsbd":"School Board Provo 2"},{"vid":"6428636","name":"Nolen Aufderhar Sr.","party":"","address":"600 E 3400 N, Provo, UT 84604","precinct":"25PR11","hd":"58","v_score":"30.39345643","decile":"10","lat":40.278602305768764,"lng":-111.6482617767727,"phone":"(348) 759-0838","sd":"24","ssbd":"13","lsbd":"School Board Provo 2"},{"vid":"6434992","name":"Dr. Young Thompson","party":"","address":"570 E 2950 N, Provo, UT 84604","precinct":"25PR11","hd":"58","v_score":"41.61636965","decile":"10","lat":40.27253754659939,"lng":-111.64868956899812,"phone":"(809) 549-8718","sd":"24","ssbd":"13","lsbd":"School Board Provo 2"},{"vid":"6435074","name":"Donavan Parker-Jacobson","party":"Rep","address":"676 E 2950 N, Provo, UT 84604","precinct":"25PR11","hd":"58","v_score":"2.660162957","decile":"5","lat":40.27264149352944,"lng":-111.64682361787766,"phone":"(255) 661-0198","sd":"24","ssbd":"13","lsbd":"School Board Provo 2"},{"vid":"6d249306c11e369da6faea3faa01e70fc800c07637089f74d0a614f6674abe00","name":"Kianna Collins","party":"Rep","address":"570 E 2950 N, Provo, UT 84604","precinct":"25PR11","hd":"58","v_score":"41.61636965","decile":"10","lat":40.27253754659939,"lng":-111.64868956899812,"phone":"(794) 568-4922","sd":"24","ssbd":"13","lsbd":"School Board Provo 2"},{"vid":"6438813","name":"Dr. Jabari Wilderman","party":"","address":"581 E 3460 N, Provo, UT 84604","precinct":"25PR11","hd":"58","v_score":"12.49472132","decile":"9","lat":40.27983598978518,"lng":-111.64900740394508,"phone":"(882) 647-5817","sd":"24","ssbd":"13","lsbd":"School Board Provo 2"},{"vid":"6441833","name":"Mr. Lawrance Grimes II","party":"","address":"3318 N 500 E, Provo, UT 84604","precinct":"25PR11","hd":"58","v_score":"4.166348126","decile":"7","lat":40.27774196856476,"lng":-111.64989636793241,"phone":"(434) 642-6728","sd":"24","ssbd":"13","lsbd":"School Board Provo 2"},{"vid":"6447767","name":"Nicki Kiehn","party":"","address":"545 E 2875 N, Provo, UT 84604","precinct":"25PR11","hd":"58","v_score":"3.781490609","decile":"6","lat":40.27204982416192,"lng":-111.64904742243931,"phone":"(331) 861-9943","sd":"24","ssbd":"13","lsbd":"School Board Provo 2"},{"vid":"6455803","name":"Ms. Maricela Towne","party":"Rep","address":"3082 N Canyon Rd, Provo, UT 84604","precinct":"25PR11","hd":"58","v_score":"4.424855541","decile":"7","lat":40.27463082661136,"lng":-111.65102488189798,"phone":"(191) 851-7638","sd":"24","ssbd":"13","lsbd":"School Board Provo 2"},{"vid":"6456470","name":"Mrs. Malvina Koepp","party":"","address":"505 E 2780 N, Provo, UT 84604","precinct":"25PR11","hd":"58","v_score":"2.744440783","decile":"6","lat":40.27078096615645,"lng":-111.6502956737175,"phone":"(402) 891-9949","sd":"24","ssbd":"13","lsbd":"School Board Provo 2"},{"vid":"6460830","name":"Sondra Olson","party":"","address":"572 E 3400 N, Provo, UT 84604","precinct":"25PR11","hd":"58","v_score":"2.817000428","decile":"6","lat":40.27860279986378,"lng":-111.6486432398503,"phone":"(527) 459-5920","sd":"24","ssbd":"13","lsbd":"School Board Provo 2"},{"vid":"6462173","name":"Luvenia Tromp","party":"","address":"3516 N Canyon Rd, Provo, UT 84604","precinct":"25PR11","hd":"58","v_score":"1.121327652","decile":"3","lat":40.2802266850232,"lng":-111.6509591362984,"phone":"(351) 541-2536","sd":"24","ssbd":"13","lsbd":"School Board Provo 2"},{"vid":"6466710","name":"Sam Quitzon","party":"Rep","address":"557 E 3460 N, Provo, UT 84604","precinct":"25PR11","hd":"58","v_score":"1.193887297","decile":"4","lat":40.279851720778,"lng":-111.64934542366314,"phone":"(481) 656-8940","sd":"24","ssbd":"13","lsbd":"School Board Provo 2"},{"vid":"6467428","name":"Mrs. Carla Bashirian","party":"Dem","address":"3636 N 480 E, Provo, UT 84604","precinct":"25PR11","hd":"58","v_score":"1.193887297","decile":"4","lat":40.28161183155803,"lng":-111.6509219721415,"phone":"(498) 371-1422","sd":"24","ssbd":"13","lsbd":"School Board Provo 2"},{"vid":"6469552","name":"Kathaleen Hodkiewicz","party":"Rep","address":"515 E 3050 N, Provo, UT 84604","precinct":"25PR11","hd":"58","v_score":"1.193887297","decile":"4","lat":40.27449889910603,"lng":-111.64967180438272,"phone":"(544) 356-0520","sd":"24","ssbd":"13","lsbd":"School Board Provo 2"},{"vid":"6472563","name":"Dion Huel","party":"","address":"574 E 2950 N, Provo, UT 84604","precinct":"25PR11","hd":"58","v_score":"10.42565066","decile":"9","lat":40.27258613851103,"lng":-111.6484680967866,"phone":"(234) 277-8567","sd":"24","ssbd":"13","lsbd":"School Board Provo 2"},{"vid":"665fd3b9aaff41c6dbee3f61c5b1cc22d4a3f3e39b5fb6d10b3d2c4fe67583d5","name":"Merrie Kautzer","party":"Rep","address":"2745 N 600 E, Provo, UT 84604","precinct":"25PR11","hd":"58","v_score":"37.40229464","decile":"10","lat":40.270035053762236,"lng":-111.6488249704995,"phone":"(210) 316-4224","sd":"24","ssbd":"13","lsbd":"School Board Provo 2"},{"vid":"6474018","name":"Hjalmer Kautzer-Bartoletti","party":"","address":"3261 N 500 E, Provo, UT 84604","precinct":"25PR11","hd":"58","v_score":"33.29169328","decile":"10","lat":40.27696080900459,"lng":-111.65046879904527,"phone":"(326) 858-1317","sd":"24","ssbd":"13","lsbd":"School Board Provo 2"},{"vid":"08c5ec45c3d067979a79c5c815e1d0b15309c1b671593dfb1c36d6cc75764bf2","name":"Semaj Daniel","party":"Rep","address":"598 E 3230 N, Provo, UT 84604","precinct":"25PR11","hd":"58","v_score":"17.3642886","decile":"9","lat":40.27632408921998,"lng":-111.6482847060507,"phone":"(851) 564-5094","sd":"24","ssbd":"13","lsbd":"School Board Provo 2"},{"vid":"6475626","name":"Ryne Wyman","party":"","address":"525 E 3125 N, Provo, UT 84604","precinct":"25PR11","hd":"58","v_score":"8.207848766","decile":"8","lat":40.275199948999514,"lng":-111.64966686164836,"phone":"(919) 730-6623","sd":"24","ssbd":"13","lsbd":"School Board Provo 2"},{"vid":"5c857276a73aa3201f95c62c8d608183171cf00f36be135650e1591057cb54bc","name":"Ms. Icey Durgan","party":"Rep","address":"2820 N 700 E, Provo, UT 84604","precinct":"25PR11","hd":"58","v_score":"0","decile":"3","lat":40.27127110166921,"lng":-111.6461318136714,"phone":"(291) 335-0613","sd":"24","ssbd":"13","lsbd":"School Board Provo 2"},{"vid":"6486995","name":"Ruben Luettgen","party":"Dem","address":"424 E 2825 N, Provo, UT 84604","precinct":"25PR11","hd":"58","v_score":"18.46989245","decile":"10","lat":40.27110756560976,"lng":-111.65114173519929,"phone":"(827) 263-8680","sd":"24","ssbd":"13","lsbd":"School Board Provo 2"},{"vid":"6505626","name":"Mrs. Bina Pfeffer","party":"Dem","address":"515 E 3050 N, Provo, UT 84604","precinct":"25PR11","hd":"58","v_score":"5.40460374","decile":"7","lat":40.27449889910603,"lng":-111.64967180438272,"phone":"(456) 396-7993","sd":"24","ssbd":"13","lsbd":"School Board Provo 2"},{"vid":"6509425","name":"Ms. Angeles Considine","party":"Rep","address":"546 E 2875 N, Provo, UT 84604","precinct":"25PR11","hd":"58","v_score":"34.62894986","decile":"10","lat":40.27167198787347,"lng":-111.64897356888557,"phone":"(141) 881-2780","sd":"24","ssbd":"13","lsbd":"School Board Provo 2"},{"vid":"6512268","name":"Roger Gibson-Dooley","party":"","address":"3148 N 500 E, Provo, UT 84604","precinct":"25PR11","hd":"58","v_score":"34.62894986","decile":"10","lat":40.275542563819364,"lng":-111.64965061672598,"phone":"(591) 053-2086","sd":"24","ssbd":"13","lsbd":"School Board Provo 2"},{"vid":"6515354","name":"Adina Johns-Hessel","party":"","address":"2797 N 700 E, Provo, UT 84604","precinct":"25PR11","hd":"58","v_score":"0","decile":"3","lat":40.27065102018064,"lng":-111.64666380620686,"phone":"(568) 975-0225","sd":"24","ssbd":"13","lsbd":"School Board Provo 2"},{"vid":"6524358","name":"Halsey Wisoky","party":"","address":"574 E 2950 N, Provo, UT 84604","precinct":"25PR11","hd":"58","v_score":"10.42565066","decile":"9","lat":40.27258613851103,"lng":-111.6484680967866,"phone":"(878) 478-7954","sd":"24","ssbd":"13","lsbd":"School Board Provo 2"},{"vid":"6528967","name":"Ms. Clementine Yost","party":"","address":"735 E 2780 N, Provo, UT 84604","precinct":"25PR11","hd":"58","v_score":"1.121327652","decile":"3","lat":40.270808932495534,"lng":-111.6459297029268,"phone":"(743) 971-1568","sd":"24","ssbd":"13","lsbd":"School Board Provo 2"},{"vid":"6529076","name":"Lalla Rolfson","party":"Dem","address":"2745 N 600 E, Provo, UT 84604","precinct":"25PR11","hd":"58","v_score":"30.91198908","decile":"10","lat":40.270035053762236,"lng":-111.6488249704995,"phone":"(295) 367-1085","sd":"24","ssbd":"13","lsbd":"School Board Provo 2"},{"vid":"6533239","name":"Henderson Thiel","party":"Dem","address":"676 E 3030 N, Provo, UT 84604","precinct":"25PR11","hd":"58","v_score":"27.3982836","decile":"10","lat":40.27363689477574,"lng":-111.64714934805082,"phone":"(553) 070-8900","sd":"24","ssbd":"13","lsbd":"School Board Provo 2"}]