[{"id":"9062","name":"Dr. Tyrek Bergnaum V","party":"Rep","address":"721 N 200 E, Apt 301, Provo, UT 84606","precinct":"25PR37","hd":"60","v_score":"1.121327652","decile":"3","lat":40.2432918693,"lng":-111.655178399433},{"id":"13124","name":"Skyler Koepp","party":"Dem","address":"721 N 200 E, Apt 308, Provo, UT 84606","precinct":"25PR37","hd":"60","v_score":"14.41734214","decile":"9","lat":40.2432918693,"lng":-111.655178399433},{"id":"16131","name":"Haley Wiegand-Fadel","party":"Dem","address":"660 N 200 E, Apt 4, Provo, UT 84606","precinct":"25PR37","hd":"60","v_score":"1.121327652","decile":"3","lat":40.242481992094,"lng":-111.655031109187},{"id":"20276","name":"Iona Morar","party":"Dem","address":"39 E 600 N, Apt 407, Provo, UT 84606","precinct":"25PR37","hd":"60","v_score":"1.46627566","decile":"4","lat":40.241751299102,"lng":-111.657782570877},{"id":"21663","name":"Babyboy O'Connell-Swift","party":"Rep","address":"332 E 800 N, Provo, UT 84606","precinct":"25PR37","hd":"60","v_score":"0","decile":"1","lat":40.24422870704,"lng":-111.652787172364},{"id":"21746","name":"Braxton Gulgowski-McClure","party":"","address":"332 E 800 N, Provo, UT 84606","precinct":"25PR37","hd":"60","v_score":"1.121327652","decile":"3","lat":40.24422870704,"lng":-111.652787172364},{"id":"22328","name":"Antonina Fritsch","party":"","address":"851 N 50 E, Apt 330, Provo, UT 84604","precinct":"25PR37","hd":"60","v_score":"1.121327652","decile":"3","lat":40.245055300402,"lng":-111.657400151165},{"id":"22635","name":"Denis Carroll-Rempel","party":"Dem","address":"876 N University Ave, Apt 1, Provo, UT 84604","precinct":"25PR37","hd":"60","v_score":"1.193887297","decile":"3","lat":40.245320623686,"lng":-111.658556197449},{"id":"26658","name":"Jaycob Lebsack","party":"Dem","address":"637 N 300 E, Provo, UT 84606","precinct":"25PR37","hd":"60","v_score":"1.193887297","decile":"3","lat":40.242174197147,"lng":-111.653457030519},{"id":"26748","name":"Ardis Howell PhD","party":"Dem","address":"222 E 700 N, Apt 11, Provo, UT 84606","precinct":"25PR37","hd":"60","v_score":"4.568975008","decile":"7","lat":40.242946241056,"lng":-111.654676129897},{"id":"29484","name":"Fabiola Ruecker","party":"","address":"660 N 200 E, Apt 16, Provo, UT 84606","precinct":"25PR37","hd":"60","v_score":"2.587603312","decile":"5","lat":40.242481992094,"lng":-111.655031109187},{"id":"31774","name":"Cesar Cremin IV","party":"Dem","address":"673 N 400 E, Apt E2, Provo, UT 84606","precinct":"25PR37","hd":"60","v_score":"2.315214949","decile":"5","lat":40.242620960275,"lng":-111.651735656467},{"id":"31990","name":"Zana Mayert","party":"Dem","address":"332 E 800 N, Provo, UT 84606","precinct":"25PR37","hd":"60","v_score":"1.46627566","decile":"4","lat":40.24422870704,"lng":-111.652787172364},{"id":"32123","name":"Dr. Trey Schaefer","party":"","address":"645 N 100 E, Provo, UT 84606","precinct":"25PR37","hd":"60","v_score":"1.121327652","decile":"3","lat":40.242294295861,"lng":-111.656901317929},{"id":"32738","name":"Cary Mohr","party":"","address":"69 E 600 N, Provo, UT 84606","precinct":"25PR37","hd":"60","v_score":"1.193887297","decile":"3","lat":40.241751299068,"lng":-111.657345006016},{"id":"33188","name":"Scarlet Sipes","party":"Dem","address":"49 E 900 N, Provo, UT 84604","precinct":"25PR37","hd":"60","v_score":"25.8334544","decile":"10","lat":40.245801298655,"lng":-111.657989460132},{"id":"34177","name":"Leva Krajcik","party":"Dem","address":"769 N 200 E, Apt 104, Provo, UT 84606","precinct":"25PR37","hd":"60","v_score":"8.670935747","decile":"8","lat":40.243835253265,"lng":-111.655176401628},{"id":"36823","name":"Dawn Yundt-Kunze","party":"","address":"665 N 100 E, Apt 4, Provo, UT 84606","precinct":"25PR37","hd":"60","v_score":"4.283276088","decile":"7","lat":40.242540910543,"lng":-111.656898801421},{"id":"37330","name":"Ms. Thomasina Rutherford","party":"","address":"146 E 800 N, Provo, UT 84606","precinct":"25PR37","hd":"60","v_score":"5.258122542","decile":"7","lat":40.244241607023,"lng":-111.655951363933},{"id":"37952","name":"Crockett Johns-Blick","party":"Rep","address":"746 N 200 E, Apt 5, Provo, UT 84606","precinct":"25PR37","hd":"60","v_score":"1.121327652","decile":"3","lat":40.243585880694,"lng":-111.655027193832},{"id":"38593","name":"Moesha Hand-Murray","party":"Rep","address":"49 E 900 N, Provo, UT 84604","precinct":"25PR37","hd":"60","v_score":"10.68211388","decile":"9","lat":40.245801298655,"lng":-111.657989460132},{"id":"39118","name":"Angus Auer","party":"","address":"715 N 200 E, Apt 204, Provo, UT 84606","precinct":"25PR37","hd":"60","v_score":"1.121327652","decile":"3","lat":40.243223946305,"lng":-111.655178649159},{"id":"42463","name":"Dr. Peyton Jacobs MD","party":"Rep","address":"281 E 600 N, Provo, UT 84606","precinct":"25PR37","hd":"60","v_score":"2.817000428","decile":"6","lat":40.241735198482,"lng":-111.653748915149},{"id":"43302","name":"Hosie Wehner","party":"Rep","address":"25 E 600 N, Provo, UT 84606","precinct":"25PR37","hd":"60","v_score":"4.137918904","decile":"7","lat":40.241751299117,"lng":-111.657986767812},{"id":"43670","name":"Alysia Cronin","party":"Rep","address":"715 N 200 E, Apt 103, Provo, UT 84606","precinct":"25PR37","hd":"60","v_score":"2.744440783","decile":"5","lat":40.243223946305,"lng":-111.655178649159},{"id":"43825","name":"Vernell Jast","party":"","address":"905 N 150 E, Provo, UT 84604","precinct":"25PR37","hd":"60","v_score":"4.192796624","decile":"7","lat":40.245487828839,"lng":-111.656214227614},{"id":"44165","name":"Mr. Drew Bradtke","party":"Rep","address":"47 E 600 N, Apt 403, Provo, UT 84606","precinct":"25PR37","hd":"60","v_score":"0","decile":"1","lat":40.241751299093,"lng":-111.657665886914},{"id":"44328","name":"Miss Myla Bayer DDS","party":"Dem","address":"918 N 50 E, Provo, UT 84604","precinct":"25PR37","hd":"60","v_score":"5.258122542","decile":"7","lat":40.24593185623,"lng":-111.657245770421},{"id":"44375","name":"Jep Lemke","party":"","address":"665 N 100 E, Apt 6, Provo, UT 84606","precinct":"25PR37","hd":"60","v_score":"2.942907593","decile":"6","lat":40.242540910543,"lng":-111.656898801421},{"id":"44493","name":"Mr. Tito Grant","party":"","address":"915 N 150 E, Apt 110, Provo, UT 84604","precinct":"25PR37","hd":"60","v_score":"5.530510904","decile":"7","lat":40.245596132318,"lng":-111.656213796112},{"id":"44655","name":"Darron Boyer","party":"","address":"782 N 300 E, Provo, UT 84606","precinct":"25PR37","hd":"60","v_score":"8.29972868","decile":"8","lat":40.244035824065,"lng":-111.65330131899},{"id":"45020","name":"Brannon Predovic-Frami","party":"Dem","address":"747 N 200 E, Apt 8, Provo, UT 84606","precinct":"25PR37","hd":"60","v_score":"18.34238708","decile":"10","lat":40.243586202281,"lng":-111.655177317288},{"id":"46437","name":"Dr. Darold Quitzon","party":"Dem","address":"645 N 100 E, Provo, UT 84606","precinct":"25PR37","hd":"60","v_score":"1.121327652","decile":"3","lat":40.242294295861,"lng":-111.656901317929},{"id":"46484","name":"Ms. Tobi Kassulke","party":"","address":"358 E 800 N, Provo, UT 84606","precinct":"25PR37","hd":"60","v_score":"5.536205522","decile":"7","lat":40.244248987668,"lng":-111.652365247765},{"id":"47583","name":"Polk Stark","party":"","address":"153 E 600 N, Provo, UT 84606","precinct":"25PR37","hd":"60","v_score":"5.69030266","decile":"7","lat":40.241746546103,"lng":-111.655921952529},{"id":"48123","name":"Stasia Zulauf","party":"","address":"840 N 50 E, Provo, UT 84604","precinct":"25PR37","hd":"60","v_score":"1.121327652","decile":"3","lat":40.244923447722,"lng":-111.657250446336},{"id":"48210","name":"Celine Block","party":"","address":"25 E 900 N, Apt 4, Provo, UT 84604","precinct":"25PR37","hd":"60","v_score":"8.280646305","decile":"8","lat":40.245801298677,"lng":-111.658273387386},{"id":"48521","name":"Jaycee Zemlak-Morar","party":"","address":"141 E 700 N, Apt 28, Provo, UT 84606","precinct":"25PR37","hd":"60","v_score":"1.46627566","decile":"4","lat":40.243070551625,"lng":-111.656104781872},{"id":"49322","name":"Dollie Gleichner","party":"","address":"915 N 150 E, Apt 110, Provo, UT 84604","precinct":"25PR37","hd":"60","v_score":"0","decile":"1","lat":40.245596132318,"lng":-111.656213796112},{"id":"49352","name":"Santiago Daugherty","party":"Rep","address":"727 N 300 E, Apt 201, Provo, UT 84606","precinct":"25PR37","hd":"60","v_score":"4.192796624","decile":"7","lat":40.243360733523,"lng":-111.653451443085},{"id":"49393","name":"Miss Araceli Graham","party":"","address":"659 N 300 E, Apt 6, Provo, UT 84606","precinct":"25PR37","hd":"60","v_score":"1.121327652","decile":"3","lat":40.24244345246,"lng":-111.65345518627},{"id":"49834","name":"Alyssia Schumm","party":"","address":"25 E 900 N, Apt 4, Provo, UT 84604","precinct":"25PR37","hd":"60","v_score":"14.18213378","decile":"9","lat":40.245801298677,"lng":-111.658273387386},{"id":"49871","name":"Eliseo Schamberger","party":"Rep","address":"362 E 700 N, Apt D6, Provo, UT 84606","precinct":"25PR37","hd":"60","v_score":"1.46627566","decile":"4","lat":40.242938297845,"lng":-111.652311095429},{"id":"49898","name":"Ms. Candice Bernier","party":"","address":"14 E 900 N, Provo, UT 84604","precinct":"25PR37","hd":"60","v_score":"1.121327652","decile":"3","lat":40.245686707303,"lng":-111.658412393452},{"id":"51008","name":"Dr. Winton Pouros I","party":"Rep","address":"896 N 50 E, Provo, UT 84604","precinct":"25PR37","hd":"60","v_score":"5.546183193","decile":"7","lat":40.245660252749,"lng":-111.657248084686},{"id":"51029","name":"Jett Pfeffer","party":"Dem","address":"905 N 150 E, Apt 7, Provo, UT 84604","precinct":"25PR37","hd":"60","v_score":"1.121327652","decile":"3","lat":40.245487828839,"lng":-111.656214227614},{"id":"51224","name":"Mr. Lamarcus Botsford V","party":"Dem","address":"670 N 300 E, Apt C4, Provo, UT 84606","precinct":"25PR37","hd":"60","v_score":"3.781490609","decile":"6","lat":40.242589719878,"lng":-111.653304061273},{"id":"51958","name":"Vonnie Macejkovic-Greenholt","party":"Dem","address":"721 N 200 E, Apt 307, Provo, UT 84606","precinct":"25PR37","hd":"60","v_score":"5.243007221","decile":"7","lat":40.2432918693,"lng":-111.655178399433},{"id":"52039","name":"Kaiya O'Connell-Frami","party":"Rep","address":"745 N 400 E, Apt 7, Provo, UT 84606","precinct":"25PR37","hd":"60","v_score":"2.315214949","decile":"5","lat":40.243595107882,"lng":-111.651732861528},{"id":"52081","name":"Ollie Kuhlman","party":"","address":"642 N 200 E, Apt 211, Provo, UT 84606","precinct":"25PR37","hd":"60","v_score":"1.121327652","decile":"3","lat":40.242260039448,"lng":-111.655031864157},{"id":"52428","name":"Glinda Purdy","party":"Rep","address":"851 N 50 E, Apt 332, Provo, UT 84604","precinct":"25PR37","hd":"60","v_score":"2.587603312","decile":"5","lat":40.245055300402,"lng":-111.657400151165},{"id":"53631","name":"Alvia Douglas-Thompson","party":"Dem","address":"329 E 700 N, Provo, UT 84606","precinct":"25PR37","hd":"60","v_score":"6.724398202","decile":"8","lat":40.24305003752,"lng":-111.652854871601},{"id":"54107","name":"Eustace Walsh","party":"Dem","address":"735 N 400 E, Apt 28, Provo, UT 84606","precinct":"25PR37","hd":"60","v_score":"9.781676628","decile":"8","lat":40.243472719103,"lng":-111.651733699823},{"id":"54421","name":"Frances Brakus","party":"Dem","address":"673 N 400 E, Apt E2, Provo, UT 84606","precinct":"25PR37","hd":"60","v_score":"0","decile":"1","lat":40.242620960275,"lng":-111.651735656467},{"id":"54975","name":"Mari Huel","party":"Dem","address":"635 N 100 E, Provo, UT 84606","precinct":"25PR37","hd":"60","v_score":"0","decile":"1","lat":40.242170988521,"lng":-111.656902576183},{"id":"56194","name":"Mr. Orrin Walsh","party":"","address":"905 N 150 E, Apt 6, Provo, UT 84604","precinct":"25PR37","hd":"60","v_score":"2.958579882","decile":"6","lat":40.245487828839,"lng":-111.656214227614},{"id":"56445","name":"Dr. Arbie Waters DDS","party":"Rep","address":"182 E 800 N, Apt 6, Provo, UT 84606","precinct":"25PR37","hd":"60","v_score":"0","decile":"1","lat":40.244222200843,"lng":-111.655423810129},{"id":"56491","name":"Mr. Elby Ankunding","party":"","address":"281 E 600 N, Apt 1, Provo, UT 84606","precinct":"25PR37","hd":"60","v_score":"8.284004873","decile":"8","lat":40.241735198482,"lng":-111.653748915149},{"id":"56927","name":"Karli Harris-Barrows","party":"","address":"745 N 400 E, Apt 1, Provo, UT 84606","precinct":"25PR37","hd":"60","v_score":"0","decile":"1","lat":40.243595107882,"lng":-111.651732861528},{"id":"57262","name":"Clifford Schuppe","party":"","address":"25 E 900 N, Apt 2, Provo, UT 84604","precinct":"25PR37","hd":"60","v_score":"6.814370645","decile":"8","lat":40.245801298677,"lng":-111.658273387386},{"id":"57443","name":"Oneida Russel","party":"Rep","address":"642 N 200 E, Apt 211, Provo, UT 84606","precinct":"25PR37","hd":"60","v_score":"0","decile":"1","lat":40.242260039448,"lng":-111.655031864157},{"id":"57478","name":"Stefan Lesch","party":"Dem","address":"195 E 600 N, Apt 22, Provo, UT 84606","precinct":"25PR37","hd":"60","v_score":"1.121327652","decile":"3","lat":40.241743024868,"lng":-111.655247645941},{"id":"57587","name":"Anna Schuster","party":"Dem","address":"740 N University Ave, Apt 203a, Provo, UT 84601","precinct":"25PR37","hd":"60","v_score":"1.193887297","decile":"3","lat":40.243444085007,"lng":-111.658555434265},{"id":"58232","name":"Latoya Stokes","party":"Dem","address":"358 E 800 N, Provo, UT 84606","precinct":"25PR37","hd":"60","v_score":"2.315214949","decile":"5","lat":40.244248987668,"lng":-111.652365247765},{"id":"58991","name":"Savanah Walker-Dickens","party":"Rep","address":"948 N 50 E, Apt 201, Provo, UT 84604","precinct":"25PR37","hd":"60","v_score":"0","decile":"1","lat":40.246150247801,"lng":-111.657243396571},{"id":"59076","name":"Dr. Alma Koepp DDS","party":"","address":"850 N University Ave, Apt 100, Provo, UT 84604","precinct":"25PR37","hd":"60","v_score":"0","decile":"1","lat":40.245004800926,"lng":-111.658555108446},{"id":"59781","name":"Cale Schumm-Jacobson","party":"Rep","address":"330 E 700 N, Apt B5, Provo, UT 84606","precinct":"25PR37","hd":"60","v_score":"6.814370645","decile":"8","lat":40.242935616426,"lng":-111.652821913122},{"id":"61897","name":"Micheal Ullrich","party":"","address":"640 N 300 E, Provo, UT 84606","precinct":"25PR37","hd":"60","v_score":"8.284004873","decile":"8","lat":40.242222553542,"lng":-111.653306576158},{"id":"62291","name":"Nellie Osinski-Emard","party":"Dem","address":"130 E 700 N, Apt 11, Provo, UT 84606","precinct":"25PR37","hd":"60","v_score":"2.315214949","decile":"5","lat":40.242956800926,"lng":-111.656265444801},{"id":"63212","name":"Leander Johnston-Gislason","party":"","address":"670 N 300 E, # C8, Provo, UT 84606","precinct":"25PR37","hd":"60","v_score":"2.315214949","decile":"5","lat":40.242589719878,"lng":-111.653304061273},{"id":"63461","name":"Noel Smith","party":"","address":"362 E 700 N, Apt D3, Provo, UT 84606","precinct":"25PR37","hd":"60","v_score":"8.703939628","decile":"8","lat":40.242938297845,"lng":-111.652311095429},{"id":"63508","name":"Whit Bins-Parker","party":"Rep","address":"769 N 200 E, Apt 104, Provo, UT 84606","precinct":"25PR37","hd":"60","v_score":"7.052493863","decile":"8","lat":40.243835253265,"lng":-111.655176401628},{"id":"64186","name":"Marisol Witting","party":"","address":"630 N 100 E, Apt 3, Provo, UT 84606","precinct":"25PR37","hd":"60","v_score":"2.817000428","decile":"6","lat":40.242120773043,"lng":-111.656752962904},{"id":"64523","name":"Mr. Wylie Hauck IV","party":"Dem","address":"850 N University Ave, Apt 101, Provo, UT 84604","precinct":"25PR37","hd":"60","v_score":"8.69195232","decile":"8","lat":40.245004800926,"lng":-111.658555108446},{"id":"64770","name":"Mr. Jajuan Beatty DVM","party":"Rep","address":"195 E 600 N, Apt 37, Provo, UT 84606","precinct":"25PR37","hd":"60","v_score":"11.29456446","decile":"9","lat":40.241743024868,"lng":-111.655247645941},{"id":"65086","name":"Ms. Juana Russel MD","party":"Rep","address":"672 N University Ave, # B118, Provo, UT 84601","precinct":"25PR37","hd":"60","v_score":"0","decile":"1","lat":40.242370187122,"lng":-111.658558642004},{"id":"65212","name":"Aubree Homenick","party":"","address":"835 N 50 E, Apt 120, Provo, UT 84604","precinct":"25PR37","hd":"60","v_score":"6.881235673","decile":"8","lat":40.24484478468,"lng":-111.657400825922},{"id":"65220","name":"Suellen Boyle","party":"","address":"915 N 150 E, Apt 206, Provo, UT 84604","precinct":"25PR37","hd":"60","v_score":"1.121327652","decile":"3","lat":40.245596132318,"lng":-111.656213796112},{"id":"65763","name":"Dr. Gussie Little DDS","party":"Dem","address":"948 N 50 E, Apt 305, Provo, UT 84604","precinct":"25PR37","hd":"60","v_score":"5.258122542","decile":"7","lat":40.246150247801,"lng":-111.657243396571},{"id":"65847","name":"Mrs. Mackenzie Prosacco","party":"Rep","address":"195 E 600 N, Apt 14, Provo, UT 84606","precinct":"25PR37","hd":"60","v_score":"4.064235245","decile":"6","lat":40.241743024868,"lng":-111.655247645941},{"id":"65877","name":"Edrie Reinger-Hammes","party":"","address":"745 N 400 E, Apt 21, Provo, UT 84606","precinct":"25PR37","hd":"60","v_score":"2.942907593","decile":"6","lat":40.243595107882,"lng":-111.651732861528},{"id":"65911","name":"Dr. Danniel Schuster II","party":"","address":"735 N 400 E, Apt 23, Provo, UT 84606","precinct":"25PR37","hd":"60","v_score":"24.93539042","decile":"10","lat":40.243472719103,"lng":-111.651733699823},{"id":"65972","name":"Donte Harber","party":"Rep","address":"49 E 900 N, Provo, UT 84604","precinct":"25PR37","hd":"60","v_score":"8.703939628","decile":"8","lat":40.245801298655,"lng":-111.657989460132},{"id":"66214","name":"Anjelica Bednar","party":"Dem","address":"49 E 900 N, Provo, UT 84604","precinct":"25PR37","hd":"60","v_score":"5.761032035","decile":"7","lat":40.245801298655,"lng":-111.657989460132},{"id":"66862","name":"Quinn Stokes","party":"Rep","address":"222 E 700 N, Apt 8, Provo, UT 84606","precinct":"25PR37","hd":"60","v_score":"6.015500579","decile":"7","lat":40.242946241056,"lng":-111.654676129897},{"id":"67701","name":"Miss Felecia Hegmann","party":"Dem","address":"665 N 100 E, Apt 4, Provo, UT 84606","precinct":"25PR37","hd":"60","v_score":"8.903210001","decile":"8","lat":40.242540910543,"lng":-111.656898801421},{"id":"67926","name":"Dr. Levern Kohler","party":"Rep","address":"316 E 700 N, Apt H3, Provo, UT 84606","precinct":"25PR37","hd":"60","v_score":"7.013961469","decile":"8","lat":40.242934443305,"lng":-111.653045395862},{"id":"67954","name":"Zadie Fritsch","party":"Dem","address":"642 N 200 E, Apt 108, Provo, UT 84606","precinct":"25PR37","hd":"60","v_score":"1.121327652","decile":"3","lat":40.242260039448,"lng":-111.655031864157},{"id":"68376","name":"Kaitlin Block","party":"","address":"727 N 300 E, Apt 209, Provo, UT 84606","precinct":"25PR37","hd":"60","v_score":"4.622022458","decile":"7","lat":40.243360733523,"lng":-111.653451443085},{"id":"69072","name":"Dr. Ignatz Daugherty","party":"Dem","address":"686 N 100 E, Provo, UT 84606","precinct":"25PR37","hd":"60","v_score":"1.193887297","decile":"3","lat":40.242811294151,"lng":-111.656745916681},{"id":"69200","name":"Edward Mosciski","party":"","address":"316 E 700 N, Apt H3, Provo, UT 84606","precinct":"25PR37","hd":"60","v_score":"1.121327652","decile":"3","lat":40.242934443305,"lng":-111.653045395862},{"id":"69233","name":"Sharlene Johns","party":"","address":"915 N 150 E, Provo, UT 84604","precinct":"25PR37","hd":"60","v_score":"2.315214949","decile":"5","lat":40.245596132318,"lng":-111.656213796112},{"id":"70187","name":"Hubbard Kassulke","party":"","address":"681 N 100 E, Apt 4, Provo, UT 84606","precinct":"25PR37","hd":"60","v_score":"0","decile":"1","lat":40.242738202288,"lng":-111.656896788214},{"id":"70465","name":"Mrs. Elia Gutmann","party":"Rep","address":"915 N 150 E, Apt 307, Provo, UT 84604","precinct":"25PR37","hd":"60","v_score":"1.121327652","decile":"3","lat":40.245596132318,"lng":-111.656213796112},{"id":"70828","name":"Destini Swaniawski MD","party":"","address":"895 N 50 E, Provo, UT 84604","precinct":"25PR37","hd":"60","v_score":"1.121327652","decile":"3","lat":40.245634218638,"lng":-111.657398295583},{"id":"71209","name":"Dr. Echo Dickens DDS","party":"Dem","address":"146 E 800 N, Provo, UT 84606","precinct":"25PR37","hd":"60","v_score":"1.121327652","decile":"3","lat":40.244241607023,"lng":-111.655951363933},{"id":"71266","name":"Miss Shamika Kulas","party":"Dem","address":"315 E 600 N, Apt 3, Provo, UT 84606","precinct":"25PR37","hd":"60","v_score":"3.93832808","decile":"6","lat":40.241733298745,"lng":-111.653084909522},{"id":"71790","name":"Verlyn Jacobs-Kuhn","party":"","address":"362 E 700 N, Apt D3, Provo, UT 84606","precinct":"25PR37","hd":"60","v_score":"5.761032035","decile":"7","lat":40.242938297845,"lng":-111.652311095429},{"id":"72202","name":"Elda Ankunding PhD","party":"","address":"141 E 700 N, Provo, UT 84606","precinct":"25PR37","hd":"60","v_score":"2.315214949","decile":"5","lat":40.243070551625,"lng":-111.656104781872},{"id":"72657","name":"Rozella Feest","party":"","address":"721 N 200 E, Apt 108, Provo, UT 84606","precinct":"25PR37","hd":"60","v_score":"0","decile":"1","lat":40.2432918693,"lng":-111.655178399433},{"id":"72742","name":"Juliette Ondricka","party":"Dem","address":"39 E 600 N, Apt 108, Provo, UT 84606","precinct":"25PR37","hd":"60","v_score":"1.121327652","decile":"3","lat":40.241751299102,"lng":-111.657782570877},{"id":"73214","name":"Mrs. Nia Beahan","party":"Dem","address":"870 N 50 E, Bsmt, Provo, UT 84604","precinct":"25PR37","hd":"60","v_score":"2.315214949","decile":"5","lat":40.245318164701,"lng":-111.657249181166},{"id":"74412","name":"Katelyn Towne","party":"","address":"710 N 300 E, Provo, UT 84606","precinct":"25PR37","hd":"60","v_score":"1.121327652","decile":"3","lat":40.243167850496,"lng":-111.653301319103},{"id":"74850","name":"Magdalene Doyle","party":"Rep","address":"680 N 300 E, Provo, UT 84606","precinct":"25PR37","hd":"60","v_score":"2.744440783","decile":"5","lat":40.242712108656,"lng":-111.653303222978},{"id":"75004","name":"Sigmund Padberg","party":"","address":"721 N 200 E, Apt 308, Provo, UT 84606","precinct":"25PR37","hd":"60","v_score":"9.405332525","decile":"8","lat":40.2432918693,"lng":-111.655178399433},{"id":"75179","name":"Aloys Prohaska","party":"","address":"29 E 700 N, Apt W26, Provo, UT 84606","precinct":"25PR37","hd":"60","v_score":"1.121327652","decile":"3","lat":40.243076999383,"lng":-111.658263013145},{"id":"75204","name":"Waylon Langosh","party":"","address":"146 E 800 N, Provo, UT 84606","precinct":"25PR37","hd":"60","v_score":"1.121327652","decile":"3","lat":40.244241607023,"lng":-111.655951363933},{"id":"75524","name":"Hiram Spinka","party":"Dem","address":"195 E 600 N, Apt 22, Provo, UT 84606","precinct":"25PR37","hd":"60","v_score":"3.737122292","decile":"6","lat":40.241743024868,"lng":-111.655247645941},{"id":"76125","name":"Arvil Rau","party":"","address":"225 E 700 N, Apt 8, Provo, UT 84606","precinct":"25PR37","hd":"60","v_score":"0","decile":"1","lat":40.243060486318,"lng":-111.65464187955},{"id":"76131","name":"Dollye West","party":"Dem","address":"745 N 400 E, Apt 8, Provo, UT 84606","precinct":"25PR37","hd":"60","v_score":"1.121327652","decile":"3","lat":40.243595107882,"lng":-111.651732861528},{"id":"76140","name":"Berkley Romaguera","party":"","address":"735 N 400 E, Apt 24, Provo, UT 84606","precinct":"25PR37","hd":"60","v_score":"1.121327652","decile":"3","lat":40.243472719103,"lng":-111.651733699823},{"id":"76175","name":"Dona Cruickshank","party":"","address":"47 E 600 N, Apt 302, Provo, UT 84606","precinct":"25PR37","hd":"60","v_score":"1.121327652","decile":"3","lat":40.241751299093,"lng":-111.657665886914},{"id":"76354","name":"Zoie Volkman","party":"","address":"125 E 600 N, Provo, UT 84606","precinct":"25PR37","hd":"60","v_score":"0","decile":"1","lat":40.241748893593,"lng":-111.656371490254},{"id":"76814","name":"Ura Adams-Hahn","party":"Dem","address":"335 E 600 N, Apt 1, Provo, UT 84606","precinct":"25PR37","hd":"60","v_score":"2.315214949","decile":"5","lat":40.241733298721,"lng":-111.65276289349},{"id":"76855","name":"Ferris Lemke","party":"","address":"659 N 300 E, Apt 3, Provo, UT 84606","precinct":"25PR37","hd":"60","v_score":"1.121327652","decile":"3","lat":40.24244345246,"lng":-111.65345518627},{"id":"76953","name":"Reagan Zboncak-Kerluke","party":"","address":"721 N 200 E, Apt 305, Provo, UT 84606","precinct":"25PR37","hd":"60","v_score":"2.315214949","decile":"5","lat":40.2432918693,"lng":-111.655178399433},{"id":"77121","name":"Lawerence Lakin DDS","party":"Rep","address":"665 N 400 E, Apt A3, Provo, UT 84606","precinct":"25PR37","hd":"60","v_score":"6.52928996","decile":"7","lat":40.242522314654,"lng":-111.65173532095},{"id":"77630","name":"Camren Gaylord","party":"","address":"195 E 600 N, Apt 17, Provo, UT 84606","precinct":"25PR37","hd":"60","v_score":"1.121327652","decile":"3","lat":40.241743024868,"lng":-111.655247645941},{"id":"77765","name":"Jesus Mayer-Volkman","party":"","address":"316 E 700 N, Apt H6, Provo, UT 84606","precinct":"25PR37","hd":"60","v_score":"1.121327652","decile":"3","lat":40.242934443305,"lng":-111.653045395862},{"id":"78189","name":"Adalyn White","party":"","address":"345 E 600 N, Apt F1, Provo, UT 84606","precinct":"25PR37","hd":"60","v_score":"1.193887297","decile":"3","lat":40.241733298709,"lng":-111.652601885474},{"id":"78355","name":"Daren Bruen","party":"Dem","address":"738 N 200 E, Apt 2, Provo, UT 84606","precinct":"25PR37","hd":"60","v_score":"0","decile":"1","lat":40.2434953167,"lng":-111.655027526799},{"id":"78954","name":"Jaren Torphy","party":"Rep","address":"727 N 300 E, Apt 310, Provo, UT 84606","precinct":"25PR37","hd":"60","v_score":"1.121327652","decile":"3","lat":40.243360733523,"lng":-111.653451443085},{"id":"79285","name":"Veta Weimann","party":"","address":"742 N 200 E, Apt 7, Provo, UT 84606","precinct":"25PR37","hd":"60","v_score":"1.121327652","decile":"3","lat":40.243540598697,"lng":-111.655027360316},{"id":"79297","name":"Jamaal Mante","party":"","address":"70 E 800 N, Provo, UT 84606","precinct":"25PR37","hd":"60","v_score":"0","decile":"1","lat":40.24428270739,"lng":-111.65745526667},{"id":"79897","name":"Essie Runolfsson","party":"","address":"630 N 300 E, Provo, UT 84606","precinct":"25PR37","hd":"60","v_score":"1.121327652","decile":"3","lat":40.242100164763,"lng":-111.653307414454},{"id":"80005","name":"Dr. Chanie Bernhard","party":"Dem","address":"727 N 300 E, Apt 110, Provo, UT 84606","precinct":"25PR37","hd":"60","v_score":"1.121327652","decile":"3","lat":40.243360733523,"lng":-111.653451443085},{"id":"80017","name":"Sharman Mueller-Bogisich","party":"Dem","address":"642 N 200 E, Apt 105, Provo, UT 84606","precinct":"25PR37","hd":"60","v_score":"1.121327652","decile":"3","lat":40.242260039448,"lng":-111.655031864157},{"id":"80151","name":"Merlene Bednar","party":"Dem","address":"34 E 700 N, Apt 24, Provo, UT 84606","precinct":"25PR37","hd":"60","v_score":"1.121327652","decile":"3","lat":40.242961602986,"lng":-111.658217600427},{"id":"80235","name":"Tolbert Schroeder-Hilll","party":"Dem","address":"727 N 300 E, Apt 301, Provo, UT 84606","precinct":"25PR37","hd":"60","v_score":"3.93832808","decile":"6","lat":40.243360733523,"lng":-111.653451443085},{"id":"80300","name":"Kelsey Willms MD","party":"Dem","address":"12 E 900 N, Provo, UT 84604","precinct":"25PR37","hd":"60","v_score":"1.121327652","decile":"3","lat":40.245686707305,"lng":-111.658436546985},{"id":"80456","name":"Dr. Dale Ziemann","party":"","address":"745 N 400 E, Apt 3, Provo, UT 84606","precinct":"25PR37","hd":"60","v_score":"1.121327652","decile":"3","lat":40.243595107882,"lng":-111.651732861528},{"id":"80481","name":"Saul Kreiger","party":"Rep","address":"735 N 400 E, Apt 24, Provo, UT 84606","precinct":"25PR37","hd":"60","v_score":"1.121327652","decile":"3","lat":40.243472719103,"lng":-111.651733699823},{"id":"80483","name":"Ebba Jacobi","party":"Dem","address":"727 N 300 E, Apt 201, Provo, UT 84606","precinct":"25PR37","hd":"60","v_score":"2.315214949","decile":"5","lat":40.243360733523,"lng":-111.653451443085},{"id":"80504","name":"Altie Sauer","party":"Rep","address":"610 N 100 E, Provo, UT 84606","precinct":"25PR37","hd":"60","v_score":"1.193887297","decile":"3","lat":40.241874158361,"lng":-111.656755479412},{"id":"80677","name":"Adriana Roob","party":"Dem","address":"870 N 50 E, Provo, UT 84604","precinct":"25PR37","hd":"60","v_score":"1.121327652","decile":"3","lat":40.245318164701,"lng":-111.657249181166},{"id":"80684","name":"Dr. Hattie Connelly","party":"Rep","address":"309 E 700 N, Provo, UT 84606","precinct":"25PR37","hd":"60","v_score":"2.315214949","decile":"5","lat":40.243048361633,"lng":-111.653174132659},{"id":"81173","name":"Marcelo Hodkiewicz","party":"","address":"876 N University Ave, Apt 1, Provo, UT 84604","precinct":"25PR37","hd":"60","v_score":"1.193887297","decile":"3","lat":40.245320623686,"lng":-111.658556197449},{"id":"81263","name":"Solon Stiedemann","party":"Rep","address":"182 E 800 N, Apt 6, Provo, UT 84606","precinct":"25PR37","hd":"60","v_score":"0","decile":"1","lat":40.244222200843,"lng":-111.655423810129},{"id":"81359","name":"Dr. Dolph Kihn DVM","party":"","address":"948 N 50 E, Apt 202, Provo, UT 84604","precinct":"25PR37","hd":"60","v_score":"0","decile":"1","lat":40.246150247801,"lng":-111.657243396571},{"id":"81548","name":"Arlene Williamson-Smitham","party":"Dem","address":"195 E 600 N, Apt 13, Provo, UT 84606","precinct":"25PR37","hd":"60","v_score":"0","decile":"1","lat":40.241743024868,"lng":-111.655247645941},{"id":"82092","name":"Worley Dietrich","party":"Dem","address":"99 E 800 N, Provo, UT 84606","precinct":"25PR37","hd":"60","v_score":"0","decile":"1","lat":40.244381914021,"lng":-111.656894853359},{"id":"82601","name":"Bynum Hettinger","party":"Dem","address":"851 N 50 E, Apt 332, Provo, UT 84604","precinct":"25PR37","hd":"60","v_score":"1.193887297","decile":"3","lat":40.245055300402,"lng":-111.657400151165},{"id":"82623","name":"Mrs. Cathern Bartoletti","party":"Dem","address":"625 N 300 E, Provo, UT 84606","precinct":"25PR37","hd":"60","v_score":"11.26156058","decile":"9","lat":40.242027330613,"lng":-111.653458036473},{"id":"82925","name":"Luanne Wiegand-Schroeder","party":"Dem","address":"642 N 200 E, Apt 220, Provo, UT 84606","precinct":"25PR37","hd":"60","v_score":"0","decile":"1","lat":40.242260039448,"lng":-111.655031864157},{"id":"83179","name":"Terrie Gutkowski","party":"Rep","address":"34 E 700 N, Apt 10, Provo, UT 84606","precinct":"25PR37","hd":"60","v_score":"0","decile":"1","lat":40.242961602986,"lng":-111.658217600427},{"id":"83185","name":"Dr. Brendan Kuhlman","party":"","address":"670 N 300 E, Apt C5, Provo, UT 84606","precinct":"25PR37","hd":"60","v_score":"0","decile":"1","lat":40.242589719878,"lng":-111.653304061273},{"id":"83791","name":"Mrs. Onnie Collier MD","party":"","address":"740 N University Ave, Apt D211, Provo, UT 84601","precinct":"25PR37","hd":"60","v_score":"0","decile":"1","lat":40.243444085007,"lng":-111.658555434265},{"id":"83881","name":"Dr. Raleigh Hoppe","party":"Dem","address":"748 N 300 E, Provo, UT 84606","precinct":"25PR37","hd":"60","v_score":"0","decile":"1","lat":40.243625947657,"lng":-111.653301319043},{"id":"83933","name":"Karter Ullrich","party":"","address":"39 E 600 N, Apt 409, Provo, UT 84606","precinct":"25PR37","hd":"60","v_score":"0","decile":"1","lat":40.241751299102,"lng":-111.657782570877},{"id":"83983","name":"Jade Crist","party":"Rep","address":"942 N University Ave, Apt 34, Provo, UT 84604","precinct":"25PR37","hd":"60","v_score":"8.875197818","decile":"8","lat":40.246110431846,"lng":-111.658553371976},{"id":"84152","name":"Byrd Bechtelar","party":"Dem","address":"747 N 200 E, Apt 2, Provo, UT 84606","precinct":"25PR37","hd":"60","v_score":"1.193887297","decile":"3","lat":40.243586202281,"lng":-111.655177317288},{"id":"84311","name":"Dr. Annabella Waelchi","party":"Dem","address":"345 E 600 N, Apt F1, Provo, UT 84606","precinct":"25PR37","hd":"60","v_score":"2.817000428","decile":"6","lat":40.241733298709,"lng":-111.652601885474},{"id":"85358","name":"Mal Ruecker II","party":"Rep","address":"13 E 600 N, Apt B, Provo, UT 84606","precinct":"25PR37","hd":"60","v_score":"4.235493435","decile":"7","lat":40.241751299131,"lng":-111.658161793756},{"id":"85378","name":"Linus Friesen-Emmerich","party":"","address":"899 N 50 E, Provo, UT 84604","precinct":"25PR37","hd":"60","v_score":"0","decile":"1","lat":40.245686847568,"lng":-111.657398126893},{"id":"85440","name":"Leo Pollich","party":"","address":"695 N 100 E, Apt 8, Provo, UT 84606","precinct":"25PR37","hd":"60","v_score":"1.193887297","decile":"3","lat":40.242910832565,"lng":-111.656895026658},{"id":"85566","name":"Mckayla Beer","party":"","address":"642 N 200 E, Apt 207, Provo, UT 84606","precinct":"25PR37","hd":"60","v_score":"0","decile":"1","lat":40.242260039448,"lng":-111.655031864157},{"id":"86146","name":"Jenny Skiles DVM","party":"","address":"335 E 600 N, Apt 2, Provo, UT 84606","precinct":"25PR37","hd":"60","v_score":"2.817000428","decile":"6","lat":40.241733298721,"lng":-111.65276289349},{"id":"87088","name":"Dr. Blaine Kassulke MD","party":"","address":"642 N 200 E, Apt 108, Provo, UT 84606","precinct":"25PR37","hd":"60","v_score":"1.193887297","decile":"4","lat":40.242260039448,"lng":-111.655031864157},{"id":"87213","name":"Mr. Gunnar Wisozk V","party":"Dem","address":"341 E 700 N, Provo, UT 84606","precinct":"25PR37","hd":"60","v_score":"1.193887297","decile":"4","lat":40.243051043052,"lng":-111.652663314966},{"id":"87476","name":"Willow Pfannerstill-Torphy","party":"Rep","address":"642 N 300 E, Provo, UT 84606","precinct":"25PR37","hd":"60","v_score":"2.817000428","decile":"6","lat":40.242247031297,"lng":-111.653306408499},{"id":"87741","name":"Bryn Yundt","party":"Dem","address":"851 N 50 E, Apt 130, Provo, UT 84604","precinct":"25PR37","hd":"60","v_score":"4.732607667","decile":"7","lat":40.245055300402,"lng":-111.657400151165},{"id":"87814","name":"Simon Walsh","party":"Dem","address":"345 E 600 N, Apt F2, Provo, UT 84606","precinct":"25PR37","hd":"60","v_score":"0","decile":"1","lat":40.241733298709,"lng":-111.652601885474},{"id":"87857","name":"Haley Graham","party":"Rep","address":"745 N 400 E, Apt 8, Provo, UT 84606","precinct":"25PR37","hd":"60","v_score":"1.193887297","decile":"4","lat":40.243595107882,"lng":-111.651732861528},{"id":"87987","name":"Mr. Guss Romaguera","party":"Dem","address":"660 N 200 E, Apt 17, Provo, UT 84606","precinct":"25PR37","hd":"60","v_score":"1.193887297","decile":"4","lat":40.242481992094,"lng":-111.655031109187},{"id":"88334","name":"Toby Christiansen","party":"Dem","address":"782 N 300 E, Provo, UT 84606","precinct":"25PR37","hd":"60","v_score":"1.623113131","decile":"5","lat":40.244035824065,"lng":-111.65330131899},{"id":"89219","name":"Ms. Unique Walker","party":"","address":"35 E 800 N, Provo, UT 84606","precinct":"25PR37","hd":"60","v_score":"0","decile":"1","lat":40.244397298817,"lng":-111.65800737576},{"id":"89589","name":"Jettie Kuphal","party":"Rep","address":"137 E 600 N, Apt 2, Provo, UT 84606","precinct":"25PR37","hd":"60","v_score":"0","decile":"1","lat":40.241747887526,"lng":-111.656178831229},{"id":"90003","name":"Amy Maggio","party":"","address":"657 N 400 E, Apt G5, Provo, UT 84606","precinct":"25PR37","hd":"60","v_score":"0","decile":"1","lat":40.242423669034,"lng":-111.651734985434},{"id":"90236","name":"Mr. Estes Littel","party":"","address":"673 N 400 E, Apt E3, Provo, UT 84606","precinct":"25PR37","hd":"60","v_score":"1.623113131","decile":"5","lat":40.242620960275,"lng":-111.651735656467},{"id":"90784","name":"Ab Conroy","party":"Dem","address":"731 N 400 E, Provo, UT 84606","precinct":"25PR37","hd":"60","v_score":"0","decile":"1","lat":40.243423763591,"lng":-111.651734035141},{"id":"90799","name":"Ellsworth Ryan","party":"","address":"745 N 100 E, Apt B306, Provo, UT 84606","precinct":"25PR37","hd":"60","v_score":"1.623113131","decile":"5","lat":40.243812094498,"lng":-111.656898442766},{"id":"90804","name":"Mr. Trayvon Terry V","party":"Dem","address":"34 E 700 N, Apt 15, Provo, UT 84606","precinct":"25PR37","hd":"60","v_score":"0","decile":"1","lat":40.242961602986,"lng":-111.658217600427},{"id":"90815","name":"Gerry Auer","party":"Rep","address":"41 E 800 N, Apt 3, Provo, UT 84606","precinct":"25PR37","hd":"60","v_score":"0","decile":"1","lat":40.244397298809,"lng":-111.657911121533},{"id":"90926","name":"Buena Windler-Bins","party":"","address":"782 N 300 E, Provo, UT 84606","precinct":"25PR37","hd":"60","v_score":"1.623113131","decile":"5","lat":40.244035824065,"lng":-111.65330131899},{"id":"90980","name":"Mr. Callie Goyette III","party":"","address":"836 N University Ave, Apt 212, Provo, UT 84604","precinct":"25PR37","hd":"60","v_score":"0","decile":"1","lat":40.244834742517,"lng":-111.65855452206},{"id":"91040","name":"Nicklaus Mueller","party":"Rep","address":"150 E 700 N, Apt 16, Provo, UT 84606","precinct":"25PR37","hd":"60","v_score":"2.876042565","decile":"6","lat":40.24295512499,"lng":-111.655946183751},{"id":"91056","name":"Wylie Koss-Kohler","party":"","address":"740 N University Ave, Apt B304, Provo, UT 84601","precinct":"25PR37","hd":"60","v_score":"6.355720798","decile":"7","lat":40.243444085007,"lng":-111.658555434265},{"id":"91092","name":"Helga Schulist","party":"Rep","address":"642 N 200 E, Apt 213, Provo, UT 84606","precinct":"25PR37","hd":"60","v_score":"0","decile":"1","lat":40.242260039448,"lng":-111.655031864157},{"id":"91295","name":"Leatrice Kilback","party":"Rep","address":"915 N 150 E, Apt 206, Provo, UT 84604","precinct":"25PR37","hd":"60","v_score":"0","decile":"1","lat":40.245596132318,"lng":-111.656213796112},{"id":"91662","name":"Washington Runolfsdottir","party":"Dem","address":"617 N 100 E, Provo, UT 84606","precinct":"25PR37","hd":"60","v_score":"1.193887297","decile":"4","lat":40.241949035307,"lng":-111.65690484104},{"id":"91817","name":"Jed Pagac","party":"Rep","address":"942 N University Ave, Apt 14, Provo, UT 84604","precinct":"25PR37","hd":"60","v_score":"0","decile":"1","lat":40.246110431846,"lng":-111.658553371976},{"id":"91974","name":"Wende O'Hara","party":"Dem","address":"747 N 200 E, Apt 10, Provo, UT 84606","precinct":"25PR37","hd":"60","v_score":"0","decile":"1","lat":40.243586202281,"lng":-111.655177317288},{"id":"92685","name":"Charmaine Brakus","party":"","address":"141 E 700 N, # 9, Provo, UT 84606","precinct":"25PR37","hd":"60","v_score":"5.693042993","decile":"7","lat":40.243070551625,"lng":-111.656104781872},{"id":"92932","name":"Orvis Hamill","party":"Dem","address":"735 N 400 E, Apt 28, Provo, UT 84606","precinct":"25PR37","hd":"60","v_score":"0","decile":"1","lat":40.243472719103,"lng":-111.651733699823},{"id":"92995","name":"Ever Kulas","party":"","address":"642 N 200 E, Apt 104, Provo, UT 84606","precinct":"25PR37","hd":"60","v_score":"0","decile":"1","lat":40.242260039448,"lng":-111.655031864157},{"id":"92997","name":"Antwain Farrell-Jacobs","party":"","address":"150 E 700 N, Apt 5, Provo, UT 84606","precinct":"25PR37","hd":"60","v_score":"1.623113131","decile":"5","lat":40.24295512499,"lng":-111.655946183751},{"id":"93228","name":"Viva Fisher","party":"","address":"915 N 150 E, Apt 102, Provo, UT 84604","precinct":"25PR37","hd":"60","v_score":"4.166348126","decile":"7","lat":40.245596132318,"lng":-111.656213796112},{"id":"93277","name":"Gaynell Buckridge","party":"","address":"44 E 900 N, Provo, UT 84604","precinct":"25PR37","hd":"60","v_score":"8.284004873","decile":"8","lat":40.245686707275,"lng":-111.658050090446},{"id":"93284","name":"Oscar Skiles DDS","party":"Rep","address":"615 N 100 E, Provo, UT 84606","precinct":"25PR37","hd":"60","v_score":"1.193887297","decile":"4","lat":40.241924373839,"lng":-111.656905092691},{"id":"93470","name":"Anton Fritsch","party":"Rep","address":"745 N 400 E, Apt 26, Provo, UT 84606","precinct":"25PR37","hd":"60","v_score":"0","decile":"1","lat":40.243595107882,"lng":-111.651732861528},{"id":"93637","name":"Dr. Lish Ferry","party":"Rep","address":"330 E 700 N, Apt B3, Provo, UT 84606","precinct":"25PR37","hd":"60","v_score":"10.42565066","decile":"9","lat":40.242935616426,"lng":-111.652821913122},{"id":"94036","name":"Miss Brenda Wolf","party":"","address":"721 N 200 E, Apt 205, Provo, UT 84606","precinct":"25PR37","hd":"60","v_score":"5.335065618","decile":"7","lat":40.2432918693,"lng":-111.655178399433},{"id":"94236","name":"Rosaline West-Hammes","party":"Dem","address":"222 E 700 N, Apt 10, Provo, UT 84606","precinct":"25PR37","hd":"60","v_score":"7.549608095","decile":"8","lat":40.242946241056,"lng":-111.654676129897},{"id":"94781","name":"Vester Gorczany","party":"Dem","address":"915 N 150 E, Apt 109, Provo, UT 84604","precinct":"25PR37","hd":"60","v_score":"0","decile":"1","lat":40.245596132318,"lng":-111.656213796112},{"id":"94858","name":"Margene Volkman-Heathcote","party":"","address":"851 N 50 E, Apt 331, Provo, UT 84604","precinct":"25PR37","hd":"60","v_score":"0","decile":"1","lat":40.245055300402,"lng":-111.657400151165},{"id":"96489","name":"Stephen Quigley","party":"Rep","address":"905 N 150 E, Apt 8, Provo, UT 84604","precinct":"25PR37","hd":"60","v_score":"1.193887297","decile":"4","lat":40.245487828839,"lng":-111.656214227614},{"id":"96500","name":"Carrie Rosenbaum","party":"Dem","address":"695 N 100 E, Apt 2, Provo, UT 84606","precinct":"25PR37","hd":"60","v_score":"1.623113131","decile":"5","lat":40.242910832565,"lng":-111.656895026658},{"id":"96502","name":"Gunner Harber","party":"","address":"150 E 700 N, Apt 8, Provo, UT 84606","precinct":"25PR37","hd":"60","v_score":"5.407962308","decile":"7","lat":40.24295512499,"lng":-111.655946183751},{"id":"96523","name":"Ethen Windler III","party":"Rep","address":"658 N 100 E, Provo, UT 84606","precinct":"25PR37","hd":"60","v_score":"4.069929862","decile":"6","lat":40.242466033597,"lng":-111.656749439793},{"id":"96561","name":"Timmie Kertzmann","party":"","address":"657 N 400 E, Apt G13, Provo, UT 84606","precinct":"25PR37","hd":"60","v_score":"2.817000428","decile":"6","lat":40.242423669034,"lng":-111.651734985434},{"id":"96569","name":"Axel Bechtelar","party":"Dem","address":"130 E 700 N, Apt 15, Provo, UT 84606","precinct":"25PR37","hd":"60","v_score":"18.88777439","decile":"10","lat":40.242956800926,"lng":-111.656265444801},{"id":"96618","name":"Quentin Lesch","party":"Rep","address":"635 N 100 E, Provo, UT 84606","precinct":"25PR37","hd":"60","v_score":"0","decile":"1","lat":40.242170988521,"lng":-111.656902576183},{"id":"96622","name":"Ms. Paige Herman","party":"","address":"735 N 400 E, Apt 24, Provo, UT 84606","precinct":"25PR37","hd":"60","v_score":"0","decile":"1","lat":40.243472719103,"lng":-111.651733699823},{"id":"96738","name":"Finley Spencer II","party":"Dem","address":"195 E 600 N, Apt 31, Provo, UT 84606","precinct":"25PR37","hd":"60","v_score":"6.355720798","decile":"7","lat":40.241743024868,"lng":-111.655247645941},{"id":"96761","name":"Destini Eichmann","party":"Dem","address":"665 N 400 E, Apt A3, Provo, UT 84606","precinct":"25PR37","hd":"60","v_score":"18.35167816","decile":"10","lat":40.242522314654,"lng":-111.65173532095},{"id":"96782","name":"Star Kulas-Marquardt","party":"Dem","address":"161 E 700 N, Apt 9, Provo, UT 84606","precinct":"25PR37","hd":"60","v_score":"0","decile":"1","lat":40.243068875689,"lng":-111.655785520822},{"id":"96847","name":"Dr. Drusilla Yundt","party":"Rep","address":"42 E 800 N, Apt 102, Provo, UT 84606","precinct":"25PR37","hd":"60","v_score":"1.623113131","decile":"5","lat":40.244282707406,"lng":-111.657654443609},{"id":"96858","name":"Mr. Brendon Upton PhD","party":"Rep","address":"715 N 200 E, Apt 202, Provo, UT 84606","precinct":"25PR37","hd":"60","v_score":"2.817000428","decile":"6","lat":40.243223946305,"lng":-111.655178649159},{"id":"96944","name":"Orval Hills","party":"","address":"745 N 100 E, Apt A101, Provo, UT 84606","precinct":"25PR37","hd":"60","v_score":"0","decile":"1","lat":40.243812094498,"lng":-111.656898442766},{"id":"96975","name":"Roland Mohr","party":"Dem","address":"770 N University Ave, Apt 8, Provo, UT 84601","precinct":"25PR37","hd":"60","v_score":"0","decile":"1","lat":40.243714822511,"lng":-111.658554214691},{"id":"97258","name":"Helena Schultz","party":"Rep","address":"721 N 200 E, Apt 208, Provo, UT 84606","precinct":"25PR37","hd":"60","v_score":"2.817000428","decile":"6","lat":40.2432918693,"lng":-111.655178399433},{"id":"97311","name":"Iver Dickinson","party":"Rep","address":"374 E 800 N, Provo, UT 84606","precinct":"25PR37","hd":"60","v_score":"3.93832808","decile":"6","lat":40.244255706986,"lng":-111.652113553813},{"id":"97402","name":"Annabel Erdman","party":"Rep","address":"660 N 200 E, Apt 8, Provo, UT 84606","precinct":"25PR37","hd":"60","v_score":"7.031075439","decile":"8","lat":40.242481992094,"lng":-111.655031109187},{"id":"97405","name":"Tamie Upton","party":"Rep","address":"681 N 100 E, Apt 2, Provo, UT 84606","precinct":"25PR37","hd":"60","v_score":"10.42565066","decile":"9","lat":40.242738202288,"lng":-111.656896788214},{"id":"97409","name":"Dr. Rylie Ruecker PhD","party":"Rep","address":"47 E 600 N, Apt 203, Provo, UT 84606","precinct":"25PR37","hd":"60","v_score":"4.499155696","decile":"7","lat":40.241751299093,"lng":-111.657665886914},{"id":"97689","name":"Harlow Stehr DDS","party":"Rep","address":"341 E 700 N, Provo, UT 84606","precinct":"25PR37","hd":"60","v_score":"1.193887297","decile":"4","lat":40.243051043052,"lng":-111.652663314966},{"id":"97796","name":"Myrtle Goyette","party":"Dem","address":"765 N 400 E, Provo, UT 84606","precinct":"25PR37","hd":"60","v_score":"1.193887297","decile":"4","lat":40.243839885439,"lng":-111.651731184938},{"id":"97935","name":"Jack Cartwright","party":"Dem","address":"642 N 200 E, Apt 206, Provo, UT 84606","precinct":"25PR37","hd":"60","v_score":"2.817000428","decile":"6","lat":40.242260039448,"lng":-111.655031864157},{"id":"98069","name":"Galilea Schmidt-Donnelly","party":"Dem","address":"665 N 100 E, Apt 4, Provo, UT 84606","precinct":"25PR37","hd":"60","v_score":"1.623113131","decile":"5","lat":40.242540910543,"lng":-111.656898801421},{"id":"98146","name":"Ivie Wolff","party":"Rep","address":"660 N 200 E, Apt 8, Provo, UT 84606","precinct":"25PR37","hd":"60","v_score":"7.549608095","decile":"8","lat":40.242481992094,"lng":-111.655031109187},{"id":"98218","name":"Percy McLaughlin","party":"Dem","address":"721 N 200 E, Apt 306, Provo, UT 84606","precinct":"25PR37","hd":"60","v_score":"7.549608095","decile":"8","lat":40.2432918693,"lng":-111.655178399433},{"id":"98224","name":"Dr. Clifton Schuppe MD","party":"","address":"161 E 700 N, Apt 9, Provo, UT 84606","precinct":"25PR37","hd":"60","v_score":"2.817000428","decile":"6","lat":40.243068875689,"lng":-111.655785520822},{"id":"98863","name":"Ms. Glendora Beatty","party":"Rep","address":"948 N 50 E, Apt 104, Provo, UT 84604","precinct":"25PR37","hd":"60","v_score":"0","decile":"1","lat":40.246150247801,"lng":-111.657243396571},{"id":"99464","name":"Flint Johnson","party":"Rep","address":"747 N 200 E, Provo, UT 84606","precinct":"25PR37","hd":"60","v_score":"1.193887297","decile":"4","lat":40.243586202281,"lng":-111.655177317288},{"id":"99802","name":"Miss Daneen Bailey PhD","party":"Rep","address":"899 N 50 E, Provo, UT 84604","precinct":"25PR37","hd":"60","v_score":"0","decile":"1","lat":40.245686847568,"lng":-111.657398126893},{"id":"99990","name":"Mr. Arvo DuBuque MD","party":"","address":"225 E 700 N, Apt 10, Provo, UT 84606","precinct":"25PR37","hd":"60","v_score":"0","decile":"1","lat":40.243060486318,"lng":-111.65464187955},{"id":"100084","name":"Stephany Klocko","party":"","address":"345 E 600 N, Apt F6, Provo, UT 84606","precinct":"25PR37","hd":"60","v_score":"1.193887297","decile":"4","lat":40.241733298709,"lng":-111.652601885474},{"id":"100523","name":"Mr. Durell Stokes","party":"","address":"330 E 700 N, Apt B6, Provo, UT 84606","precinct":"25PR37","hd":"60","v_score":"14.90715135","decile":"9","lat":40.242935616426,"lng":-111.652821913122},{"id":"100696","name":"Icey Hartmann","party":"Dem","address":"835 N 50 E, Apt 223, Provo, UT 84604","precinct":"25PR37","hd":"60","v_score":"0","decile":"1","lat":40.24484478468,"lng":-111.657400825922},{"id":"100791","name":"Audy Adams III","party":"Rep","address":"896 N 50 E, Provo, UT 84604","precinct":"25PR37","hd":"60","v_score":"1.193887297","decile":"4","lat":40.245660252749,"lng":-111.657248084686},{"id":"100821","name":"Mr. Jessee Abshire","party":"Rep","address":"316 E 700 N, Apt H2, Provo, UT 84606","precinct":"25PR37","hd":"60","v_score":"0","decile":"2","lat":40.242934443305,"lng":-111.653045395862},{"id":"100872","name":"Claudio Romaguera","party":"Dem","address":"192 E 700 N, Provo, UT 84606","precinct":"25PR37","hd":"60","v_score":"0","decile":"2","lat":40.242951605525,"lng":-111.655275735547},{"id":"101054","name":"Dr. Albertina Konopelski","party":"Dem","address":"745 N 100 E, Apt B205, Provo, UT 84606","precinct":"25PR37","hd":"60","v_score":"0","decile":"2","lat":40.243812094498,"lng":-111.656898442766},{"id":"101075","name":"Otelia Rolfson","party":"Dem","address":"760 N 300 E, Apt 2, Provo, UT 84606","precinct":"25PR37","hd":"60","v_score":"0","decile":"2","lat":40.243770609919,"lng":-111.653301319024},{"id":"101197","name":"Mrs. Ina Kiehn DVM","party":"","address":"760 N 300 E, Apt 3, Provo, UT 84606","precinct":"25PR37","hd":"60","v_score":"1.193887297","decile":"4","lat":40.243770609919,"lng":-111.653301319024},{"id":"101230","name":"Truman Leannon","party":"","address":"769 N 400 E, Provo, UT 84606","precinct":"25PR37","hd":"60","v_score":"0","decile":"2","lat":40.24388884095,"lng":-111.65173084962},{"id":"101519","name":"Adelle Feeney","party":"Rep","address":"42 E 800 N, Apt 102, Provo, UT 84606","precinct":"25PR37","hd":"60","v_score":"0","decile":"2","lat":40.244282707406,"lng":-111.657654443609},{"id":"101612","name":"Mabelle Kuvalis","party":"","address":"42 E 800 N, Apt 302, Provo, UT 84606","precinct":"25PR37","hd":"60","v_score":"0","decile":"2","lat":40.244282707406,"lng":-111.657654443609},{"id":"101808","name":"Dr. Dayami Rosenbaum PhD","party":"Rep","address":"642 N 200 E, Apt 219, Provo, UT 84606","precinct":"25PR37","hd":"60","v_score":"1.193887297","decile":"4","lat":40.242260039448,"lng":-111.655031864157},{"id":"101810","name":"Mr. Adrian Leffler","party":"Dem","address":"222 E 700 N, Apt 14, Provo, UT 84606","precinct":"25PR37","hd":"60","v_score":"1.193887297","decile":"4","lat":40.242946241056,"lng":-111.654676129897},{"id":"101851","name":"Clemon Ortiz","party":"","address":"886 N 50 E, Provo, UT 84604","precinct":"25PR37","hd":"60","v_score":"1.193887297","decile":"4","lat":40.245528680423,"lng":-111.657248506409},{"id":"101874","name":"Blanchard Considine MD","party":"","address":"225 E 700 N, Apt 11, Provo, UT 84606","precinct":"25PR37","hd":"60","v_score":"0","decile":"2","lat":40.243060486318,"lng":-111.65464187955},{"id":"103007","name":"Admiral O'Kon IV","party":"Dem","address":"660 N 200 E, Apt 9, Provo, UT 84606","precinct":"25PR37","hd":"60","v_score":"0","decile":"2","lat":40.242481992094,"lng":-111.655031109187},{"id":"103025","name":"Dr. Brittnay Kautzer DDS","party":"Dem","address":"680 N 300 E, Provo, UT 84606","precinct":"25PR37","hd":"60","v_score":"4.069929862","decile":"7","lat":40.242712108656,"lng":-111.653303222978},{"id":"103694","name":"Arvo Ledner","party":"","address":"665 N 400 E, Apt A1, Provo, UT 84606","precinct":"25PR37","hd":"60","v_score":"0","decile":"2","lat":40.242522314654,"lng":-111.65173532095},{"id":"104053","name":"Dennie Klein-Huels","party":"Rep","address":"915 N 150 E, Apt 202, Provo, UT 84604","precinct":"25PR37","hd":"60","v_score":"5.926494964","decile":"7","lat":40.245596132318,"lng":-111.656213796112},{"id":"104462","name":"Osie Crooks-Tremblay","party":"Rep","address":"727 N 300 E, Apt 306, Provo, UT 84606","precinct":"25PR37","hd":"60","v_score":"1.193887297","decile":"4","lat":40.243360733523,"lng":-111.653451443085},{"id":"104565","name":"Efrem Rippin","party":"","address":"660 N 200 E, Apt 13, Provo, UT 84606","precinct":"25PR37","hd":"60","v_score":"0","decile":"2","lat":40.242481992094,"lng":-111.655031109187},{"id":"105054","name":"Azul Mertz","party":"Dem","address":"894 N 50 E, Provo, UT 84604","precinct":"25PR37","hd":"60","v_score":"1.193887297","decile":"4","lat":40.245633938284,"lng":-111.65724816903},{"id":"105176","name":"Anya Crona","party":"Rep","address":"222 E 700 N, Provo, UT 84606","precinct":"25PR37","hd":"60","v_score":"4.069929862","decile":"7","lat":40.242946241056,"lng":-111.654676129897},{"id":"105535","name":"Dionicio Bradtke","party":"Rep","address":"850 N University Ave, Apt 300, Provo, UT 84604","precinct":"25PR37","hd":"60","v_score":"0","decile":"2","lat":40.245004800926,"lng":-111.658555108446},{"id":"105637","name":"Mechelle Ullrich DDS","party":"Dem","address":"195 E 600 N, Apt 11, Provo, UT 84606","precinct":"25PR37","hd":"60","v_score":"1.193887297","decile":"4","lat":40.241743024868,"lng":-111.655247645941},{"id":"105728","name":"Carrie Connelly","party":"","address":"83 E 600 N, Provo, UT 84606","precinct":"25PR37","hd":"60","v_score":"1.193887297","decile":"4","lat":40.241751299053,"lng":-111.657140809081},{"id":"105924","name":"Krish Eichmann","party":"","address":"715 N 200 E, Apt 303, Provo, UT 84606","precinct":"25PR37","hd":"60","v_score":"4.069929862","decile":"7","lat":40.243223946305,"lng":-111.655178649159},{"id":"106029","name":"Sharita Ullrich-Rath","party":"Rep","address":"915 N 150 E, Apt 211, Provo, UT 84604","precinct":"25PR37","hd":"60","v_score":"4.905839784","decile":"7","lat":40.245596132318,"lng":-111.656213796112},{"id":"106929","name":"Jessika Abbott","party":"","address":"161 E 700 N, Apt 25, Provo, UT 84606","precinct":"25PR37","hd":"60","v_score":"1.193887297","decile":"4","lat":40.243068875689,"lng":-111.655785520822},{"id":"107223","name":"Dr. Amy Lemke","party":"Dem","address":"745 N 100 E, Apt 204, Provo, UT 84606","precinct":"25PR37","hd":"60","v_score":"8.284004873","decile":"8","lat":40.243812094498,"lng":-111.656898442766},{"id":"107410","name":"Chancey Crona-Bednar","party":"","address":"851 N 50 E, Apt 231, Provo, UT 84604","precinct":"25PR37","hd":"60","v_score":"4.905839784","decile":"7","lat":40.245055300402,"lng":-111.657400151165},{"id":"107641","name":"Archer Heathcote","party":"Dem","address":"25 E 900 N, Apt 5, Provo, UT 84604","precinct":"25PR37","hd":"60","v_score":"4.905839784","decile":"7","lat":40.245801298677,"lng":-111.658273387386},{"id":"107749","name":"Mr. Kwame Reichert","party":"Dem","address":"735 N 400 E, Apt 25, Provo, UT 84606","precinct":"25PR37","hd":"60","v_score":"4.905839784","decile":"7","lat":40.243472719103,"lng":-111.651733699823},{"id":"107912","name":"Jair Windler-Schaefer","party":"Dem","address":"161 E 700 N, Apt 1, Provo, UT 84606","precinct":"25PR37","hd":"60","v_score":"0","decile":"2","lat":40.243068875689,"lng":-111.655785520822},{"id":"108448","name":"Mr. Avon Johns","party":"Dem","address":"391 E 700 N, Apt 1, Provo, UT 84606","precinct":"25PR37","hd":"60","v_score":"1.193887297","decile":"4","lat":40.243055232769,"lng":-111.651865162321},{"id":"108490","name":"Tiney Braun","party":"","address":"635 N 100 E, Provo, UT 84606","precinct":"25PR37","hd":"60","v_score":"0","decile":"2","lat":40.242170988521,"lng":-111.656902576183},{"id":"109077","name":"Smith Mosciski","party":"Rep","address":"659 N 300 E, Apt 6, Provo, UT 84606","precinct":"25PR37","hd":"60","v_score":"1.193887297","decile":"4","lat":40.24244345246,"lng":-111.65345518627},{"id":"109353","name":"Carrie Sporer","party":"","address":"897 N 150 E, Apt 5, Provo, UT 84604","precinct":"25PR37","hd":"60","v_score":"9.338633761","decile":"8","lat":40.245401186056,"lng":-111.656214572816},{"id":"109579","name":"Addison Senger","party":"Rep","address":"721 N 200 E, Apt 208, Provo, UT 84606","precinct":"25PR37","hd":"60","v_score":"1.193887297","decile":"4","lat":40.2432918693,"lng":-111.655178399433},{"id":"110336","name":"Karren Romaguera","party":"Rep","address":"905 N 150 E, Apt 9, Provo, UT 84604","precinct":"25PR37","hd":"60","v_score":"0","decile":"2","lat":40.245487828839,"lng":-111.656214227614},{"id":"110541","name":"Kasey Wisozk III","party":"","address":"850 N University Ave, Apt 103, Provo, UT 84604","precinct":"25PR37","hd":"60","v_score":"0","decile":"2","lat":40.245004800926,"lng":-111.658555108446},{"id":"110811","name":"Conor Gleichner DDS","party":"","address":"905 N 150 E, Apt 1, Provo, UT 84604","precinct":"25PR37","hd":"60","v_score":"0","decile":"2","lat":40.245487828839,"lng":-111.656214227614},{"id":"110990","name":"Lute Sporer","party":"Rep","address":"948 N 50 E, Apt 203, Provo, UT 84604","precinct":"25PR37","hd":"60","v_score":"1.193887297","decile":"4","lat":40.246150247801,"lng":-111.657243396571},{"id":"111052","name":"Hyrum Reilly","party":"Rep","address":"642 N 200 E, Apt 106, Provo, UT 84606","precinct":"25PR37","hd":"60","v_score":"1.193887297","decile":"4","lat":40.242260039448,"lng":-111.655031864157},{"id":"111343","name":"Isham Fahey","party":"Dem","address":"195 E 600 N, Apt 11, Provo, UT 84606","precinct":"25PR37","hd":"60","v_score":"1.193887297","decile":"4","lat":40.241743024868,"lng":-111.655247645941},{"id":"111364","name":"Maudie Nicolas-Osinski","party":"Dem","address":"195 E 600 N, Provo, UT 84606","precinct":"25PR37","hd":"60","v_score":"0","decile":"2","lat":40.241743024868,"lng":-111.655247645941},{"id":"111365","name":"Adron Murray","party":"","address":"755 N 100 E, Apt C308, Provo, UT 84606","precinct":"25PR37","hd":"60","v_score":"0","decile":"2","lat":40.243895911693,"lng":-111.656898442755},{"id":"111825","name":"Jamin Hermiston III","party":"Dem","address":"851 N 50 E, Apt 332, Provo, UT 84604","precinct":"25PR37","hd":"60","v_score":"0","decile":"2","lat":40.245055300402,"lng":-111.657400151165},{"id":"111888","name":"Mrs. Devan Hermiston DDS","party":"Rep","address":"727 N 300 E, Apt 101, Provo, UT 84606","precinct":"25PR37","hd":"60","v_score":"1.193887297","decile":"4","lat":40.243360733523,"lng":-111.653451443085},{"id":"112391","name":"Merrily Feest","party":"Rep","address":"630 N 100 E, Apt 1, Provo, UT 84606","precinct":"25PR37","hd":"60","v_score":"5.407962308","decile":"7","lat":40.242120773043,"lng":-111.656752962904},{"id":"112668","name":"Dianna Kiehn","party":"","address":"744 N 300 E, Provo, UT 84606","precinct":"25PR37","hd":"60","v_score":"0","decile":"2","lat":40.243577726904,"lng":-111.653301319049},{"id":"112685","name":"Fawn Lueilwitz","party":"Rep","address":"34 E 700 N, Apt 7, Provo, UT 84606","precinct":"25PR37","hd":"60","v_score":"0","decile":"2","lat":40.242961602986,"lng":-111.658217600427},{"id":"112852","name":"Dessie Armstrong","party":"Rep","address":"161 E 700 N, Apt 15, Provo, UT 84606","precinct":"25PR37","hd":"60","v_score":"0","decile":"2","lat":40.243068875689,"lng":-111.655785520822},{"id":"112880","name":"Morris Grady","party":"Dem","address":"872 N University Ave, Apt 6, Provo, UT 84604","precinct":"25PR37","hd":"60","v_score":"1.193887297","decile":"4","lat":40.245272035569,"lng":-111.65855602991},{"id":"113419","name":"Kalel Hilll","party":"Rep","address":"695 N 100 E, Apt 3, Provo, UT 84606","precinct":"25PR37","hd":"60","v_score":"4.069929862","decile":"7","lat":40.242910832565,"lng":-111.656895026658},{"id":"113442","name":"Dr. Newton Jacobi","party":"","address":"141 E 700 N, Apt 30, Provo, UT 84606","precinct":"25PR37","hd":"60","v_score":"1.193887297","decile":"4","lat":40.243070551625,"lng":-111.656104781872},{"id":"113503","name":"Marlee Muller","party":"","address":"34 E 700 N, Apt 3, Provo, UT 84606","precinct":"25PR37","hd":"60","v_score":"0","decile":"2","lat":40.242961602986,"lng":-111.658217600427},{"id":"113509","name":"Kathleen Kshlerin","party":"Rep","address":"141 E 700 N, Apt 19, Provo, UT 84606","precinct":"25PR37","hd":"60","v_score":"1.193887297","decile":"4","lat":40.243070551625,"lng":-111.656104781872},{"id":"113601","name":"Braylon Christiansen","party":"Rep","address":"659 N 300 E, Apt 5, Provo, UT 84606","precinct":"25PR37","hd":"60","v_score":"0","decile":"2","lat":40.24244345246,"lng":-111.65345518627},{"id":"114338","name":"Willia Hudson","party":"Dem","address":"721 N 200 E, Apt 107, Provo, UT 84606","precinct":"25PR37","hd":"60","v_score":"0","decile":"2","lat":40.2432918693,"lng":-111.655178399433},{"id":"114539","name":"Salina Miller","party":"","address":"681 N 100 E, Apt 5, Provo, UT 84606","precinct":"25PR37","hd":"60","v_score":"1.193887297","decile":"4","lat":40.242738202288,"lng":-111.656896788214},{"id":"115253","name":"Maybelle Jakubowski","party":"Dem","address":"948 N 50 E, Apt 103, Provo, UT 84604","precinct":"25PR37","hd":"60","v_score":"0","decile":"2","lat":40.246150247801,"lng":-111.657243396571},{"id":"115380","name":"Dr. Hailey Muller","party":"Dem","address":"680 N 300 E, Provo, UT 84606","precinct":"25PR37","hd":"60","v_score":"1.193887297","decile":"4","lat":40.242712108656,"lng":-111.653303222978},{"id":"115453","name":"Randle Lakin","party":"Rep","address":"45 E 800 N, Provo, UT 84606","precinct":"25PR37","hd":"60","v_score":"0","decile":"2","lat":40.244397298804,"lng":-111.657846952048},{"id":"115647","name":"Dr. Tai Kunze","party":"Rep","address":"760 N 300 E, Apt 2, Provo, UT 84606","precinct":"25PR37","hd":"60","v_score":"1.193887297","decile":"4","lat":40.243770609919,"lng":-111.653301319024},{"id":"116368","name":"Brook Crooks","party":"Rep","address":"760 N 300 E, Apt 4, Provo, UT 84606","precinct":"25PR37","hd":"60","v_score":"1.193887297","decile":"4","lat":40.243770609919,"lng":-111.653301319024},{"id":"116391","name":"Achsah Weimann","party":"","address":"897 N 150 E, Apt 7, Provo, UT 84604","precinct":"25PR37","hd":"60","v_score":"1.193887297","decile":"4","lat":40.245401186056,"lng":-111.656214572816},{"id":"116535","name":"Michale Botsford","party":"","address":"182 E 800 N, Apt 2, Provo, UT 84606","precinct":"25PR37","hd":"60","v_score":"1.193887297","decile":"4","lat":40.244222200843,"lng":-111.655423810129},{"id":"116724","name":"Jahir Walter","party":"","address":"630 N 100 E, Apt 2, Provo, UT 84606","precinct":"25PR37","hd":"60","v_score":"1.193887297","decile":"4","lat":40.242120773043,"lng":-111.656752962904},{"id":"116779","name":"Berenice Hayes-Kessler","party":"Rep","address":"315 E 600 N, Apt 5, Provo, UT 84606","precinct":"25PR37","hd":"60","v_score":"1.193887297","decile":"4","lat":40.241733298745,"lng":-111.653084909522},{"id":"116795","name":"Verona Stamm DVM","party":"Rep","address":"161 E 700 N, Apt 11, Provo, UT 84606","precinct":"25PR37","hd":"60","v_score":"1.193887297","decile":"4","lat":40.243068875689,"lng":-111.655785520822},{"id":"116880","name":"Kalyn Moen","party":"","address":"161 E 700 N, Apt 1, Provo, UT 84606","precinct":"25PR37","hd":"60","v_score":"4.069929862","decile":"7","lat":40.243068875689,"lng":-111.655785520822},{"id":"117398","name":"Ciara Sanford","party":"Rep","address":"905 N 150 E, Apt 11, Provo, UT 84604","precinct":"25PR37","hd":"60","v_score":"1.193887297","decile":"4","lat":40.245487828839,"lng":-111.656214227614},{"id":"117678","name":"Author Williamson-Schroeder","party":"Rep","address":"642 N 200 E, Apt 208, Provo, UT 84606","precinct":"25PR37","hd":"60","v_score":"8.284004873","decile":"8","lat":40.242260039448,"lng":-111.655031864157},{"id":"117989","name":"Marita Wehner","party":"Dem","address":"335 E 600 N, Apt 3, Provo, UT 84606","precinct":"25PR37","hd":"60","v_score":"5.407962308","decile":"7","lat":40.241733298721,"lng":-111.65276289349},{"id":"117991","name":"Ms. Fanny Will","party":"Dem","address":"721 N 200 E, Apt 302, Provo, UT 84606","precinct":"25PR37","hd":"60","v_score":"1.193887297","decile":"4","lat":40.2432918693,"lng":-111.655178399433},{"id":"117997","name":"Mr. Vince Spinka","party":"Dem","address":"840 N 50 E, Apt B, Provo, UT 84604","precinct":"25PR37","hd":"60","v_score":"2.876042565","decile":"6","lat":40.244923447722,"lng":-111.657250446336},{"id":"117998","name":"Kaylyn Fadel MD","party":"Rep","address":"645 N 100 E, Provo, UT 84606","precinct":"25PR37","hd":"60","v_score":"1.193887297","decile":"4","lat":40.242294295861,"lng":-111.656901317929},{"id":"118190","name":"Miss Vashti Green DVM","party":"Dem","address":"948 N 50 E, Apt 301, Provo, UT 84604","precinct":"25PR37","hd":"60","v_score":"8.284004873","decile":"8","lat":40.246150247801,"lng":-111.657243396571},{"id":"118594","name":"Marlena O'Connell","party":"Rep","address":"727 N 300 E, Apt 108, Provo, UT 84606","precinct":"25PR37","hd":"60","v_score":"4.069929862","decile":"7","lat":40.243360733523,"lng":-111.653451443085},{"id":"118968","name":"Georgette Terry","party":"Dem","address":"897 N 150 E, Apt 5, Provo, UT 84604","precinct":"25PR37","hd":"60","v_score":"4.069929862","decile":"7","lat":40.245401186056,"lng":-111.656214572816},{"id":"119048","name":"Miss Albertine Green MD","party":"Dem","address":"44 E 900 N, Provo, UT 84604","precinct":"25PR37","hd":"60","v_score":"8.284004873","decile":"8","lat":40.245686707275,"lng":-111.658050090446},{"id":"119385","name":"Takisha Runolfsson","party":"","address":"222 E 700 N, Apt 3, Provo, UT 84606","precinct":"25PR37","hd":"60","v_score":"4.069929862","decile":"7","lat":40.242946241056,"lng":-111.654676129897},{"id":"119768","name":"Lyndsay Wilkinson","party":"","address":"34 E 700 N, Apt 8, Provo, UT 84606","precinct":"25PR37","hd":"60","v_score":"1.193887297","decile":"4","lat":40.242961602986,"lng":-111.658217600427},{"id":"119963","name":"Jamya Purdy","party":"","address":"642 N 200 E, Provo, UT 84606","precinct":"25PR37","hd":"60","v_score":"1.193887297","decile":"4","lat":40.242260039448,"lng":-111.655031864157},{"id":"120122","name":"Patty Barrows","party":"Rep","address":"745 N 100 E, Apt A301, Provo, UT 84606","precinct":"25PR37","hd":"60","v_score":"1.193887297","decile":"4","lat":40.243812094498,"lng":-111.656898442766},{"id":"120260","name":"Eppie Kohler","party":"Dem","address":"715 N 200 E, Apt 203, Provo, UT 84606","precinct":"25PR37","hd":"60","v_score":"0","decile":"2","lat":40.243223946305,"lng":-111.655178649159},{"id":"120388","name":"Colleen Murphy","party":"","address":"727 N 300 E, Apt 109, Provo, UT 84606","precinct":"25PR37","hd":"60","v_score":"1.193887297","decile":"4","lat":40.243360733523,"lng":-111.653451443085},{"id":"120479","name":"Junia Brekke","party":"Dem","address":"747 N 200 E, Apt 11, Provo, UT 84606","precinct":"25PR37","hd":"60","v_score":"1.193887297","decile":"4","lat":40.243586202281,"lng":-111.655177317288},{"id":"120528","name":"Alwin Murray","party":"","address":"850 N University Ave, Apt 301, Provo, UT 84604","precinct":"25PR37","hd":"60","v_score":"1.193887297","decile":"4","lat":40.245004800926,"lng":-111.658555108446},{"id":"120674","name":"Dr. Gwen Mayer","party":"Dem","address":"366 E 800 N, Provo, UT 84606","precinct":"25PR37","hd":"60","v_score":"1.193887297","decile":"4","lat":40.244255620876,"lng":-111.652237005553},{"id":"120962","name":"Hattie Medhurst","party":"Dem","address":"195 E 600 N, Provo, UT 84606","precinct":"25PR37","hd":"60","v_score":"4.069929862","decile":"7","lat":40.241743024868,"lng":-111.655247645941},{"id":"121221","name":"Mrs. Gretta Bergstrom PhD","party":"Dem","address":"760 N 300 E, Apt 5, Provo, UT 84606","precinct":"25PR37","hd":"60","v_score":"1.193887297","decile":"4","lat":40.243770609919,"lng":-111.653301319024},{"id":"121443","name":"Booker Lebsack","party":"Dem","address":"905 N 150 E, Apt 10, Provo, UT 84604","precinct":"25PR37","hd":"60","v_score":"1.193887297","decile":"4","lat":40.245487828839,"lng":-111.656214227614},{"id":"121480","name":"Mr. Jahiem Grant DVM","party":"Dem","address":"915 N 150 E, Apt 308, Provo, UT 84604","precinct":"25PR37","hd":"60","v_score":"4.069929862","decile":"7","lat":40.245596132318,"lng":-111.656213796112},{"id":"121482","name":"Aurelia Huel","party":"Dem","address":"665 N 100 E, Apt 3, Provo, UT 84606","precinct":"25PR37","hd":"60","v_score":"1.193887297","decile":"4","lat":40.242540910543,"lng":-111.656898801421},{"id":"121598","name":"Elfreda Keebler-Pouros","party":"","address":"42 E 800 N, Apt 302, Provo, UT 84606","precinct":"25PR37","hd":"60","v_score":"1.193887297","decile":"4","lat":40.244282707406,"lng":-111.657654443609},{"id":"121882","name":"Dianna Effertz","party":"","address":"850 N University Ave, Apt 300, Provo, UT 84604","precinct":"25PR37","hd":"60","v_score":"1.193887297","decile":"4","lat":40.245004800926,"lng":-111.658555108446},{"id":"121901","name":"Mabell Wisoky-Price","party":"Rep","address":"836 N University Ave, Apt 110, Provo, UT 84604","precinct":"25PR37","hd":"60","v_score":"1.193887297","decile":"4","lat":40.244834742517,"lng":-111.65855452206},{"id":"121958","name":"Dr. Rona Wilderman","party":"Rep","address":"740 N University Ave, Apt C209, Provo, UT 84601","precinct":"25PR37","hd":"60","v_score":"1.193887297","decile":"4","lat":40.243444085007,"lng":-111.658555434265},{"id":"122007","name":"Danna Gulgowski","party":"","address":"659 N 300 E, Apt 5, Provo, UT 84606","precinct":"25PR37","hd":"60","v_score":"1.193887297","decile":"4","lat":40.24244345246,"lng":-111.65345518627},{"id":"122121","name":"Vern Turner","party":"Rep","address":"915 N 150 E, Apt 308, Provo, UT 84604","precinct":"25PR37","hd":"60","v_score":"1.193887297","decile":"4","lat":40.245596132318,"lng":-111.656213796112},{"id":"122332","name":"Deric Conroy","party":"Rep","address":"836 N University Ave, Apt 110, Provo, UT 84604","precinct":"25PR37","hd":"60","v_score":"1.193887297","decile":"4","lat":40.244834742517,"lng":-111.65855452206},{"id":"122369","name":"Miss Edyth Gaylord","party":"","address":"835 N 50 E, Apt 320, Provo, UT 84604","precinct":"25PR37","hd":"60","v_score":"1.193887297","decile":"4","lat":40.24484478468,"lng":-111.657400825922},{"id":"122480","name":"Ms. Kelcie Simonis PhD","party":"Dem","address":"755 N 100 E, Apt D112, Provo, UT 84606","precinct":"25PR37","hd":"60","v_score":"1.193887297","decile":"4","lat":40.243895911693,"lng":-111.656898442755},{"id":"122686","name":"Jenna Ryan","party":"Rep","address":"783 N 200 E, Apt D, Provo, UT 84606","precinct":"25PR37","hd":"60","v_score":"1.193887297","decile":"4","lat":40.243993740254,"lng":-111.655175818934},{"id":"122811","name":"Starr Mann","party":"Rep","address":"642 N 200 E, Apt 106, Provo, UT 84606","precinct":"25PR37","hd":"60","v_score":"1.193887297","decile":"4","lat":40.242260039448,"lng":-111.655031864157},{"id":"122816","name":"Arminda Zboncak","party":"Rep","address":"850 N University Ave, Apt 122, Provo, UT 84604","precinct":"25PR37","hd":"60","v_score":"1.193887297","decile":"4","lat":40.245004800926,"lng":-111.658555108446},{"id":"122825","name":"Harman Hartmann","party":"Rep","address":"727 N 300 E, Apt 112, Provo, UT 84606","precinct":"25PR37","hd":"60","v_score":"1.193887297","decile":"4","lat":40.243360733523,"lng":-111.653451443085},{"id":"122831","name":"Dr. Roy Ziemann","party":"Dem","address":"225 E 700 N, Apt 6, Provo, UT 84606","precinct":"25PR37","hd":"60","v_score":"1.193887297","decile":"4","lat":40.243060486318,"lng":-111.65464187955},{"id":"122835","name":"Cordaro Emmerich III","party":"Rep","address":"745 N 400 E, Apt 7, Provo, UT 84606","precinct":"25PR37","hd":"60","v_score":"5.407962308","decile":"7","lat":40.243595107882,"lng":-111.651732861528},{"id":"123017","name":"Alvera Fritsch","party":"","address":"915 N 150 E, Apt 202, Provo, UT 84604","precinct":"25PR37","hd":"60","v_score":"1.193887297","decile":"4","lat":40.245596132318,"lng":-111.656213796112},{"id":"123088","name":"Dr. Ennis Christiansen","party":"","address":"646 N University Ave, Apt C410, Provo, UT 84601","precinct":"25PR37","hd":"60","v_score":"1.193887297","decile":"4","lat":40.24214987446,"lng":-111.658559691141},{"id":"123342","name":"Octavius Reichert","party":"","address":"161 E 700 N, Apt 15, Provo, UT 84606","precinct":"25PR37","hd":"60","v_score":"1.193887297","decile":"4","lat":40.243068875689,"lng":-111.655785520822},{"id":"123345","name":"Craig Greenholt","party":"Rep","address":"366 E 800 N, Provo, UT 84606","precinct":"25PR37","hd":"60","v_score":"1.193887297","decile":"4","lat":40.244255620876,"lng":-111.652237005553},{"id":"123394","name":"Ms. Haylee Cassin DDS","party":"","address":"646 N University Ave, Apt C410, Provo, UT 84601","precinct":"25PR37","hd":"60","v_score":"1.193887297","decile":"4","lat":40.24214987446,"lng":-111.658559691141},{"id":"123593","name":"Josiephine Waters PhD","party":"","address":"836 N University Ave, Provo, UT 84604","precinct":"25PR37","hd":"60","v_score":"1.193887297","decile":"4","lat":40.244834742517,"lng":-111.65855452206},{"id":"123600","name":"Fleming Glover DDS","party":"","address":"748 N 300 E, Provo, UT 84606","precinct":"25PR37","hd":"60","v_score":"1.193887297","decile":"4","lat":40.243625947657,"lng":-111.653301319043},{"id":"123618","name":"Ebenezer Gutkowski","party":"Dem","address":"39 E 600 N, Apt 108, Provo, UT 84606","precinct":"25PR37","hd":"60","v_score":"1.193887297","decile":"4","lat":40.241751299102,"lng":-111.657782570877},{"id":"123625","name":"Mrs. Cassandra Schumm","party":"Rep","address":"695 N 100 E, Apt 8, Provo, UT 84606","precinct":"25PR37","hd":"60","v_score":"4.069929862","decile":"7","lat":40.242910832565,"lng":-111.656895026658},{"id":"123632","name":"Miss Raina Shields","party":"","address":"745 N 100 E, Apt W25, Provo, UT 84606","precinct":"25PR37","hd":"60","v_score":"1.193887297","decile":"4","lat":40.243812094498,"lng":-111.656898442766},{"id":"123845","name":"Ms. Marilla Schaden DDS","party":"Dem","address":"660 N 200 E, Apt 14, Provo, UT 84606","precinct":"25PR37","hd":"60","v_score":"1.193887297","decile":"4","lat":40.242481992094,"lng":-111.655031109187},{"id":"123852","name":"Ione Kreiger MD","party":"","address":"660 N 200 E, Apt 14, Provo, UT 84606","precinct":"25PR37","hd":"60","v_score":"1.193887297","decile":"4","lat":40.242481992094,"lng":-111.655031109187},{"id":"123880","name":"Arnav Prohaska","party":"Rep","address":"665 N 100 E, Apt 6, Provo, UT 84606","precinct":"25PR37","hd":"60","v_score":"0","decile":"2","lat":40.242540910543,"lng":-111.656898801421},{"id":"123881","name":"Kelvin Schinner-Rau","party":"Rep","address":"642 N 200 E, Apt 102, Provo, UT 84606","precinct":"25PR37","hd":"60","v_score":"4.069929862","decile":"7","lat":40.242260039448,"lng":-111.655031864157},{"id":"123923","name":"Mr. Lawton Schulist III","party":"","address":"769 N 200 E, Apt 104, Provo, UT 84606","precinct":"25PR37","hd":"60","v_score":"1.193887297","decile":"4","lat":40.243835253265,"lng":-111.655176401628},{"id":"123985","name":"Violet Stoltenberg DVM","party":"Rep","address":"642 N 200 E, Apt 217, Provo, UT 84606","precinct":"25PR37","hd":"60","v_score":"1.193887297","decile":"4","lat":40.242260039448,"lng":-111.655031864157},{"id":"124018","name":"Iver Feeney","party":"Rep","address":"765 N 400 E, Provo, UT 84606","precinct":"25PR37","hd":"60","v_score":"1.193887297","decile":"4","lat":40.243839885439,"lng":-111.651731184938},{"id":"124062","name":"Rachelle Flatley","party":"Dem","address":"141 E 700 N, Apt 18, Provo, UT 84606","precinct":"25PR37","hd":"60","v_score":"1.193887297","decile":"4","lat":40.243070551625,"lng":-111.656104781872},{"id":"124076","name":"Kayli Kub-Simonis","party":"Dem","address":"905 N 150 E, Apt 3, Provo, UT 84604","precinct":"25PR37","hd":"60","v_score":"1.193887297","decile":"4","lat":40.245487828839,"lng":-111.656214227614},{"id":"124147","name":"Ovid Larson","party":"Dem","address":"672 N University Ave, Apt B116, Provo, UT 84601","precinct":"25PR37","hd":"60","v_score":"4.069929862","decile":"7","lat":40.242370187122,"lng":-111.658558642004},{"id":"124196","name":"Isom Cormier","party":"Rep","address":"384 E 800 N, Provo, UT 84606","precinct":"25PR37","hd":"60","v_score":"1.193887297","decile":"4","lat":40.244255706974,"lng":-111.651952883385},{"id":"124217","name":"Emmie Lebsack DVM","party":"Rep","address":"681 N 100 E, Apt 5, Provo, UT 84606","precinct":"25PR37","hd":"60","v_score":"1.193887297","decile":"4","lat":40.242738202288,"lng":-111.656896788214},{"id":"124247","name":"Macey White","party":"Dem","address":"836 N University Ave, Apt 311, Provo, UT 84604","precinct":"25PR37","hd":"60","v_score":"0","decile":"2","lat":40.244834742517,"lng":-111.65855452206},{"id":"124303","name":"Loda Kassulke DDS","party":"Rep","address":"195 E 600 N, Apt 22, Provo, UT 84606","precinct":"25PR37","hd":"60","v_score":"1.193887297","decile":"4","lat":40.241743024868,"lng":-111.655247645941},{"id":"124354","name":"Vaughn Weber-Effertz","party":"Dem","address":"222 E 700 N, Apt 6, Provo, UT 84606","precinct":"25PR37","hd":"60","v_score":"2.876042565","decile":"6","lat":40.242946241056,"lng":-111.654676129897},{"id":"124659","name":"Osbaldo Spencer","party":"Rep","address":"905 N 150 E, Apt 12, Provo, UT 84604","precinct":"25PR37","hd":"60","v_score":"0","decile":"2","lat":40.245487828839,"lng":-111.656214227614},{"id":"125024","name":"Ellie Murphy","party":"","address":"360 E 800 N, Provo, UT 84606","precinct":"25PR37","hd":"60","v_score":"0","decile":"2","lat":40.24425064597,"lng":-111.652333187212},{"id":"125576","name":"Dr. Audrina Blanda DDS","party":"","address":"316 E 700 N, Apt H1, Provo, UT 84606","precinct":"25PR37","hd":"60","v_score":"0","decile":"2","lat":40.242934443305,"lng":-111.653045395862},{"id":"125620","name":"Rhianna Steuber DVM","party":"Rep","address":"760 N 300 E, Apt 2, Provo, UT 84606","precinct":"25PR37","hd":"60","v_score":"0","decile":"2","lat":40.243770609919,"lng":-111.653301319024},{"id":"126176","name":"Dr. Kamari Ruecker III","party":"Dem","address":"850 N University Ave, Apt 101, Provo, UT 84604","precinct":"25PR37","hd":"60","v_score":"0","decile":"2","lat":40.245004800926,"lng":-111.658555108446},{"id":"126199","name":"Carole Haag","party":"","address":"899 N 50 E, Provo, UT 84604","precinct":"25PR37","hd":"60","v_score":"0","decile":"2","lat":40.245686847568,"lng":-111.657398126893},{"id":"126239","name":"Ura Olson","party":"","address":"886 N 50 E, Provo, UT 84604","precinct":"25PR37","hd":"60","v_score":"0","decile":"2","lat":40.245528680423,"lng":-111.657248506409},{"id":"126552","name":"Christy Mante PhD","party":"","address":"915 N 150 E, Apt 102, Provo, UT 84604","precinct":"25PR37","hd":"60","v_score":"0","decile":"2","lat":40.245596132318,"lng":-111.656213796112},{"id":"127272","name":"Lakisha Grant MD","party":"Rep","address":"125 E 600 N, Provo, UT 84606","precinct":"25PR37","hd":"60","v_score":"0","decile":"2","lat":40.241748893593,"lng":-111.656371490254},{"id":"127312","name":"Herlinda Shanahan","party":"","address":"657 N 400 E, Apt G8, Provo, UT 84606","precinct":"25PR37","hd":"60","v_score":"2.876042565","decile":"6","lat":40.242423669034,"lng":-111.651734985434},{"id":"127358","name":"Hester Boyer","party":"","address":"684 N 100 E, Provo, UT 84606","precinct":"25PR37","hd":"60","v_score":"2.876042565","decile":"6","lat":40.242786632683,"lng":-111.656746168332},{"id":"127365","name":"Leonie Langosh","party":"Dem","address":"222 E 700 N, Apt 3, Provo, UT 84606","precinct":"25PR37","hd":"60","v_score":"2.876042565","decile":"6","lat":40.242946241056,"lng":-111.654676129897},{"id":"127420","name":"Sharon Krajcik","party":"","address":"735 N 400 E, Provo, UT 84606","precinct":"25PR37","hd":"60","v_score":"0","decile":"2","lat":40.243472719103,"lng":-111.651733699823},{"id":"127487","name":"Catalina Kovacek-Dietrich","party":"Rep","address":"770 N University Ave, Apt 4, Provo, UT 84601","precinct":"25PR37","hd":"60","v_score":"0","decile":"2","lat":40.243714822511,"lng":-111.658554214691},{"id":"127488","name":"Mordechai Lemke","party":"","address":"695 N 100 E, Apt 7, Provo, UT 84606","precinct":"25PR37","hd":"60","v_score":"2.876042565","decile":"6","lat":40.242910832565,"lng":-111.656895026658},{"id":"127766","name":"Deeann Goldner","party":"Dem","address":"195 E 600 N, Apt 37, Provo, UT 84606","precinct":"25PR37","hd":"60","v_score":"0","decile":"2","lat":40.241743024868,"lng":-111.655247645941},{"id":"127881","name":"Concepcion Mueller","party":"Rep","address":"141 E 700 N, Apt 30, Provo, UT 84606","precinct":"25PR37","hd":"60","v_score":"0","decile":"2","lat":40.243070551625,"lng":-111.656104781872},{"id":"127893","name":"Ida Legros","party":"Dem","address":"222 E 700 N, Apt 10, Provo, UT 84606","precinct":"25PR37","hd":"60","v_score":"0","decile":"2","lat":40.242946241056,"lng":-111.654676129897},{"id":"128147","name":"Mr. Owens Wunsch","party":"Rep","address":"34 E 700 N, Apt 4, Provo, UT 84606","precinct":"25PR37","hd":"60","v_score":"0","decile":"2","lat":40.242961602986,"lng":-111.658217600427},{"id":"128158","name":"Tinnie Dietrich","party":"","address":"267 E 600 N, Provo, UT 84606","precinct":"25PR37","hd":"60","v_score":"0","decile":"2","lat":40.241736372227,"lng":-111.653973684014},{"id":"128186","name":"Rahul Nienow Sr.","party":"Dem","address":"948 N 50 E, Apt 101, Provo, UT 84604","precinct":"25PR37","hd":"60","v_score":"0","decile":"2","lat":40.246150247801,"lng":-111.657243396571},{"id":"128384","name":"Daryle Shanahan-Nader","party":"","address":"39 E 600 N, Apt 307, Provo, UT 84606","precinct":"25PR37","hd":"60","v_score":"0","decile":"2","lat":40.241751299102,"lng":-111.657782570877},{"id":"128477","name":"Linsey Steuber","party":"Rep","address":"660 N 200 E, Apt 11, Provo, UT 84606","precinct":"25PR37","hd":"60","v_score":"7.090117576","decile":"8","lat":40.242481992094,"lng":-111.655031109187},{"id":"128553","name":"Mr. Daren Ratke","party":"","address":"20 E 900 N, Provo, UT 84604","precinct":"25PR37","hd":"60","v_score":"0","decile":"2","lat":40.245686707297,"lng":-111.658339932851},{"id":"128633","name":"Laureen Sanford DVM","party":"Dem","address":"613 N 100 E, Provo, UT 84606","precinct":"25PR37","hd":"60","v_score":"0","decile":"2","lat":40.241899712371,"lng":-111.656905344342},{"id":"128673","name":"Amon Marks-Wunsch","party":"","address":"670 N 300 E, # C1, Provo, UT 84606","precinct":"25PR37","hd":"60","v_score":"2.876042565","decile":"6","lat":40.242589719878,"lng":-111.653304061273},{"id":"128680","name":"Daisha Anderson","party":"","address":"755 N 100 E, Apt C309, Provo, UT 84606","precinct":"25PR37","hd":"60","v_score":"0","decile":"2","lat":40.243895911693,"lng":-111.656898442755},{"id":"128725","name":"Chantal Pfeffer","party":"","address":"640 N 300 E, Provo, UT 84606","precinct":"25PR37","hd":"60","v_score":"7.090117576","decile":"8","lat":40.242222553542,"lng":-111.653306576158},{"id":"128806","name":"Burton Batz","party":"","address":"745 N 100 E, Apt B207, Provo, UT 84606","precinct":"25PR37","hd":"60","v_score":"0","decile":"2","lat":40.243812094498,"lng":-111.656898442766},{"id":"128852","name":"Kole Dare","party":"","address":"915 N 150 E, Apt 301, Provo, UT 84604","precinct":"25PR37","hd":"60","v_score":"0","decile":"2","lat":40.245596132318,"lng":-111.656213796112},{"id":"128986","name":"Emma Abshire","party":"Dem","address":"39 E 600 N, Apt 407, Provo, UT 84606","precinct":"25PR37","hd":"60","v_score":"0","decile":"2","lat":40.241751299102,"lng":-111.657782570877},{"id":"128997","name":"Elliot Mueller","party":"Rep","address":"872 N University Ave, Apt 1, Provo, UT 84604","precinct":"25PR37","hd":"60","v_score":"0","decile":"2","lat":40.245272035569,"lng":-111.65855602991},{"id":"129025","name":"Leandro Mayer","party":"Rep","address":"745 N 100 E, Apt B104, Provo, UT 84606","precinct":"25PR37","hd":"60","v_score":"0","decile":"2","lat":40.243812094498,"lng":-111.656898442766},{"id":"129075","name":"Dr. Makhi DuBuque","party":"","address":"851 N 50 E, Apt 331, Provo, UT 84604","precinct":"25PR37","hd":"60","v_score":"7.090117576","decile":"8","lat":40.245055300402,"lng":-111.657400151165},{"id":"129164","name":"Jaden Ferry","party":"Dem","address":"851 N 50 E, Apt 131, Provo, UT 84604","precinct":"25PR37","hd":"60","v_score":"0","decile":"2","lat":40.245055300402,"lng":-111.657400151165},{"id":"129470","name":"Julianna Sauer MD","party":"Rep","address":"784 N 300 E, Provo, UT 84606","precinct":"25PR37","hd":"60","v_score":"0","decile":"2","lat":40.244059934442,"lng":-111.653301318987},{"id":"129611","name":"Aurelio Mante","party":"Dem","address":"745 N 100 E, Apt B107, Provo, UT 84606","precinct":"25PR37","hd":"60","v_score":"0","decile":"2","lat":40.243812094498,"lng":-111.656898442766},{"id":"129985","name":"Dr. Garland Purdy","party":"","address":"646 N University Ave, Apt C113, Provo, UT 84601","precinct":"25PR37","hd":"60","v_score":"0","decile":"2","lat":40.24214987446,"lng":-111.658559691141},{"id":"129988","name":"Racquel Cartwright","party":"Dem","address":"42 E 800 N, Apt 201, Provo, UT 84606","precinct":"25PR37","hd":"60","v_score":"0","decile":"2","lat":40.244282707406,"lng":-111.657654443609},{"id":"130091","name":"Dr. Terell Skiles MD","party":"Rep","address":"915 N 150 E, Apt 204, Provo, UT 84604","precinct":"25PR37","hd":"60","v_score":"2.876042565","decile":"6","lat":40.245596132318,"lng":-111.656213796112},{"id":"130473","name":"Miss Ryann Wisozk MD","party":"Dem","address":"642 N 200 E, Apt 216, Provo, UT 84606","precinct":"25PR37","hd":"60","v_score":"0","decile":"2","lat":40.242260039448,"lng":-111.655031864157},{"id":"130740","name":"Tobias Klocko","party":"Rep","address":"851 N 50 E, Apt 331, Provo, UT 84604","precinct":"25PR37","hd":"60","v_score":"2.876042565","decile":"6","lat":40.245055300402,"lng":-111.657400151165},{"id":"130813","name":"Mrs. Bethann McCullough","party":"Rep","address":"745 N 100 E, Apt 207, Provo, UT 84606","precinct":"25PR37","hd":"60","v_score":"0","decile":"2","lat":40.243812094498,"lng":-111.656898442766},{"id":"130840","name":"Mr. Abbott Ritchie Jr.","party":"","address":"660 N 200 E, Apt 10, Provo, UT 84606","precinct":"25PR37","hd":"60","v_score":"0","decile":"2","lat":40.242481992094,"lng":-111.655031109187},{"id":"130857","name":"Dr. Merrie Renner DDS","party":"Rep","address":"681 N 100 E, Apt 7, Provo, UT 84606","precinct":"25PR37","hd":"60","v_score":"0","decile":"2","lat":40.242738202288,"lng":-111.656896788214},{"id":"131248","name":"Ciarra Stroman-Nicolas","party":"","address":"150 E 700 N, Apt 5, Provo, UT 84606","precinct":"25PR37","hd":"60","v_score":"2.876042565","decile":"6","lat":40.24295512499,"lng":-111.655946183751},{"id":"131280","name":"Angela Anderson PhD","party":"Dem","address":"225 E 700 N, Apt 9, Provo, UT 84606","precinct":"25PR37","hd":"60","v_score":"0","decile":"2","lat":40.243060486318,"lng":-111.65464187955},{"id":"131297","name":"Lamarcus Kling","party":"","address":"29 E 700 N, Apt W15, Provo, UT 84606","precinct":"25PR37","hd":"60","v_score":"0","decile":"2","lat":40.243076999383,"lng":-111.658263013145},{"id":"131308","name":"Josh Kunze DVM","party":"Dem","address":"34 E 700 N, Apt 15, Provo, UT 84606","precinct":"25PR37","hd":"60","v_score":"0","decile":"2","lat":40.242961602986,"lng":-111.658217600427},{"id":"131409","name":"Dr. Jodie Labadie PhD","party":"Rep","address":"850 N University Ave, Apt 302, Provo, UT 84604","precinct":"25PR37","hd":"60","v_score":"0","decile":"2","lat":40.245004800926,"lng":-111.658555108446},{"id":"131471","name":"Roselyn Bartoletti","party":"Rep","address":"721 N 200 E, Apt 305, Provo, UT 84606","precinct":"25PR37","hd":"60","v_score":"0","decile":"2","lat":40.2432918693,"lng":-111.655178399433},{"id":"131656","name":"Rashida O'Kon","party":"","address":"141 E 700 N, Apt 21, Provo, UT 84606","precinct":"25PR37","hd":"60","v_score":"2.876042565","decile":"6","lat":40.243070551625,"lng":-111.656104781872},{"id":"131673","name":"Evalyn Daugherty-Marvin","party":"Dem","address":"42 E 800 N, Apt 204, Provo, UT 84606","precinct":"25PR37","hd":"60","v_score":"0","decile":"2","lat":40.244282707406,"lng":-111.657654443609},{"id":"131678","name":"Dr. Pershing Kunde","party":"Dem","address":"195 E 600 N, Apt 36, Provo, UT 84606","precinct":"25PR37","hd":"60","v_score":"0","decile":"2","lat":40.241743024868,"lng":-111.655247645941},{"id":"131682","name":"Woodroe Bailey","party":"","address":"755 N 100 E, Apt D312, Provo, UT 84606","precinct":"25PR37","hd":"60","v_score":"2.876042565","decile":"6","lat":40.243895911693,"lng":-111.656898442755},{"id":"131693","name":"Eusebio Abbott-Goyette","party":"","address":"130 E 700 N, Apt 16, Provo, UT 84606","precinct":"25PR37","hd":"60","v_score":"0","decile":"2","lat":40.242956800926,"lng":-111.656265444801},{"id":"131726","name":"Elzie Christiansen PhD","party":"","address":"738 N 200 E, Apt 2, Provo, UT 84606","precinct":"25PR37","hd":"60","v_score":"2.876042565","decile":"6","lat":40.2434953167,"lng":-111.655027526799},{"id":"131727","name":"Harmon Bahringer-Oberbrunner","party":"Dem","address":"642 N 200 E, Apt 304, Provo, UT 84606","precinct":"25PR37","hd":"60","v_score":"0","decile":"2","lat":40.242260039448,"lng":-111.655031864157},{"id":"131734","name":"Ruthe Brakus","party":"","address":"727 N 300 E, Apt 308, Provo, UT 84606","precinct":"25PR37","hd":"60","v_score":"0","decile":"2","lat":40.243360733523,"lng":-111.653451443085},{"id":"131762","name":"Roxane Wisoky PhD","party":"Dem","address":"915 N 150 E, Apt 104, Provo, UT 84604","precinct":"25PR37","hd":"60","v_score":"0","decile":"2","lat":40.245596132318,"lng":-111.656213796112},{"id":"131809","name":"Sharee Auer","party":"Rep","address":"738 N 200 E, Apt 3, Provo, UT 84606","precinct":"25PR37","hd":"60","v_score":"0","decile":"2","lat":40.2434953167,"lng":-111.655027526799},{"id":"131948","name":"Jonnie Greenfelder PhD","party":"","address":"686 N 100 E, Provo, UT 84606","precinct":"25PR37","hd":"60","v_score":"0","decile":"2","lat":40.242811294151,"lng":-111.656745916681},{"id":"131996","name":"Mr. Parley Abshire","party":"","address":"850 N University Ave, Apt 302, Provo, UT 84604","precinct":"25PR37","hd":"60","v_score":"0","decile":"2","lat":40.245004800926,"lng":-111.658555108446},{"id":"132022","name":"Saint Conroy","party":"Rep","address":"42 E 800 N, Unit L01, Provo, UT 84606","precinct":"25PR37","hd":"60","v_score":"2.876042565","decile":"6","lat":40.244282707406,"lng":-111.657654443609},{"id":"132031","name":"Doss Stracke","party":"Rep","address":"730 N 300 E, Provo, UT 84606","precinct":"25PR37","hd":"60","v_score":"2.876042565","decile":"6","lat":40.243408954265,"lng":-111.653301319071},{"id":"132286","name":"Mr. Everet Pollich","party":"","address":"391 E 700 N, Apt 5, Provo, UT 84606","precinct":"25PR37","hd":"60","v_score":"2.876042565","decile":"6","lat":40.243055232769,"lng":-111.651865162321},{"id":"132302","name":"Mrs. Kari Hauck","party":"Dem","address":"362 E 700 N, Apt D6, Provo, UT 84606","precinct":"25PR37","hd":"60","v_score":"0","decile":"2","lat":40.242938297845,"lng":-111.652311095429},{"id":"132305","name":"Verdie Steuber PhD","party":"","address":"316 E 700 N, Apt H1, Provo, UT 84606","precinct":"25PR37","hd":"60","v_score":"0","decile":"2","lat":40.242934443305,"lng":-111.653045395862},{"id":"132429","name":"Dr. Rolf Larkin I","party":"","address":"836 N University Ave, Apt 310, Provo, UT 84604","precinct":"25PR37","hd":"60","v_score":"2.876042565","decile":"6","lat":40.244834742517,"lng":-111.65855452206},{"id":"132542","name":"Mr. Rogelio Daniel I","party":"","address":"161 E 700 N, Apt 10, Provo, UT 84606","precinct":"25PR37","hd":"60","v_score":"0","decile":"2","lat":40.243068875689,"lng":-111.655785520822},{"id":"132544","name":"Hayward Hauck","party":"","address":"195 E 600 N, Apt 27, Provo, UT 84606","precinct":"25PR37","hd":"60","v_score":"0","decile":"2","lat":40.241743024868,"lng":-111.655247645941},{"id":"132546","name":"Nolan Rosenbaum-Gleichner","party":"Rep","address":"195 E 600 N, Apt 14, Provo, UT 84606","precinct":"25PR37","hd":"60","v_score":"2.876042565","decile":"6","lat":40.241743024868,"lng":-111.655247645941},{"id":"132557","name":"Victor Gleichner","party":"","address":"195 E 600 N, Apt 33, Provo, UT 84606","precinct":"25PR37","hd":"60","v_score":"0","decile":"2","lat":40.241743024868,"lng":-111.655247645941},{"id":"132563","name":"Averie Cassin","party":"","address":"769 N 200 E, Apt 103, Provo, UT 84606","precinct":"25PR37","hd":"60","v_score":"2.876042565","decile":"6","lat":40.243835253265,"lng":-111.655176401628},{"id":"132576","name":"Theodora Treutel-Fahey","party":"Rep","address":"740 N University Ave, Unit W26, Provo, UT 84601","precinct":"25PR37","hd":"60","v_score":"0","decile":"2","lat":40.243444085007,"lng":-111.658555434265},{"id":"132623","name":"Cindi Upton-Huel","party":"Rep","address":"851 N 50 E, Apt 331, Provo, UT 84604","precinct":"25PR37","hd":"60","v_score":"2.876042565","decile":"6","lat":40.245055300402,"lng":-111.657400151165},{"id":"132672","name":"Luca Hartmann","party":"","address":"660 N 200 E, Apt 11, Provo, UT 84606","precinct":"25PR37","hd":"60","v_score":"2.876042565","decile":"6","lat":40.242481992094,"lng":-111.655031109187},{"id":"132674","name":"Ingram Ryan","party":"","address":"130 E 700 N, Apt 13, Provo, UT 84606","precinct":"25PR37","hd":"60","v_score":"0","decile":"2","lat":40.242956800926,"lng":-111.656265444801},{"id":"132675","name":"Hung Nitzsche","party":"Rep","address":"141 E 700 N, Apt 27, Provo, UT 84606","precinct":"25PR37","hd":"60","v_score":"0","decile":"2","lat":40.243070551625,"lng":-111.656104781872},{"id":"132676","name":"Dionne Bode","party":"","address":"747 N 200 E, Apt 12, Provo, UT 84606","precinct":"25PR37","hd":"60","v_score":"0","decile":"2","lat":40.243586202281,"lng":-111.655177317288},{"id":"132677","name":"Ignacio Turner","party":"","address":"665 N 100 E, Apt 6, Provo, UT 84606","precinct":"25PR37","hd":"60","v_score":"0","decile":"2","lat":40.242540910543,"lng":-111.656898801421},{"id":"132684","name":"Louella Leuschke DDS","party":"Rep","address":"672 N University Ave, # B217, Provo, UT 84601","precinct":"25PR37","hd":"60","v_score":"0","decile":"2","lat":40.242370187122,"lng":-111.658558642004},{"id":"132758","name":"Mr. Abdiel Nikolaus MD","party":"Rep","address":"107 E 600 N, Provo, UT 84606","precinct":"25PR37","hd":"60","v_score":"0","decile":"2","lat":40.241750402693,"lng":-111.656660478791},{"id":"132768","name":"Tamela Schmeler-Berge","party":"","address":"769 N 200 E, Apt 104, Provo, UT 84606","precinct":"25PR37","hd":"60","v_score":"0","decile":"2","lat":40.243835253265,"lng":-111.655176401628},{"id":"132770","name":"Arleen Stanton","party":"Rep","address":"695 N 100 E, Apt 5, Provo, UT 84606","precinct":"25PR37","hd":"60","v_score":"0","decile":"2","lat":40.242910832565,"lng":-111.656895026658},{"id":"132772","name":"Luka Grady","party":"Dem","address":"195 E 600 N, Apt 17, Provo, UT 84606","precinct":"25PR37","hd":"60","v_score":"0","decile":"2","lat":40.241743024868,"lng":-111.655247645941},{"id":"132779","name":"Mr. Howell Yundt I","party":"","address":"34 E 700 N, Apt 10, Provo, UT 84606","precinct":"25PR37","hd":"60","v_score":"2.876042565","decile":"6","lat":40.242961602986,"lng":-111.658217600427},{"id":"132809","name":"Nikolas Langworth","party":"Rep","address":"328 E 800 N, Provo, UT 84606","precinct":"25PR37","hd":"60","v_score":"2.876042565","decile":"6","lat":40.244228707045,"lng":-111.65285144051},{"id":"132935","name":"Cruz Cremin","party":"","address":"748 N 300 E, Provo, UT 84606","precinct":"25PR37","hd":"60","v_score":"0","decile":"2","lat":40.243625947657,"lng":-111.653301319043},{"id":"133449","name":"Billy Brakus","party":"Dem","address":"755 N 100 E, Apt D310, Provo, UT 84606","precinct":"25PR37","hd":"60","v_score":"0","decile":"2","lat":40.243895911693,"lng":-111.656898442755},{"id":"133970","name":"Emmer Fisher-Kihn","party":"Dem","address":"770 N University Ave, Apt 10, Provo, UT 84601","precinct":"25PR37","hd":"60","v_score":"0","decile":"2","lat":40.243714822511,"lng":-111.658554214691},{"id":"134096","name":"Gussie Stoltenberg","party":"Dem","address":"769 N 200 E, Provo, UT 84606","precinct":"25PR37","hd":"60","v_score":"0","decile":"2","lat":40.243835253265,"lng":-111.655176401628},{"id":"134157","name":"Coy Rath","party":"","address":"695 N 100 E, Apt 4, Provo, UT 84606","precinct":"25PR37","hd":"60","v_score":"0","decile":"2","lat":40.242910832565,"lng":-111.656895026658},{"id":"134334","name":"Tyquan Jacobs","party":"Dem","address":"784 N 300 E, Provo, UT 84606","precinct":"25PR37","hd":"60","v_score":"0","decile":"2","lat":40.244059934442,"lng":-111.653301318987},{"id":"134344","name":"Kacy Heathcote","party":"Rep","address":"150 E 700 N, Apt 6, Provo, UT 84606","precinct":"25PR37","hd":"60","v_score":"0","decile":"2","lat":40.24295512499,"lng":-111.655946183751},{"id":"134394","name":"Wende Murazik MD","party":"","address":"691 N 300 E, Provo, UT 84606","precinct":"25PR37","hd":"60","v_score":"0","decile":"2","lat":40.242835096552,"lng":-111.653452503725},{"id":"134423","name":"Dr. Keifer Bartoletti V","party":"Rep","address":"161 E 700 N, Provo, UT 84606","precinct":"25PR37","hd":"60","v_score":"0","decile":"2","lat":40.243068875689,"lng":-111.655785520822},{"id":"135666","name":"Kecia Ernser","party":"Rep","address":"876 N University Ave, Apt 1, Provo, UT 84604","precinct":"25PR37","hd":"60","v_score":"1.121327652","decile":"3","lat":40.245320623686,"lng":-111.658556197449},{"id":"139352","name":"Mr. Brayden Kuvalis MD","party":"Dem","address":"670 N 300 E, Apt C3, Provo, UT 84606","precinct":"25PR37","hd":"60","v_score":"3.781490609","decile":"6","lat":40.242589719878,"lng":-111.653304061273},{"id":"157803","name":"Burt Kerluke","party":"","address":"153 E 600 N, Provo, UT 84606","precinct":"25PR37","hd":"60","v_score":"1.121327652","decile":"3","lat":40.241746546103,"lng":-111.655921952529},{"id":"162932","name":"Classie Keeling","party":"","address":"872 N University Ave, Apt 1, Provo, UT 84604","precinct":"25PR37","hd":"60","v_score":"1.46627566","decile":"4","lat":40.245272035569,"lng":-111.65855602991},{"id":"164035","name":"Antoinette Lockman","party":"","address":"153 E 600 N, Provo, UT 84606","precinct":"25PR37","hd":"60","v_score":"1.121327652","decile":"3","lat":40.241746546103,"lng":-111.655921952529}]