[{"vid":"748780","name":"Howard Hickle","party":"Dem","address":"4312 N Edgewood Cir, Provo, UT 84604","precinct":"25PR09","hd":"58","v_score":"26.41733837","decile":"10","lat":40.290679917767044,"lng":-111.65921801334802},{"vid":"1276242","name":"Dr. Marquis Zieme MD","party":"","address":"3962 N Edgewood Dr, Provo, UT 84604","precinct":"25PR09","hd":"58","v_score":"11.2235539","decile":"9","lat":40.286542645976944,"lng":-111.65941022082961},{"vid":"1278083","name":"Conard Huels","party":"Dem","address":"3962 N Edgewood Dr, Provo, UT 84604","precinct":"25PR09","hd":"58","v_score":"11.2235539","decile":"9","lat":40.286542645976944,"lng":-111.65941022082961},{"vid":"1327220","name":"Ms. Alverda Hand","party":"Rep","address":"3867 N 450 W, Provo, UT 84604","precinct":"25PR09","hd":"58","v_score":"1.193887297","decile":"3","lat":40.28490635985139,"lng":-111.66662958047878},{"vid":"1357077","name":"Norberto Hackett","party":"","address":"336 W 3700 N, Provo, UT 84604","precinct":"25PR09","hd":"58","v_score":"39.36155753","decile":"10","lat":40.283253201976294,"lng":-111.66399780721147},{"vid":"1357106","name":"Dr. Amelia Von DVM","party":"Dem","address":"336 W 3700 N, Provo, UT 84604","precinct":"25PR09","hd":"58","v_score":"39.36155753","decile":"10","lat":40.283253201976294,"lng":-111.66399780721147},{"vid":"1383529","name":"Ferris Terry","party":"Dem","address":"366 W 3900 N, Provo, UT 84604","precinct":"25PR09","hd":"58","v_score":"10.0064025","decile":"9","lat":40.28564079169459,"lng":-111.66513895166962},{"vid":"1387588","name":"Mrs. Jaylee Schinner DDS","party":"Dem","address":"3742 N 300 W, Provo, UT 84604","precinct":"25PR09","hd":"58","v_score":"1.121327652","decile":"3","lat":40.28335905448475,"lng":-111.66287224087912},{"vid":"1395058","name":"Joseluis Carroll","party":"Dem","address":"3802 N 60 E, Provo, UT 84604","precinct":"25PR09","hd":"58","v_score":"8.347511332","decile":"8","lat":40.28417621383776,"lng":-111.65747593637984},{"vid":"1412704","name":"Bebe Powlowski","party":"Rep","address":"404 W 3700 N, Provo, UT 84604","precinct":"25PR09","hd":"58","v_score":"2.315214949","decile":"5","lat":40.28308108152119,"lng":-111.66516902097712},{"vid":"1422815","name":"Lane Bergnaum MD","party":"Dem","address":"3802 N 60 E, Provo, UT 84604","precinct":"25PR09","hd":"58","v_score":"2.744440783","decile":"5","lat":40.28417621383776,"lng":-111.65747593637984},{"vid":"1430776","name":"Mrs. Lulu Pollich","party":"","address":"359 W 3950 N, Provo, UT 84604","precinct":"25PR09","hd":"58","v_score":"23.46055266","decile":"10","lat":40.28609784930173,"lng":-111.66460081492014},{"vid":"1434020","name":"Gerhardt Jaskolski","party":"Dem","address":"365 W 3800 N, Provo, UT 84604","precinct":"25PR09","hd":"58","v_score":"11.40478976","decile":"9","lat":40.28381234992951,"lng":-111.66500321048096},{"vid":"1444715","name":"Jenelle Steuber","party":"","address":"336 W 3700 N, Provo, UT 84604","precinct":"25PR09","hd":"58","v_score":"26.91962716","decile":"10","lat":40.283253201976294,"lng":-111.66399780721147},{"vid":"1467311","name":"Peyton Langworth","party":"Rep","address":"206 W 4130 N, Provo, UT 84604","precinct":"25PR09","hd":"58","v_score":"2.587603312","decile":"5","lat":40.288607351326995,"lng":-111.66172680535068},{"vid":"1496490","name":"Hadley Jenkins","party":"Dem","address":"403 W 3800 N, Provo, UT 84604","precinct":"25PR09","hd":"58","v_score":"1.193887297","decile":"3","lat":40.28406890512194,"lng":-111.66564298739237},{"vid":"1515348","name":"Luanne Bergnaum DVM","party":"","address":"3891 N 450 W, Provo, UT 84604","precinct":"25PR09","hd":"58","v_score":"5.273794831","decile":"7","lat":40.2851486552569,"lng":-111.6665260286816},{"vid":"1517402","name":"Miss Kasie Frami","party":"","address":"185 E 3700 N, Provo, UT 84604","precinct":"25PR09","hd":"58","v_score":"9.830961897","decile":"8","lat":40.28326555245815,"lng":-111.65544331075077},{"vid":"1522161","name":"Miss Jena Vandervort","party":"Rep","address":"206 W 4130 N, Provo, UT 84604","precinct":"25PR09","hd":"58","v_score":"2.587603312","decile":"5","lat":40.288607351326995,"lng":-111.66172680535068},{"vid":"1539031","name":"Permelia Connelly","party":"Dem","address":"336 W 3700 N, Provo, UT 84604","precinct":"25PR09","hd":"58","v_score":"39.36155753","decile":"10","lat":40.283253201976294,"lng":-111.66399780721147},{"vid":"948eac390c6e3cc84906f44ef389848c1a92639fbc1c277c9d038a51e876320c","name":"Remy Walsh","party":"Rep","address":"359 W 3950 N, Provo, UT 84604","precinct":"25PR09","hd":"58","v_score":"6.032296384","decile":"7","lat":40.28609784930173,"lng":-111.66460081492014},{"vid":"1549736","name":"Evie Yundt","party":"Dem","address":"3752 N 450 W, Provo, UT 84604","precinct":"25PR09","hd":"58","v_score":"0","decile":"1","lat":40.283696283820156,"lng":-111.66573141887265},{"vid":"1577135","name":"Edrie Shields","party":"Dem","address":"3962 N Edgewood Dr, Provo, UT 84604","precinct":"25PR09","hd":"58","v_score":"6.814370645","decile":"8","lat":40.286542645976944,"lng":-111.65941022082961},{"vid":"1582000","name":"Libbie Parisian-Leffler","party":"Dem","address":"4146 N University Ave, Apt 2132, Provo, UT 84604","precinct":"25PR09","hd":"58","v_score":"19.26956617","decile":"10","lat":40.2878304528255,"lng":-111.65741643474662},{"vid":"1615979","name":"Benita Price MD","party":"Rep","address":"396 W 3700 N, Provo, UT 84604","precinct":"25PR09","hd":"58","v_score":"12.57725863","decile":"9","lat":40.28310277278386,"lng":-111.66487495767846},{"vid":"1651949","name":"Dr. Kieth Hoeger III","party":"Rep","address":"344 W 3900 N, Provo, UT 84604","precinct":"25PR09","hd":"58","v_score":"6.52928996","decile":"7","lat":40.28565516232682,"lng":-111.66438662501592},{"vid":"1657411","name":"Margrett Towne","party":"Rep","address":"3886 N 100 E, Provo, UT 84604","precinct":"25PR09","hd":"58","v_score":"5.40460374","decile":"7","lat":40.285049976762444,"lng":-111.65589475613866},{"vid":"1683946","name":"Kendal Swaniawski","party":"Dem","address":"151 E 3700 N, Provo, UT 84604","precinct":"25PR09","hd":"58","v_score":"2.315214949","decile":"5","lat":40.28294863243041,"lng":-111.65592313231983},{"vid":"891258d0b4d9b03d49235e20dbe9dc17320fb3ce98751705ecf8ad864757bdd0","name":"Percy Trantow-Lebsack","party":"","address":"150 W 3700 N, Provo, UT 84604","precinct":"25PR09","hd":"58","v_score":"2.315214949","decile":"5","lat":40.28299721380519,"lng":-111.66111505040328},{"vid":"1715117","name":"Mrs. Quinn Feeney DDS","party":"","address":"3792 N 300 W, Provo, UT 84604","precinct":"25PR09","hd":"58","v_score":"2.315214949","decile":"5","lat":40.28415457571976,"lng":-111.66321789662564},{"vid":"1724934","name":"Harmony Lemke-Farrell","party":"Dem","address":"3962 N Edgewood Dr, Provo, UT 84604","precinct":"25PR09","hd":"58","v_score":"1.121327652","decile":"3","lat":40.286542645976944,"lng":-111.65941022082961},{"vid":"1766033","name":"Lenard Gibson","party":"","address":"3973 N 300 W, Provo, UT 84604","precinct":"25PR09","hd":"58","v_score":"5.40460374","decile":"7","lat":40.28643601984655,"lng":-111.66382869596424},{"vid":"1780257","name":"Justus Kertzmann","party":"Rep","address":"3745 N 100 E, Provo, UT 84604","precinct":"25PR09","hd":"58","v_score":"1.193887297","decile":"3","lat":40.28333638877762,"lng":-111.65698562613838},{"vid":"1797513","name":"Calista Rodriguez DDS","party":"Rep","address":"4237 N Edgewood Cir, Provo, UT 84604","precinct":"25PR09","hd":"58","v_score":"0","decile":"1","lat":40.289449109033484,"lng":-111.65972646122697},{"vid":"1802431","name":"Omie Kling","party":"Dem","address":"4101 N 190 W, Provo, UT 84604","precinct":"25PR09","hd":"58","v_score":"17.09190024","decile":"9","lat":40.287933736511235,"lng":-111.66172185301872},{"vid":"1812364","name":"Lona Denesik","party":"","address":"145 W 3960 N, Provo, UT 84604","precinct":"25PR09","hd":"58","v_score":"12.4440162","decile":"9","lat":40.28594700270316,"lng":-111.66087549993007},{"vid":"1818573","name":"Marcia Abbott-Monahan","party":"Dem","address":"3897 N Cove Dr, Provo, UT 84604","precinct":"25PR09","hd":"58","v_score":"1.193887297","decile":"3","lat":40.28523190587335,"lng":-111.66293228257466},{"vid":"dd44b5f1db705d3aba64c36b379f9125be51f748fc5aeae5c199b94d68eba584","name":"Garnet Bergnaum","party":"Rep","address":"3784 N 60 E, Provo, UT 84604","precinct":"25PR09","hd":"58","v_score":"16.05971545","decile":"9","lat":40.28401155129159,"lng":-111.65747555747046},{"vid":"4c7188271d0c0efb4f2636e2983a994807b26e570fa04949f44cd82b8c76b757","name":"Miss Lina Beatty","party":"Rep","address":"3889 N 200 E, Provo, UT 84604","precinct":"25PR09","hd":"58","v_score":"1.46627566","decile":"4","lat":40.28528200302464,"lng":-111.65528763785417},{"vid":"1855009","name":"Lou Torp","party":"","address":"4146 N University Ave, Provo, UT 84604","precinct":"25PR09","hd":"58","v_score":"5.901487474","decile":"7","lat":40.2878304528255,"lng":-111.65741643474662},{"vid":"1874318","name":"Teddie Stracke","party":"","address":"3876 N 200 E, Provo, UT 84604","precinct":"25PR09","hd":"58","v_score":"13.909617859999999","decile":"9","lat":40.28486559479203,"lng":-111.65446172478391},{"vid":"1876054","name":"Zettie Donnelly","party":"","address":"50 E 3900 N, Provo, UT 84604","precinct":"25PR09","hd":"58","v_score":"4.210716443","decile":"7","lat":40.28487679663924,"lng":-111.65782638101359},{"vid":"1876803","name":"Golden White","party":"Rep","address":"404 W 3700 N, Provo, UT 84604","precinct":"25PR09","hd":"58","v_score":"1.623113131","decile":"4","lat":40.28308108152119,"lng":-111.66516902097712},{"vid":"1911283","name":"Delisa Terry","party":"Dem","address":"3802 N 60 E, Provo, UT 84604","precinct":"25PR09","hd":"58","v_score":"1.121327652","decile":"3","lat":40.28417621383776,"lng":-111.65747593637984},{"vid":"1913142","name":"Dayne Hills","party":"Dem","address":"30 E 4040 N, Provo, UT 84604","precinct":"25PR09","hd":"58","v_score":"19.22326505","decile":"10","lat":40.28679457202289,"lng":-111.65800145531261},{"vid":"1922629","name":"Lish Sipes III","party":"Rep","address":"3877 N 200 E, Provo, UT 84604","precinct":"25PR09","hd":"58","v_score":"0","decile":"1","lat":40.28501355086211,"lng":-111.65517439368895},{"vid":"1934097","name":"Orvel Wolf","party":"Dem","address":"26 E 3960 N, Provo, UT 84604","precinct":"25PR09","hd":"58","v_score":"6.881235673","decile":"8","lat":40.28571352215577,"lng":-111.65826849377554},{"vid":"c493da01ded052074e6117eaeedbbcc2525c627344cbcb5faa1341b271ab5f07","name":"Elizah Mayer","party":"Dem","address":"3886 N 100 E, Provo, UT 84604","precinct":"25PR09","hd":"58","v_score":"5.40460374","decile":"7","lat":40.285049976762444,"lng":-111.65589475613866},{"vid":"2006031","name":"Kenna Grimes","party":"","address":"151 E 3700 N, Provo, UT 84604","precinct":"25PR09","hd":"58","v_score":"9.923865181","decile":"9","lat":40.28294863243041,"lng":-111.65592313231983},{"vid":"2027658","name":"Mya Bartoletti","party":"Rep","address":"50 E 3900 N, Provo, UT 84604","precinct":"25PR09","hd":"58","v_score":"5.273794831","decile":"7","lat":40.28487679663924,"lng":-111.65782638101359},{"vid":"2031965","name":"Amina Hayes","party":"","address":"4146 N University Ave, Apt 1240, Provo, UT 84604","precinct":"25PR09","hd":"58","v_score":"12.4315644","decile":"9","lat":40.2878304528255,"lng":-111.65741643474662},{"vid":"2072695","name":"Dr. Bina Schamberger","party":"","address":"3857 N 100 E, Provo, UT 84604","precinct":"25PR09","hd":"58","v_score":"35.30276996","decile":"10","lat":40.2847410870223,"lng":-111.65640806947573},{"vid":"2076118","name":"Dr. Cherry Mitchell","party":"Dem","address":"3898 N 200 E, Provo, UT 84604","precinct":"25PR09","hd":"58","v_score":"4.210716443","decile":"7","lat":40.285266502173066,"lng":-111.65488494043379},{"vid":"ec87acf79d5177b0d12b5ea99a37e1c9666e90ea56f41d02a50b2172b2b1b3f5","name":"Kaleigh Collins","party":"","address":"3707 N 60 E, Apt 1, Provo, UT 84604","precinct":"25PR09","hd":"58","v_score":"6.550708384","decile":"7","lat":40.28315508711941,"lng":-111.65765465997853},{"vid":"9007c1af5d2ce0ad4df27791892ae6034002cc458ee54e89ef4367adaa3e2ab5","name":"Mr. Wright Corwin IV","party":"","address":"4282 N Edgewood Cir, Provo, UT 84604","precinct":"25PR09","hd":"58","v_score":"5.40460374","decile":"7","lat":40.29018464019111,"lng":-111.65911537539777},{"vid":"fed1f51f0a307ca1968d60eb3f2a649b27e2344a68a0f76081ba7866d867e3e8","name":"Georgie Leuschke-McLaughlin","party":"","address":"79 E 3900 N, Provo, UT 84604","precinct":"25PR09","hd":"58","v_score":"9.82542041","decile":"8","lat":40.28537766761588,"lng":-111.65678446595983},{"vid":"d409e992da4008c77c79d8e4204c4ad5b5b81bb96c8d71a830b04977cf7c57e5","name":"Daneen Kreiger","party":"Rep","address":"282 W 4100 N, Provo, UT 84604","precinct":"25PR09","hd":"58","v_score":"5.530510904","decile":"7","lat":40.28825351653414,"lng":-111.66352766190221},{"vid":"2159466","name":"Miss Delfina Lesch PhD","party":"","address":"3753 N 500 W, Provo, UT 84604","precinct":"25PR09","hd":"58","v_score":"12.63527","decile":"9","lat":40.283570140168734,"lng":-111.66711770865484},{"vid":"2164751","name":"Dr. Lora Reinger","party":"Dem","address":"3944 N 450 W, Provo, UT 84604","precinct":"25PR09","hd":"58","v_score":"2.660162957","decile":"5","lat":40.2862341715277,"lng":-111.66572390189947},{"vid":"2173552","name":"Mike Medhurst III","party":"Dem","address":"51 E 3900 N, Provo, UT 84604","precinct":"25PR09","hd":"58","v_score":"12.88501076","decile":"9","lat":40.28544436812383,"lng":-111.65753536406812},{"vid":"2177554","name":"Mossie Gerhold","party":"","address":"432 W 4020 N, Provo, UT 84604","precinct":"25PR09","hd":"58","v_score":"1.623113131","decile":"5","lat":40.287210399694985,"lng":-111.66571639048072},{"vid":"2177729","name":"Karma Braun-Dickinson","party":"Dem","address":"3926 Riverwood Dr, Provo, UT 84604","precinct":"25PR09","hd":"58","v_score":"1.623113131","decile":"5","lat":40.28561045992664,"lng":-111.66720292706479},{"vid":"2178827","name":"Mr. Hezzie Pfannerstill","party":"Rep","address":"3926 Riverwood Dr, Provo, UT 84604","precinct":"25PR09","hd":"58","v_score":"7.650280567","decile":"8","lat":40.28561045992664,"lng":-111.66720292706479},{"vid":"88aa3dbe6c27c30e1afb6a9dd0f078ad9eed7b4c2a578d7eb1a68eec3c003f3d","name":"Ms. Katlynn Abernathy","party":"","address":"4312 N Edgewood Cir, Provo, UT 84604","precinct":"25PR09","hd":"58","v_score":"19.41769655","decile":"10","lat":40.290679917767044,"lng":-111.65921801334802},{"vid":"ff18259f8d870dd6d13b8c4a2336267452bc1b2a88ed8d2c3761a4974c21d98a","name":"Gertha Sawayn","party":"","address":"50 E 3900 N, Provo, UT 84604","precinct":"25PR09","hd":"58","v_score":"1.193887297","decile":"3","lat":40.28487679663924,"lng":-111.65782638101359},{"vid":"987c0e6720c1f15720869db3a4d929d840ef4cf7e13ec8050a147fe046870766","name":"Malinda Lueilwitz","party":"Dem","address":"3891 N 450 W, Provo, UT 84604","precinct":"25PR09","hd":"58","v_score":"0","decile":"1","lat":40.2851486552569,"lng":-111.6665260286816},{"vid":"2230952","name":"Rhea Langosh","party":"Rep","address":"3944 N 450 W, Provo, UT 84604","precinct":"25PR09","hd":"58","v_score":"1.121327652","decile":"3","lat":40.2862341715277,"lng":-111.66572390189947},{"vid":"2236949","name":"Sigmund McDermott V","party":"Dem","address":"157 E 3800 N, Provo, UT 84604","precinct":"25PR09","hd":"58","v_score":"1.193887297","decile":"3","lat":40.28403342096202,"lng":-111.65436656207001},{"vid":"0ef92586f42a022ca7de282167295b2847449e2b0133a60c5abf07b20e985ffe","name":"Stella Senger","party":"Rep","address":"3876 N 200 E, Provo, UT 84604","precinct":"25PR09","hd":"58","v_score":"12.51949831","decile":"9","lat":40.28486559479203,"lng":-111.65446172478391},{"vid":"a2e536b818554b9a0cd72b2999c962b1f5e8192ef21ddfe011db994d02a6f598","name":"Dr. Tobias Brown","party":"Rep","address":"3931 N Cove Dr, Provo, UT 84604","precinct":"25PR09","hd":"58","v_score":"1.623113131","decile":"5","lat":40.28574435098548,"lng":-111.66303029357174},{"vid":"46173722739fc3139d355eac61f77248d50333bb0bc6f6a800eca106b01b9b4d","name":"Orvel Leannon","party":"","address":"3753 N 500 W, Provo, UT 84604","precinct":"25PR09","hd":"58","v_score":"5.243007221","decile":"7","lat":40.283570140168734,"lng":-111.66711770865484},{"vid":"2ecbd7e47772bcc7f9bf1bc31c187dbbd8ed2a7abfd3f14df3f083e5089117f1","name":"Viridiana Kreiger","party":"Dem","address":"3982 N 450 W, Provo, UT 84604","precinct":"25PR09","hd":"58","v_score":"0","decile":"1","lat":40.2866296801869,"lng":-111.66564178957879},{"vid":"32365bb849ca6f3694e98be27e94bdf697846f9a1671fd6ed004ed21b198b0b8","name":"Kelan Bosco","party":"Dem","address":"4312 N Edgewood Cir, Provo, UT 84604","precinct":"25PR09","hd":"58","v_score":"5.837188142","decile":"7","lat":40.290679917767044,"lng":-111.65921801334802},{"vid":"cb771e0f53c106cdf63b09047ecb9cb5939fdb3b775e975f1bdfeeeadaf11dee","name":"Marlo Kohler","party":"","address":"408 W 3900 N, Provo, UT 84604","precinct":"25PR09","hd":"58","v_score":"5.693042993","decile":"7","lat":40.2856335901366,"lng":-111.66551509694033},{"vid":"0f13ebdfb9323738bee666ad794b3869c06a1fa330f16c08517069190f22452b","name":"Ms. Ilona O'Reilly","party":"","address":"4237 N Edgewood Cir, Provo, UT 84604","precinct":"25PR09","hd":"58","v_score":"2.315214949","decile":"5","lat":40.289449109033484,"lng":-111.65972646122697},{"vid":"1898b9afb8c53b043c8274e2930a06e78ebd83d5abd3455b303bdf3dc3e0bd28","name":"Alver Kirlin","party":"Dem","address":"4032 N 60 E, Provo, UT 84604","precinct":"25PR09","hd":"58","v_score":"2.744440783","decile":"5","lat":40.28682394322394,"lng":-111.65691796837402},{"vid":"b0d77ee94169c3346731b27473f5ec82c67a701d35416ead6fee783150763518","name":"Corbin Olson","party":"Rep","address":"161 W 3960 N, Provo, UT 84604","precinct":"25PR09","hd":"58","v_score":"6.814370645","decile":"8","lat":40.286144659281156,"lng":-111.6614038959571},{"vid":"2296332","name":"Hazen Murray IV","party":"Dem","address":"192 W 4130 N, Provo, UT 84604","precinct":"25PR09","hd":"58","v_score":"5.687348376","decile":"7","lat":40.28858221122782,"lng":-111.66142318637323},{"vid":"2314029","name":"Stephanie Hyatt","party":"Dem","address":"53 E 3850 N, Provo, UT 84604","precinct":"25PR09","hd":"58","v_score":"2.315214949","decile":"5","lat":40.28456377472914,"lng":-111.6575997781249},{"vid":"2319868","name":"Shonna Murray","party":"","address":"25 W 4200 N, Provo, UT 84604","precinct":"25PR09","hd":"58","v_score":"4.905839784","decile":"7","lat":40.28871099125137,"lng":-111.65949456224313},{"vid":"2328630","name":"Brooks Stanton","party":"Dem","address":"388 W 4150 N, Provo, UT 84604","precinct":"25PR09","hd":"58","v_score":"0","decile":"1","lat":40.28866564038293,"lng":-111.66509538273114},{"vid":"2344055","name":"Cheryle Tillman PhD","party":"Dem","address":"136 E 3800 N, Provo, UT 84604","precinct":"25PR09","hd":"58","v_score":"0","decile":"1","lat":40.28367278002674,"lng":-111.6552812486548},{"vid":"2347164","name":"Mistie O'Keefe","party":"Dem","address":"4245 N Edgewood Cir, Provo, UT 84604","precinct":"25PR09","hd":"58","v_score":"5.191257514","decile":"7","lat":40.28963705628641,"lng":-111.65968697446111},{"vid":"2348459","name":"Laddie Baumbach","party":"Dem","address":"397 W 3950 N, Provo, UT 84604","precinct":"25PR09","hd":"58","v_score":"10.52632313","decile":"9","lat":40.286241783722446,"lng":-111.66504776282426},{"vid":"2349167","name":"Mr. Metro Upton","party":"","address":"3898 N 200 E, Provo, UT 84604","precinct":"25PR09","hd":"58","v_score":"6.954919332","decile":"8","lat":40.285266502173066,"lng":-111.65488494043379},{"vid":"2353086","name":"Keion Rath-Nader","party":"Dem","address":"3778 N 60 E, Provo, UT 84604","precinct":"25PR09","hd":"58","v_score":"0","decile":"1","lat":40.28394568569483,"lng":-111.65747540637382},{"vid":"2427140","name":"Anastasia Nicolas","party":"","address":"3915 N Cove Dr, Provo, UT 84604","precinct":"25PR09","hd":"58","v_score":"9.35760564","decile":"8","lat":40.28554383944293,"lng":-111.66299923553991},{"vid":"2435499","name":"Ms. Almeda Lemke DDS","party":"Rep","address":"4282 N Edgewood Cir, Provo, UT 84604","precinct":"25PR09","hd":"58","v_score":"3.93832808","decile":"6","lat":40.29018464019111,"lng":-111.65911537539777},{"vid":"2442329","name":"Shanelle Powlowski","party":"","address":"3923 N 300 W, Provo, UT 84604","precinct":"25PR09","hd":"58","v_score":"1.193887297","decile":"3","lat":40.285587589691424,"lng":-111.66390347607589},{"vid":"2445977","name":"Girtha Wilderman","party":"Rep","address":"25 E 3990 N, Provo, UT 84604","precinct":"25PR09","hd":"58","v_score":"1.121327652","decile":"3","lat":40.28652389758752,"lng":-111.65818951474274},{"vid":"2457280","name":"Mrs. Carroll Balistreri MD","party":"","address":"4267 N Edgewood Cir, Provo, UT 84604","precinct":"25PR09","hd":"58","v_score":"7.650280567","decile":"8","lat":40.28995806475711,"lng":-111.65972445510927},{"vid":"2459603","name":"Keila Russel","party":"","address":"3931 N Cove Dr, Provo, UT 84604","precinct":"25PR09","hd":"58","v_score":"1.623113131","decile":"5","lat":40.28574435098548,"lng":-111.66303029357174},{"vid":"2467471","name":"Kathie Cronin","party":"","address":"3806 N 70 E, Provo, UT 84604","precinct":"25PR09","hd":"58","v_score":"1.193887297","decile":"3","lat":40.28384472964077,"lng":-111.65707300372716},{"vid":"2468112","name":"Dolphus Rohan","party":"Dem","address":"4166 N 300 W, Provo, UT 84604","precinct":"25PR09","hd":"58","v_score":"1.193887297","decile":"3","lat":40.28861758548329,"lng":-111.66350302450188},{"vid":"2468213","name":"Kadeem Goyette V","party":"Rep","address":"266 W 4020 N, Provo, UT 84604","precinct":"25PR09","hd":"58","v_score":"7.031075439","decile":"8","lat":40.28720071117491,"lng":-111.66274814238817},{"vid":"2471986","name":"Cindy Feeney-Terry","party":"Dem","address":"4141 N 300 W, Provo, UT 84604","precinct":"25PR09","hd":"58","v_score":"24.95106271","decile":"10","lat":40.28862097214654,"lng":-111.66392378832309},{"vid":"2475488","name":"Delma Boehm MD","party":"","address":"4105 N Edgewood Dr, Provo, UT 84604","precinct":"25PR09","hd":"58","v_score":"1.193887297","decile":"3","lat":40.28771997949247,"lng":-111.66000941215593},{"vid":"2479784","name":"Ingeborg Smith","party":"Rep","address":"3891 N 450 W, Provo, UT 84604","precinct":"25PR09","hd":"58","v_score":"1.193887297","decile":"3","lat":40.2851486552569,"lng":-111.6665260286816},{"vid":"2483180","name":"Beula Welch-Reynolds","party":"","address":"4146 N University Ave, Apt 1250, Provo, UT 84604","precinct":"25PR09","hd":"58","v_score":"13.60780548","decile":"9","lat":40.2878304528255,"lng":-111.65741643474662},{"vid":"2484106","name":"Miss Natalie Carter MD","party":"Rep","address":"3742 N 450 W, Provo, UT 84604","precinct":"25PR09","hd":"58","v_score":"5.926494964","decile":"7","lat":40.28344930004591,"lng":-111.66570450916034},{"vid":"2485396","name":"Bailee Waters","party":"","address":"411 W 4020 N, Provo, UT 84604","precinct":"25PR09","hd":"58","v_score":"10.06908511","decile":"9","lat":40.28683970748486,"lng":-111.66518400029464},{"vid":"2487788","name":"Dr. Nannie Hand DDS","party":"","address":"4106 N Edgewood Dr, Provo, UT 84604","precinct":"25PR09","hd":"58","v_score":"0","decile":"1","lat":40.28784401179964,"lng":-111.65931687688845},{"vid":"2491484","name":"Twyla Effertz","party":"","address":"4016 N Edgewood Dr, Provo, UT 84604","precinct":"25PR09","hd":"58","v_score":"21.92578407","decile":"10","lat":40.28695491434393,"lng":-111.65948802858763},{"vid":"2504283","name":"Wendel Nader","party":"","address":"151 E 3700 N, Provo, UT 84604","precinct":"25PR09","hd":"58","v_score":"5.693042993","decile":"7","lat":40.28294863243041,"lng":-111.65592313231983},{"vid":"2504348","name":"Miss Infant Hoeger DDS","party":"","address":"157 E 3800 N, Provo, UT 84604","precinct":"25PR09","hd":"58","v_score":"0","decile":"1","lat":40.28403342096202,"lng":-111.65436656207001},{"vid":"2512083","name":"Jazmyne Olson","party":"Rep","address":"3853 N 370 W, Provo, UT 84604","precinct":"25PR09","hd":"58","v_score":"5.83359168","decile":"7","lat":40.28485961391091,"lng":-111.66533211001547},{"vid":"2529657","name":"Malissie Gorczany","party":"Dem","address":"4245 N Edgewood Cir, Provo, UT 84604","precinct":"25PR09","hd":"58","v_score":"0","decile":"1","lat":40.28963705628641,"lng":-111.65968697446111},{"vid":"2538265","name":"Verdell Marquardt","party":"Rep","address":"3866 N 300 W, Provo, UT 84604","precinct":"25PR09","hd":"58","v_score":"1.193887297","decile":"4","lat":40.28501574341308,"lng":-111.66335521789951},{"vid":"2538770","name":"Davie Gerhold","party":"Dem","address":"4245 N Edgewood Cir, Provo, UT 84604","precinct":"25PR09","hd":"58","v_score":"0","decile":"1","lat":40.28963705628641,"lng":-111.65968697446111},{"vid":"2591521","name":"Mr. Jabbar Schulist I","party":"","address":"88 W 4420 N, Provo, UT 84604","precinct":"25PR09","hd":"58","v_score":"5.41927756","decile":"7","lat":40.29266853018949,"lng":-111.659549401214},{"vid":"2592406","name":"Nicki Cole","party":"","address":"4016 N Edgewood Dr, Provo, UT 84604","precinct":"25PR09","hd":"58","v_score":"1.623113131","decile":"5","lat":40.28695491434393,"lng":-111.65948802858763},{"vid":"2596527","name":"Mrs. Kristyn Rolfson","party":"Rep","address":"4290 N Edgewood Cir, Provo, UT 84604","precinct":"25PR09","hd":"58","v_score":"2.817000428","decile":"6","lat":40.290424844816044,"lng":-111.65921859369465},{"vid":"2604295","name":"Hollie Boehm","party":"","address":"4290 N Edgewood Cir, Provo, UT 84604","precinct":"25PR09","hd":"58","v_score":"8.085704327","decile":"8","lat":40.290424844816044,"lng":-111.65921859369465},{"vid":"2604525","name":"Caddie Walker MD","party":"","address":"430 W 3900 N, Provo, UT 84604","precinct":"25PR09","hd":"58","v_score":"1.193887297","decile":"4","lat":40.28555099607411,"lng":-111.66605132141103},{"vid":"2605003","name":"Dione Hodkiewicz","party":"Rep","address":"4146 N University Ave, Apt 1101, Provo, UT 84604","precinct":"25PR09","hd":"58","v_score":"2.817000428","decile":"6","lat":40.2878304528255,"lng":-111.65741643474662},{"vid":"2611908","name":"Erle Bradtke","party":"","address":"3875 N Cove Dr, Provo, UT 84604","precinct":"25PR09","hd":"58","v_score":"1.193887297","decile":"4","lat":40.28462203832647,"lng":-111.66289602143355},{"vid":"2611990","name":"Lorean Skiles-Nader","party":"Rep","address":"461 W 4150 N, Provo, UT 84604","precinct":"25PR09","hd":"58","v_score":"0","decile":"1","lat":40.28804666907682,"lng":-111.6660418299098},{"vid":"2613730","name":"Cleon Tremblay","party":"Rep","address":"3845 N 100 E, Provo, UT 84604","precinct":"25PR09","hd":"58","v_score":"1.193887297","decile":"4","lat":40.28446093132701,"lng":-111.65650760496517},{"vid":"2627308","name":"Dr. Trystan O'Hara","party":"","address":"3870 N 70 E, Provo, UT 84604","precinct":"25PR09","hd":"58","v_score":"18.35167816","decile":"10","lat":40.28472142930323,"lng":-111.6569523416384},{"vid":"2639270","name":"Dr. Ellsworth Spencer MD","party":"Rep","address":"3753 N 500 W, Provo, UT 84604","precinct":"25PR09","hd":"58","v_score":"1.193887297","decile":"4","lat":40.283570140168734,"lng":-111.66711770865484},{"vid":"2639745","name":"Adrian Gusikowski","party":"Dem","address":"3929 Riverwood Dr, Provo, UT 84604","precinct":"25PR09","hd":"58","v_score":"1.193887297","decile":"4","lat":40.28651149918707,"lng":-111.66732587159707},{"vid":"2647767","name":"Acie Gutmann Jr.","party":"","address":"388 W 4150 N, Provo, UT 84604","precinct":"25PR09","hd":"58","v_score":"1.193887297","decile":"4","lat":40.28866564038293,"lng":-111.66509538273114},{"vid":"2655193","name":"Jeramy Ondricka","party":"","address":"151 E 3700 N, Provo, UT 84604","precinct":"25PR09","hd":"58","v_score":"4.069929862","decile":"6","lat":40.28294863243041,"lng":-111.65592313231983},{"vid":"2666709","name":"Mrs. Aida Rogahn","party":"Dem","address":"412 W 4150 N, Provo, UT 84604","precinct":"25PR09","hd":"58","v_score":"0","decile":"1","lat":40.288687827253916,"lng":-111.66597581172368},{"vid":"2674821","name":"Dr. Julious Walter","party":"Rep","address":"3836 N 100 E, Provo, UT 84604","precinct":"25PR09","hd":"58","v_score":"4.214075011","decile":"7","lat":40.2844290747988,"lng":-111.65602283418819},{"vid":"2689626","name":"Loyd Considine","party":"Rep","address":"3806 N 70 E, Provo, UT 84604","precinct":"25PR09","hd":"58","v_score":"1.193887297","decile":"4","lat":40.28384472964077,"lng":-111.65707300372716},{"vid":"2690997","name":"Kameron Runte","party":"","address":"4312 N Edgewood Cir, Provo, UT 84604","precinct":"25PR09","hd":"58","v_score":"4.214075011","decile":"7","lat":40.290679917767044,"lng":-111.65921801334802},{"vid":"2698510","name":"Claude Crona","party":"","address":"282 W 4020 N, Provo, UT 84604","precinct":"25PR09","hd":"58","v_score":"1.193887297","decile":"4","lat":40.287203005470246,"lng":-111.66339383282575},{"vid":"2701574","name":"Dr. Dian Hoeger","party":"Dem","address":"4106 N Edgewood Dr, Provo, UT 84604","precinct":"25PR09","hd":"58","v_score":"0","decile":"2","lat":40.28784401179964,"lng":-111.65931687688845},{"vid":"2704307","name":"Silvio Pagac","party":"Dem","address":"4215 N Edgewood Cir, Provo, UT 84604","precinct":"25PR09","hd":"58","v_score":"0","decile":"2","lat":40.28918807709884,"lng":-111.65975302653591},{"vid":"2711673","name":"Dr. Chimere Ratke","party":"","address":"3770 N 100 E, Provo, UT 84604","precinct":"25PR09","hd":"58","v_score":"0","decile":"2","lat":40.28336533406176,"lng":-111.65647476517704},{"vid":"2724367","name":"Amber Reichert","party":"Dem","address":"50 E 3900 N, Provo, UT 84604","precinct":"25PR09","hd":"58","v_score":"1.193887297","decile":"4","lat":40.28487679663924,"lng":-111.65782638101359},{"vid":"2726073","name":"Colton Lowe PhD","party":"Rep","address":"397 W 3950 N, Provo, UT 84604","precinct":"25PR09","hd":"58","v_score":"4.905839784","decile":"7","lat":40.286241783722446,"lng":-111.66504776282426},{"vid":"2727276","name":"Aaron Hamill","party":"Rep","address":"192 W 4130 N, Provo, UT 84604","precinct":"25PR09","hd":"58","v_score":"2.876042565","decile":"6","lat":40.28858221122782,"lng":-111.66142318637323},{"vid":"2729777","name":"Eric Bogan V","party":"Rep","address":"418 W 3700 N, Provo, UT 84604","precinct":"25PR09","hd":"58","v_score":"1.193887297","decile":"4","lat":40.28319958267906,"lng":-111.6651685964333},{"vid":"2732154","name":"Jamal O'Keefe DVM","party":"Rep","address":"3845 N 100 E, Provo, UT 84604","precinct":"25PR09","hd":"58","v_score":"1.193887297","decile":"4","lat":40.28446093132701,"lng":-111.65650760496517},{"vid":"2737231","name":"Mr. Darrius Mosciski","party":"Rep","address":"4123 N Cove Dr, Provo, UT 84604","precinct":"25PR09","hd":"58","v_score":"0","decile":"2","lat":40.28818143695289,"lng":-111.66274957827726},{"vid":"2741908","name":"Mr. Hurbert Hermiston","party":"Rep","address":"408 W 3900 N, Provo, UT 84604","precinct":"25PR09","hd":"58","v_score":"4.214075011","decile":"7","lat":40.2856335901366,"lng":-111.66551509694033},{"vid":"2744439","name":"Toccara Gibson MD","party":"","address":"3857 N 100 E, Provo, UT 84604","precinct":"25PR09","hd":"58","v_score":"0","decile":"2","lat":40.2847410870223,"lng":-111.65640806947573},{"vid":"2745072","name":"Elihu O'Keefe","party":"","address":"59 E 3850 N, Provo, UT 84604","precinct":"25PR09","hd":"58","v_score":"1.193887297","decile":"4","lat":40.28456396290516,"lng":-111.6574600205686},{"vid":"2749035","name":"Lulie Harvey DDS","party":"Rep","address":"4245 N Edgewood Cir, Provo, UT 84604","precinct":"25PR09","hd":"58","v_score":"0","decile":"2","lat":40.28963705628641,"lng":-111.65968697446111},{"vid":"2785684","name":"Mrs. Fawn Murphy","party":"Dem","address":"188 E 3800 N, Provo, UT 84604","precinct":"25PR09","hd":"58","v_score":"8.284004873","decile":"8","lat":40.28390164904159,"lng":-111.65390365640238},{"vid":"2794997","name":"Beau Brown","party":"","address":"44 E 3960 N, Provo, UT 84604","precinct":"25PR09","hd":"58","v_score":"1.193887297","decile":"4","lat":40.285712345091916,"lng":-111.65762406964815},{"vid":"2795094","name":"Mr. Calvin Eichmann V","party":"Rep","address":"419 W 3900 N, Provo, UT 84604","precinct":"25PR09","hd":"58","v_score":"0","decile":"2","lat":40.2851742782573,"lng":-111.66569665824002},{"vid":"2799530","name":"Ebb Monahan DDS","party":"Dem","address":"3875 N Cove Dr, Provo, UT 84604","precinct":"25PR09","hd":"58","v_score":"0","decile":"2","lat":40.28462203832647,"lng":-111.66289602143355},{"vid":"2809240","name":"Margarita Lemke-Fahey","party":"Rep","address":"3857 N 300 W, Provo, UT 84604","precinct":"25PR09","hd":"58","v_score":"1.193887297","decile":"4","lat":40.28492973215441,"lng":-111.66399583406786},{"vid":"2836552","name":"Jordyn Cartwright PhD","party":"Dem","address":"3876 N 200 E, Provo, UT 84604","precinct":"25PR09","hd":"58","v_score":"5.407962308","decile":"7","lat":40.28486559479203,"lng":-111.65446172478391},{"vid":"2837481","name":"Mr. Douglas Cruickshank","party":"Rep","address":"151 E 3700 N, Provo, UT 84604","precinct":"25PR09","hd":"58","v_score":"1.193887297","decile":"4","lat":40.28294863243041,"lng":-111.65592313231983},{"vid":"2849521","name":"Algernon Rau I","party":"","address":"282 W 4100 N, Provo, UT 84604","precinct":"25PR09","hd":"58","v_score":"1.193887297","decile":"4","lat":40.28825351653414,"lng":-111.66352766190221},{"vid":"2856838","name":"Tremayne Wintheiser-Monahan","party":"","address":"3707 N 60 E, Apt 1, Provo, UT 84604","precinct":"25PR09","hd":"58","v_score":"8.284004873","decile":"8","lat":40.28315508711941,"lng":-111.65765465997853},{"vid":"2856849","name":"Abdullah Rosenbaum","party":"","address":"3707 N 60 E, Apt 1, Provo, UT 84604","precinct":"25PR09","hd":"58","v_score":"8.284004873","decile":"8","lat":40.28315508711941,"lng":-111.65765465997853},{"vid":"2857441","name":"Arch Stokes MD","party":"","address":"388 W 4150 N, Provo, UT 84604","precinct":"25PR09","hd":"58","v_score":"4.069929862","decile":"7","lat":40.28866564038293,"lng":-111.66509538273114},{"vid":"2858816","name":"Dr. Orvis Crona PhD","party":"Dem","address":"388 W 4150 N, Provo, UT 84604","precinct":"25PR09","hd":"58","v_score":"4.069929862","decile":"7","lat":40.28866564038293,"lng":-111.66509538273114},{"vid":"2858938","name":"Dr. Greene Aufderhar III","party":"Rep","address":"176 E 3800 N, Provo, UT 84604","precinct":"25PR09","hd":"58","v_score":"1.193887297","decile":"4","lat":40.28370546840795,"lng":-111.65392005982687},{"vid":"2863172","name":"Felicity Feest","party":"Dem","address":"3857 N 300 W, Provo, UT 84604","precinct":"25PR09","hd":"58","v_score":"1.193887297","decile":"4","lat":40.28492973215441,"lng":-111.66399583406786},{"vid":"2875681","name":"Kylan Simonis","party":"Rep","address":"4146 N University Ave, Apt 1246, Provo, UT 84604","precinct":"25PR09","hd":"58","v_score":"23.05611481","decile":"10","lat":40.2878304528255,"lng":-111.65741643474662},{"vid":"2888471","name":"Theda Herman","party":"Rep","address":"3853 N 370 W, Provo, UT 84604","precinct":"25PR09","hd":"58","v_score":"1.193887297","decile":"4","lat":40.28485961391091,"lng":-111.66533211001547},{"vid":"2889440","name":"Emilie Hahn","party":"","address":"3805 N 450 W, Provo, UT 84604","precinct":"25PR09","hd":"58","v_score":"1.193887297","decile":"4","lat":40.28432151330934,"lng":-111.66676295840269},{"vid":"2889502","name":"Stefan Steuber-Kuvalis","party":"Dem","address":"3778 N 60 E, Provo, UT 84604","precinct":"25PR09","hd":"58","v_score":"1.193887297","decile":"4","lat":40.28394568569483,"lng":-111.65747540637382},{"vid":"2889769","name":"Pansy Turner","party":"Rep","address":"25 W 4200 N, Provo, UT 84604","precinct":"25PR09","hd":"58","v_score":"0","decile":"2","lat":40.28871099125137,"lng":-111.65949456224313},{"vid":"2912783","name":"Maxx Kuphal","party":"Rep","address":"3778 N 60 E, Provo, UT 84604","precinct":"25PR09","hd":"58","v_score":"0","decile":"2","lat":40.28394568569483,"lng":-111.65747540637382},{"vid":"2915064","name":"Burl Schuppe","party":"Rep","address":"144 E 3850 N, Provo, UT 84604","precinct":"25PR09","hd":"58","v_score":"0","decile":"2","lat":40.284421996012696,"lng":-111.65484144109277},{"vid":"2915912","name":"Brandie Funk","party":"","address":"4230 N Edgewood Cir, Provo, UT 84604","precinct":"25PR09","hd":"58","v_score":"0","decile":"2","lat":40.28941793984927,"lng":-111.65911418839393},{"vid":"2947120","name":"Muhammad Leffler","party":"","address":"188 E 3800 N, Provo, UT 84604","precinct":"25PR09","hd":"58","v_score":"0","decile":"2","lat":40.28390164904159,"lng":-111.65390365640238},{"vid":"2947726","name":"Bayard Green","party":"Rep","address":"430 W 3900 N, Provo, UT 84604","precinct":"25PR09","hd":"58","v_score":"0","decile":"2","lat":40.28555099607411,"lng":-111.66605132141103},{"vid":"2951069","name":"Arvin Labadie","party":"","address":"364 W 3700 N, Provo, UT 84604","precinct":"25PR09","hd":"58","v_score":"0","decile":"2","lat":40.28314076515928,"lng":-111.66443802877244},{"vid":"2961437","name":"Kaylee Ruecker","party":"Rep","address":"312 W 3700 N, Provo, UT 84604","precinct":"25PR09","hd":"58","v_score":"0","decile":"2","lat":40.28338241379803,"lng":-111.66344068329677},{"vid":"2965985","name":"Reagan Weissnat-Kuvalis","party":"Dem","address":"51 E 3900 N, Provo, UT 84604","precinct":"25PR09","hd":"58","v_score":"0","decile":"2","lat":40.28544436812383,"lng":-111.65753536406812},{"vid":"3156713","name":"Orlena Lang","party":"Dem","address":"4230 N Edgewood Cir, Provo, UT 84604","precinct":"25PR09","hd":"58","v_score":"6.481563075","decile":"7","lat":40.28941793984927,"lng":-111.65911418839393},{"vid":"3237213","name":"Maverick Lemke Sr.","party":"Dem","address":"4245 N Edgewood Cir, Provo, UT 84604","precinct":"25PR09","hd":"58","v_score":"6.814370645","decile":"8","lat":40.28963705628641,"lng":-111.65968697446111},{"vid":"29ba4c1d6c665d21274faaffedc7783511956faa557fa7d2a0efb12698434579","name":"Takisha Blanda","party":"","address":"447 W 4150 N, Provo, UT 84604","precinct":"25PR09","hd":"58","v_score":"28.91462548","decile":"10","lat":40.288364703018495,"lng":-111.66589113831868},{"vid":"685571d5626acae64bac6e607cc4f5919658df96601483163b50d937b456102d","name":"Dr. Sonny Effertz MD","party":"Dem","address":"447 W 4150 N, Provo, UT 84604","precinct":"25PR09","hd":"58","v_score":"31.45786048","decile":"10","lat":40.288364703018495,"lng":-111.66589113831868},{"vid":"3339099","name":"Gussie Renner","party":"","address":"430 W 3900 N, Provo, UT 84604","precinct":"25PR09","hd":"58","v_score":"5.659072284","decile":"7","lat":40.28555099607411,"lng":-111.66605132141103},{"vid":"e50096db570ff5fdcc39bfea133545f24706bd26d014263a525b1745b32fcef2","name":"Mrs. Margaretta Jast MD","party":"","address":"3784 N 60 E, Provo, UT 84604","precinct":"25PR09","hd":"58","v_score":"14.18213378","decile":"9","lat":40.28401155129159,"lng":-111.65747555747046},{"vid":"6103131","name":"Horton Gorczany","party":"Dem","address":"4380 N Stone Creek Ln, Provo, UT 84604","precinct":"25PR09","hd":"58","v_score":"6.881235673","decile":"8","lat":40.29185635435656,"lng":-111.66189369239447},{"vid":"6201132","name":"Dr. Link Reichel","party":"Dem","address":"3770 N 100 E, Provo, UT 84604","precinct":"25PR09","hd":"58","v_score":"18.49131087","decile":"10","lat":40.28336533406176,"lng":-111.65647476517704},{"vid":"6204615","name":"Marsha Dickinson","party":"Rep","address":"144 E 3850 N, Provo, UT 84604","precinct":"25PR09","hd":"58","v_score":"13.34346464","decile":"9","lat":40.284421996012696,"lng":-111.65484144109277},{"vid":"6204711","name":"Francina Schneider-Ledner","party":"","address":"363 W 4100 N, Provo, UT 84604","precinct":"25PR09","hd":"58","v_score":"21.70848868","decile":"10","lat":40.28790237773154,"lng":-111.66457883713316},{"vid":"4e9ce4081d2af7c10acb317e403799527ae43240bcbb68fdc388ca3f38e93686","name":"Cap Schmeler","party":"","address":"54 E 3960 N, Provo, UT 84604","precinct":"25PR09","hd":"58","v_score":"34.09285363","decile":"10","lat":40.285711730412345,"lng":-111.65726154714908},{"vid":"6205939","name":"Kaylyn Lemke DDS","party":"Dem","address":"4004 N Cove Dr, Provo, UT 84604","precinct":"25PR09","hd":"58","v_score":"26.41733837","decile":"10","lat":40.28703547681468,"lng":-111.66221211399116},{"vid":"6210937","name":"Jahiem Daugherty","party":"","address":"3865 N Edgewood Dr, Provo, UT 84604","precinct":"25PR09","hd":"58","v_score":"4.069929862","decile":"7","lat":40.28524681137428,"lng":-111.65997637685092},{"vid":"6210938","name":"Dr. Emile Pollich DVM","party":"Rep","address":"3865 N Edgewood Dr, Provo, UT 84604","precinct":"25PR09","hd":"58","v_score":"17.74242502","decile":"10","lat":40.28524681137428,"lng":-111.65997637685092},{"vid":"6213454","name":"Tad Corkery","party":"Rep","address":"3888 N 300 W, Provo, UT 84604","precinct":"25PR09","hd":"58","v_score":"12.57725863","decile":"9","lat":40.28529013498616,"lng":-111.66343364401283},{"vid":"6220469","name":"Virgie Zemlak DVM","party":"","address":"348 W 4020 N, Provo, UT 84604","precinct":"25PR09","hd":"58","v_score":"34.09285363","decile":"10","lat":40.287202226232615,"lng":-111.66394866327052},{"vid":"6232162","name":"Donia Trantow","party":"Dem","address":"3854 N 370 W, Provo, UT 84604","precinct":"25PR09","hd":"58","v_score":"36.88376198","decile":"10","lat":40.28490240154435,"lng":-111.66455291678466},{"vid":"6232486","name":"Dale Dietrich","party":"Rep","address":"4146 N University Ave, Provo, UT 84604","precinct":"25PR09","hd":"58","v_score":"21.51711252","decile":"10","lat":40.2878304528255,"lng":-111.65741643474662},{"vid":"6237504","name":"Mrs. Marnie Oberbrunner","party":"Rep","address":"3806 N 70 E, Provo, UT 84604","precinct":"25PR09","hd":"58","v_score":"5.40460374","decile":"7","lat":40.28384472964077,"lng":-111.65707300372716},{"vid":"6238011","name":"Carleen Boyer","party":"","address":"3806 N 70 E, Provo, UT 84604","precinct":"25PR09","hd":"58","v_score":"3.781490609","decile":"6","lat":40.28384472964077,"lng":-111.65707300372716},{"vid":"6238764","name":"Metta Reichel","party":"","address":"3891 N 450 W, Provo, UT 84604","precinct":"25PR09","hd":"58","v_score":"4.152467179","decile":"7","lat":40.2851486552569,"lng":-111.6665260286816},{"vid":"6240328","name":"Mr. Solon Mills","party":"Dem","address":"3982 N 450 W, Provo, UT 84604","precinct":"25PR09","hd":"58","v_score":"16.56360994","decile":"9","lat":40.2866296801869,"lng":-111.66564178957879},{"vid":"dc1f0549b274e6139ed7f4223c77b0d1ec6c447ccfc750034299ba8b61c97780","name":"Teddy Paucek-Brown","party":"","address":"3792 N 300 W, Provo, UT 84604","precinct":"25PR09","hd":"58","v_score":"11.38887958","decile":"9","lat":40.28415457571976,"lng":-111.66321789662564},{"vid":"e7eaecdd69938b255fa0148e4868981046e4555b1ab4564e2e8fb878a5671242","name":"Miss Reba Thompson DVM","party":"Dem","address":"396 W 3700 N, Provo, UT 84604","precinct":"25PR09","hd":"58","v_score":"6.814370645","decile":"8","lat":40.28310277278386,"lng":-111.66487495767846},{"vid":"c169b903bdcc21f1996fc0d6b5123401a2f86df55a12db6f37e2ee222ad5d899","name":"Brittny Anderson-Jaskolski","party":"","address":"3932 Riverwood Dr, Provo, UT 84604","precinct":"25PR09","hd":"58","v_score":"7.282185415","decile":"8","lat":40.285714951552436,"lng":-111.66687827529226},{"vid":"6262601","name":"Mrs. Dorcas Lebsack MD","party":"Rep","address":"3897 N Cove Dr, Provo, UT 84604","precinct":"25PR09","hd":"58","v_score":"35.97043531","decile":"10","lat":40.28523190587335,"lng":-111.66293228257466},{"vid":"6272942","name":"Simone Little","party":"Dem","address":"157 E 3800 N, Provo, UT 84604","precinct":"25PR09","hd":"58","v_score":"3.93832808","decile":"6","lat":40.28403342096202,"lng":-111.65436656207001},{"vid":"5168964c36f0f277d71c83b92df2bbef25edf3a168221fdc13e0dd1100410133","name":"Ossie McKenzie-Rowe","party":"Rep","address":"4053 N 380 W, Provo, UT 84604","precinct":"25PR09","hd":"58","v_score":"8.347511332","decile":"8","lat":40.28755258836445,"lng":-111.66508622374504},{"vid":"6302792","name":"Tobie Tremblay","party":"Rep","address":"3853 N 370 W, Provo, UT 84604","precinct":"25PR09","hd":"58","v_score":"19.82934332","decile":"10","lat":40.28485961391091,"lng":-111.66533211001547},{"vid":"6309509","name":"Maliyah Rath","party":"","address":"366 W 4100 N, Provo, UT 84604","precinct":"25PR09","hd":"58","v_score":"18.5581759","decile":"10","lat":40.288203934626814,"lng":-111.66462866372316},{"vid":"6311185","name":"Dr. Elisha Christiansen","party":"","address":"266 W 4020 N, Provo, UT 84604","precinct":"25PR09","hd":"58","v_score":"10.71001167","decile":"9","lat":40.28720071117491,"lng":-111.66274814238817},{"vid":"6315185","name":"Shaquille Mohr-Schoen","party":"Rep","address":"4312 N Edgewood Cir, Provo, UT 84604","precinct":"25PR09","hd":"58","v_score":"22.70538588","decile":"10","lat":40.290679917767044,"lng":-111.65921801334802},{"vid":"d93fa1e4df920fc294db3866fbebf9ab84816b01e594d34f22acfd6e1330d34e","name":"Delina Kling-Rutherford","party":"","address":"88 W 4420 N, Provo, UT 84604","precinct":"25PR09","hd":"58","v_score":"19.18884873","decile":"10","lat":40.29266853018949,"lng":-111.659549401214},{"vid":"6323149","name":"Christin Emard","party":"Rep","address":"3777 N 500 W, Provo, UT 84604","precinct":"25PR09","hd":"58","v_score":"1.121327652","decile":"3","lat":40.28391283768064,"lng":-111.6670203418525},{"vid":"6323913","name":"Andre Mosciski-Lowe","party":"Dem","address":"3881 N Cove Dr, Provo, UT 84604","precinct":"25PR09","hd":"58","v_score":"3.93832808","decile":"6","lat":40.284951077073615,"lng":-111.66304176436813},{"vid":"6328012","name":"Harper Wolff","party":"Rep","address":"449 W 3800 N, Provo, UT 84604","precinct":"25PR09","hd":"58","v_score":"12.63527","decile":"9","lat":40.28424876259276,"lng":-111.66655221247768},{"vid":"6331889","name":"Miguel Friesen-Ziemann","party":"Rep","address":"4146 N University Ave, Apt 1212, Provo, UT 84604","precinct":"25PR09","hd":"58","v_score":"19.68555491","decile":"10","lat":40.2878304528255,"lng":-111.65741643474662},{"vid":"6335583","name":"Tory Zemlak","party":"Rep","address":"4045 N Edgewood Dr, Provo, UT 84604","precinct":"25PR09","hd":"58","v_score":"1.193887297","decile":"4","lat":40.28674563416473,"lng":-111.65995148356639},{"vid":"6340892","name":"Noretta Jacobs","party":"Rep","address":"4146 N University Ave, Apt 1114, Provo, UT 84604","precinct":"25PR09","hd":"58","v_score":"30.38090114","decile":"10","lat":40.2878304528255,"lng":-111.65741643474662},{"vid":"6343531","name":"Riya Rowe","party":"Dem","address":"141 W Stone Brook Ln, Provo, UT 84604","precinct":"25PR09","hd":"58","v_score":"23.45875849","decile":"10","lat":40.289103578131765,"lng":-111.66103154365908},{"vid":"6343605","name":"Brooklyn Collins","party":"","address":"3879 N 300 W, Provo, UT 84604","precinct":"25PR09","hd":"58","v_score":"8.363183621","decile":"8","lat":40.28528929875083,"lng":-111.66389788604894},{"vid":"6345001","name":"Bonita Price","party":"","address":"4146 N University Ave, Apt 1128, Provo, UT 84604","precinct":"25PR09","hd":"58","v_score":"20.36889255","decile":"10","lat":40.2878304528255,"lng":-111.65741643474662},{"vid":"6345686","name":"Chester Gorczany PhD","party":"","address":"366 W 4100 N, Provo, UT 84604","precinct":"25PR09","hd":"58","v_score":"30.41487485","decile":"10","lat":40.288203934626814,"lng":-111.66462866372316},{"vid":"6347144","name":"Jannie Yundt","party":"Dem","address":"366 W 4100 N, Provo, UT 84604","precinct":"25PR09","hd":"58","v_score":"25.14617095","decile":"10","lat":40.288203934626814,"lng":-111.66462866372316},{"vid":"1ae3d05ac0cfc008cd6e8c2febdd5cffcb5f0392150ee6044614d2e274b98191","name":"Cristopher Williamson IV","party":"","address":"323 W 3800 N, Provo, UT 84604","precinct":"25PR09","hd":"58","v_score":"31.78759067","decile":"10","lat":40.28380727073393,"lng":-111.66390195390392},{"vid":"6348430","name":"Mr. Verl Rodriguez Jr.","party":"Dem","address":"323 W 3800 N, Provo, UT 84604","precinct":"25PR09","hd":"58","v_score":"34.33082567","decile":"10","lat":40.28380727073393,"lng":-111.66390195390392},{"vid":"6348936","name":"Santos Steuber-Roob","party":"","address":"4146 N University Ave, Provo, UT 84604","precinct":"25PR09","hd":"58","v_score":"5.40460374","decile":"7","lat":40.2878304528255,"lng":-111.65741643474662},{"vid":"6349704","name":"Raelynn Moen-Torp","party":"","address":"112 E 3800 N, Provo, UT 84604","precinct":"25PR09","hd":"58","v_score":"31.14994604","decile":"10","lat":40.28369306116635,"lng":-111.65610639455753},{"vid":"5564f4fb1ec7b2a93b8b87f9d8afc3f0c0c00f04af58fc8ca9b1505107151479","name":"Jazlynn Kovacek","party":"Rep","address":"109 E 3700 N, Provo, UT 84604","precinct":"25PR09","hd":"58","v_score":"8.507303088","decile":"8","lat":40.282936063254965,"lng":-111.6565187999986},{"vid":"6362608","name":"Harlie Jenkins","party":"","address":"3883 N 100 E, Provo, UT 84604","precinct":"25PR09","hd":"58","v_score":"36.36686118","decile":"10","lat":40.285053626385505,"lng":-111.65636407678129},{"vid":"6364497","name":"Javon Marvin","party":"Rep","address":"4146 N University Ave, Provo, UT 84604","precinct":"25PR09","hd":"58","v_score":"31.15555998","decile":"10","lat":40.2878304528255,"lng":-111.65741643474662},{"vid":"6365029","name":"Hubbard Effertz","party":"Dem","address":"4245 N Edgewood Cir, Provo, UT 84604","precinct":"25PR09","hd":"58","v_score":"6.814370645","decile":"8","lat":40.28963705628641,"lng":-111.65968697446111},{"vid":"6367639","name":"Anahi Connelly","party":"Dem","address":"408 W 3900 N, Provo, UT 84604","precinct":"25PR09","hd":"58","v_score":"28.86710314","decile":"10","lat":40.2856335901366,"lng":-111.66551509694033},{"vid":"6370734","name":"Alwin Schulist","party":"Rep","address":"3862 N 100 E, Provo, UT 84604","precinct":"25PR09","hd":"58","v_score":"12.59867706","decile":"9","lat":40.28471945092352,"lng":-111.65601678893451},{"vid":"6373433","name":"Elie Baumbach II","party":"Dem","address":"366 W 3900 N, Provo, UT 84604","precinct":"25PR09","hd":"58","v_score":"11.47267816","decile":"9","lat":40.28564079169459,"lng":-111.66513895166962},{"vid":"6375214","name":"Devontae Kertzmann-Doyle","party":"","address":"3891 N 450 W, Provo, UT 84604","precinct":"25PR09","hd":"58","v_score":"2.958579882","decile":"6","lat":40.2851486552569,"lng":-111.6665260286816},{"vid":"6379833","name":"Tommie Borer","party":"","address":"136 E 3800 N, Provo, UT 84604","precinct":"25PR09","hd":"58","v_score":"4.210716443","decile":"7","lat":40.28367278002674,"lng":-111.6552812486548},{"vid":"6381338","name":"Dr. Page Legros IV","party":"Rep","address":"4105 N Edgewood Dr, Provo, UT 84604","precinct":"25PR09","hd":"58","v_score":"6.798081861","decile":"8","lat":40.28771997949247,"lng":-111.66000941215593},{"vid":"5bd889ef259039f483c80d9945fc617b51e31e425580966b3c62d35e50548794","name":"Hertha Wehner","party":"Rep","address":"4105 N Edgewood Dr, Provo, UT 84604","precinct":"25PR09","hd":"58","v_score":"5.604194564","decile":"7","lat":40.28771997949247,"lng":-111.66000941215593},{"vid":"6383041","name":"Mr. Anton Jakubowski II","party":"Rep","address":"394 W 3800 N, Provo, UT 84604","precinct":"25PR09","hd":"58","v_score":"8.347511332","decile":"8","lat":40.284450103034885,"lng":-111.6652127576127},{"vid":"6388334","name":"Ruth Schamberger PhD","party":"Dem","address":"316 W 3800 N, Provo, UT 84604","precinct":"25PR09","hd":"58","v_score":"1.193887297","decile":"4","lat":40.28430207541146,"lng":-111.66373823600198},{"vid":"6390610","name":"Budd Gibson","party":"","address":"26 E 3960 N, Provo, UT 84604","precinct":"25PR09","hd":"58","v_score":"14.32268247","decile":"9","lat":40.28571352215577,"lng":-111.65826849377554},{"vid":"6391603","name":"Florencio Ullrich","party":"Dem","address":"4106 N Edgewood Dr, Provo, UT 84604","precinct":"25PR09","hd":"58","v_score":"3.016591252","decile":"6","lat":40.28784401179964,"lng":-111.65931687688845},{"vid":"6393087","name":"Miss Lexie Mohr","party":"Dem","address":"3857 N 300 W, Provo, UT 84604","precinct":"25PR09","hd":"58","v_score":"2.315214949","decile":"5","lat":40.28492973215441,"lng":-111.66399583406786},{"vid":"6403350","name":"Bryant Hodkiewicz-Schultz","party":"","address":"408 W 3900 N, Provo, UT 84604","precinct":"25PR09","hd":"58","v_score":"23.89786135","decile":"10","lat":40.2856335901366,"lng":-111.66551509694033},{"vid":"6404671","name":"Elmire Conn","party":"Rep","address":"365 W 3800 N, Provo, UT 84604","precinct":"25PR09","hd":"58","v_score":"1.121327652","decile":"3","lat":40.28381234992951,"lng":-111.66500321048096},{"vid":"6405885","name":"Griffin Johns-Miller","party":"Rep","address":"188 E 3800 N, Provo, UT 84604","precinct":"25PR09","hd":"58","v_score":"11.99595736","decile":"9","lat":40.28390164904159,"lng":-111.65390365640238},{"vid":"f1683bb3690a5b52749ef4f70d05d532f316f5b12e190132f7aa7119fdc30082","name":"Taryn Ruecker","party":"","address":"312 W 3700 N, Provo, UT 84604","precinct":"25PR09","hd":"58","v_score":"2.315214949","decile":"5","lat":40.28338241379803,"lng":-111.66344068329677},{"vid":"6420981","name":"Gayle Lang","party":"","address":"4215 N Edgewood Cir, Provo, UT 84604","precinct":"25PR09","hd":"58","v_score":"21.23410193","decile":"10","lat":40.28918807709884,"lng":-111.65975302653591},{"vid":"6436998","name":"Iza Abernathy","party":"","address":"3875 N Cove Dr, Provo, UT 84604","precinct":"25PR09","hd":"58","v_score":"15.0180437","decile":"9","lat":40.28462203832647,"lng":-111.66289602143355},{"vid":"6437030","name":"Rachelle Quigley","party":"Rep","address":"4215 N Edgewood Cir, Provo, UT 84604","precinct":"25PR09","hd":"58","v_score":"20.7369877","decile":"10","lat":40.28918807709884,"lng":-111.65975302653591},{"vid":"6445046","name":"Dr. Tyson Rippin I","party":"","address":"3713 N 60 E, Provo, UT 84604","precinct":"25PR09","hd":"58","v_score":"1.121327652","decile":"3","lat":40.283220952390025,"lng":-111.65765481179382},{"vid":"6446152","name":"Miss Bobbye Cassin","party":"Rep","address":"4152 N 380 W, Provo, UT 84604","precinct":"25PR09","hd":"58","v_score":"10.51003435","decile":"9","lat":40.288575990191276,"lng":-111.66457733057487},{"vid":"6447788","name":"Audra Gerlach","party":"Dem","address":"4101 N 190 W, Provo, UT 84604","precinct":"25PR09","hd":"58","v_score":"21.43421847","decile":"10","lat":40.287933736511235,"lng":-111.66172185301872},{"vid":"e06a2abc3a328d55f6484796afb1abc1edb95a6ea95f81937b989a7bb5f1fef2","name":"Ms. Daijah Haag","party":"Dem","address":"176 E 3800 N, Provo, UT 84604","precinct":"25PR09","hd":"58","v_score":"2.817000428","decile":"6","lat":40.28370546840795,"lng":-111.65392005982687},{"vid":"6455533","name":"Marlee Steuber","party":"","address":"3845 N 100 E, Provo, UT 84604","precinct":"25PR09","hd":"58","v_score":"1.193887297","decile":"4","lat":40.28446093132701,"lng":-111.65650760496517},{"vid":"6460460","name":"Drema Kertzmann","party":"Rep","address":"3857 N 300 W, Provo, UT 84604","precinct":"25PR09","hd":"58","v_score":"28.19136616","decile":"10","lat":40.28492973215441,"lng":-111.66399583406786},{"vid":"28312c1a84486898b9691399d5820cc90ea95b7fc157ce1f10d887267e0512e3","name":"Jamal Wiza","party":"","address":"125 E 3850 N, Provo, UT 84604","precinct":"25PR09","hd":"58","v_score":"35.30276996","decile":"10","lat":40.28482091114863,"lng":-111.65554598908606},{"vid":"6464706","name":"Suzanne McGlynn","party":"","address":"348 W 4020 N, Provo, UT 84604","precinct":"25PR09","hd":"58","v_score":"34.09285363","decile":"10","lat":40.287202226232615,"lng":-111.66394866327052},{"vid":"6469539","name":"Kristan Mitchell","party":"","address":"3897 N Cove Dr, Provo, UT 84604","precinct":"25PR09","hd":"58","v_score":"31.14994604","decile":"10","lat":40.28523190587335,"lng":-111.66293228257466},{"vid":"6471984","name":"Kaleigh Corkery","party":"Dem","address":"3867 N 450 W, Provo, UT 84604","precinct":"25PR09","hd":"58","v_score":"2.315214949","decile":"5","lat":40.28490635985139,"lng":-111.66662958047878},{"vid":"6480942","name":"Dr. Gardner Smitham","party":"Dem","address":"3888 N 300 W, Provo, UT 84604","precinct":"25PR09","hd":"58","v_score":"26.01482689","decile":"10","lat":40.28529013498616,"lng":-111.66343364401283},{"vid":"6483644","name":"Zion Feeney","party":"Dem","address":"363 W 3900 N, Provo, UT 84604","precinct":"25PR09","hd":"58","v_score":"2.315214949","decile":"5","lat":40.28516808205087,"lng":-111.66481885400832},{"vid":"6505223","name":"Kanesha Daugherty-Cruickshank","party":"","address":"3854 N 450 W, Provo, UT 84604","precinct":"25PR09","hd":"58","v_score":"9.050194508","decile":"8","lat":40.28490230102195,"lng":-111.66599533290756},{"vid":"015a793cbd23b21d1344c7debfb21109497a7a406b34749a0f45158b708aa4b8","name":"Rayne Volkman DDS","party":"","address":"363 W 4100 N, Provo, UT 84604","precinct":"25PR09","hd":"58","v_score":"11.02844566","decile":"9","lat":40.28790237773154,"lng":-111.66457883713316},{"vid":"6506776","name":"Joann Ruecker DVM","party":"Dem","address":"175 E 3800 N, Provo, UT 84604","precinct":"25PR09","hd":"58","v_score":"31.14994604","decile":"10","lat":40.284135154549084,"lng":-111.65407607739773},{"vid":"6514219","name":"Miss Sheilah Stanton","party":"Rep","address":"4146 N University Ave, Provo, UT 84604","precinct":"25PR09","hd":"58","v_score":"14.78401086","decile":"9","lat":40.2878304528255,"lng":-111.65741643474662}]