[{"vid":"810212","name":"Miss Leatrice Walter","party":"Rep","address":"1398 S 400 W, Provo, UT 84601","precinct":"25PR65","hd":"62","v_score":"4.064235245","decile":"6","lat":40.21528297519121,"lng":-111.6665203013228,"phone":"(616) 469-4974","sd":"25","ssbd":"13","lsbd":"School Board Provo 5"},{"vid":"1238607","name":"Orlo Lang DVM","party":"Rep","address":"510 W 1820 S, Provo, UT 84601","precinct":"25PR65","hd":"62","v_score":"1.193887297","decile":"3","lat":40.209593776095915,"lng":-111.66760791165156,"phone":"(621) 827-5115","sd":"25","ssbd":"13","lsbd":"School Board Provo 5"},{"vid":"1275906","name":"Marshall Durgan","party":"Rep","address":"605 W 1660 S, Provo, UT 84601","precinct":"25PR65","hd":"62","v_score":"31.69165621","decile":"10","lat":40.21134962041967,"lng":-111.6691985841453,"phone":"(555) 695-1129","sd":"25","ssbd":"13","lsbd":"School Board Provo 5"},{"vid":"1276669","name":"Lemuel Luettgen","party":"","address":"1685 S 400 W, Provo, UT 84601","precinct":"25PR65","hd":"62","v_score":"0","decile":"1","lat":40.21064482742333,"lng":-111.66525436937327,"phone":"(892) 921-8128","sd":"25","ssbd":"13","lsbd":"School Board Provo 5"},{"vid":"1302985","name":"Greta Leannon-Parker","party":"Dem","address":"1716 S 730 W, Provo, UT 84601","precinct":"25PR65","hd":"62","v_score":"26.8582098","decile":"10","lat":40.21092824729314,"lng":-111.67181455981967,"phone":"(553) 194-2284","sd":"25","ssbd":"13","lsbd":"School Board Provo 5"},{"vid":"1323677","name":"Margaret Wilderman","party":"","address":"399 W 1500 S, Provo, UT 84601","precinct":"25PR65","hd":"62","v_score":"3.781490609","decile":"6","lat":40.21329224768962,"lng":-111.6655119846372,"phone":"(481) 759-4020","sd":"25","ssbd":"13","lsbd":"School Board Provo 5"},{"vid":"1326058","name":"Azaria Kozey","party":"Rep","address":"1813 S 730 W, Provo, UT 84601","precinct":"25PR65","hd":"62","v_score":"24.88981162","decile":"10","lat":40.20955385440414,"lng":-111.67123297145476,"phone":"(115) 519-3619","sd":"25","ssbd":"13","lsbd":"School Board Provo 5"},{"vid":"1344222","name":"Nylah Hackett","party":"","address":"1672 S 300 W, Provo, UT 84601","precinct":"25PR65","hd":"62","v_score":"1.121327652","decile":"3","lat":40.21128692399102,"lng":-111.66326739981005,"phone":"(256) 975-4234","sd":"25","ssbd":"13","lsbd":"School Board Provo 5"},{"vid":"1350021","name":"Lucina Grant-Hauck","party":"Dem","address":"1419 S 400 W, Provo, UT 84601","precinct":"25PR65","hd":"62","v_score":"0","decile":"1","lat":40.21496793374543,"lng":-111.6659499234589,"phone":"(401) 223-0748","sd":"25","ssbd":"13","lsbd":"School Board Provo 5"},{"vid":"8888247a3907088dad7e9ff45be069430ed780476ccbad67d4e70ec76a1b0e59","name":"Dr. Mills Emard","party":"Dem","address":"1617 S 680 W, Provo, UT 84601","precinct":"25PR65","hd":"62","v_score":"6.724398202","decile":"8","lat":40.21226745354305,"lng":-111.6702640033199,"phone":"(704) 700-2210","sd":"25","ssbd":"13","lsbd":"School Board Provo 5"},{"vid":"1359345","name":"Viola Johns PhD","party":"Dem","address":"543 W 1770 S, Provo, UT 84601","precinct":"25PR65","hd":"62","v_score":"5.40460374","decile":"7","lat":40.21004693671536,"lng":-111.66786159055364,"phone":"(390) 050-0643","sd":"25","ssbd":"13","lsbd":"School Board Provo 5"},{"vid":"1375131","name":"Madonna Ankunding-Brakus","party":"","address":"399 W 1500 S, Provo, UT 84601","precinct":"25PR65","hd":"62","v_score":"2.587603312","decile":"5","lat":40.21329224768962,"lng":-111.6655119846372,"phone":"(362) 869-1946","sd":"25","ssbd":"13","lsbd":"School Board Provo 5"},{"vid":"1381777","name":"Val Lockman","party":"Rep","address":"1815 S 620 W, Provo, UT 84601","precinct":"25PR65","hd":"62","v_score":"9.616113056","decile":"8","lat":40.20956477310618,"lng":-111.66935676165531,"phone":"(701) 704-2782","sd":"25","ssbd":"13","lsbd":"School Board Provo 5"},{"vid":"1393321","name":"Adel Ratke PhD","party":"","address":"642 W 1720 S, Provo, UT 84601","precinct":"25PR65","hd":"62","v_score":"4.283276088","decile":"7","lat":40.21107863457417,"lng":-111.66985965382388,"phone":"(448) 754-2367","sd":"25","ssbd":"13","lsbd":"School Board Provo 5"},{"vid":"1394262","name":"Rolla Steuber-Olson","party":"Dem","address":"1592 S 300 W, Provo, UT 84601","precinct":"25PR65","hd":"62","v_score":"5.40460374","decile":"7","lat":40.212431888652766,"lng":-111.6642150510786,"phone":"(727) 395-3849","sd":"25","ssbd":"13","lsbd":"School Board Provo 5"},{"vid":"1408682","name":"Pollie Reynolds-Collins","party":"Rep","address":"616 W 1870 S, Unit 1087, Provo, UT 84601","precinct":"25PR65","hd":"62","v_score":"3.781490609","decile":"6","lat":40.20890720808158,"lng":-111.66932606730118,"phone":"(108) 772-3383","sd":"25","ssbd":"13","lsbd":"School Board Provo 5"},{"vid":"5301523eb0eaa7ff5e150f23345ddc411c78ba50c0eb76ab4149a755bdba479c","name":"Eartha Schroeder","party":"Dem","address":"1632 S 400 W, Provo, UT 84601","precinct":"25PR65","hd":"62","v_score":"23.09567533","decile":"10","lat":40.21195677137361,"lng":-111.66585161339161,"phone":"(860) 590-4856","sd":"25","ssbd":"13","lsbd":"School Board Provo 5"},{"vid":"1412839","name":"Ms. Jailene Sauer","party":"Dem","address":"398 W 1570 S, Provo, UT 84601","precinct":"25PR65","hd":"62","v_score":"10.74302793","decile":"9","lat":40.213047804438006,"lng":-111.66548919383945,"phone":"(882) 606-8046","sd":"25","ssbd":"13","lsbd":"School Board Provo 5"},{"vid":"b43e727dc7085ef8d459f5c51a8dc0ccca388027b550f834e71d094e6e85392c","name":"Dr. Doc Erdman MD","party":"Dem","address":"398 W 1570 S, Provo, UT 84601","precinct":"25PR65","hd":"62","v_score":"27.62043607","decile":"10","lat":40.213047804438006,"lng":-111.66548919383945,"phone":"(926) 939-2136","sd":"25","ssbd":"13","lsbd":"School Board Provo 5"},{"vid":"1413152","name":"Evia Heidenreich","party":"Dem","address":"1761 S 730 W, Provo, UT 84601","precinct":"25PR65","hd":"62","v_score":"0","decile":"1","lat":40.210408646109634,"lng":-111.67116221242316,"phone":"(790) 448-3614","sd":"25","ssbd":"13","lsbd":"School Board Provo 5"},{"vid":"1414319","name":"Timothy Mertz","party":"Dem","address":"1817 S 680 W, Provo, UT 84601","precinct":"25PR65","hd":"62","v_score":"0","decile":"1","lat":40.209563731654995,"lng":-111.67031502777657,"phone":"(195) 466-5542","sd":"25","ssbd":"13","lsbd":"School Board Provo 5"},{"vid":"1426801","name":"Constance Goyette-Sporer","party":"Dem","address":"364 W 1670 S, Provo, UT 84601","precinct":"25PR65","hd":"62","v_score":"5.40460374","decile":"7","lat":40.211435726276754,"lng":-111.6643238396557,"phone":"(340) 714-5465","sd":"25","ssbd":"13","lsbd":"School Board Provo 5"},{"vid":"1431332","name":"Rosalinda Parisian PhD","party":"","address":"1401 S 500 W, Provo, UT 84601","precinct":"25PR65","hd":"62","v_score":"8.280646305","decile":"8","lat":40.21519334207648,"lng":-111.66694869009515,"phone":"(201) 366-5201","sd":"25","ssbd":"13","lsbd":"School Board Provo 5"},{"vid":"1445561","name":"Marcia Weber","party":"","address":"1690 S 730 W, Provo, UT 84601","precinct":"25PR65","hd":"62","v_score":"13.98702554","decile":"9","lat":40.21143330817431,"lng":-111.6716411540348,"phone":"(491) 459-0384","sd":"25","ssbd":"13","lsbd":"School Board Provo 5"},{"vid":"1501642","name":"Valentina Schulist","party":"","address":"1682 S 400 W, Provo, UT 84601","precinct":"25PR65","hd":"62","v_score":"14.58356067","decile":"9","lat":40.210736745493065,"lng":-111.66577707442326,"phone":"(634) 970-7687","sd":"25","ssbd":"13","lsbd":"School Board Provo 5"},{"vid":"1531036","name":"Laraine Keebler","party":"","address":"1580 S 730 W, Provo, UT 84601","precinct":"25PR65","hd":"62","v_score":"28.27390347","decile":"10","lat":40.21275553659387,"lng":-111.67181705372256,"phone":"(190) 451-2505","sd":"25","ssbd":"13","lsbd":"School Board Provo 5"},{"vid":"9aba028aa77a10043c7ceae53ad57e32c124d37a60b80d79932ace530b1663af","name":"Malissa Koelpin","party":"","address":"1765 S 500 W, Provo, UT 84601","precinct":"25PR65","hd":"62","v_score":"3.781490609","decile":"6","lat":40.210204781059076,"lng":-111.66713392629998,"phone":"(887) 541-5063","sd":"25","ssbd":"13","lsbd":"School Board Provo 5"},{"vid":"1548796","name":"Olena Johnson-Haley","party":"","address":"1765 S 500 W, Provo, UT 84601","precinct":"25PR65","hd":"62","v_score":"2.315214949","decile":"5","lat":40.210204781059076,"lng":-111.66713392629998,"phone":"(760) 579-8310","sd":"25","ssbd":"13","lsbd":"School Board Provo 5"},{"vid":"1550310","name":"Dicie Beer PhD","party":"Dem","address":"1601 S 450 W, Provo, UT 84601","precinct":"25PR65","hd":"62","v_score":"8.016984044","decile":"8","lat":40.21239588558484,"lng":-111.66613906278408,"phone":"(449) 844-3447","sd":"25","ssbd":"13","lsbd":"School Board Provo 5"},{"vid":"f95526ddc4eadb8cea55109c2c5fe36f02ef934fb55bcae072324ce801b2110c","name":"Chip Langosh IV","party":"Dem","address":"436 W 1500 S, Provo, UT 84601","precinct":"25PR65","hd":"62","v_score":"7.282185415","decile":"8","lat":40.21379792190949,"lng":-111.66646623316316,"phone":"(944) 340-9178","sd":"25","ssbd":"13","lsbd":"School Board Provo 5"},{"vid":"1592347","name":"Fae Howell","party":"","address":"1688 S 400 W, Provo, UT 84601","precinct":"25PR65","hd":"62","v_score":"1.121327652","decile":"3","lat":40.210536849112174,"lng":-111.66584815990834,"phone":"(694) 316-1858","sd":"25","ssbd":"13","lsbd":"School Board Provo 5"},{"vid":"1595126","name":"Antony Hoppe","party":"Dem","address":"491 W 1300 S, Provo, UT 84601","precinct":"25PR65","hd":"62","v_score":"8.280646305","decile":"8","lat":40.21615200409754,"lng":-111.66715264577026,"phone":"(434) 011-3247","sd":"25","ssbd":"13","lsbd":"School Board Provo 5"},{"vid":"7908fe3b2e871e2b5daf1b97045cc78385653f7ae3cce07f4d5a8b35faf3a46a","name":"Tarsha Marquardt","party":"Dem","address":"1619 S 730 W, Provo, UT 84601","precinct":"25PR65","hd":"62","v_score":"9.839815554","decile":"8","lat":40.21224939828784,"lng":-111.67118037402258,"phone":"(681) 412-8969","sd":"25","ssbd":"13","lsbd":"School Board Provo 5"},{"vid":"1612218","name":"Dr. Flor Schmeler MD","party":"Dem","address":"605 W 1660 S, Provo, UT 84601","precinct":"25PR65","hd":"62","v_score":"26.42295231","decile":"10","lat":40.21134962041967,"lng":-111.6691985841453,"phone":"(827) 258-0279","sd":"25","ssbd":"13","lsbd":"School Board Provo 5"},{"vid":"c0245ab66e5b63b439d4e78d3102196d9fd6bdda42e5ef01017080e4ca469e82","name":"Tatyanna Will","party":"Dem","address":"615 W 1820 S, Provo, UT 84601","precinct":"25PR65","hd":"62","v_score":"25.83361671","decile":"10","lat":40.20920671503552,"lng":-111.669254092638,"phone":"(879) 557-2253","sd":"25","ssbd":"13","lsbd":"School Board Provo 5"},{"vid":"1630489","name":"Alys Kutch MD","party":"","address":"1797 S 620 W, Provo, UT 84601","precinct":"25PR65","hd":"62","v_score":"9.699007114","decile":"8","lat":40.20990396496524,"lng":-111.66929880235433,"phone":"(249) 336-8462","sd":"25","ssbd":"13","lsbd":"School Board Provo 5"},{"vid":"1643853","name":"Kiefer Weimann","party":"Rep","address":"491 W 1300 S, Provo, UT 84601","precinct":"25PR65","hd":"62","v_score":"6.896907962","decile":"8","lat":40.21615200409754,"lng":-111.66715264577026,"phone":"(953) 005-6424","sd":"25","ssbd":"13","lsbd":"School Board Provo 5"},{"vid":"1652394","name":"Elder Marks","party":"Dem","address":"345 W Lakewood Dr, Provo, UT 84601","precinct":"25PR65","hd":"62","v_score":"1.121327652","decile":"3","lat":40.210359937269125,"lng":-111.66395480288253,"phone":"(173) 747-1113","sd":"25","ssbd":"13","lsbd":"School Board Provo 5"},{"vid":"1663452","name":"Jefferey Pfeffer","party":"Dem","address":"1657 S 730 W, Provo, UT 84601","precinct":"25PR65","hd":"62","v_score":"13.23991076","decile":"9","lat":40.211692574559564,"lng":-111.6712246449617,"phone":"(478) 876-6224","sd":"25","ssbd":"13","lsbd":"School Board Provo 5"},{"vid":"1680744","name":"Marcel Prosacco","party":"","address":"374 W 1670 S, Provo, UT 84601","precinct":"25PR65","hd":"62","v_score":"2.315214949","decile":"5","lat":40.21151346044472,"lng":-111.66471271651832,"phone":"(572) 919-5776","sd":"25","ssbd":"13","lsbd":"School Board Provo 5"},{"vid":"1687012","name":"Mrs. Lailah Dibbert","party":"","address":"1617 S 450 W, Provo, UT 84601","precinct":"25PR65","hd":"62","v_score":"2.315214949","decile":"5","lat":40.21217583882048,"lng":-111.6662101144925,"phone":"(312) 007-4337","sd":"25","ssbd":"13","lsbd":"School Board Provo 5"},{"vid":"1696287","name":"Brock Little-Balistreri","party":"Rep","address":"1758 S 730 W, Provo, UT 84601","precinct":"25PR65","hd":"62","v_score":"15.53273099","decile":"9","lat":40.21048913935119,"lng":-111.6718133729655,"phone":"(323) 005-6842","sd":"25","ssbd":"13","lsbd":"School Board Provo 5"},{"vid":"1697810","name":"Nobie Skiles-Barton","party":"","address":"673 W 1920 S, Unit 1063, Provo, UT 84601","precinct":"25PR65","hd":"62","v_score":"5.191257514","decile":"7","lat":40.20785713389574,"lng":-111.67082134093938,"phone":"(270) 347-0600","sd":"25","ssbd":"13","lsbd":"School Board Provo 5"},{"vid":"1702535","name":"Colter Champlin","party":"Rep","address":"1716 S 730 W, Provo, UT 84601","precinct":"25PR65","hd":"62","v_score":"26.8582098","decile":"10","lat":40.21092824729314,"lng":-111.67181455981967,"phone":"(670) 706-8627","sd":"25","ssbd":"13","lsbd":"School Board Provo 5"},{"vid":"1715857","name":"Deven Powlowski","party":"Dem","address":"1581 S 680 W, Provo, UT 84601","precinct":"25PR65","hd":"62","v_score":"0","decile":"1","lat":40.21276562285915,"lng":-111.67026524030007,"phone":"(869) 387-4583","sd":"25","ssbd":"13","lsbd":"School Board Provo 5"},{"vid":"1737627","name":"Fannie Gibson-Will","party":"Dem","address":"387 W Lakewood Dr, Provo, UT 84601","precinct":"25PR65","hd":"62","v_score":"9.600440767","decile":"8","lat":40.210133538006886,"lng":-111.66476153689973,"phone":"(694) 843-6026","sd":"25","ssbd":"13","lsbd":"School Board Provo 5"},{"vid":"1740340","name":"Roel Mills","party":"","address":"398 W 1570 S, Provo, UT 84601","precinct":"25PR65","hd":"62","v_score":"13.78463406","decile":"9","lat":40.213047804438006,"lng":-111.66548919383945,"phone":"(469) 840-7875","sd":"25","ssbd":"13","lsbd":"School Board Provo 5"},{"vid":"1745292","name":"Crissy Denesik","party":"","address":"601 W 1820 S, Provo, UT 84601","precinct":"25PR65","hd":"62","v_score":"9.913499214","decile":"8","lat":40.20919106005724,"lng":-111.66891092310973,"phone":"(734) 119-1268","sd":"25","ssbd":"13","lsbd":"School Board Provo 5"},{"vid":"1750905","name":"Ms. Kittie Vandervort","party":"","address":"1736 S 680 W, Provo, UT 84601","precinct":"25PR65","hd":"62","v_score":"1.46627566","decile":"4","lat":40.21071408832018,"lng":-111.67068777236958,"phone":"(612) 464-2354","sd":"25","ssbd":"13","lsbd":"School Board Provo 5"},{"vid":"2536f17ab48d2671578a8148cff4a3bc270094efdf945ec870ad6cbac8067550","name":"Cammie Kreiger DVM","party":"Rep","address":"661 W 1920 S, Unit 1070, Provo, UT 84601","precinct":"25PR65","hd":"62","v_score":"5.258122542","decile":"7","lat":40.2075375854004,"lng":-111.67058565750413,"phone":"(601) 728-7704","sd":"25","ssbd":"13","lsbd":"School Board Provo 5"},{"vid":"1758231","name":"Jasmyn Goodwin","party":"Dem","address":"638 W 1920 S, Unit 1053, Provo, UT 84601","precinct":"25PR65","hd":"62","v_score":"3.93832808","decile":"6","lat":40.20784013233657,"lng":-111.66968422219138,"phone":"(194) 511-2467","sd":"25","ssbd":"13","lsbd":"School Board Provo 5"},{"vid":"1773341","name":"Dickie Schuster MD","party":"Dem","address":"1650 S 620 W, Provo, UT 84601","precinct":"25PR65","hd":"62","v_score":"2.315214949","decile":"5","lat":40.211667141001186,"lng":-111.66976448150537,"phone":"(861) 458-0808","sd":"25","ssbd":"13","lsbd":"School Board Provo 5"},{"vid":"1778731","name":"Wenzel Kassulke","party":"","address":"514 W 1670 S, Provo, UT 84601","precinct":"25PR65","hd":"62","v_score":"1.46627566","decile":"4","lat":40.21165428110398,"lng":-111.66758426781874,"phone":"(418) 467-2508","sd":"25","ssbd":"13","lsbd":"School Board Provo 5"},{"vid":"1783178","name":"Hiram Osinski","party":"","address":"1581 S 570 W, Provo, UT 84601","precinct":"25PR65","hd":"62","v_score":"2.660162957","decile":"5","lat":40.21277101372481,"lng":-111.66823721305713,"phone":"(191) 354-6618","sd":"25","ssbd":"13","lsbd":"School Board Provo 5"},{"vid":"1786609","name":"Angie Renner","party":"Rep","address":"1654 S 450 W, Provo, UT 84601","precinct":"25PR65","hd":"62","v_score":"16.79207149","decile":"9","lat":40.21169371852116,"lng":-111.6667673493447,"phone":"(892) 708-8306","sd":"25","ssbd":"13","lsbd":"School Board Provo 5"},{"vid":"9b7e81599653d64cd9dad8a18e67fbc1773c9e3f6858921d199813fa5dc73056","name":"Cecil Anderson-Rolfson","party":"Rep","address":"448 W 1570 S, Provo, UT 84601","precinct":"25PR65","hd":"62","v_score":"2.587603312","decile":"5","lat":40.21305413413743,"lng":-111.66643499658474,"phone":"(737) 550-6294","sd":"25","ssbd":"13","lsbd":"School Board Provo 5"},{"vid":"681c1f6e4daa43f2cbfc17cfae2573ee3dfc94526b3ff260792632a7bb78d3ae","name":"Andra Kautzer","party":"Rep","address":"584 W 1890 S, Unit 1160, Provo, UT 84601","precinct":"25PR65","hd":"62","v_score":"10.66687182","decile":"9","lat":40.208263659363205,"lng":-111.66900610266836,"phone":"(706) 837-0905","sd":"25","ssbd":"13","lsbd":"School Board Provo 5"},{"vid":"91f78b02852aa3f9c81a13470c6f93ceaac2d66d1063d38c8eed15dad2a4ca1b","name":"Taurus Hilpert-Murphy","party":"Dem","address":"1632 S 400 W, Provo, UT 84601","precinct":"25PR65","hd":"62","v_score":"24.56195099","decile":"10","lat":40.21195677137361,"lng":-111.66585161339161,"phone":"(360) 984-8141","sd":"25","ssbd":"13","lsbd":"School Board Provo 5"},{"vid":"1810837","name":"Valarie Dicki","party":"","address":"622 W 1890 S, Unit 1103, Provo, UT 84601","precinct":"25PR65","hd":"62","v_score":"3.781490609","decile":"6","lat":40.2082634385936,"lng":-111.66947931593607,"phone":"(315) 984-2065","sd":"25","ssbd":"13","lsbd":"School Board Provo 5"},{"vid":"34b2694389e9952e4208046afe994d6971868412845e814b133001a8ca4bb8cf","name":"Dr. Hal Kuhic","party":"Rep","address":"615 W 1820 S, Provo, UT 84601","precinct":"25PR65","hd":"62","v_score":"18.46989245","decile":"10","lat":40.20920671503552,"lng":-111.669254092638,"phone":"(562) 322-0454","sd":"25","ssbd":"13","lsbd":"School Board Provo 5"},{"vid":"1834001","name":"Eva Runte","party":"","address":"584 W 1890 S, Unit 1160, Provo, UT 84601","precinct":"25PR65","hd":"62","v_score":"7.493443096","decile":"8","lat":40.208263659363205,"lng":-111.66900610266836,"phone":"(779) 644-6928","sd":"25","ssbd":"13","lsbd":"School Board Provo 5"},{"vid":"449126ca9f20abb3e0ffbb62357ee6535a7fe8f048230eea2dea97c82b21a15f","name":"Miss Robin Schoen PhD","party":"","address":"311 W 1610 S, Provo, UT 84601","precinct":"25PR65","hd":"62","v_score":"0","decile":"1","lat":40.21187045176729,"lng":-111.66402598056472,"phone":"(203) 415-6097","sd":"25","ssbd":"13","lsbd":"School Board Provo 5"},{"vid":"1836044","name":"Dr. Rashaad Stark III","party":"Rep","address":"1601 S 450 W, Provo, UT 84601","precinct":"25PR65","hd":"62","v_score":"8.016984044","decile":"8","lat":40.21239588558484,"lng":-111.66613906278408,"phone":"(322) 617-0918","sd":"25","ssbd":"13","lsbd":"School Board Provo 5"},{"vid":"1842604","name":"Dr. Colin Gaylord Sr.","party":"","address":"645 W 1920 S, Unit 1077, Provo, UT 84601","precinct":"25PR65","hd":"62","v_score":"2.315214949","decile":"5","lat":40.2076431049904,"lng":-111.67018815927912,"phone":"(736) 744-3270","sd":"25","ssbd":"13","lsbd":"School Board Provo 5"},{"vid":"1843954","name":"Nery Pacocha","party":"","address":"1682 S 400 W, Provo, UT 84601","precinct":"25PR65","hd":"62","v_score":"32.40059519","decile":"10","lat":40.210736745493065,"lng":-111.66577707442326,"phone":"(450) 203-0962","sd":"25","ssbd":"13","lsbd":"School Board Provo 5"},{"vid":"1845253","name":"Paisley Hayes PhD","party":"","address":"662 W 1870 S, Unit 1041, Provo, UT 84601","precinct":"25PR65","hd":"62","v_score":"3.781490609","decile":"6","lat":40.20863654629868,"lng":-111.67016353573855,"phone":"(411) 508-7264","sd":"25","ssbd":"13","lsbd":"School Board Provo 5"},{"vid":"1851663","name":"Teresa McClure","party":"","address":"1633 S 620 W, Provo, UT 84601","precinct":"25PR65","hd":"62","v_score":"5.40460374","decile":"7","lat":40.21202179782613,"lng":-111.66932180731042,"phone":"(127) 632-3109","sd":"25","ssbd":"13","lsbd":"School Board Provo 5"},{"vid":"1853501","name":"Orrie Ullrich","party":"Rep","address":"1654 S 300 W, Provo, UT 84601","precinct":"25PR65","hd":"62","v_score":"2.587603312","decile":"5","lat":40.21147336063367,"lng":-111.66341865670027,"phone":"(325) 651-0057","sd":"25","ssbd":"13","lsbd":"School Board Provo 5"},{"vid":"1853782","name":"Dr. Garrick Treutel","party":"Dem","address":"332 W 1610 S, Provo, UT 84601","precinct":"25PR65","hd":"62","v_score":"0","decile":"1","lat":40.21227265319547,"lng":-111.66468500436363,"phone":"(771) 924-9024","sd":"25","ssbd":"13","lsbd":"School Board Provo 5"},{"vid":"1863322","name":"Miss Kizzie Smith PhD","party":"","address":"1578 S 680 W, Provo, UT 84601","precinct":"25PR65","hd":"62","v_score":"9.472197552","decile":"8","lat":40.21275499396745,"lng":-111.6708236591318,"phone":"(540) 378-1121","sd":"25","ssbd":"13","lsbd":"School Board Provo 5"},{"vid":"1867976","name":"Dr. Kaylee Torphy","party":"Dem","address":"433 W 1570 S, Provo, UT 84601","precinct":"25PR65","hd":"62","v_score":"3.781490609","decile":"6","lat":40.212686237475964,"lng":-111.66628108636635,"phone":"(790) 141-3558","sd":"25","ssbd":"13","lsbd":"School Board Provo 5"},{"vid":"1870844","name":"Mr. Talmadge Gleason","party":"","address":"1614 S 680 W, Provo, UT 84601","precinct":"25PR65","hd":"62","v_score":"2.958579882","decile":"6","lat":40.21224989632797,"lng":-111.67082240095142,"phone":"(175) 794-1086","sd":"25","ssbd":"13","lsbd":"School Board Provo 5"},{"vid":"1872524","name":"Barrett Strosin","party":"","address":"354 W 1670 S, Provo, UT 84601","precinct":"25PR65","hd":"62","v_score":"17.70472416","decile":"10","lat":40.21149548179101,"lng":-111.66409741049652,"phone":"(711) 579-1185","sd":"25","ssbd":"13","lsbd":"School Board Provo 5"},{"vid":"1873999","name":"Shelley Feeney","party":"","address":"1795 S 570 W, Provo, UT 84601","precinct":"25PR65","hd":"62","v_score":"4.210716443","decile":"7","lat":40.209900121828376,"lng":-111.66834446112225,"phone":"(651) 015-2977","sd":"25","ssbd":"13","lsbd":"School Board Provo 5"},{"vid":"1896981","name":"Chester Dach","party":"","address":"1662 S 400 W, Provo, UT 84601","precinct":"25PR65","hd":"62","v_score":"4.235493435","decile":"7","lat":40.211517699456856,"lng":-111.66585055158295,"phone":"(138) 837-8238","sd":"25","ssbd":"13","lsbd":"School Board Provo 5"},{"vid":"1904406","name":"Mai O'Connell","party":"","address":"1616 S 730 W, Provo, UT 84601","precinct":"25PR65","hd":"62","v_score":"5.463645877","decile":"7","lat":40.21226094787829,"lng":-111.6718180097097,"phone":"(874) 793-8855","sd":"25","ssbd":"13","lsbd":"School Board Provo 5"},{"vid":"1911449","name":"Hallie Anderson","party":"Rep","address":"1689 S 300 W, Provo, UT 84601","precinct":"25PR65","hd":"62","v_score":"3.781490609","decile":"6","lat":40.211180321145136,"lng":-111.66256182376979,"phone":"(696) 758-9354","sd":"25","ssbd":"13","lsbd":"School Board Provo 5"},{"vid":"1911750","name":"Berniece Prosacco","party":"Dem","address":"717 W 1920 S, Unit 1012, Provo, UT 84601","precinct":"25PR65","hd":"62","v_score":"4.210716443","decile":"7","lat":40.20799240706667,"lng":-111.67155207353096,"phone":"(404) 088-1141","sd":"25","ssbd":"13","lsbd":"School Board Provo 5"},{"vid":"1913069","name":"Mr. Jeramie Rosenbaum MD","party":"","address":"1650 S 620 W, Provo, UT 84601","precinct":"25PR65","hd":"62","v_score":"9.116556227","decile":"8","lat":40.211667141001186,"lng":-111.66976448150537,"phone":"(826) 117-5820","sd":"25","ssbd":"13","lsbd":"School Board Provo 5"},{"vid":"1917379","name":"Miss Lesia Christiansen","party":"","address":"476 W 1500 S, Provo, UT 84601","precinct":"25PR65","hd":"62","v_score":"7.995565619","decile":"8","lat":40.213798457256054,"lng":-111.66696740559578,"phone":"(891) 364-2966","sd":"25","ssbd":"13","lsbd":"School Board Provo 5"},{"vid":"1924912","name":"Samuel Runte DDS","party":"","address":"387 W Lakewood Dr, Provo, UT 84601","precinct":"25PR65","hd":"62","v_score":"5.191257514","decile":"7","lat":40.210133538006886,"lng":-111.66476153689973,"phone":"(159) 512-1131","sd":"25","ssbd":"13","lsbd":"School Board Provo 5"},{"vid":"32ab1d8f521cd5f77a1ba178092e5d1945e659bf917aca6abb3d026f732788d3","name":"Reginal Lowe DDS","party":"","address":"662 W 1870 S, Unit 1042, Provo, UT 84601","precinct":"25PR65","hd":"62","v_score":"8.347511332","decile":"8","lat":40.20863654629868,"lng":-111.67016353573855,"phone":"(178) 185-1133","sd":"25","ssbd":"13","lsbd":"School Board Provo 5"},{"vid":"1932308","name":"Dr. Quinn Keebler","party":"","address":"1689 S 300 W, Provo, UT 84601","precinct":"25PR65","hd":"62","v_score":"2.587603312","decile":"5","lat":40.211180321145136,"lng":-111.66256182376979,"phone":"(685) 526-0797","sd":"25","ssbd":"13","lsbd":"School Board Provo 5"},{"vid":"06139b59dcdf11ad29edbcc30bb50b99b0efe82757695749957f90b7b654dbc1","name":"Chelsi Zemlak","party":"Dem","address":"552 W 1890 S, Unit 1165, Provo, UT 84601","precinct":"25PR65","hd":"62","v_score":"2.315214949","decile":"5","lat":40.20824379695616,"lng":-111.66817459095968,"phone":"(293) 934-6873","sd":"25","ssbd":"13","lsbd":"School Board Provo 5"},{"vid":"3d668ba53ea37e2b1688f650eabb19ea6dad509720188a7b7ad72be80650fece","name":"Mr. Demario Jerde III","party":"","address":"673 W 1920 S, Unit 1063, Provo, UT 84601","precinct":"25PR65","hd":"62","v_score":"5.191257514","decile":"7","lat":40.20785713389574,"lng":-111.67082134093938,"phone":"(413) 219-7748","sd":"25","ssbd":"13","lsbd":"School Board Provo 5"},{"vid":"1951111","name":"Shawnna Gaylord","party":"Rep","address":"1631 S 400 W, Provo, UT 84601","precinct":"25PR65","hd":"62","v_score":"12.38292299","decile":"9","lat":40.21195648791481,"lng":-111.66529320857359,"phone":"(113) 678-3156","sd":"25","ssbd":"13","lsbd":"School Board Provo 5"},{"vid":"ea69efc65bfbd188604f9110b8b509e55f5a4cdf09a0d63c0ede7ec59786e5a1","name":"Frida Nicolas","party":"","address":"1673 S 570 W, Provo, UT 84601","precinct":"25PR65","hd":"62","v_score":"1.121327652","decile":"3","lat":40.211544269972876,"lng":-111.66832211930247,"phone":"(437) 479-8438","sd":"25","ssbd":"13","lsbd":"School Board Provo 5"},{"vid":"1968393","name":"Shaquan Hand","party":"Rep","address":"323 W Lakewood Dr, Provo, UT 84601","precinct":"25PR65","hd":"62","v_score":"1.46627566","decile":"4","lat":40.21058635855102,"lng":-111.66314802808182,"phone":"(344) 130-2698","sd":"25","ssbd":"13","lsbd":"School Board Provo 5"},{"vid":"1969161","name":"Alicia Fritsch","party":"","address":"1401 S 500 W, Provo, UT 84601","precinct":"25PR65","hd":"62","v_score":"8.280646305","decile":"8","lat":40.21519334207648,"lng":-111.66694869009515,"phone":"(983) 464-0403","sd":"25","ssbd":"13","lsbd":"School Board Provo 5"},{"vid":"1969456","name":"Jovanni Volkman","party":"Rep","address":"1597 S 620 W, Provo, UT 84601","precinct":"25PR65","hd":"62","v_score":"5.40460374","decile":"7","lat":40.21251579640366,"lng":-111.66932302758194,"phone":"(513) 237-3725","sd":"25","ssbd":"13","lsbd":"School Board Provo 5"},{"vid":"1971910","name":"Holmes Morissette","party":"Dem","address":"694 W 1870 S, Unit 1031, Provo, UT 84601","precinct":"25PR65","hd":"62","v_score":"0","decile":"1","lat":40.20882803756791,"lng":-111.67077540217375,"phone":"(530) 801-0742","sd":"25","ssbd":"13","lsbd":"School Board Provo 5"},{"vid":"1973040","name":"Cathleen Grant","party":"Rep","address":"1672 S 300 W, Provo, UT 84601","precinct":"25PR65","hd":"62","v_score":"1.121327652","decile":"3","lat":40.21128692399102,"lng":-111.66326739981005,"phone":"(796) 350-5497","sd":"25","ssbd":"13","lsbd":"School Board Provo 5"},{"vid":"1988194","name":"Citlalli Haley-Halvorson","party":"Dem","address":"1596 S 680 W, Provo, UT 84601","precinct":"25PR65","hd":"62","v_score":"11.47267816","decile":"9","lat":40.212490445570666,"lng":-111.6708230012057,"phone":"(775) 187-2745","sd":"25","ssbd":"13","lsbd":"School Board Provo 5"},{"vid":"1989397","name":"Dr. Oneal Lowe DVM","party":"Rep","address":"1852 S 730 W, Unit 1003, Provo, UT 84601","precinct":"25PR65","hd":"62","v_score":"6.814370645","decile":"8","lat":40.208844662792075,"lng":-111.67183845231126,"phone":"(443) 205-6680","sd":"25","ssbd":"13","lsbd":"School Board Provo 5"},{"vid":"1989562","name":"Ethan McDermott","party":"Rep","address":"1737 S 620 W, Provo, UT 84601","precinct":"25PR65","hd":"62","v_score":"0","decile":"1","lat":40.210703632249896,"lng":-111.6693783086821,"phone":"(634) 354-8615","sd":"25","ssbd":"13","lsbd":"School Board Provo 5"},{"vid":"1998109","name":"Jimmy Gottlieb","party":"","address":"662 W 1870 S, Unit 1041, Provo, UT 84601","precinct":"25PR65","hd":"62","v_score":"13.17481923","decile":"9","lat":40.20863654629868,"lng":-111.67016353573855,"phone":"(120) 375-8662","sd":"25","ssbd":"13","lsbd":"School Board Provo 5"},{"vid":"2006044","name":"Elfie Parker","party":"","address":"336 W 1570 S, Provo, UT 84601","precinct":"25PR65","hd":"62","v_score":"3.93832808","decile":"6","lat":40.212960734335056,"lng":-111.66446964174791,"phone":"(977) 403-4196","sd":"25","ssbd":"13","lsbd":"School Board Provo 5"},{"vid":"2008640","name":"Harrold Schroeder","party":"Rep","address":"1758 S 730 W, Provo, UT 84601","precinct":"25PR65","hd":"62","v_score":"15.53273099","decile":"9","lat":40.21048913935119,"lng":-111.6718133729655,"phone":"(799) 565-3301","sd":"25","ssbd":"13","lsbd":"School Board Provo 5"},{"vid":"a3eebfbc77f5407c7d0a53242121ef86c2347695d4fbc069c84d791d72c47d02","name":"Dr. Natalia Upton DVM","party":"","address":"634 W 1870 S, Unit 1081, Provo, UT 84601","precinct":"25PR65","hd":"62","v_score":"5.273794831","decile":"7","lat":40.20870777048039,"lng":-111.66955615351357,"phone":"(887) 892-6576","sd":"25","ssbd":"13","lsbd":"School Board Provo 5"},{"vid":"2015680","name":"Auston Boyle","party":"","address":"1743 S 450 W, Provo, UT 84601","precinct":"25PR65","hd":"62","v_score":"8.363183621","decile":"8","lat":40.210419449893884,"lng":-111.66620587282739,"phone":"(271) 934-6009","sd":"25","ssbd":"13","lsbd":"School Board Provo 5"},{"vid":"396887b084b083be11d02f1dcb16e7c6cf1188947998e755135e6609ee929dea","name":"Vollie Renner-Weissnat","party":"","address":"309 W Lakewood Dr, Provo, UT 84601","precinct":"25PR65","hd":"62","v_score":"2.587603312","decile":"5","lat":40.210787529098404,"lng":-111.66265728577805,"phone":"(255) 874-9574","sd":"25","ssbd":"13","lsbd":"School Board Provo 5"},{"vid":"2028371","name":"Mrs. Magdalene Hane","party":"","address":"1420 S 400 W, Provo, UT 84601","precinct":"25PR65","hd":"62","v_score":"4.210716443","decile":"7","lat":40.21484608380746,"lng":-111.6665455558101,"phone":"(592) 573-8376","sd":"25","ssbd":"13","lsbd":"School Board Provo 5"},{"vid":"2028888","name":"Hettie Cole DDS","party":"Dem","address":"661 W 1920 S, Unit 1070, Provo, UT 84601","precinct":"25PR65","hd":"62","v_score":"5.258122542","decile":"7","lat":40.2075375854004,"lng":-111.67058565750413,"phone":"(201) 629-1959","sd":"25","ssbd":"13","lsbd":"School Board Provo 5"},{"vid":"2029063","name":"Elgie Huel","party":"Dem","address":"645 W 1920 S, Unit 1076, Provo, UT 84601","precinct":"25PR65","hd":"62","v_score":"21.49890814","decile":"10","lat":40.2076431049904,"lng":-111.67018815927912,"phone":"(409) 695-2872","sd":"25","ssbd":"13","lsbd":"School Board Provo 5"},{"vid":"2049990","name":"Bessie Dach","party":"Rep","address":"401 W 1450 S, Provo, UT 84601","precinct":"25PR65","hd":"62","v_score":"3.781490609","decile":"6","lat":40.214340158783855,"lng":-111.66615267552802,"phone":"(638) 994-1751","sd":"25","ssbd":"13","lsbd":"School Board Provo 5"},{"vid":"2051451","name":"Josh Fahey MD","party":"","address":"1635 S 570 W, Provo, UT 84601","precinct":"25PR65","hd":"62","v_score":"1.46627566","decile":"4","lat":40.21203386292167,"lng":-111.66831544553855,"phone":"(844) 494-7578","sd":"25","ssbd":"13","lsbd":"School Board Provo 5"},{"vid":"2051651","name":"Caylee Beahan PhD","party":"Rep","address":"1743 S 450 W, Provo, UT 84601","precinct":"25PR65","hd":"62","v_score":"8.363183621","decile":"8","lat":40.210419449893884,"lng":-111.66620587282739,"phone":"(483) 345-1318","sd":"25","ssbd":"13","lsbd":"School Board Provo 5"},{"vid":"2057534","name":"Miss Sally Sauer","party":"","address":"341 W 1570 S, Provo, UT 84601","precinct":"25PR65","hd":"62","v_score":"8.347511332","decile":"8","lat":40.21256372700274,"lng":-111.6646753611552,"phone":"(990) 545-3508","sd":"25","ssbd":"13","lsbd":"School Board Provo 5"},{"vid":"2059094","name":"Hardin Heller I","party":"Rep","address":"1650 S 620 W, Provo, UT 84601","precinct":"25PR65","hd":"62","v_score":"8.903210001","decile":"8","lat":40.211667141001186,"lng":-111.66976448150537,"phone":"(394) 734-8655","sd":"25","ssbd":"13","lsbd":"School Board Provo 5"},{"vid":"2073790","name":"Muhammad Hagenes","party":"Dem","address":"1718 S 450 W, Provo, UT 84601","precinct":"25PR65","hd":"62","v_score":"0","decile":"1","lat":40.210760892192425,"lng":-111.66676507948164,"phone":"(664) 664-9938","sd":"25","ssbd":"13","lsbd":"School Board Provo 5"},{"vid":"2075793","name":"Orma Huel","party":"Rep","address":"323 W Lakewood Dr, Provo, UT 84601","precinct":"25PR65","hd":"62","v_score":"1.121327652","decile":"3","lat":40.21058635855102,"lng":-111.66314802808182,"phone":"(103) 405-1397","sd":"25","ssbd":"13","lsbd":"School Board Provo 5"},{"vid":"2077707","name":"Wendell Nicolas-Schmeler","party":"Rep","address":"321 W 1570 S, Provo, UT 84601","precinct":"25PR65","hd":"62","v_score":"2.744440783","decile":"5","lat":40.21265998706102,"lng":-111.66430258254732,"phone":"(681) 677-5251","sd":"25","ssbd":"13","lsbd":"School Board Provo 5"},{"vid":"2087930","name":"Bernice O'Keefe","party":"Rep","address":"568 W 1870 S, Unit 1094, Provo, UT 84601","precinct":"25PR65","hd":"62","v_score":"3.93832808","decile":"6","lat":40.2089081172211,"lng":-111.66871757709416,"phone":"(663) 677-4958","sd":"25","ssbd":"13","lsbd":"School Board Provo 5"},{"vid":"2090509","name":"Giles Daugherty-O'Kon","party":"","address":"631 W 1820 S, Provo, UT 84601","precinct":"25PR65","hd":"62","v_score":"2.315214949","decile":"5","lat":40.209211980032,"lng":-111.6695711690332,"phone":"(488) 203-9789","sd":"25","ssbd":"13","lsbd":"School Board Provo 5"},{"vid":"2093148","name":"Kasey O'Connell","party":"Dem","address":"675 W 1660 S, Provo, UT 84601","precinct":"25PR65","hd":"62","v_score":"3.93832808","decile":"6","lat":40.21135648578081,"lng":-111.67051585858623,"phone":"(960) 562-9577","sd":"25","ssbd":"13","lsbd":"School Board Provo 5"},{"vid":"2096566","name":"Jeanne Champlin","party":"Dem","address":"645 W 1920 S, Unit 1075, Provo, UT 84601","precinct":"25PR65","hd":"62","v_score":"3.781490609","decile":"6","lat":40.2076431049904,"lng":-111.67018815927912,"phone":"(544) 723-1624","sd":"25","ssbd":"13","lsbd":"School Board Provo 5"},{"vid":"2104056","name":"Mr. Ignatius Stiedemann","party":"","address":"1581 S 570 W, Provo, UT 84601","precinct":"25PR65","hd":"62","v_score":"2.587603312","decile":"5","lat":40.21277101372481,"lng":-111.66823721305713,"phone":"(706) 014-1790","sd":"25","ssbd":"13","lsbd":"School Board Provo 5"},{"vid":"2113116","name":"Zeno Feil","party":"Dem","address":"374 W 1670 S, Provo, UT 84601","precinct":"25PR65","hd":"62","v_score":"2.587603312","decile":"5","lat":40.21151346044472,"lng":-111.66471271651832,"phone":"(233) 937-6837","sd":"25","ssbd":"13","lsbd":"School Board Provo 5"},{"vid":"2116615","name":"Najee Daugherty","party":"Rep","address":"661 W 1920 S, Unit 1069, Provo, UT 84601","precinct":"25PR65","hd":"62","v_score":"11.56055976","decile":"9","lat":40.2075375854004,"lng":-111.67058565750413,"phone":"(948) 886-8499","sd":"25","ssbd":"13","lsbd":"School Board Provo 5"},{"vid":"2117439","name":"Mr. Jeromy Reichel Jr.","party":"Dem","address":"1662 S 400 W, Provo, UT 84601","precinct":"25PR65","hd":"62","v_score":"1.46627566","decile":"4","lat":40.211517699456856,"lng":-111.66585055158295,"phone":"(927) 231-9372","sd":"25","ssbd":"13","lsbd":"School Board Provo 5"},{"vid":"2126135","name":"Geary Pagac","party":"Rep","address":"673 W 1920 S, Unit 1067, Provo, UT 84601","precinct":"25PR65","hd":"62","v_score":"2.315214949","decile":"5","lat":40.20785713389574,"lng":-111.67082134093938,"phone":"(653) 727-8382","sd":"25","ssbd":"13","lsbd":"School Board Provo 5"},{"vid":"2134184","name":"Ms. Norita Friesen","party":"","address":"1611 S 500 W, Provo, UT 84601","precinct":"25PR65","hd":"62","v_score":"7.159318653","decile":"8","lat":40.212180679693176,"lng":-111.66712529762238,"phone":"(251) 797-8323","sd":"25","ssbd":"13","lsbd":"School Board Provo 5"},{"vid":"9262081fb8c7c8633d587409d504fb209f0d783aeb1aef4312ba7f4f408900d7","name":"Jaida Bergstrom","party":"Dem","address":"641 W 1660 S, Provo, UT 84601","precinct":"25PR65","hd":"62","v_score":"5.530510904","decile":"7","lat":40.2113530551584,"lng":-111.66985721992845,"phone":"(464) 250-6994","sd":"25","ssbd":"13","lsbd":"School Board Provo 5"},{"vid":"2135795","name":"Sibbie Feeney","party":"Dem","address":"641 W 1660 S, Provo, UT 84601","precinct":"25PR65","hd":"62","v_score":"5.530510904","decile":"7","lat":40.2113530551584,"lng":-111.66985721992845,"phone":"(765) 874-3996","sd":"25","ssbd":"13","lsbd":"School Board Provo 5"},{"vid":"2145474","name":"Dedric Koelpin","party":"","address":"514 W 1670 S, Provo, UT 84601","precinct":"25PR65","hd":"62","v_score":"1.46627566","decile":"4","lat":40.21165428110398,"lng":-111.66758426781874,"phone":"(676) 181-9790","sd":"25","ssbd":"13","lsbd":"School Board Provo 5"},{"vid":"319969760e5e59d64b96221910fcb3685f025418382461d06f7d8474a6cb1411","name":"Lamar Schowalter","party":"Rep","address":"638 W 1920 S, Unit 1051, Provo, UT 84601","precinct":"25PR65","hd":"62","v_score":"1.193887297","decile":"3","lat":40.20784013233657,"lng":-111.66968422219138,"phone":"(634) 820-2700","sd":"25","ssbd":"13","lsbd":"School Board Provo 5"},{"vid":"2155330","name":"Jeremie Weber II","party":"","address":"1662 S 400 W, Provo, UT 84601","precinct":"25PR65","hd":"62","v_score":"2.587603312","decile":"5","lat":40.211517699456856,"lng":-111.66585055158295,"phone":"(619) 906-7915","sd":"25","ssbd":"13","lsbd":"School Board Provo 5"},{"vid":"2162743","name":"Mrs. Djuna Veum","party":"Dem","address":"678 W 1870 S, Unit 1037, Provo, UT 84601","precinct":"25PR65","hd":"62","v_score":"4.283276088","decile":"7","lat":40.208896186993364,"lng":-111.67054744532788,"phone":"(224) 875-9442","sd":"25","ssbd":"13","lsbd":"School Board Provo 5"},{"vid":"2839e9345dca1ab6b3e2d295307cd1d7379a27f9c57bfeaf951c430c3584f642","name":"Jarrell Ratke","party":"","address":"476 W 1500 S, Provo, UT 84601","precinct":"25PR65","hd":"62","v_score":"10.9541455","decile":"9","lat":40.213798457256054,"lng":-111.66696740559578,"phone":"(724) 391-8140","sd":"25","ssbd":"13","lsbd":"School Board Provo 5"},{"vid":"2167986","name":"Celeste Beer DVM","party":"","address":"642 W 1720 S, Provo, UT 84601","precinct":"25PR65","hd":"62","v_score":"4.283276088","decile":"7","lat":40.21107863457417,"lng":-111.66985965382388,"phone":"(374) 333-0304","sd":"25","ssbd":"13","lsbd":"School Board Provo 5"},{"vid":"2173422","name":"Jorge Balistreri","party":"","address":"333 W 1610 S, Provo, UT 84601","precinct":"25PR65","hd":"62","v_score":"6.881235673","decile":"8","lat":40.21190702060659,"lng":-111.66458166005302,"phone":"(433) 721-0978","sd":"25","ssbd":"13","lsbd":"School Board Provo 5"},{"vid":"2174491","name":"Dr. Charisse Turner","party":"Rep","address":"1465 S 500 W, Provo, UT 84601","precinct":"25PR65","hd":"62","v_score":"1.121327652","decile":"3","lat":40.214212032163786,"lng":-111.66727452490031,"phone":"(756) 503-2822","sd":"25","ssbd":"13","lsbd":"School Board Provo 5"},{"vid":"bab1c24af820ed825b9dbc202989e628fd570dc6cfbc7d1ee36ae5266b466a90","name":"Jaydin Denesik","party":"Rep","address":"372 W Lakewood Dr, Provo, UT 84601","precinct":"25PR65","hd":"62","v_score":"1.121327652","decile":"3","lat":40.210610127717324,"lng":-111.66468786588364,"phone":"(151) 012-9157","sd":"25","ssbd":"13","lsbd":"School Board Provo 5"},{"vid":"4db165770566a9cf0f52f84c8f83324c08b41982cf4fda55661178b393bbf069","name":"Koda Douglas","party":"","address":"433 W 1570 S, Provo, UT 84601","precinct":"25PR65","hd":"62","v_score":"2.315214949","decile":"5","lat":40.212686237475964,"lng":-111.66628108636635,"phone":"(736) 255-8720","sd":"25","ssbd":"13","lsbd":"School Board Provo 5"},{"vid":"2216037","name":"Blane Schneider","party":"","address":"1581 S 570 W, Provo, UT 84601","precinct":"25PR65","hd":"62","v_score":"2.315214949","decile":"5","lat":40.21277101372481,"lng":-111.66823721305713,"phone":"(713) 278-6589","sd":"25","ssbd":"13","lsbd":"School Board Provo 5"},{"vid":"de442e649e3a0c1d9c96f5c47fbfa4d54d492883c76a0668d7d315848f9946e2","name":"Isabella Hammes DVM","party":"","address":"341 W 1670 S, Provo, UT 84601","precinct":"25PR65","hd":"62","v_score":"1.121327652","decile":"3","lat":40.2112175607743,"lng":-111.66384522527632,"phone":"(313) 540-2992","sd":"25","ssbd":"13","lsbd":"School Board Provo 5"},{"vid":"28fb77175c7ba39616eaaa43b3ba2fafa3a1587d6424d05494adf229dc3202cd","name":"Mr. Darin Konopelski III","party":"Dem","address":"712 W 1870 S, Unit 1030, Provo, UT 84601","precinct":"25PR65","hd":"62","v_score":"2.817000428","decile":"6","lat":40.20889022819022,"lng":-111.6711451471277,"phone":"(415) 765-9744","sd":"25","ssbd":"13","lsbd":"School Board Provo 5"},{"vid":"770e56b21f1113aaa3b4d7f77e73f71b0ce9a2173f850c044c370065aced04e9","name":"Shane Kautzer","party":"","address":"1655 S 300 W, Provo, UT 84601","precinct":"25PR65","hd":"62","v_score":"26.49214183","decile":"10","lat":40.21162116071423,"lng":-111.66281349115812,"phone":"(130) 759-9528","sd":"25","ssbd":"13","lsbd":"School Board Provo 5"},{"vid":"b451083669f2705a0b39873107c85b79612965272f8dc4b1d5a4438b2cf10610","name":"Kalel Hoppe","party":"","address":"1612 S 620 W, Provo, UT 84601","precinct":"25PR65","hd":"62","v_score":"29.66799809","decile":"10","lat":40.2122679480158,"lng":-111.66990602970972,"phone":"(343) 227-3936","sd":"25","ssbd":"13","lsbd":"School Board Provo 5"},{"vid":"b4a2bddcefd66bd97c5a5c44efd01f0504c3801d6f457d31d74b30657f028c2e","name":"Monna Torphy","party":"Rep","address":"332 W 1610 S, Provo, UT 84601","precinct":"25PR65","hd":"62","v_score":"1.121327652","decile":"3","lat":40.21227265319547,"lng":-111.66468500436363,"phone":"(120) 461-7220","sd":"25","ssbd":"13","lsbd":"School Board Provo 5"},{"vid":"92fe6c3e786ed580ea3994255cfe65beb8046280d91e58e79274c9fa1d4f9441","name":"Cheryle Pfeffer","party":"Rep","address":"641 W 1660 S, Provo, UT 84601","precinct":"25PR65","hd":"62","v_score":"0","decile":"1","lat":40.2113530551584,"lng":-111.66985721992845,"phone":"(314) 841-0630","sd":"25","ssbd":"13","lsbd":"School Board Provo 5"},{"vid":"2245827","name":"Dr. Tuan Kunze II","party":"Rep","address":"1936 S 530 W, Unit 1150, Provo, UT 84601","precinct":"25PR65","hd":"62","v_score":"1.121327652","decile":"3","lat":40.207284824896234,"lng":-111.66814295373266,"phone":"(340) 556-2669","sd":"25","ssbd":"13","lsbd":"School Board Provo 5"},{"vid":"d980da10c7c4151813418034eeffbcd3619a48d596ca45707242f3bc0aac1952","name":"Villa Senger","party":"","address":"412 W 1570 S, Provo, UT 84601","precinct":"25PR65","hd":"62","v_score":"0","decile":"1","lat":40.213051786653914,"lng":-111.6658479159259,"phone":"(817) 950-7749","sd":"25","ssbd":"13","lsbd":"School Board Provo 5"},{"vid":"3b1f8e274b468a460eebd2c2a5bb97cb82f2f41596ccf0bb296e1793b64937e4","name":"Bobby Terry","party":"Rep","address":"1465 S 500 W, Provo, UT 84601","precinct":"25PR65","hd":"62","v_score":"1.121327652","decile":"3","lat":40.214212032163786,"lng":-111.66727452490031,"phone":"(332) 960-4287","sd":"25","ssbd":"13","lsbd":"School Board Provo 5"},{"vid":"f1b8d043e77187f261b1aabb33c4c48c6f800627c08aab558dd732d5b803976e","name":"Kasie Considine","party":"","address":"616 W 1870 S, Unit 1084, Provo, UT 84601","precinct":"25PR65","hd":"62","v_score":"1.193887297","decile":"3","lat":40.20890720808158,"lng":-111.66932606730118,"phone":"(977) 617-4043","sd":"25","ssbd":"13","lsbd":"School Board Provo 5"},{"vid":"2273264","name":"Ollie Swift","party":"","address":"1852 S 730 W, Provo, UT 84601","precinct":"25PR65","hd":"62","v_score":"0","decile":"1","lat":40.208844662792075,"lng":-111.67183845231126,"phone":"(183) 179-8565","sd":"25","ssbd":"13","lsbd":"School Board Provo 5"},{"vid":"2279997","name":"Meggan Champlin","party":"Dem","address":"622 W 1890 S, Unit 1099, Provo, UT 84601","precinct":"25PR65","hd":"62","v_score":"2.315214949","decile":"5","lat":40.2082634385936,"lng":-111.66947931593607,"phone":"(704) 753-6936","sd":"25","ssbd":"13","lsbd":"School Board Provo 5"},{"vid":"df779d314c4554fdbb47f81f36e88bf702c50c82c51062773da613100879d2cd","name":"Mrs. Alissa Cremin","party":"Rep","address":"1903 S 570 W, Unit 1122, Provo, UT 84601","precinct":"25PR65","hd":"62","v_score":"5.620483348","decile":"7","lat":40.2077785528454,"lng":-111.66839341894593,"phone":"(455) 839-4484","sd":"25","ssbd":"13","lsbd":"School Board Provo 5"},{"vid":"400524282b1fd0eae17ca9ac629226bf63dd5fa8677c18a18d348e67c8fbc82b","name":"Clinton Hane-Lueilwitz","party":"","address":"1864 S 730 W, Unit 1009, Provo, UT 84601","precinct":"25PR65","hd":"62","v_score":"5.258122542","decile":"7","lat":40.208542700046195,"lng":-111.67188802332494,"phone":"(223) 756-8662","sd":"25","ssbd":"13","lsbd":"School Board Provo 5"},{"vid":"495a610d79838678c0b8cb85fb2c96697e1ccaa34f865e3e7d8123ca06d0ca7b","name":"Clare Fay","party":"","address":"1798 S 730 W, Provo, UT 84601","precinct":"25PR65","hd":"62","v_score":"4.13679489","decile":"7","lat":40.209786713382115,"lng":-111.67170955844105,"phone":"(981) 884-8820","sd":"25","ssbd":"13","lsbd":"School Board Provo 5"},{"vid":"2297800","name":"Ms. Jaylee Luettgen","party":"Rep","address":"341 W 1570 S, Provo, UT 84601","precinct":"25PR65","hd":"62","v_score":"2.315214949","decile":"5","lat":40.21256372700274,"lng":-111.6646753611552,"phone":"(311) 600-6382","sd":"25","ssbd":"13","lsbd":"School Board Provo 5"},{"vid":"d73a7cbee21c52ae346d6ff2b4a2efb6780e7d57b8176464884afa24f5b70d46","name":"Mikayla Batz","party":"","address":"678 W 1870 S, Unit 1040, Provo, UT 84601","precinct":"25PR65","hd":"62","v_score":"10.06908511","decile":"9","lat":40.208896186993364,"lng":-111.67054744532788,"phone":"(370) 049-6440","sd":"25","ssbd":"13","lsbd":"School Board Provo 5"},{"vid":"df1b824f1fd9b5f50ce5ecc6c7cb1f673107c3c597a9ffeef6e2e158e49a0ed9","name":"Precious Smith","party":"","address":"358 W Lakewood Dr, Provo, UT 84601","precinct":"25PR65","hd":"62","v_score":"1.121327652","decile":"3","lat":40.21068559520069,"lng":-111.66441892987083,"phone":"(766) 440-6212","sd":"25","ssbd":"13","lsbd":"School Board Provo 5"},{"vid":"46f40f0ff9163afb263d6aec1ed3d13f33904c40f8107d8c9bb67476be644ae0","name":"Shelly Luettgen","party":"","address":"1672 S 300 W, Provo, UT 84601","precinct":"25PR65","hd":"62","v_score":"5.191257514","decile":"7","lat":40.21128692399102,"lng":-111.66326739981005,"phone":"(942) 019-4039","sd":"25","ssbd":"13","lsbd":"School Board Provo 5"},{"vid":"2314986","name":"Dr. Archer Paucek Jr.","party":"Dem","address":"1781 S 730 W, Provo, UT 84601","precinct":"25PR65","hd":"62","v_score":"2.315214949","decile":"5","lat":40.21015341179704,"lng":-111.67116157551762,"phone":"(781) 637-9371","sd":"25","ssbd":"13","lsbd":"School Board Provo 5"},{"vid":"2325760","name":"Baxter Kunze","party":"Rep","address":"699 W 1920 S, Unit 1019, Provo, UT 84601","precinct":"25PR65","hd":"62","v_score":"5.191257514","decile":"7","lat":40.20781159881261,"lng":-111.67123676630352,"phone":"(272) 191-7200","sd":"25","ssbd":"13","lsbd":"School Board Provo 5"},{"vid":"2329808","name":"Mr. Yusuf Swift III","party":"","address":"1616 S 730 W, Provo, UT 84601","precinct":"25PR65","hd":"62","v_score":"3.997370217","decile":"6","lat":40.21226094787829,"lng":-111.6718180097097,"phone":"(843) 173-8301","sd":"25","ssbd":"13","lsbd":"School Board Provo 5"},{"vid":"2331002","name":"Hence Schoen","party":"Dem","address":"1371 S 500 W, Provo, UT 84601","precinct":"25PR65","hd":"62","v_score":"1.193887297","decile":"3","lat":40.21563357430309,"lng":-111.66707004620184,"phone":"(398) 537-5121","sd":"25","ssbd":"13","lsbd":"School Board Provo 5"},{"vid":"2332252","name":"Jonatan Witting","party":"","address":"374 W 1670 S, Provo, UT 84601","precinct":"25PR65","hd":"62","v_score":"1.121327652","decile":"3","lat":40.21151346044472,"lng":-111.66471271651832,"phone":"(480) 852-0851","sd":"25","ssbd":"13","lsbd":"School Board Provo 5"},{"vid":"2335775","name":"Ms. Verne Hauck MD","party":"Dem","address":"483 W 1570 S, Provo, UT 84601","precinct":"25PR65","hd":"62","v_score":"2.315214949","decile":"5","lat":40.212685183207505,"lng":-111.66718319335345,"phone":"(325) 076-6815","sd":"25","ssbd":"13","lsbd":"School Board Provo 5"},{"vid":"2335776","name":"Karon Herzog MD","party":"Dem","address":"483 W 1570 S, Provo, UT 84601","precinct":"25PR65","hd":"62","v_score":"2.315214949","decile":"5","lat":40.212685183207505,"lng":-111.66718319335345,"phone":"(939) 475-9296","sd":"25","ssbd":"13","lsbd":"School Board Provo 5"},{"vid":"2339465","name":"Regan Johnston-Runolfsson","party":"Dem","address":"661 W 1920 S, Unit 1069, Provo, UT 84601","precinct":"25PR65","hd":"62","v_score":"2.315214949","decile":"5","lat":40.2075375854004,"lng":-111.67058565750413,"phone":"(634) 065-5146","sd":"25","ssbd":"13","lsbd":"School Board Provo 5"},{"vid":"2341696","name":"Vick Raynor","party":"","address":"717 W 1920 S, Unit 1014, Provo, UT 84601","precinct":"25PR65","hd":"62","v_score":"1.121327652","decile":"3","lat":40.20799240706667,"lng":-111.67155207353096,"phone":"(773) 511-1103","sd":"25","ssbd":"13","lsbd":"School Board Provo 5"},{"vid":"2344134","name":"Enrique Quitzon-Schneider","party":"","address":"673 W 1920 S, Unit 1064, Provo, UT 84601","precinct":"25PR65","hd":"62","v_score":"2.315214949","decile":"5","lat":40.20785713389574,"lng":-111.67082134093938,"phone":"(142) 911-1543","sd":"25","ssbd":"13","lsbd":"School Board Provo 5"},{"vid":"2350604","name":"Taja Ryan","party":"Rep","address":"387 W Lakewood Dr, Provo, UT 84601","precinct":"25PR65","hd":"62","v_score":"2.315214949","decile":"5","lat":40.210133538006886,"lng":-111.66476153689973,"phone":"(369) 852-0540","sd":"25","ssbd":"13","lsbd":"School Board Provo 5"},{"vid":"2357372","name":"Britta Luettgen DVM","party":"Rep","address":"341 W 1570 S, Provo, UT 84601","precinct":"25PR65","hd":"62","v_score":"1.121327652","decile":"3","lat":40.21256372700274,"lng":-111.6646753611552,"phone":"(180) 946-5922","sd":"25","ssbd":"13","lsbd":"School Board Provo 5"},{"vid":"2364861","name":"Xander Collins-Durgan","party":"","address":"642 W 1720 S, Provo, UT 84601","precinct":"25PR65","hd":"62","v_score":"15.2589308","decile":"9","lat":40.21107863457417,"lng":-111.66985965382388,"phone":"(560) 993-9848","sd":"25","ssbd":"13","lsbd":"School Board Provo 5"},{"vid":"2367469","name":"Darrian Leffler","party":"Dem","address":"1781 S 730 W, Provo, UT 84601","precinct":"25PR65","hd":"62","v_score":"2.315214949","decile":"5","lat":40.21015341179704,"lng":-111.67116157551762,"phone":"(360) 285-7711","sd":"25","ssbd":"13","lsbd":"School Board Provo 5"},{"vid":"2386437","name":"Illa Schaefer","party":"Dem","address":"458 W 1500 S, Provo, UT 84601","precinct":"25PR65","hd":"62","v_score":"2.315214949","decile":"5","lat":40.21379818971996,"lng":-111.66671681928962,"phone":"(154) 655-2966","sd":"25","ssbd":"13","lsbd":"School Board Provo 5"},{"vid":"2395853","name":"Simona Christiansen","party":"Dem","address":"1581 S 680 W, Provo, UT 84601","precinct":"25PR65","hd":"62","v_score":"0","decile":"1","lat":40.21276562285915,"lng":-111.67026524030007,"phone":"(239) 233-0021","sd":"25","ssbd":"13","lsbd":"School Board Provo 5"},{"vid":"2414621","name":"Jorge Abernathy","party":"Dem","address":"1652 S 680 W, Provo, UT 84601","precinct":"25PR65","hd":"62","v_score":"2.315214949","decile":"5","lat":40.21169044911545,"lng":-111.67070404061546,"phone":"(203) 744-5556","sd":"25","ssbd":"13","lsbd":"School Board Provo 5"},{"vid":"2416833","name":"Demetric Orn","party":"Rep","address":"1795 S 570 W, Provo, UT 84601","precinct":"25PR65","hd":"62","v_score":"9.830961897","decile":"8","lat":40.209900121828376,"lng":-111.66834446112225,"phone":"(374) 041-7426","sd":"25","ssbd":"13","lsbd":"School Board Provo 5"},{"vid":"2427794","name":"Christian Hills","party":"Dem","address":"1797 S 620 W, Provo, UT 84601","precinct":"25PR65","hd":"62","v_score":"1.121327652","decile":"3","lat":40.20990396496524,"lng":-111.66929880235433,"phone":"(122) 043-7831","sd":"25","ssbd":"13","lsbd":"School Board Provo 5"},{"vid":"2428684","name":"Mr. Andrew Langworth V","party":"Rep","address":"1814 S 680 W, Provo, UT 84601","precinct":"25PR65","hd":"62","v_score":"4.833280139","decile":"7","lat":40.20953825830033,"lng":-111.67066162786791,"phone":"(738) 061-9804","sd":"25","ssbd":"13","lsbd":"School Board Provo 5"},{"vid":"2430012","name":"Regan Hoppe","party":"","address":"676 W 1720 S, Provo, UT 84601","precinct":"25PR65","hd":"62","v_score":"1.121327652","decile":"3","lat":40.211082036534975,"lng":-111.67051828942738,"phone":"(302) 179-1335","sd":"25","ssbd":"13","lsbd":"School Board Provo 5"},{"vid":"2435229","name":"Mila Dietrich-Koch","party":"Dem","address":"645 W 1820 S, Provo, UT 84601","precinct":"25PR65","hd":"62","v_score":"0","decile":"1","lat":40.20920902966373,"lng":-111.6698825511618,"phone":"(546) 961-8265","sd":"25","ssbd":"13","lsbd":"School Board Provo 5"},{"vid":"2437577","name":"Axel Monahan-Buckridge","party":"Dem","address":"1465 S 500 W, Provo, UT 84601","precinct":"25PR65","hd":"62","v_score":"0","decile":"1","lat":40.214212032163786,"lng":-111.66727452490031,"phone":"(953) 320-0452","sd":"25","ssbd":"13","lsbd":"School Board Provo 5"},{"vid":"2444549","name":"Mrs. Buna Haley","party":"Rep","address":"711 W 1660 S, Provo, UT 84601","precinct":"25PR65","hd":"62","v_score":"15.26393909","decile":"9","lat":40.21141270936802,"lng":-111.67124187522926,"phone":"(618) 753-2446","sd":"25","ssbd":"13","lsbd":"School Board Provo 5"},{"vid":"2446948","name":"Mackenzie Carter","party":"Dem","address":"675 W 1660 S, Provo, UT 84601","precinct":"25PR65","hd":"62","v_score":"2.817000428","decile":"6","lat":40.21135648578081,"lng":-111.67051585858623,"phone":"(181) 029-3718","sd":"25","ssbd":"13","lsbd":"School Board Provo 5"},{"vid":"2447892","name":"Angie Bailey","party":"","address":"691 W 1820 S, Provo, UT 84601","precinct":"25PR65","hd":"62","v_score":"1.121327652","decile":"3","lat":40.20920014590281,"lng":-111.67081676617897,"phone":"(292) 698-6269","sd":"25","ssbd":"13","lsbd":"School Board Provo 5"},{"vid":"2448112","name":"Dr. Lorin Beier Jr.","party":"Rep","address":"332 W 1610 S, Provo, UT 84601","precinct":"25PR65","hd":"62","v_score":"1.121327652","decile":"3","lat":40.21227265319547,"lng":-111.66468500436363,"phone":"(421) 749-1500","sd":"25","ssbd":"13","lsbd":"School Board Provo 5"},{"vid":"2452737","name":"Ms. Corrina Wilderman MD","party":"Rep","address":"691 W 1820 S, Provo, UT 84601","precinct":"25PR65","hd":"62","v_score":"1.121327652","decile":"3","lat":40.20920014590281,"lng":-111.67081676617897,"phone":"(396) 949-4867","sd":"25","ssbd":"13","lsbd":"School Board Provo 5"},{"vid":"2453669","name":"Nereida Rosenbaum-Ondricka","party":"Rep","address":"699 W 1920 S, Unit 1017, Provo, UT 84601","precinct":"25PR65","hd":"62","v_score":"2.315214949","decile":"5","lat":40.20781159881261,"lng":-111.67123676630352,"phone":"(231) 763-6402","sd":"25","ssbd":"13","lsbd":"School Board Provo 5"},{"vid":"2453786","name":"Mr. Ingram Smith","party":"","address":"699 W 1920 S, Unit 1017, Provo, UT 84601","precinct":"25PR65","hd":"62","v_score":"2.315214949","decile":"5","lat":40.20781159881261,"lng":-111.67123676630352,"phone":"(250) 790-2723","sd":"25","ssbd":"13","lsbd":"School Board Provo 5"},{"vid":"2455753","name":"Karyme Cassin-Prosacco","party":"Dem","address":"477 W 1450 S, Provo, UT 84601","precinct":"25PR65","hd":"62","v_score":"3.93832808","decile":"6","lat":40.21414250135316,"lng":-111.66696824857483,"phone":"(596) 324-4182","sd":"25","ssbd":"13","lsbd":"School Board Provo 5"},{"vid":"2467602","name":"Retta Jacobs","party":"","address":"712 W 1870 S, Unit 1027, Provo, UT 84601","precinct":"25PR65","hd":"62","v_score":"2.817000428","decile":"6","lat":40.20889022819022,"lng":-111.6711451471277,"phone":"(282) 934-7020","sd":"25","ssbd":"13","lsbd":"School Board Provo 5"},{"vid":"2470014","name":"Jennifer Schmeler","party":"Dem","address":"532 W 1870 S, Unit 1202, Provo, UT 84601","precinct":"25PR65","hd":"62","v_score":"0","decile":"1","lat":40.208835774043926,"lng":-111.66810880068387,"phone":"(500) 140-8952","sd":"25","ssbd":"13","lsbd":"School Board Provo 5"},{"vid":"2495245","name":"Dr. Price O'Hara IV","party":"Rep","address":"1662 S 400 W, Provo, UT 84601","precinct":"25PR65","hd":"62","v_score":"4.069929862","decile":"6","lat":40.211517699456856,"lng":-111.66585055158295,"phone":"(564) 028-1528","sd":"25","ssbd":"13","lsbd":"School Board Provo 5"},{"vid":"2501803","name":"Mr. Dustin Hickle","party":"Dem","address":"1581 S 680 W, Provo, UT 84601","precinct":"25PR65","hd":"62","v_score":"0","decile":"1","lat":40.21276562285915,"lng":-111.67026524030007,"phone":"(995) 209-0264","sd":"25","ssbd":"13","lsbd":"School Board Provo 5"},{"vid":"2509397","name":"Kathlyn Jacobs","party":"","address":"1611 S 500 W, Provo, UT 84601","precinct":"25PR65","hd":"62","v_score":"1.193887297","decile":"3","lat":40.212180679693176,"lng":-111.66712529762238,"phone":"(243) 714-6325","sd":"25","ssbd":"13","lsbd":"School Board Provo 5"},{"vid":"2510185","name":"Dr. Giuseppe Klocko DVM","party":"Rep","address":"448 W 1570 S, Provo, UT 84601","precinct":"25PR65","hd":"62","v_score":"5.83359168","decile":"7","lat":40.21305413413743,"lng":-111.66643499658474,"phone":"(787) 207-2659","sd":"25","ssbd":"13","lsbd":"School Board Provo 5"},{"vid":"2517443","name":"Kristy Wisoky","party":"Dem","address":"699 W 1920 S, Unit 1019, Provo, UT 84601","precinct":"25PR65","hd":"62","v_score":"5.693042993","decile":"7","lat":40.20781159881261,"lng":-111.67123676630352,"phone":"(527) 907-3772","sd":"25","ssbd":"13","lsbd":"School Board Provo 5"},{"vid":"2518386","name":"Gearldine Powlowski","party":"Dem","address":"514 W 1670 S, Provo, UT 84601","precinct":"25PR65","hd":"62","v_score":"0","decile":"1","lat":40.21165428110398,"lng":-111.66758426781874,"phone":"(440) 345-5689","sd":"25","ssbd":"13","lsbd":"School Board Provo 5"},{"vid":"2524703","name":"Kelley Rutherford","party":"","address":"1731 S 730 W, Provo, UT 84601","precinct":"25PR65","hd":"62","v_score":"2.817000428","decile":"6","lat":40.21071293932052,"lng":-111.67123588061547,"phone":"(337) 749-1134","sd":"25","ssbd":"13","lsbd":"School Board Provo 5"},{"vid":"2525219","name":"Dylon Abernathy","party":"Rep","address":"512 W 1770 S, Provo, UT 84601","precinct":"25PR65","hd":"62","v_score":"0","decile":"1","lat":40.210278160945556,"lng":-111.66762912882481,"phone":"(676) 728-9325","sd":"25","ssbd":"13","lsbd":"School Board Provo 5"},{"vid":"2526556","name":"Love Kub PhD","party":"Dem","address":"606 W 1720 S, Provo, UT 84601","precinct":"25PR65","hd":"62","v_score":"0","decile":"1","lat":40.21107519954715,"lng":-111.66920098192846,"phone":"(672) 374-4140","sd":"25","ssbd":"13","lsbd":"School Board Provo 5"},{"vid":"2535018","name":"Leota Haag","party":"Dem","address":"1702 S 450 W, Provo, UT 84601","precinct":"25PR65","hd":"62","v_score":"0","decile":"1","lat":40.21099410591235,"lng":-111.66676564667792,"phone":"(137) 042-7799","sd":"25","ssbd":"13","lsbd":"School Board Provo 5"},{"vid":"2535676","name":"Gauge Ruecker","party":"","address":"1739 S 680 W, Provo, UT 84601","precinct":"25PR65","hd":"62","v_score":"0","decile":"1","lat":40.21071034190144,"lng":-111.67031789821819,"phone":"(939) 692-9468","sd":"25","ssbd":"13","lsbd":"School Board Provo 5"},{"vid":"2539626","name":"Toy Keebler","party":"","address":"622 W 1720 S, Provo, UT 84601","precinct":"25PR65","hd":"62","v_score":"0","decile":"1","lat":40.211076915825856,"lng":-111.66953031832533,"phone":"(629) 899-3453","sd":"25","ssbd":"13","lsbd":"School Board Provo 5"},{"vid":"2552974","name":"Claus Tremblay","party":"","address":"622 W 1720 S, Provo, UT 84601","precinct":"25PR65","hd":"62","v_score":"1.193887297","decile":"4","lat":40.211076915825856,"lng":-111.66953031832533,"phone":"(604) 083-6251","sd":"25","ssbd":"13","lsbd":"School Board Provo 5"},{"vid":"2554689","name":"Braiden Torphy DDS","party":"Dem","address":"544 W 1610 S, Provo, UT 84601","precinct":"25PR65","hd":"62","v_score":"2.817000428","decile":"6","lat":40.21232055667038,"lng":-111.66783343183099,"phone":"(170) 875-1305","sd":"25","ssbd":"13","lsbd":"School Board Provo 5"},{"vid":"2557054","name":"Mr. Rush Kozey DDS","party":"","address":"1695 S 450 W, Provo, UT 84601","precinct":"25PR65","hd":"62","v_score":"1.193887297","decile":"4","lat":40.2110780878182,"lng":-111.66620745386228,"phone":"(550) 648-8958","sd":"25","ssbd":"13","lsbd":"School Board Provo 5"},{"vid":"2558992","name":"Dr. Lucas Kozey","party":"","address":"1864 S 730 W, Unit 1008, Provo, UT 84601","precinct":"25PR65","hd":"62","v_score":"0","decile":"1","lat":40.208542700046195,"lng":-111.67188802332494,"phone":"(623) 662-5251","sd":"25","ssbd":"13","lsbd":"School Board Provo 5"},{"vid":"2560618","name":"Alyse Lehner MD","party":"Dem","address":"492 W 1300 S, Provo, UT 84601","precinct":"25PR65","hd":"62","v_score":"0","decile":"1","lat":40.21643577160747,"lng":-111.66728566334255,"phone":"(477) 285-9976","sd":"25","ssbd":"13","lsbd":"School Board Provo 5"},{"vid":"2573559","name":"Kaye Walker-Hoppe","party":"Rep","address":"1735 S 570 W, Provo, UT 84601","precinct":"25PR65","hd":"62","v_score":"0","decile":"1","lat":40.21069892951009,"lng":-111.66840760782254,"phone":"(940) 831-2730","sd":"25","ssbd":"13","lsbd":"School Board Provo 5"},{"vid":"2575224","name":"Cletus Herman I","party":"Rep","address":"691 W 1660 S, Provo, UT 84601","precinct":"25PR65","hd":"62","v_score":"0","decile":"1","lat":40.211358199719946,"lng":-111.67084519660004,"phone":"(636) 341-1697","sd":"25","ssbd":"13","lsbd":"School Board Provo 5"},{"vid":"2576001","name":"Dr. Dedric Cruickshank","party":"","address":"1601 S 300 W, Provo, UT 84601","precinct":"25PR65","hd":"62","v_score":"0","decile":"1","lat":40.21255332500901,"lng":-111.6635697103916,"phone":"(322) 155-1299","sd":"25","ssbd":"13","lsbd":"School Board Provo 5"},{"vid":"2576334","name":"Harrie Willms Sr.","party":"","address":"1631 S 400 W, Provo, UT 84601","precinct":"25PR65","hd":"62","v_score":"0","decile":"1","lat":40.21195648791481,"lng":-111.66529320857359,"phone":"(753) 661-0087","sd":"25","ssbd":"13","lsbd":"School Board Provo 5"},{"vid":"2577687","name":"Anastacio Gutmann","party":"Dem","address":"606 W 1720 S, Provo, UT 84601","precinct":"25PR65","hd":"62","v_score":"5.926494964","decile":"7","lat":40.21107519954715,"lng":-111.66920098192846,"phone":"(830) 073-6035","sd":"25","ssbd":"13","lsbd":"School Board Provo 5"},{"vid":"2578156","name":"Dr. Ronny Marvin","party":"","address":"387 W Lakewood Dr, Provo, UT 84601","precinct":"25PR65","hd":"62","v_score":"4.069929862","decile":"6","lat":40.210133538006886,"lng":-111.66476153689973,"phone":"(703) 400-6515","sd":"25","ssbd":"13","lsbd":"School Board Provo 5"},{"vid":"2589927","name":"Mr. Arvel Padberg DVM","party":"","address":"584 W 1890 S, Unit 1158, Provo, UT 84601","precinct":"25PR65","hd":"62","v_score":"0","decile":"1","lat":40.208263659363205,"lng":-111.66900610266836,"phone":"(434) 452-8804","sd":"25","ssbd":"13","lsbd":"School Board Provo 5"},{"vid":"2592623","name":"Gottlieb Zieme II","party":"Dem","address":"398 W 1570 S, Provo, UT 84601","precinct":"25PR65","hd":"62","v_score":"6.528952915","decile":"7","lat":40.213047804438006,"lng":-111.66548919383945,"phone":"(418) 633-0957","sd":"25","ssbd":"13","lsbd":"School Board Provo 5"},{"vid":"2611550","name":"Thaddeus McKenzie","party":"","address":"469 W 1570 S, Provo, UT 84601","precinct":"25PR65","hd":"62","v_score":"0","decile":"1","lat":40.212687886463826,"lng":-111.66665166096627,"phone":"(423) 916-5125","sd":"25","ssbd":"13","lsbd":"School Board Provo 5"},{"vid":"2619924","name":"Gilda Lemke-Willms","party":"Rep","address":"1616 S 730 W, Provo, UT 84601","precinct":"25PR65","hd":"62","v_score":"7.549608095","decile":"8","lat":40.21226094787829,"lng":-111.6718180097097,"phone":"(671) 170-6899","sd":"25","ssbd":"13","lsbd":"School Board Provo 5"},{"vid":"2632669","name":"Darby Heller-Streich","party":"","address":"1731 S 730 W, Provo, UT 84601","precinct":"25PR65","hd":"62","v_score":"2.817000428","decile":"6","lat":40.21071293932052,"lng":-111.67123588061547,"phone":"(992) 834-3157","sd":"25","ssbd":"13","lsbd":"School Board Provo 5"},{"vid":"2638395","name":"Dr. Orrin McDermott","party":"","address":"552 W 1890 S, Unit 1163, Provo, UT 84601","precinct":"25PR65","hd":"62","v_score":"5.926494964","decile":"7","lat":40.20824379695616,"lng":-111.66817459095968,"phone":"(980) 782-8479","sd":"25","ssbd":"13","lsbd":"School Board Provo 5"},{"vid":"2639774","name":"Sharman Altenwerth","party":"Dem","address":"1581 S 570 W, Provo, UT 84601","precinct":"25PR65","hd":"62","v_score":"1.193887297","decile":"4","lat":40.21277101372481,"lng":-111.66823721305713,"phone":"(955) 447-9599","sd":"25","ssbd":"13","lsbd":"School Board Provo 5"},{"vid":"2643817","name":"Kelsi Huels","party":"","address":"678 W 1870 S, Unit 1037, Provo, UT 84601","precinct":"25PR65","hd":"62","v_score":"8.085704327","decile":"8","lat":40.208896186993364,"lng":-111.67054744532788,"phone":"(738) 104-9456","sd":"25","ssbd":"13","lsbd":"School Board Provo 5"},{"vid":"2644133","name":"Kimball Funk","party":"Dem","address":"1731 S 730 W, Provo, UT 84601","precinct":"25PR65","hd":"62","v_score":"5.693042993","decile":"7","lat":40.21071293932052,"lng":-111.67123588061547,"phone":"(328) 594-3554","sd":"25","ssbd":"13","lsbd":"School Board Provo 5"},{"vid":"2654494","name":"Maxie DuBuque-Dickinson","party":"","address":"436 W 1500 S, Provo, UT 84601","precinct":"25PR65","hd":"62","v_score":"0","decile":"1","lat":40.21379792190949,"lng":-111.66646623316316,"phone":"(796) 170-3149","sd":"25","ssbd":"13","lsbd":"School Board Provo 5"},{"vid":"2656343","name":"Manila Lynch MD","party":"Rep","address":"1903 S 570 W, Unit 1123, Provo, UT 84601","precinct":"25PR65","hd":"62","v_score":"1.193887297","decile":"4","lat":40.2077785528454,"lng":-111.66839341894593,"phone":"(181) 264-8263","sd":"25","ssbd":"13","lsbd":"School Board Provo 5"},{"vid":"2662439","name":"Dr. Estrella Hayes DVM","party":"","address":"1632 S 680 W, Provo, UT 84601","precinct":"25PR65","hd":"62","v_score":"0","decile":"1","lat":40.21201387319876,"lng":-111.6708218130939,"phone":"(232) 098-5232","sd":"25","ssbd":"13","lsbd":"School Board Provo 5"},{"vid":"2666467","name":"Mena Muller DDS","party":"","address":"549 W 1720 S, Provo, UT 84601","precinct":"25PR65","hd":"62","v_score":"0","decile":"1","lat":40.21062014789496,"lng":-111.66797062221615,"phone":"(206) 710-1368","sd":"25","ssbd":"13","lsbd":"School Board Provo 5"},{"vid":"2666702","name":"Kaitlynn Stiedemann","party":"Dem","address":"1727 S 450 W, Provo, UT 84601","precinct":"25PR65","hd":"62","v_score":"0","decile":"1","lat":40.21063897727977,"lng":-111.66620639025697,"phone":"(113) 747-6145","sd":"25","ssbd":"13","lsbd":"School Board Provo 5"},{"vid":"2668936","name":"Jaheim Blanda","party":"","address":"658 W 1920 S, Unit 1059, Provo, UT 84601","precinct":"25PR65","hd":"62","v_score":"4.069929862","decile":"6","lat":40.20797871078788,"lng":-111.67027184309705,"phone":"(547) 084-9900","sd":"25","ssbd":"13","lsbd":"School Board Provo 5"},{"vid":"2701687","name":"Dr. Kristy Harber","party":"Dem","address":"1817 S 680 W, Provo, UT 84601","precinct":"25PR65","hd":"62","v_score":"0","decile":"2","lat":40.209563731654995,"lng":-111.67031502777657,"phone":"(503) 991-4850","sd":"25","ssbd":"13","lsbd":"School Board Provo 5"},{"vid":"2702720","name":"Mr. Bynum Robel","party":"Dem","address":"717 W 1920 S, Unit 1012, Provo, UT 84601","precinct":"25PR65","hd":"62","v_score":"0","decile":"2","lat":40.20799240706667,"lng":-111.67155207353096,"phone":"(117) 239-8627","sd":"25","ssbd":"13","lsbd":"School Board Provo 5"},{"vid":"2709070","name":"Cullen Padberg","party":"Dem","address":"1622 S 450 W, Provo, UT 84601","precinct":"25PR65","hd":"62","v_score":"0","decile":"2","lat":40.212160144089545,"lng":-111.66676848463555,"phone":"(566) 176-2569","sd":"25","ssbd":"13","lsbd":"School Board Provo 5"},{"vid":"2711127","name":"Bernard Bashirian","party":"Rep","address":"1685 S 400 W, Provo, UT 84601","precinct":"25PR65","hd":"62","v_score":"0","decile":"2","lat":40.21064482742333,"lng":-111.66525436937327,"phone":"(172) 820-1759","sd":"25","ssbd":"13","lsbd":"School Board Provo 5"},{"vid":"2714279","name":"Arther Turner","party":"Rep","address":"699 W 1920 S, Unit 1016, Provo, UT 84601","precinct":"25PR65","hd":"62","v_score":"0","decile":"2","lat":40.20781159881261,"lng":-111.67123676630352,"phone":"(764) 183-0202","sd":"25","ssbd":"13","lsbd":"School Board Provo 5"},{"vid":"2725402","name":"Mr. Jereme Schamberger PhD","party":"Rep","address":"549 W 1720 S, Provo, UT 84601","precinct":"25PR65","hd":"62","v_score":"4.069929862","decile":"7","lat":40.21062014789496,"lng":-111.66797062221615,"phone":"(116) 412-7668","sd":"25","ssbd":"13","lsbd":"School Board Provo 5"},{"vid":"2732017","name":"Mac Labadie","party":"Dem","address":"483 W 1570 S, Provo, UT 84601","precinct":"25PR65","hd":"62","v_score":"4.069929862","decile":"7","lat":40.212685183207505,"lng":-111.66718319335345,"phone":"(860) 679-8618","sd":"25","ssbd":"13","lsbd":"School Board Provo 5"},{"vid":"2735212","name":"Mrs. Vilma Considine DDS","party":"Rep","address":"358 W 1570 S, Provo, UT 84601","precinct":"25PR65","hd":"62","v_score":"1.193887297","decile":"4","lat":40.21306366801601,"lng":-111.66490499195167,"phone":"(864) 059-3912","sd":"25","ssbd":"13","lsbd":"School Board Provo 5"},{"vid":"2744906","name":"Rusty Legros","party":"Dem","address":"1581 S 680 W, Provo, UT 84601","precinct":"25PR65","hd":"62","v_score":"0","decile":"2","lat":40.21276562285915,"lng":-111.67026524030007,"phone":"(293) 890-9185","sd":"25","ssbd":"13","lsbd":"School Board Provo 5"},{"vid":"2750192","name":"Aurthur Shields","party":"Dem","address":"1651 S 570 W, Provo, UT 84601","precinct":"25PR65","hd":"62","v_score":"1.193887297","decile":"4","lat":40.211789078825944,"lng":-111.66831878260018,"phone":"(443) 928-9939","sd":"25","ssbd":"13","lsbd":"School Board Provo 5"},{"vid":"2750753","name":"Otto Hudson-Hodkiewicz","party":"","address":"335 W 1610 S, Provo, UT 84601","precinct":"25PR65","hd":"62","v_score":"0","decile":"2","lat":40.21194788692712,"lng":-111.66481121701408,"phone":"(247) 050-7911","sd":"25","ssbd":"13","lsbd":"School Board Provo 5"},{"vid":"2751639","name":"Antonio Schimmel","party":"","address":"1864 S 730 W, Unit 1007, Provo, UT 84601","precinct":"25PR65","hd":"62","v_score":"0","decile":"2","lat":40.208542700046195,"lng":-111.67188802332494,"phone":"(719) 473-3697","sd":"25","ssbd":"13","lsbd":"School Board Provo 5"},{"vid":"2760738","name":"Dionte Klocko","party":"Rep","address":"1690 S 730 W, Provo, UT 84601","precinct":"25PR65","hd":"62","v_score":"4.069929862","decile":"7","lat":40.21143330817431,"lng":-111.6716411540348,"phone":"(379) 821-8388","sd":"25","ssbd":"13","lsbd":"School Board Provo 5"},{"vid":"2761529","name":"Niles Champlin DDS","party":"Dem","address":"1735 S 570 W, Provo, UT 84601","precinct":"25PR65","hd":"62","v_score":"0","decile":"2","lat":40.21069892951009,"lng":-111.66840760782254,"phone":"(305) 165-8724","sd":"25","ssbd":"13","lsbd":"School Board Provo 5"},{"vid":"2761649","name":"Mr. Donal Reichert DDS","party":"Dem","address":"675 W 1820 S, Provo, UT 84601","precinct":"25PR65","hd":"62","v_score":"2.876042565","decile":"6","lat":40.20920309915282,"lng":-111.67050534919572,"phone":"(440) 353-1510","sd":"25","ssbd":"13","lsbd":"School Board Provo 5"},{"vid":"2763563","name":"Ms. Danita Purdy","party":"","address":"1691 S 500 W, Provo, UT 84601","precinct":"25PR65","hd":"62","v_score":"1.193887297","decile":"4","lat":40.211082948115,"lng":-111.66713009606327,"phone":"(568) 326-2184","sd":"25","ssbd":"13","lsbd":"School Board Provo 5"},{"vid":"2764641","name":"Berdie Koelpin MD","party":"Dem","address":"717 W 1920 S, Unit 1013, Provo, UT 84601","precinct":"25PR65","hd":"62","v_score":"1.193887297","decile":"4","lat":40.20799240706667,"lng":-111.67155207353096,"phone":"(466) 203-6654","sd":"25","ssbd":"13","lsbd":"School Board Provo 5"},{"vid":"2770202","name":"Walter Pfannerstill","party":"","address":"549 W 1720 S, Provo, UT 84601","precinct":"25PR65","hd":"62","v_score":"0","decile":"2","lat":40.21062014789496,"lng":-111.66797062221615,"phone":"(738) 991-5906","sd":"25","ssbd":"13","lsbd":"School Board Provo 5"},{"vid":"2777642","name":"Norman Bergstrom","party":"","address":"1772 S 730 W, Provo, UT 84601","precinct":"25PR65","hd":"62","v_score":"1.193887297","decile":"4","lat":40.21026958431335,"lng":-111.67181279606744,"phone":"(651) 421-3368","sd":"25","ssbd":"13","lsbd":"School Board Provo 5"},{"vid":"2780393","name":"Kendell Altenwerth","party":"Dem","address":"1734 S 620 W, Provo, UT 84601","precinct":"25PR65","hd":"62","v_score":"1.193887297","decile":"4","lat":40.21071142083052,"lng":-111.66975208061214,"phone":"(797) 367-5484","sd":"25","ssbd":"13","lsbd":"School Board Provo 5"},{"vid":"2780690","name":"Stafford Paucek-Gleason","party":"","address":"1772 S 730 W, Provo, UT 84601","precinct":"25PR65","hd":"62","v_score":"1.193887297","decile":"4","lat":40.21026958431335,"lng":-111.67181279606744,"phone":"(998) 145-7477","sd":"25","ssbd":"13","lsbd":"School Board Provo 5"},{"vid":"2781960","name":"Dorcas Blanda MD","party":"","address":"336 W 1570 S, Provo, UT 84601","precinct":"25PR65","hd":"62","v_score":"0","decile":"2","lat":40.212960734335056,"lng":-111.66446964174791,"phone":"(297) 355-2302","sd":"25","ssbd":"13","lsbd":"School Board Provo 5"},{"vid":"2792888","name":"Alex Smitham","party":"","address":"1682 S 400 W, Provo, UT 84601","precinct":"25PR65","hd":"62","v_score":"1.193887297","decile":"4","lat":40.210736745493065,"lng":-111.66577707442326,"phone":"(282) 103-5900","sd":"25","ssbd":"13","lsbd":"School Board Provo 5"},{"vid":"2798159","name":"Tyreese Hintz","party":"","address":"605 W 1660 S, Provo, UT 84601","precinct":"25PR65","hd":"62","v_score":"1.193887297","decile":"4","lat":40.21134962041967,"lng":-111.6691985841453,"phone":"(222) 351-9419","sd":"25","ssbd":"13","lsbd":"School Board Provo 5"},{"vid":"2805355","name":"Mr. Little Lindgren II","party":"Rep","address":"1772 S 730 W, Provo, UT 84601","precinct":"25PR65","hd":"62","v_score":"2.876042565","decile":"6","lat":40.21026958431335,"lng":-111.67181279606744,"phone":"(306) 033-6091","sd":"25","ssbd":"13","lsbd":"School Board Provo 5"},{"vid":"2808334","name":"Mathilde Smitham","party":"","address":"629 W 1920 S, Unit 1131, Provo, UT 84601","precinct":"25PR65","hd":"62","v_score":"0","decile":"2","lat":40.207317478268706,"lng":-111.66953191517057,"phone":"(687) 289-5398","sd":"25","ssbd":"13","lsbd":"School Board Provo 5"},{"vid":"2808924","name":"Benton Rogahn","party":"","address":"1598 S 730 W, Provo, UT 84601","precinct":"25PR65","hd":"62","v_score":"8.284004873","decile":"8","lat":40.21249696987263,"lng":-111.67181756360633,"phone":"(704) 491-7218","sd":"25","ssbd":"13","lsbd":"School Board Provo 5"},{"vid":"2816341","name":"Ignatius Kunde","party":"Rep","address":"712 W 1870 S, Unit 1028, Provo, UT 84601","precinct":"25PR65","hd":"62","v_score":"0","decile":"2","lat":40.20889022819022,"lng":-111.6711451471277,"phone":"(745) 078-0468","sd":"25","ssbd":"13","lsbd":"School Board Provo 5"},{"vid":"2826117","name":"Mrs. Milissa Tremblay PhD","party":"Rep","address":"638 W 1920 S, Unit 1051, Provo, UT 84601","precinct":"25PR65","hd":"62","v_score":"1.193887297","decile":"4","lat":40.20784013233657,"lng":-111.66968422219138,"phone":"(463) 416-7569","sd":"25","ssbd":"13","lsbd":"School Board Provo 5"},{"vid":"2860478","name":"Idabelle Pollich DVM","party":"Dem","address":"658 W 1920 S, Unit 1060, Provo, UT 84601","precinct":"25PR65","hd":"62","v_score":"5.407962308","decile":"7","lat":40.20797871078788,"lng":-111.67027184309705,"phone":"(848) 673-2077","sd":"25","ssbd":"13","lsbd":"School Board Provo 5"},{"vid":"2861695","name":"Terence Hansen","party":"","address":"658 W 1920 S, Unit 1059, Provo, UT 84601","precinct":"25PR65","hd":"62","v_score":"2.876042565","decile":"6","lat":40.20797871078788,"lng":-111.67027184309705,"phone":"(174) 208-8953","sd":"25","ssbd":"13","lsbd":"School Board Provo 5"},{"vid":"2862350","name":"Miss Kala Collins","party":"Dem","address":"387 W Lakewood Dr, Provo, UT 84601","precinct":"25PR65","hd":"62","v_score":"4.069929862","decile":"7","lat":40.210133538006886,"lng":-111.66476153689973,"phone":"(270) 015-1944","sd":"25","ssbd":"13","lsbd":"School Board Provo 5"},{"vid":"2872514","name":"Marjorie Mayer","party":"","address":"694 W 1870 S, Unit 1032, Provo, UT 84601","precinct":"25PR65","hd":"62","v_score":"1.193887297","decile":"4","lat":40.20882803756791,"lng":-111.67077540217375,"phone":"(341) 174-4516","sd":"25","ssbd":"13","lsbd":"School Board Provo 5"},{"vid":"2887207","name":"Alfonse Conroy","party":"Dem","address":"401 W 1450 S, Provo, UT 84601","precinct":"25PR65","hd":"62","v_score":"1.193887297","decile":"4","lat":40.214340158783855,"lng":-111.66615267552802,"phone":"(393) 303-7517","sd":"25","ssbd":"13","lsbd":"School Board Provo 5"},{"vid":"2887429","name":"Dr. Lacy Beahan III","party":"","address":"371 W 1670 S, Provo, UT 84601","precinct":"25PR65","hd":"62","v_score":"1.193887297","decile":"4","lat":40.21088347342233,"lng":-111.66459716298938,"phone":"(909) 803-7417","sd":"25","ssbd":"13","lsbd":"School Board Provo 5"},{"vid":"2887836","name":"Erastus Stokes","party":"Dem","address":"371 W 1670 S, Provo, UT 84601","precinct":"25PR65","hd":"62","v_score":"1.193887297","decile":"4","lat":40.21088347342233,"lng":-111.66459716298938,"phone":"(786) 689-8895","sd":"25","ssbd":"13","lsbd":"School Board Provo 5"},{"vid":"2888031","name":"Mathilde Block","party":"Dem","address":"510 W 1820 S, Provo, UT 84601","precinct":"25PR65","hd":"62","v_score":"1.193887297","decile":"4","lat":40.209593776095915,"lng":-111.66760791165156,"phone":"(981) 000-2133","sd":"25","ssbd":"13","lsbd":"School Board Provo 5"},{"vid":"2889298","name":"Mr. Nolan Fadel","party":"Rep","address":"637 W 1920 S, Unit 1129, Provo, UT 84601","precinct":"25PR65","hd":"62","v_score":"1.193887297","decile":"4","lat":40.20756547003355,"lng":-111.66980764388423,"phone":"(350) 882-4949","sd":"25","ssbd":"13","lsbd":"School Board Provo 5"},{"vid":"2891929","name":"Dr. Drusilla Wyman","party":"Dem","address":"1711 S 570 W, Provo, UT 84601","precinct":"25PR65","hd":"62","v_score":"0","decile":"2","lat":40.2109749694565,"lng":-111.66840370967576,"phone":"(239) 107-1231","sd":"25","ssbd":"13","lsbd":"School Board Provo 5"},{"vid":"2895247","name":"Etha Kohler","party":"Rep","address":"476 W 1450 S, Provo, UT 84601","precinct":"25PR65","hd":"62","v_score":"2.876042565","decile":"6","lat":40.214636067532545,"lng":-111.66699075496597,"phone":"(166) 687-2360","sd":"25","ssbd":"13","lsbd":"School Board Provo 5"},{"vid":"2895636","name":"Adria Langosh DDS","party":"","address":"1727 S 450 W, Provo, UT 84601","precinct":"25PR65","hd":"62","v_score":"0","decile":"2","lat":40.21063897727977,"lng":-111.66620639025697,"phone":"(967) 592-2991","sd":"25","ssbd":"13","lsbd":"School Board Provo 5"},{"vid":"2898241","name":"Dr. Lucio Pouros","party":"Dem","address":"1465 S 500 W, Provo, UT 84601","precinct":"25PR65","hd":"62","v_score":"0","decile":"2","lat":40.214212032163786,"lng":-111.66727452490031,"phone":"(507) 249-1052","sd":"25","ssbd":"13","lsbd":"School Board Provo 5"},{"vid":"2900253","name":"Fannye Koss-Mosciski","party":"","address":"691 W 1820 S, Provo, UT 84601","precinct":"25PR65","hd":"62","v_score":"0","decile":"2","lat":40.20920014590281,"lng":-111.67081676617897,"phone":"(649) 257-9359","sd":"25","ssbd":"13","lsbd":"School Board Provo 5"},{"vid":"2902744","name":"Miss Kerri Dickinson","party":"Dem","address":"514 W 1670 S, Provo, UT 84601","precinct":"25PR65","hd":"62","v_score":"0","decile":"2","lat":40.21165428110398,"lng":-111.66758426781874,"phone":"(333) 690-6065","sd":"25","ssbd":"13","lsbd":"School Board Provo 5"},{"vid":"2912225","name":"Toshio Bogisich","party":"Dem","address":"426 W 1570 S, Provo, UT 84601","precinct":"25PR65","hd":"62","v_score":"0","decile":"2","lat":40.213052960532885,"lng":-111.66614145661467,"phone":"(759) 493-3101","sd":"25","ssbd":"13","lsbd":"School Board Provo 5"},{"vid":"2913284","name":"Ivanna Kertzmann-Zboncak","party":"Rep","address":"616 W 1870 S, Unit 1083, Provo, UT 84601","precinct":"25PR65","hd":"62","v_score":"0","decile":"2","lat":40.20890720808158,"lng":-111.66932606730118,"phone":"(456) 367-7782","sd":"25","ssbd":"13","lsbd":"School Board Provo 5"},{"vid":"2915889","name":"Lexie Macejkovic","party":"Rep","address":"399 W 1500 S, Provo, UT 84601","precinct":"25PR65","hd":"62","v_score":"0","decile":"2","lat":40.21329224768962,"lng":-111.6655119846372,"phone":"(620) 471-9005","sd":"25","ssbd":"13","lsbd":"School Board Provo 5"},{"vid":"2915893","name":"Amparo Jerde-Fritsch","party":"Rep","address":"399 W 1500 S, Provo, UT 84601","precinct":"25PR65","hd":"62","v_score":"0","decile":"2","lat":40.21329224768962,"lng":-111.6655119846372,"phone":"(473) 777-7842","sd":"25","ssbd":"13","lsbd":"School Board Provo 5"},{"vid":"2915973","name":"Kacy Grimes","party":"Dem","address":"1677 S 400 W, Provo, UT 84601","precinct":"25PR65","hd":"62","v_score":"0","decile":"2","lat":40.21093593432608,"lng":-111.66536094523936,"phone":"(457) 422-6851","sd":"25","ssbd":"13","lsbd":"School Board Provo 5"},{"vid":"2916246","name":"Mauricio Eichmann","party":"","address":"1691 S 500 W, Provo, UT 84601","precinct":"25PR65","hd":"62","v_score":"0","decile":"2","lat":40.211082948115,"lng":-111.66713009606327,"phone":"(137) 115-3537","sd":"25","ssbd":"13","lsbd":"School Board Provo 5"},{"vid":"2916996","name":"Fannie Keebler","party":"","address":"678 W 1870 S, Unit 1040, Provo, UT 84601","precinct":"25PR65","hd":"62","v_score":"0","decile":"2","lat":40.208896186993364,"lng":-111.67054744532788,"phone":"(182) 309-9973","sd":"25","ssbd":"13","lsbd":"School Board Provo 5"},{"vid":"2919888","name":"Dena Ebert","party":"Dem","address":"1752 S 570 W, Provo, UT 84601","precinct":"25PR65","hd":"62","v_score":"0","decile":"2","lat":40.210354236128445,"lng":-111.66883968580939,"phone":"(851) 443-2383","sd":"25","ssbd":"13","lsbd":"School Board Provo 5"},{"vid":"2922003","name":"Link Cormier IV","party":"","address":"412 W 1570 S, Provo, UT 84601","precinct":"25PR65","hd":"62","v_score":"0","decile":"2","lat":40.213051786653914,"lng":-111.6658479159259,"phone":"(420) 574-5308","sd":"25","ssbd":"13","lsbd":"School Board Provo 5"},{"vid":"2927144","name":"Herma Klein","party":"Rep","address":"1864 S 730 W, Unit 1006, Provo, UT 84601","precinct":"25PR65","hd":"62","v_score":"0","decile":"2","lat":40.208542700046195,"lng":-111.67188802332494,"phone":"(981) 903-7831","sd":"25","ssbd":"13","lsbd":"School Board Provo 5"},{"vid":"2927152","name":"Jann Satterfield","party":"","address":"1864 S 730 W, Provo, UT 84601","precinct":"25PR65","hd":"62","v_score":"0","decile":"2","lat":40.208542700046195,"lng":-111.67188802332494,"phone":"(905) 967-1505","sd":"25","ssbd":"13","lsbd":"School Board Provo 5"},{"vid":"2927233","name":"Finnegan Morar","party":"","address":"616 W 1870 S, Unit 1083, Provo, UT 84601","precinct":"25PR65","hd":"62","v_score":"0","decile":"2","lat":40.20890720808158,"lng":-111.66932606730118,"phone":"(637) 456-0965","sd":"25","ssbd":"13","lsbd":"School Board Provo 5"},{"vid":"2930834","name":"Shelli Shields","party":"Dem","address":"686 W 1920 S, Unit 1020, Provo, UT 84601","precinct":"25PR65","hd":"62","v_score":"0","decile":"2","lat":40.20808790553535,"lng":-111.67058391710809,"phone":"(540) 506-0413","sd":"25","ssbd":"13","lsbd":"School Board Provo 5"},{"vid":"2940270","name":"Hosie Jakubowski-Schuppe","party":"Rep","address":"1690 S 730 W, Provo, UT 84601","precinct":"25PR65","hd":"62","v_score":"4.214075011","decile":"7","lat":40.21143330817431,"lng":-111.6716411540348,"phone":"(908) 006-7447","sd":"25","ssbd":"13","lsbd":"School Board Provo 5"},{"vid":"2944528","name":"Hal Koss","party":"","address":"691 W 1660 S, Provo, UT 84601","precinct":"25PR65","hd":"62","v_score":"0","decile":"2","lat":40.211358199719946,"lng":-111.67084519660004,"phone":"(552) 887-4898","sd":"25","ssbd":"13","lsbd":"School Board Provo 5"},{"vid":"2945314","name":"Vina Roob DDS","party":"","address":"1906 S 570 W, Unit 1116, Provo, UT 84601","precinct":"25PR65","hd":"62","v_score":"0","decile":"2","lat":40.20792397476622,"lng":-111.66877835998088,"phone":"(842) 130-4016","sd":"25","ssbd":"13","lsbd":"School Board Provo 5"},{"vid":"2953367","name":"Teressa Pacocha PhD","party":"Rep","address":"552 W 1890 S, Unit 1164, Provo, UT 84601","precinct":"25PR65","hd":"62","v_score":"2.876042565","decile":"6","lat":40.20824379695616,"lng":-111.66817459095968,"phone":"(555) 015-9089","sd":"25","ssbd":"13","lsbd":"School Board Provo 5"},{"vid":"2964269","name":"Cydney Schowalter","party":"","address":"552 W 1890 S, Unit 1164, Provo, UT 84601","precinct":"25PR65","hd":"62","v_score":"0","decile":"2","lat":40.20824379695616,"lng":-111.66817459095968,"phone":"(610) 726-3695","sd":"25","ssbd":"13","lsbd":"School Board Provo 5"},{"vid":"2965802","name":"Ashlynn Kuhlman","party":"Dem","address":"1895 S 530 W, Unit 1193, Provo, UT 84601","precinct":"25PR65","hd":"62","v_score":"0","decile":"2","lat":40.208178343039016,"lng":-111.66748146777476,"phone":"(734) 101-7406","sd":"25","ssbd":"13","lsbd":"School Board Provo 5"},{"vid":"2966099","name":"Dakotah Hessel","party":"Rep","address":"584 W 1890 S, Unit 1157, Provo, UT 84601","precinct":"25PR65","hd":"62","v_score":"0","decile":"2","lat":40.208263659363205,"lng":-111.66900610266836,"phone":"(177) 078-4653","sd":"25","ssbd":"13","lsbd":"School Board Provo 5"},{"vid":"2968659","name":"Dylan Konopelski","party":"","address":"678 W 1870 S, Unit 1037, Provo, UT 84601","precinct":"25PR65","hd":"62","v_score":"0","decile":"2","lat":40.208896186993364,"lng":-111.67054744532788,"phone":"(916) 309-7417","sd":"25","ssbd":"13","lsbd":"School Board Provo 5"},{"vid":"2984881","name":"Drew Veum-McClure","party":"","address":"686 W 1920 S, Unit 1022, Provo, UT 84601","precinct":"25PR65","hd":"62","v_score":"0","decile":"2","lat":40.20808790553535,"lng":-111.67058391710809,"phone":"(695) 511-0717","sd":"25","ssbd":"13","lsbd":"School Board Provo 5"},{"vid":"2986186","name":"Brayden Mitchell-Kuphal","party":"Dem","address":"584 W 1890 S, Unit 1156, Provo, UT 84601","precinct":"25PR65","hd":"62","v_score":"0","decile":"2","lat":40.208263659363205,"lng":-111.66900610266836,"phone":"(315) 339-5739","sd":"25","ssbd":"13","lsbd":"School Board Provo 5"},{"vid":"3163345","name":"Columbia Hoeger MD","party":"Dem","address":"621 W 1660 S, Provo, UT 84601","precinct":"25PR65","hd":"62","v_score":"27.77230001","decile":"10","lat":40.21135133929831,"lng":-111.66952792018282,"phone":"(663) 513-4923","sd":"25","ssbd":"13","lsbd":"School Board Provo 5"},{"vid":"3266741","name":"Lorine Zieme","party":"Rep","address":"1786 S 730 W, Provo, UT 84601","precinct":"25PR65","hd":"62","v_score":"8.964340683","decile":"8","lat":40.21000135433913,"lng":-111.67176089677025,"phone":"(865) 644-2215","sd":"25","ssbd":"13","lsbd":"School Board Provo 5"},{"vid":"9e6a9068a89db6c716e1932f1c8b34c234655ba1da6fa587c06959f30ee1d4a2","name":"Nell Shanahan","party":"Dem","address":"1735 S 500 W, Provo, UT 84601","precinct":"25PR65","hd":"62","v_score":"0","decile":"2","lat":40.210424013463864,"lng":-111.66705792253875,"phone":"(239) 226-2548","sd":"25","ssbd":"13","lsbd":"School Board Provo 5"},{"vid":"3425094","name":"Toy Bergnaum","party":"Rep","address":"661 W 1920 S, Unit 1068, Provo, UT 84601","precinct":"25PR65","hd":"62","v_score":"17.4504389","decile":"9","lat":40.2075375854004,"lng":-111.67058565750413,"phone":"(354) 241-1101","sd":"25","ssbd":"13","lsbd":"School Board Provo 5"},{"vid":"02603f90b3a64a9936afff39cb64d5b82a664b1484b02bdc5d48794dfc5f08f9","name":"Dena Kautzer DVM","party":"","address":"1578 S 570 W, Provo, UT 84601","precinct":"25PR65","hd":"62","v_score":"3.93832808","decile":"6","lat":40.21276761020241,"lng":-111.66890305314918,"phone":"(611) 122-8699","sd":"25","ssbd":"13","lsbd":"School Board Provo 5"},{"vid":"3576287","name":"Rance Bailey-Crist","party":"","address":"1668 S 400 W, Provo, UT 84601","precinct":"25PR65","hd":"62","v_score":"0","decile":"2","lat":40.21128607882004,"lng":-111.66584998618329,"phone":"(431) 727-1444","sd":"25","ssbd":"13","lsbd":"School Board Provo 5"},{"vid":"4607992","name":"Dr. Monroe Cassin Sr.","party":"","address":"1415 S 500 W, Provo, UT 84601","precinct":"25PR65","hd":"62","v_score":"9.968733675","decile":"9","lat":40.21482543792094,"lng":-111.66682720085817,"phone":"(251) 069-8688","sd":"25","ssbd":"13","lsbd":"School Board Provo 5"},{"vid":"7ec79080316d986222dd8bc6371df18b7e85754b393f32a109833d79e556e5a9","name":"Ova Walsh","party":"Rep","address":"1617 S 680 W, Provo, UT 84601","precinct":"25PR65","hd":"62","v_score":"5.530510904","decile":"7","lat":40.21226745354305,"lng":-111.6702640033199,"phone":"(762) 584-6730","sd":"25","ssbd":"13","lsbd":"School Board Provo 5"},{"vid":"6003958","name":"Shyheim Funk","party":"","address":"1786 S 730 W, Provo, UT 84601","precinct":"25PR65","hd":"62","v_score":"10.04533889","decile":"9","lat":40.21000135433913,"lng":-111.67176089677025,"phone":"(179) 049-7048","sd":"25","ssbd":"13","lsbd":"School Board Provo 5"},{"vid":"6027150","name":"Adeline Mohr","party":"Rep","address":"1616 S 730 W, Provo, UT 84601","precinct":"25PR65","hd":"62","v_score":"4.069929862","decile":"7","lat":40.21226094787829,"lng":-111.6718180097097,"phone":"(512) 269-6615","sd":"25","ssbd":"13","lsbd":"School Board Provo 5"},{"vid":"6041952","name":"Gidget Klein DVM","party":"Dem","address":"1616 S 730 W, Provo, UT 84601","precinct":"25PR65","hd":"62","v_score":"4.069929862","decile":"7","lat":40.21226094787829,"lng":-111.6718180097097,"phone":"(587) 382-5352","sd":"25","ssbd":"13","lsbd":"School Board Provo 5"},{"vid":"6043156","name":"Jovita Stamm-Grady","party":"Dem","address":"1777 S 570 W, Provo, UT 84601","precinct":"25PR65","hd":"62","v_score":"0","decile":"3","lat":40.21014984431994,"lng":-111.6683411014231,"phone":"(568) 927-9406","sd":"25","ssbd":"13","lsbd":"School Board Provo 5"},{"vid":"6068593","name":"Trent Kemmer","party":"Dem","address":"1420 S 400 W, Provo, UT 84601","precinct":"25PR65","hd":"62","v_score":"2.744440783","decile":"6","lat":40.21484608380746,"lng":-111.6665455558101,"phone":"(250) 419-1365","sd":"25","ssbd":"13","lsbd":"School Board Provo 5"},{"vid":"6080905","name":"Kassidy Kautzer","party":"","address":"1813 S 730 W, Provo, UT 84601","precinct":"25PR65","hd":"62","v_score":"33.23358095","decile":"10","lat":40.20955385440414,"lng":-111.67123297145476,"phone":"(939) 169-8392","sd":"25","ssbd":"13","lsbd":"School Board Provo 5"},{"vid":"6146969","name":"Miss Maricela Zboncak MD","party":"","address":"1602 S 300 W, Provo, UT 84601","precinct":"25PR65","hd":"62","v_score":"7.493443096","decile":"8","lat":40.2121730421619,"lng":-111.66385656011725,"phone":"(828) 981-3104","sd":"25","ssbd":"13","lsbd":"School Board Provo 5"},{"vid":"6161457","name":"Zebulon Moen-Wyman","party":"Dem","address":"1596 S 680 W, Provo, UT 84601","precinct":"25PR65","hd":"62","v_score":"11.47267816","decile":"9","lat":40.212490445570666,"lng":-111.6708230012057,"phone":"(309) 162-0427","sd":"25","ssbd":"13","lsbd":"School Board Provo 5"},{"vid":"6165905","name":"Dwane Borer","party":"Dem","address":"1657 S 730 W, Provo, UT 84601","precinct":"25PR65","hd":"62","v_score":"19.1994096","decile":"10","lat":40.211692574559564,"lng":-111.6712246449617,"phone":"(456) 709-9480","sd":"25","ssbd":"13","lsbd":"School Board Provo 5"},{"vid":"6184926","name":"Tanner Boehm","party":"","address":"1602 S 300 W, Provo, UT 84601","precinct":"25PR65","hd":"62","v_score":"7.493443096","decile":"8","lat":40.2121730421619,"lng":-111.66385656011725,"phone":"(880) 642-0668","sd":"25","ssbd":"13","lsbd":"School Board Provo 5"},{"vid":"6201370","name":"Miss Kanesha Stark DDS","party":"Rep","address":"763 W 1560 S, Provo, UT 84601","precinct":"25PR65","hd":"62","v_score":"3.93832808","decile":"6","lat":40.211744154584366,"lng":-111.67220984574118,"phone":"(927) 768-0318","sd":"25","ssbd":"13","lsbd":"School Board Provo 5"},{"vid":"6218889","name":"Marlyn Schaefer","party":"Rep","address":"364 W 1670 S, Provo, UT 84601","precinct":"25PR65","hd":"62","v_score":"11.37977487","decile":"9","lat":40.211435726276754,"lng":-111.6643238396557,"phone":"(969) 080-3592","sd":"25","ssbd":"13","lsbd":"School Board Provo 5"},{"vid":"6218891","name":"Mr. Kelly Crist PhD","party":"Dem","address":"364 W 1670 S, Provo, UT 84601","precinct":"25PR65","hd":"62","v_score":"8.363183621","decile":"8","lat":40.211435726276754,"lng":-111.6643238396557,"phone":"(334) 671-2564","sd":"25","ssbd":"13","lsbd":"School Board Provo 5"},{"vid":"6219289","name":"Destry Welch MD","party":"Dem","address":"484 W 1570 S, Provo, UT 84601","precinct":"25PR65","hd":"62","v_score":"26.35608728","decile":"10","lat":40.21299328265556,"lng":-111.66713161384693,"phone":"(183) 791-6269","sd":"25","ssbd":"13","lsbd":"School Board Provo 5"},{"vid":"6232040","name":"Clyde Jenkins","party":"Dem","address":"1701 S 300 W, Provo, UT 84601","precinct":"25PR65","hd":"62","v_score":"19.18667211","decile":"10","lat":40.21103388181841,"lng":-111.66243413583787,"phone":"(867) 411-2395","sd":"25","ssbd":"13","lsbd":"School Board Provo 5"},{"vid":"6244402","name":"Miss Alba Lemke","party":"Rep","address":"712 W 1720 S, Provo, UT 84601","precinct":"25PR65","hd":"62","v_score":"1.193887297","decile":"4","lat":40.21099592827049,"lng":-111.67124161140275,"phone":"(795) 839-2032","sd":"25","ssbd":"13","lsbd":"School Board Provo 5"},{"vid":"6244617","name":"Huldah Vandervort-Durgan","party":"Dem","address":"437 W 1450 S, Provo, UT 84601","precinct":"25PR65","hd":"62","v_score":"2.744440783","decile":"6","lat":40.21416627803,"lng":-111.66640748909278,"phone":"(562) 876-0539","sd":"25","ssbd":"13","lsbd":"School Board Provo 5"},{"vid":"6256744","name":"Dove Ruecker-Baumbach","party":"Dem","address":"1578 S 570 W, Provo, UT 84601","precinct":"25PR65","hd":"62","v_score":"2.958579882","decile":"6","lat":40.21276761020241,"lng":-111.66890305314918,"phone":"(702) 400-2108","sd":"25","ssbd":"13","lsbd":"School Board Provo 5"},{"vid":"6264255","name":"Mr. Skylar Bernhard","party":"","address":"1649 S 450 W, Provo, UT 84601","precinct":"25PR65","hd":"62","v_score":"11.02844566","decile":"9","lat":40.21173672633914,"lng":-111.66620905106684,"phone":"(126) 943-6297","sd":"25","ssbd":"13","lsbd":"School Board Provo 5"},{"vid":"6269564","name":"Sonny Reinger","party":"Rep","address":"1792 S 570 W, Provo, UT 84601","precinct":"25PR65","hd":"62","v_score":"12.66004699","decile":"9","lat":40.209904682963604,"lng":-111.6688425880864,"phone":"(202) 256-6869","sd":"25","ssbd":"13","lsbd":"School Board Provo 5"},{"vid":"6273069","name":"Nikolas Lowe","party":"Dem","address":"1599 S 570 W, Provo, UT 84601","precinct":"25PR65","hd":"62","v_score":"5.191257514","decile":"7","lat":40.212535057489276,"lng":-111.66827354955102,"phone":"(535) 741-4785","sd":"25","ssbd":"13","lsbd":"School Board Provo 5"},{"vid":"6273807","name":"Miss Kelsie Cole PhD","party":"","address":"1792 S 570 W, Provo, UT 84601","precinct":"25PR65","hd":"62","v_score":"12.66004699","decile":"9","lat":40.209904682963604,"lng":-111.6688425880864,"phone":"(271) 823-4571","sd":"25","ssbd":"13","lsbd":"School Board Provo 5"},{"vid":"6278090","name":"Euna Walsh","party":"","address":"1911 S 610 W, Unit 1112, Provo, UT 84601","precinct":"25PR65","hd":"62","v_score":"5.40460374","decile":"7","lat":40.20772817267719,"lng":-111.6690383947672,"phone":"(343) 300-4273","sd":"25","ssbd":"13","lsbd":"School Board Provo 5"},{"vid":"6301404","name":"Jocelynn Zieme MD","party":"","address":"1645 S 500 W, Provo, UT 84601","precinct":"25PR65","hd":"62","v_score":"0","decile":"3","lat":40.21174158178661,"lng":-111.66712721175257,"phone":"(921) 485-2021","sd":"25","ssbd":"13","lsbd":"School Board Provo 5"},{"vid":"6302004","name":"Mr. Alfonso King","party":"Rep","address":"588 W 1720 S, Provo, UT 84601","precinct":"25PR65","hd":"62","v_score":"5.40460374","decile":"7","lat":40.210961907217346,"lng":-111.66874522840743,"phone":"(309) 875-0988","sd":"25","ssbd":"13","lsbd":"School Board Provo 5"},{"vid":"6304035","name":"Samatha Kunze-Kunde","party":"","address":"1649 S 450 W, Provo, UT 84601","precinct":"25PR65","hd":"62","v_score":"8.280646305","decile":"8","lat":40.21173672633914,"lng":-111.66620905106684,"phone":"(419) 080-0156","sd":"25","ssbd":"13","lsbd":"School Board Provo 5"},{"vid":"6318893","name":"Hailey Hammes","party":"","address":"336 W 1570 S, Provo, UT 84601","precinct":"25PR65","hd":"62","v_score":"3.93832808","decile":"6","lat":40.212960734335056,"lng":-111.66446964174791,"phone":"(962) 446-1339","sd":"25","ssbd":"13","lsbd":"School Board Provo 5"},{"vid":"6340643","name":"Watson Swift","party":"Dem","address":"433 W 1500 S, Provo, UT 84601","precinct":"25PR65","hd":"62","v_score":"38.24567755","decile":"10","lat":40.213328347784085,"lng":-111.66637440755447,"phone":"(126) 328-7876","sd":"25","ssbd":"13","lsbd":"School Board Provo 5"},{"vid":"6348983","name":"Dr. Elgin Sauer","party":"Rep","address":"1348 S 400 W, Provo, UT 84601","precinct":"25PR65","hd":"62","v_score":"30.57016229","decile":"10","lat":40.21581016535939,"lng":-111.66676634705584,"phone":"(248) 427-2940","sd":"25","ssbd":"13","lsbd":"School Board Provo 5"},{"vid":"6349403","name":"Dr. Laron Toy II","party":"","address":"815 W 1560 S, Provo, UT 84601","precinct":"25PR65","hd":"62","v_score":"38.49335091","decile":"10","lat":40.21143199167309,"lng":-111.67307522368904,"phone":"(156) 869-1171","sd":"25","ssbd":"13","lsbd":"School Board Provo 5"},{"vid":"6352085","name":"Hezzie Kling","party":"","address":"1612 S 620 W, Provo, UT 84601","precinct":"25PR65","hd":"62","v_score":"35.28709767","decile":"10","lat":40.2122679480158,"lng":-111.66990602970972,"phone":"(207) 406-8424","sd":"25","ssbd":"13","lsbd":"School Board Provo 5"},{"vid":"6353279","name":"Ivette Cartwright DVM","party":"Dem","address":"1435 S 500 W, Provo, UT 84601","precinct":"25PR65","hd":"62","v_score":"2.315214949","decile":"5","lat":40.2145000396591,"lng":-111.6672645909205,"phone":"(829) 453-8490","sd":"25","ssbd":"13","lsbd":"School Board Provo 5"},{"vid":"6373736","name":"Rae Wehner","party":"","address":"1635 S 680 W, Provo, UT 84601","precinct":"25PR65","hd":"62","v_score":"0","decile":"3","lat":40.2120204544853,"lng":-111.67026339048921,"phone":"(866) 651-8396","sd":"25","ssbd":"13","lsbd":"School Board Provo 5"},