[{"vid":"1281918","name":"Verlin Mayert DVM","party":"","address":"466 S 500 E, Provo, UT 84606","precinct":"25PR52","hd":"62","v_score":"0","decile":"1","lat":40.22758457000365,"lng":-111.65029568650351},{"vid":"e83fa6082fc4787d401fe3d13dc7488866a223da7656fd86e65ded54f13ba616","name":"Darline Heidenreich","party":"Dem","address":"454 S 300 E, Provo, UT 84606","precinct":"25PR52","hd":"62","v_score":"11.2235539","decile":"9","lat":40.227626077246555,"lng":-111.65380562260918},{"vid":"1346176","name":"Miss Fronie Smitham PhD","party":"Rep","address":"590 E 400 S, Provo, UT 84606","precinct":"25PR52","hd":"62","v_score":"43.09903656","decile":"10","lat":40.22811894673796,"lng":-111.64858454985851},{"vid":"1351050","name":"Romeo Okuneva","party":"Dem","address":"754 E 500 S, Provo, UT 84606","precinct":"25PR52","hd":"62","v_score":"1.121327652","decile":"3","lat":40.22666173373976,"lng":-111.64562718473175},{"vid":"1353820","name":"Theo Durgan DDS","party":"","address":"420 E 400 S, Provo, UT 84606","precinct":"25PR52","hd":"62","v_score":"1.46627566","decile":"4","lat":40.22807578430335,"lng":-111.65131576554978},{"vid":"9de3a3d63bf966090ad93ee435be23f1ed58d2c26b017b4ecffe6b2e9fbc48fc","name":"Sharyl Becker","party":"Rep","address":"444 E 400 S, Provo, UT 84606","precinct":"25PR52","hd":"62","v_score":"19.6135545","decile":"10","lat":40.22810308272963,"lng":-111.65095557004662},{"vid":"1385189","name":"Gauge Lebsack","party":"Dem","address":"216 E 400 S, Provo, UT 84606","precinct":"25PR52","hd":"62","v_score":"5.40460374","decile":"7","lat":40.22808631408762,"lng":-111.65479065352532},{"vid":"0e1b3684e389e648f8fd24e40a4f68d4b9cd27e8901cefa98b6ef4995a3ebe66","name":"Deangelo Schuster","party":"Dem","address":"454 S 300 E, Provo, UT 84606","precinct":"25PR52","hd":"62","v_score":"0","decile":"1","lat":40.227626077246555,"lng":-111.65380562260918},{"vid":"f8e872796ce1a02a186184a0d2d03946bd55a6c5e53a8d078f6a70f49e46ff9d","name":"Dillon Gibson III","party":"Dem","address":"490 S State St, Unit B303, Provo, UT 84606","precinct":"25PR52","hd":"62","v_score":"5.191257514","decile":"7","lat":40.22737035087505,"lng":-111.64531805797576},{"vid":"37a782b69ab3f5860aacc13463c6e6b5b9ced05685c24e71c730cea9b93d637a","name":"Besse Bernhard","party":"Dem","address":"693 E 500 S, Provo, UT 84606","precinct":"25PR52","hd":"62","v_score":"5.40460374","decile":"7","lat":40.22733426898076,"lng":-111.64679266131698},{"vid":"1461594","name":"Shaina Gutkowski DDS","party":"","address":"440 S 600 E, Provo, UT 84606","precinct":"25PR52","hd":"62","v_score":"6.724398202","decile":"8","lat":40.227854711540694,"lng":-111.64853852539358},{"vid":"1496349","name":"Manson Ernser","party":"","address":"662 E 400 S, Provo, UT 84606","precinct":"25PR52","hd":"62","v_score":"1.121327652","decile":"3","lat":40.227937370915726,"lng":-111.64720031748912},{"vid":"dbdea55b2839f7606ee9d5383f145818fe597705b6247d8307a95fc5ff624e1f","name":"Richmond O'Keefe III","party":"","address":"700 E 400 S, Provo, UT 84606","precinct":"25PR52","hd":"62","v_score":"30.29823163","decile":"10","lat":40.227875050076264,"lng":-111.64657880622451},{"vid":"ae68e64158d936882716820d98b9a440a9e83eec8013847f8ba0391ead8676e3","name":"Ms. Bird Ondricka","party":"Rep","address":"506 S 300 E, Provo, UT 84606","precinct":"25PR52","hd":"62","v_score":"6.74007049","decile":"8","lat":40.22681587766469,"lng":-111.65376098747868},{"vid":"1602688","name":"Ursula Eichmann","party":"","address":"562 E 400 S, Provo, UT 84606","precinct":"25PR52","hd":"62","v_score":"1.193887297","decile":"3","lat":40.2280092583602,"lng":-111.64900387427032},{"vid":"1603869","name":"Dr. Brock Hegmann DVM","party":"","address":"444 E 400 S, Provo, UT 84606","precinct":"25PR52","hd":"62","v_score":"11.16899434","decile":"9","lat":40.22810308272963,"lng":-111.65095557004662},{"vid":"1627250","name":"Osvaldo Johnson","party":"Dem","address":"216 E 400 S, Provo, UT 84606","precinct":"25PR52","hd":"62","v_score":"5.40460374","decile":"7","lat":40.22808631408762,"lng":-111.65479065352532},{"vid":"1629123","name":"Damarcus Zulauf","party":"Rep","address":"238 E 500 S, Provo, UT 84606","precinct":"25PR52","hd":"62","v_score":"8.601979876","decile":"8","lat":40.226816764205026,"lng":-111.6545948843941},{"vid":"1638198","name":"Ermina Kutch","party":"Dem","address":"490 S State St, Unit A104, Provo, UT 84606","precinct":"25PR52","hd":"62","v_score":"5.40460374","decile":"7","lat":40.22737035087505,"lng":-111.64531805797576},{"vid":"1705181","name":"Bret Nader-Hahn","party":"","address":"456 S 600 E, Provo, UT 84606","precinct":"25PR52","hd":"62","v_score":"6.881235673","decile":"8","lat":40.227650911850716,"lng":-111.64861383742637},{"vid":"846ea4eafe15f846010ab8d21d55d705706a765f259ead74a3b7d3f4fa3dc3be","name":"Miss Leisa Gottlieb DDS","party":"Dem","address":"626 E 500 S, Provo, UT 84606","precinct":"25PR52","hd":"62","v_score":"2.315214949","decile":"5","lat":40.22680081882325,"lng":-111.64782326394715},{"vid":"1756805","name":"Dr. Dwyane Franecki V","party":"Dem","address":"489 S 500 E, Apt 1, Provo, UT 84606","precinct":"25PR52","hd":"62","v_score":"0","decile":"1","lat":40.22730361120983,"lng":-111.64974893427203},{"vid":"1760190","name":"Reyes Renner","party":"Dem","address":"662 E 400 S, Provo, UT 84606","precinct":"25PR52","hd":"62","v_score":"5.546183193","decile":"7","lat":40.227937370915726,"lng":-111.64720031748912},{"vid":"1781258","name":"Hernan Metz","party":"Dem","address":"655 E 600 S, Apt 2, Provo, UT 84606","precinct":"25PR52","hd":"62","v_score":"0","decile":"1","lat":40.226203858732426,"lng":-111.64695643982397},{"vid":"1785410","name":"Dr. Killian Brown","party":"Dem","address":"460 S 400 E, Provo, UT 84606","precinct":"25PR52","hd":"62","v_score":"13.45445245","decile":"9","lat":40.227620901410766,"lng":-111.65218517753964},{"vid":"1796063","name":"Cleta Fay-Larson","party":"Dem","address":"440 S 600 E, Provo, UT 84606","precinct":"25PR52","hd":"62","v_score":"10.93847321","decile":"9","lat":40.227854711540694,"lng":-111.64853852539358},{"vid":"1813321","name":"Demonte Luettgen","party":"Rep","address":"238 E 500 S, Provo, UT 84606","precinct":"25PR52","hd":"62","v_score":"11.2235539","decile":"9","lat":40.226816764205026,"lng":-111.6545948843941},{"vid":"21704248e985c51cb4288c179e706e83158140b00033b69ce48a2d3f7cc228f2","name":"Mr. Aydin Harber","party":"Dem","address":"788 E 500 S, Provo, UT 84606","precinct":"25PR52","hd":"62","v_score":"7.324882226","decile":"8","lat":40.226714504317755,"lng":-111.6451265644037},{"vid":"1860951","name":"Natosha Buckridge","party":"Dem","address":"460 S 400 E, Provo, UT 84606","precinct":"25PR52","hd":"62","v_score":"3.781490609","decile":"6","lat":40.227620901410766,"lng":-111.65218517753964},{"vid":"d19b588cafc74037e730ecbdde331aca621c08a10a76120f3533c447519f146f","name":"Coolidge Hartmann","party":"","address":"506 S 300 E, Provo, UT 84606","precinct":"25PR52","hd":"62","v_score":"6.74007049","decile":"8","lat":40.22681587766469,"lng":-111.65376098747868},{"vid":"1922996","name":"Florie Gibson","party":"","address":"429 S 600 E, Provo, UT 84606","precinct":"25PR52","hd":"62","v_score":"4.152467179","decile":"7","lat":40.22797402410425,"lng":-111.64805162952644},{"vid":"1923613","name":"Gerhard Eichmann","party":"Rep","address":"429 S 600 E, Provo, UT 84606","precinct":"25PR52","hd":"62","v_score":"6.74007049","decile":"8","lat":40.22797402410425,"lng":-111.64805162952644},{"vid":"1929684","name":"Nevada Wiegand","party":"Rep","address":"673 E 500 S, Provo, UT 84606","precinct":"25PR52","hd":"62","v_score":"2.315214949","decile":"5","lat":40.22744535265119,"lng":-111.64701336893812},{"vid":"1938163","name":"Dr. Jared Jones","party":"Rep","address":"490 S State St, Unit A103, Provo, UT 84606","precinct":"25PR52","hd":"62","v_score":"1.121327652","decile":"3","lat":40.22737035087505,"lng":-111.64531805797576},{"vid":"1987000","name":"Alberta Harvey","party":"","address":"525 S 300 E, Provo, UT 84606","precinct":"25PR52","hd":"62","v_score":"0","decile":"1","lat":39.96710837995527,"lng":-111.77878999931463},{"vid":"1993687","name":"Demarcus Mayert-Baumbach","party":"Dem","address":"490 S State St, Unit A107, Provo, UT 84606","precinct":"25PR52","hd":"62","v_score":"1.121327652","decile":"3","lat":40.22737035087505,"lng":-111.64531805797576},{"vid":"2003420","name":"Kristofer Cronin","party":"Dem","address":"460 S 500 E, Provo, UT 84606","precinct":"25PR52","hd":"62","v_score":"6.724398202","decile":"8","lat":40.16008317002357,"lng":-111.60158518276535},{"vid":"2013655","name":"Gilbert Ratke MD","party":"Rep","address":"662 E 400 S, Provo, UT 84606","precinct":"25PR52","hd":"62","v_score":"5.546183193","decile":"7","lat":40.227937370915726,"lng":-111.64720031748912},{"vid":"2052777","name":"Nels Heidenreich-Schmitt","party":"","address":"490 S State St, Unit A202, Provo, UT 84606","precinct":"25PR52","hd":"62","v_score":"2.587603312","decile":"5","lat":40.22737035087505,"lng":-111.64531805797576},{"vid":"2084116","name":"Wash Fritsch","party":"","address":"440 S 600 E, Provo, UT 84606","precinct":"25PR52","hd":"62","v_score":"13.81451578","decile":"9","lat":40.227854711540694,"lng":-111.64853852539358},{"vid":"27db6b015a38a38d9610d2bba711194251431eb49ca85e1dcf74d6ea26ff347f","name":"Devonte Aufderhar","party":"Rep","address":"490 S State St, Unit B308, Provo, UT 84606","precinct":"25PR52","hd":"62","v_score":"6.814370645","decile":"8","lat":40.22737035087505,"lng":-111.64531805797576},{"vid":"c7df29d8d6c27da9d3587f1a54708c6145943e1d1b27af1411def1d5d22d5fc8","name":"Kenisha Olson-Rempel","party":"Dem","address":"490 S State St, Unit B203, Provo, UT 84606","precinct":"25PR52","hd":"62","v_score":"1.193887297","decile":"3","lat":40.22737035087505,"lng":-111.64531805797576},{"vid":"2114135","name":"Dr. Jazlynn Moen DDS","party":"Rep","address":"472 S 450 E, Provo, UT 84606","precinct":"25PR52","hd":"62","v_score":"4.283276088","decile":"7","lat":40.22753098874379,"lng":-111.65084545651072},{"vid":"2114568","name":"Rock Gleichner","party":"","address":"483 S 450 E, Provo, UT 84606","precinct":"25PR52","hd":"62","v_score":"1.121327652","decile":"3","lat":40.227482886431744,"lng":-111.65066553180286},{"vid":"2127463","name":"Lucious Heller","party":"","address":"760 E 500 S, Provo, UT 84606","precinct":"25PR52","hd":"62","v_score":"3.781490609","decile":"6","lat":40.226707784817435,"lng":-111.64543934071764},{"vid":"2135135","name":"Mrs. Sarina Schinner DVM","party":"Dem","address":"673 E 500 S, Provo, UT 84606","precinct":"25PR52","hd":"62","v_score":"1.46627566","decile":"4","lat":40.22744535265119,"lng":-111.64701336893812},{"vid":"c5772b7761129054f2007f7dbfbc35d357fcb99e84bcdb0ffb5b7df505f1fc53","name":"Erving Block II","party":"","address":"490 S State St, Unit A205, Provo, UT 84606","precinct":"25PR52","hd":"62","v_score":"12.3551312","decile":"9","lat":40.22737035087505,"lng":-111.64531805797576},{"vid":"2173263","name":"Chip Marks","party":"Rep","address":"472 S 300 E, Provo, UT 84606","precinct":"25PR52","hd":"62","v_score":"5.258122542","decile":"7","lat":40.22741096572943,"lng":-111.65371575568714},{"vid":"2175156","name":"Ruby Deckow","party":"","address":"555 S 700 E, Provo, UT 84606","precinct":"25PR52","hd":"62","v_score":"1.121327652","decile":"3","lat":40.226444278536164,"lng":-111.64612243223608},{"vid":"2192162","name":"Sheron Sporer","party":"Dem","address":"408 S 500 E, Provo, UT 84606","precinct":"25PR52","hd":"62","v_score":"2.315214949","decile":"5","lat":40.22811142576121,"lng":-111.6502869308041},{"vid":"cdbd30937b27d6f8d75eaad20ad4ca75aaf961f29f1a8185e46a54bed4008358","name":"Hilmer Buckridge","party":"","address":"626 E 400 S, Provo, UT 84606","precinct":"25PR52","hd":"62","v_score":"1.193887297","decile":"3","lat":40.22787806010401,"lng":-111.64768145161015},{"vid":"2262304","name":"Caren Robel DDS","party":"","address":"264 E 400 S, Provo, UT 84606","precinct":"25PR52","hd":"62","v_score":"0","decile":"1","lat":40.22802809224062,"lng":-111.65411319462336},{"vid":"280c8fd9bff34122da362e35cab1f74384068cb61d31ab6a7c1dec8ad4369adf","name":"Gilmer Veum","party":"Rep","address":"540 S 700 E, Provo, UT 84606","precinct":"25PR52","hd":"62","v_score":"1.121327652","decile":"3","lat":40.22647009003738,"lng":-111.64652991366343},{"vid":"b2edcff3571ce9d5af957f7ccf01eb0c9b71f948ff57a65966250026c5a1774e","name":"Velva Glover","party":"Dem","address":"541 E 500 S, Provo, UT 84606","precinct":"25PR52","hd":"62","v_score":"1.121327652","decile":"3","lat":40.22727799005908,"lng":-111.64924424008416},{"vid":"3384b32459a5dae043683cecd8ae008be7537be3adca5abacbee054153263ba3","name":"Dr. Brittany Bechtelar V","party":"Rep","address":"469 S 600 E, Provo, UT 84606","precinct":"25PR52","hd":"62","v_score":"1.121327652","decile":"3","lat":40.22744154246986,"lng":-111.64791809018553},{"vid":"2327892","name":"Kenney Jacobson PhD","party":"Dem","address":"490 S State St, Provo, UT 84606","precinct":"25PR52","hd":"62","v_score":"9.405332525","decile":"8","lat":40.22737035087505,"lng":-111.64531805797576},{"vid":"2340000","name":"Rylee Johns","party":"Dem","address":"456 E 400 S, Provo, UT 84606","precinct":"25PR52","hd":"62","v_score":"2.315214949","decile":"5","lat":40.228122498180454,"lng":-111.65080193351918},{"vid":"2345923","name":"Ola Senger","party":"Dem","address":"441 S 500 E, Provo, UT 84606","precinct":"25PR52","hd":"62","v_score":"5.407962308","decile":"7","lat":40.22769634320835,"lng":-111.64964226341293},{"vid":"2353786","name":"Susie Prosacco","party":"Rep","address":"708 E 400 S, Provo, UT 84606","precinct":"25PR52","hd":"62","v_score":"5.191257514","decile":"7","lat":40.227870477942474,"lng":-111.6462016979598},{"vid":"2391244","name":"Martina Nitzsche","party":"","address":"348 E 400 S, Provo, UT 84606","precinct":"25PR52","hd":"62","v_score":"3.93832808","decile":"6","lat":40.228022331957604,"lng":-111.65270187483667},{"vid":"2395651","name":"Tom Gottlieb Sr.","party":"","address":"490 S State St, Unit C104, Provo, UT 84606","precinct":"25PR52","hd":"62","v_score":"2.315214949","decile":"5","lat":40.22737035087505,"lng":-111.64531805797576},{"vid":"2401648","name":"Ms. Nelie Morar","party":"","address":"540 S 700 E, Provo, UT 84606","precinct":"25PR52","hd":"62","v_score":"6.814370645","decile":"8","lat":40.22647009003738,"lng":-111.64652991366343},{"vid":"2418688","name":"Millie Barton","party":"Dem","address":"426 S 300 E, Provo, UT 84606","precinct":"25PR52","hd":"62","v_score":"1.121327652","decile":"3","lat":40.22794684537478,"lng":-111.65375560261752},{"vid":"2423369","name":"Frederick Schuster","party":"","address":"486 S 600 E, Provo, UT 84606","precinct":"25PR52","hd":"62","v_score":"2.315214949","decile":"5","lat":40.22723848488481,"lng":-111.64855318769564},{"vid":"2436462","name":"Laylah Haley DDS","party":"","address":"490 S State St, Unit A107, Provo, UT 84606","precinct":"25PR52","hd":"62","v_score":"1.121327652","decile":"3","lat":40.22737035087505,"lng":-111.64531805797576},{"vid":"2439101","name":"Hermine Wolf","party":"","address":"360 E 400 S, Provo, UT 84606","precinct":"25PR52","hd":"62","v_score":"2.587603312","decile":"5","lat":40.22802418909132,"lng":-111.65250719104998},{"vid":"2448986","name":"Ms. Emma Kozey","party":"Dem","address":"489 S 400 E, Provo, UT 84606","precinct":"25PR52","hd":"62","v_score":"3.93832808","decile":"6","lat":40.159945065314986,"lng":-111.60287495524567},{"vid":"2453446","name":"Theta Fahey PhD","party":"","address":"458 E 500 S, Apt 1, Provo, UT 84606","precinct":"25PR52","hd":"62","v_score":"1.121327652","decile":"3","lat":40.22683492927102,"lng":-111.65090724002555},{"vid":"2453620","name":"Miss Latoya Abshire","party":"Dem","address":"438 E 500 S, Provo, UT 84606","precinct":"25PR52","hd":"62","v_score":"2.315214949","decile":"5","lat":40.226837418037405,"lng":-111.65112475787457},{"vid":"2466233","name":"Vessie Parker","party":"","address":"490 S State St, Unit A202, Provo, UT 84606","precinct":"25PR52","hd":"62","v_score":"0","decile":"1","lat":40.22737035087505,"lng":-111.64531805797576},{"vid":"2469858","name":"Mrs. Stephany Bartoletti DVM","party":"","address":"626 E 500 S, Provo, UT 84606","precinct":"25PR52","hd":"62","v_score":"1.193887297","decile":"3","lat":40.22680081882325,"lng":-111.64782326394715},{"vid":"2474321","name":"Ms. Audrey Jenkins","party":"Dem","address":"744 E 500 S, Provo, UT 84606","precinct":"25PR52","hd":"62","v_score":"0","decile":"1","lat":40.2265871394369,"lng":-111.64584859497019},{"vid":"2475765","name":"Abigayle Lebsack-Huel","party":"","address":"264 E 400 S, Provo, UT 84606","precinct":"25PR52","hd":"62","v_score":"0","decile":"1","lat":40.22802809224062,"lng":-111.65411319462336},{"vid":"2497536","name":"Mrs. Mistie Gislason DVM","party":"Rep","address":"754 E 500 S, Provo, UT 84606","precinct":"25PR52","hd":"62","v_score":"0","decile":"1","lat":40.22666173373976,"lng":-111.64562718473175},{"vid":"2531915","name":"Dr. Luda Ruecker PhD","party":"Dem","address":"435 S 500 E, Provo, UT 84606","precinct":"25PR52","hd":"62","v_score":"7.549608095","decile":"8","lat":40.227908298033256,"lng":-111.64965505850255},{"vid":"2542606","name":"Hays Ernser","party":"Rep","address":"434 E 500 S, Provo, UT 84606","precinct":"25PR52","hd":"62","v_score":"0","decile":"1","lat":40.226837418037405,"lng":-111.65112475787457},{"vid":"2543247","name":"Tashina Zboncak-Daniel","party":"Rep","address":"555 E 500 S, Provo, UT 84606","precinct":"25PR52","hd":"62","v_score":"9.907118004","decile":"8","lat":40.227253899769956,"lng":-111.64902310855801},{"vid":"2553835","name":"Verlin Trantow","party":"Rep","address":"490 S State St, Provo, UT 84606","precinct":"25PR52","hd":"62","v_score":"0","decile":"1","lat":40.22737035087505,"lng":-111.64531805797576},{"vid":"2577642","name":"Kamari Nitzsche","party":"","address":"490 S State St, Unit A305, Provo, UT 84606","precinct":"25PR52","hd":"62","v_score":"1.193887297","decile":"4","lat":40.22737035087505,"lng":-111.64531805797576},{"vid":"2584833","name":"Sammie Conroy","party":"Rep","address":"534 S 400 E, Apt 2, Provo, UT 84606","precinct":"25PR52","hd":"62","v_score":"10.06767328","decile":"9","lat":40.22636979868724,"lng":-111.65208340147221},{"vid":"2592047","name":"Jerusha Marks","party":"Rep","address":"330 E 500 S, Provo, UT 84606","precinct":"25PR52","hd":"62","v_score":"0","decile":"1","lat":40.2267043072364,"lng":-111.65272181024947},{"vid":"2593860","name":"Rexford Jakubowski-Aufderhar","party":"Dem","address":"576 E 400 S, Apt 1, Provo, UT 84606","precinct":"25PR52","hd":"62","v_score":"0","decile":"1","lat":40.228125118108174,"lng":-111.64877356419777},{"vid":"2610352","name":"Cale Koelpin","party":"","address":"490 S State St, Unit B208, Provo, UT 84606","precinct":"25PR52","hd":"62","v_score":"0","decile":"1","lat":40.22737035087505,"lng":-111.64531805797576},{"vid":"2611396","name":"Mavis Greenholt","party":"","address":"490 S State St, Unit B302, Provo, UT 84606","precinct":"25PR52","hd":"62","v_score":"0","decile":"1","lat":40.22737035087505,"lng":-111.64531805797576},{"vid":"2613850","name":"Kaelynn Upton","party":"","address":"516 S 600 E, Provo, UT 84606","precinct":"25PR52","hd":"62","v_score":"4.214075011","decile":"7","lat":40.22675547643812,"lng":-111.64860718470871},{"vid":"2617460","name":"Regan Blick","party":"Rep","address":"490 S State St, Unit A301, Provo, UT 84606","precinct":"25PR52","hd":"62","v_score":"1.193887297","decile":"4","lat":40.22737035087505,"lng":-111.64531805797576},{"vid":"2632891","name":"Gwendolyn Daniel","party":"","address":"410 S 300 E, Provo, UT 84606","precinct":"25PR52","hd":"62","v_score":"1.623113131","decile":"5","lat":40.36869547329975,"lng":-111.79119505145951},{"vid":"2632904","name":"Mr. Jason Daugherty DVM","party":"","address":"490 S State St, Provo, UT 84606","precinct":"25PR52","hd":"62","v_score":"1.193887297","decile":"4","lat":40.22737035087505,"lng":-111.64531805797576},{"vid":"2639116","name":"Sonya Brakus","party":"Dem","address":"526 S 300 E, Provo, UT 84606","precinct":"25PR52","hd":"62","v_score":"0","decile":"1","lat":40.22665351133891,"lng":-111.65383972460799},{"vid":"2639323","name":"Wells Wintheiser","party":"","address":"441 S 500 E, Provo, UT 84606","precinct":"25PR52","hd":"62","v_score":"8.284004873","decile":"8","lat":40.22769634320835,"lng":-111.64964226341293},{"vid":"2642579","name":"Karol Bayer","party":"Dem","address":"490 S State St, Unit B107, Provo, UT 84606","precinct":"25PR52","hd":"62","v_score":"1.193887297","decile":"4","lat":40.22737035087505,"lng":-111.64531805797576},{"vid":"2649473","name":"Derrick Rempel","party":"Rep","address":"489 S 500 E, Apt 3, Provo, UT 84606","precinct":"25PR52","hd":"62","v_score":"0","decile":"1","lat":40.22730361120983,"lng":-111.64974893427203},{"vid":"2655493","name":"Miss Cordia Murphy PhD","party":"Dem","address":"490 S State St, Unit B101, Provo, UT 84606","precinct":"25PR52","hd":"62","v_score":"0","decile":"1","lat":40.22737035087505,"lng":-111.64531805797576},{"vid":"2668819","name":"Kerry Hirthe","party":"","address":"489 S 200 E, Provo, UT 84606","precinct":"25PR52","hd":"62","v_score":"1.193887297","decile":"4","lat":40.22726413842279,"lng":-111.65474082469517},{"vid":"2675552","name":"Aubra Little","party":"","address":"442 S 400 E, Provo, UT 84606","precinct":"25PR52","hd":"62","v_score":"0","decile":"2","lat":40.22776550272553,"lng":-111.65210014750643},{"vid":"2675738","name":"Dr. Emeline Schimmel","party":"","address":"489 S 500 E, Provo, UT 84606","precinct":"25PR52","hd":"62","v_score":"0","decile":"2","lat":40.22730361120983,"lng":-111.64974893427203},{"vid":"2686039","name":"Dr. Harry O'Conner MD","party":"Dem","address":"754 E 500 S, Provo, UT 84606","precinct":"25PR52","hd":"62","v_score":"0","decile":"2","lat":40.22666173373976,"lng":-111.64562718473175},{"vid":"2687012","name":"Westley Rolfson","party":"","address":"472 S 300 E, Provo, UT 84606","precinct":"25PR52","hd":"62","v_score":"0","decile":"2","lat":40.22741096572943,"lng":-111.65371575568714},{"vid":"2689944","name":"Bertha O'Kon","party":"Rep","address":"696 E 400 S, Provo, UT 84606","precinct":"25PR52","hd":"62","v_score":"0","decile":"2","lat":40.22784060477265,"lng":-111.64672604980134},{"vid":"2690908","name":"Mrs. Marcie Hudson","party":"Dem","address":"477 S 300 E, Provo, UT 84606","precinct":"25PR52","hd":"62","v_score":"18.35167816","decile":"10","lat":40.22741625881054,"lng":-111.65306110393226},{"vid":"2695083","name":"Conor Kutch","party":"","address":"562 E 400 S, Provo, UT 84606","precinct":"25PR52","hd":"62","v_score":"1.193887297","decile":"4","lat":40.2280092583602,"lng":-111.64900387427032},{"vid":"2697159","name":"Junie Beer","party":"Rep","address":"490 S State St, Unit B401, Provo, UT 84606","precinct":"25PR52","hd":"62","v_score":"1.193887297","decile":"4","lat":40.22737035087505,"lng":-111.64531805797576},{"vid":"2703971","name":"Miss Cristi Rempel","party":"","address":"490 S State St, Provo, UT 84606","precinct":"25PR52","hd":"62","v_score":"0","decile":"2","lat":40.22737035087505,"lng":-111.64531805797576},{"vid":"2722865","name":"Mr. Tylor McClure","party":"","address":"490 S State St, Unit A106, Provo, UT 84606","precinct":"25PR52","hd":"62","v_score":"0","decile":"2","lat":40.22737035087505,"lng":-111.64531805797576},{"vid":"2739170","name":"Jarrad Breitenberg-Olson","party":"Dem","address":"453 S 300 E, Provo, UT 84606","precinct":"25PR52","hd":"62","v_score":"0","decile":"2","lat":40.22762392463773,"lng":-111.65306013698567},{"vid":"2758039","name":"Harding Dach","party":"Dem","address":"420 E 400 S, Provo, UT 84606","precinct":"25PR52","hd":"62","v_score":"0","decile":"2","lat":40.22807578430335,"lng":-111.65131576554978},{"vid":"2760551","name":"Regena Wisoky","party":"","address":"488 S 500 E, Provo, UT 84606","precinct":"25PR52","hd":"62","v_score":"1.193887297","decile":"4","lat":40.22732581115597,"lng":-111.650353492583},{"vid":"2769040","name":"Lola Franecki DVM","party":"Dem","address":"435 S 500 E, Provo, UT 84606","precinct":"25PR52","hd":"62","v_score":"1.193887297","decile":"4","lat":40.227908298033256,"lng":-111.64965505850255},{"vid":"2770601","name":"Jerilyn Leannon","party":"Rep","address":"486 S 600 E, Provo, UT 84606","precinct":"25PR52","hd":"62","v_score":"1.193887297","decile":"4","lat":40.22723848488481,"lng":-111.64855318769564},{"vid":"2771090","name":"Miss Angelique Will","party":"Rep","address":"360 E 400 S, Provo, UT 84606","precinct":"25PR52","hd":"62","v_score":"1.193887297","decile":"4","lat":40.22802418909132,"lng":-111.65250719104998},{"vid":"2777570","name":"Jayden Mertz","party":"Dem","address":"490 S State St, Provo, UT 84606","precinct":"25PR52","hd":"62","v_score":"1.193887297","decile":"4","lat":40.22737035087505,"lng":-111.64531805797576},{"vid":"2793378","name":"Ruthie Franecki","party":"","address":"647 E 500 S, Provo, UT 84606","precinct":"25PR52","hd":"62","v_score":"1.193887297","decile":"4","lat":40.22752602222048,"lng":-111.64740567334374},{"vid":"2806079","name":"Albertina Schuster","party":"Rep","address":"462 S 500 E, Provo, UT 84606","precinct":"25PR52","hd":"62","v_score":"0","decile":"2","lat":39.968134247828196,"lng":-111.7749790987203},{"vid":"2806968","name":"Linwood Smitham","party":"Dem","address":"647 E 500 S, Provo, UT 84606","precinct":"25PR52","hd":"62","v_score":"1.193887297","decile":"4","lat":40.22752602222048,"lng":-111.64740567334374},{"vid":"2823489","name":"Anabel Reichel-Buckridge","party":"","address":"238 E 500 S, Provo, UT 84606","precinct":"25PR52","hd":"62","v_score":"1.193887297","decile":"4","lat":40.226816764205026,"lng":-111.6545948843941},{"vid":"2829367","name":"Fuller Bins V","party":"Dem","address":"470 E 400 S, Provo, UT 84606","precinct":"25PR52","hd":"62","v_score":"8.284004873","decile":"8","lat":39.96886651725076,"lng":-111.77562403461141},{"vid":"2832185","name":"Soren Kuvalis-Hartmann","party":"Rep","address":"554 S 300 E, Provo, UT 84606","precinct":"25PR52","hd":"62","v_score":"1.193887297","decile":"4","lat":40.22631600357248,"lng":-111.65371054893947},{"vid":"2839249","name":"Macel Gislason","party":"Dem","address":"788 E 500 S, Provo, UT 84606","precinct":"25PR52","hd":"62","v_score":"8.284004873","decile":"8","lat":40.226714504317755,"lng":-111.6451265644037},{"vid":"2852683","name":"Nia McLaughlin-Fadel","party":"Dem","address":"472 S 300 E, Provo, UT 84606","precinct":"25PR52","hd":"62","v_score":"0","decile":"2","lat":40.22741096572943,"lng":-111.65371575568714},{"vid":"2886410","name":"Marquis Gutkowski","party":"","address":"395 E 500 S, Provo, UT 84606","precinct":"25PR52","hd":"62","v_score":"1.193887297","decile":"4","lat":40.22727688871549,"lng":-111.65200749975958},{"vid":"2887143","name":"Mr. Herbert Farrell","party":"Dem","address":"264 E 400 S, Provo, UT 84606","precinct":"25PR52","hd":"62","v_score":"1.193887297","decile":"4","lat":40.22802809224062,"lng":-111.65411319462336},{"vid":"2888476","name":"Margrett Metz","party":"","address":"490 S State St, Unit B302, Provo, UT 84606","precinct":"25PR52","hd":"62","v_score":"1.193887297","decile":"4","lat":40.22737035087505,"lng":-111.64531805797576},{"vid":"2888742","name":"Ebenezer Gutkowski PhD","party":"Rep","address":"699 E 500 S, Provo, UT 84606","precinct":"25PR52","hd":"62","v_score":"1.193887297","decile":"4","lat":40.22733323937832,"lng":-111.64663220460025},{"vid":"2889215","name":"Ms. Marva Altenwerth MD","party":"Dem","address":"456 S 600 E, Provo, UT 84606","precinct":"25PR52","hd":"62","v_score":"1.193887297","decile":"4","lat":40.227650911850716,"lng":-111.64861383742637},{"vid":"2889361","name":"Dr. David Lind III","party":"Rep","address":"490 S State St, Apt 6405, Provo, UT 84606","precinct":"25PR52","hd":"62","v_score":"1.193887297","decile":"4","lat":40.22737035087505,"lng":-111.64531805797576},{"vid":"2897563","name":"Mrs. Sadye Wiza DVM","party":"Rep","address":"655 E 600 S, Provo, UT 84606","precinct":"25PR52","hd":"62","v_score":"0","decile":"2","lat":40.226203858732426,"lng":-111.64695643982397},{"vid":"2907163","name":"Braden Lindgren","party":"Rep","address":"493 S 450 E, Provo, UT 84606","precinct":"25PR52","hd":"62","v_score":"0","decile":"2","lat":40.227309488888565,"lng":-111.65064034761686},{"vid":"2907486","name":"Altie Gutkowski","party":"","address":"754 E 500 S, Provo, UT 84606","precinct":"25PR52","hd":"62","v_score":"0","decile":"2","lat":40.22666173373976,"lng":-111.64562718473175},{"vid":"2917685","name":"Donavan Padberg","party":"Dem","address":"490 S State St, Provo, UT 84606","precinct":"25PR52","hd":"62","v_score":"0","decile":"2","lat":40.22737035087505,"lng":-111.64531805797576},{"vid":"2918043","name":"Merilyn Stroman","party":"Rep","address":"486 S 600 E, Provo, UT 84606","precinct":"25PR52","hd":"62","v_score":"0","decile":"2","lat":40.22723848488481,"lng":-111.64855318769564},{"vid":"2929371","name":"Luther Brown-Bednar","party":"Dem","address":"460 S 500 E, Provo, UT 84606","precinct":"25PR52","hd":"62","v_score":"0","decile":"2","lat":40.16008317002357,"lng":-111.60158518276535},{"vid":"2944756","name":"Dr. Mamie O'Connell","party":"Rep","address":"490 S State St, Unit A207, Provo, UT 84606","precinct":"25PR52","hd":"62","v_score":"0","decile":"2","lat":40.22737035087505,"lng":-111.64531805797576},{"vid":"2955854","name":"Yulissa Runolfsdottir-Botsford","party":"Dem","address":"324 E 500 S, Provo, UT 84606","precinct":"25PR52","hd":"62","v_score":"0","decile":"2","lat":40.226849832438056,"lng":-111.65295153983067},{"vid":"2957501","name":"Ms. Christie Jones","party":"Rep","address":"457 S 500 E, Provo, UT 84606","precinct":"25PR52","hd":"62","v_score":"0","decile":"2","lat":40.22748124661856,"lng":-111.64968640970595},{"vid":"2961910","name":"Brooks Dickinson Jr.","party":"","address":"534 S 400 E, Apt 4, Provo, UT 84606","precinct":"25PR52","hd":"62","v_score":"0","decile":"2","lat":40.22636979868724,"lng":-111.65208340147221},{"vid":"2963062","name":"Arch Pfeffer","party":"Rep","address":"490 S State St, Unit C101, Provo, UT 84606","precinct":"25PR52","hd":"62","v_score":"0","decile":"2","lat":40.22737035087505,"lng":-111.64531805797576},{"vid":"2963658","name":"Lizbeth Abbott","party":"","address":"552 S 400 E, Apt 4, Provo, UT 84606","precinct":"25PR52","hd":"62","v_score":"0","decile":"2","lat":40.2265822526977,"lng":-111.6520822275538},{"vid":"2966111","name":"Willene Lockman","party":"","address":"534 S 400 E, Apt 2, Provo, UT 84606","precinct":"25PR52","hd":"62","v_score":"0","decile":"2","lat":40.22636979868724,"lng":-111.65208340147221},{"vid":"2966370","name":"Sharyn Lehner-Towne","party":"","address":"534 S 400 E, Apt 4, Provo, UT 84606","precinct":"25PR52","hd":"62","v_score":"0","decile":"2","lat":40.22636979868724,"lng":-111.65208340147221},{"vid":"2976315","name":"Dr. Ferrell Smith I","party":"Dem","address":"418 E 500 S, Provo, UT 84606","precinct":"25PR52","hd":"62","v_score":"0","decile":"2","lat":40.22682093093056,"lng":-111.65133213447122},{"vid":"2979551","name":"Jaylene Ebert","party":"","address":"483 S 450 E, Provo, UT 84606","precinct":"25PR52","hd":"62","v_score":"0","decile":"2","lat":40.227482886431744,"lng":-111.65066553180286},{"vid":"3081665","name":"Ms. Madlyn Kuhn","party":"Rep","address":"650 E 500 S, Apt 6, Provo, UT 84606","precinct":"25PR52","hd":"62","v_score":"2.315214949","decile":"5","lat":40.22667038983805,"lng":-111.6473547127561},{"vid":"6049814","name":"Deforest Schuster","party":"Dem","address":"490 S State St, Unit B106, Provo, UT 84606","precinct":"25PR52","hd":"62","v_score":"0","decile":"3","lat":40.22737035087505,"lng":-111.64531805797576},{"vid":"6067731","name":"Mr. Lincoln Lockman","party":"Dem","address":"434 E 500 S, Provo, UT 84606","precinct":"25PR52","hd":"62","v_score":"0","decile":"3","lat":40.226837418037405,"lng":-111.65112475787457},{"vid":"6094899","name":"Chasity Hoppe","party":"Dem","address":"526 S 300 E, Provo, UT 84606","precinct":"25PR52","hd":"62","v_score":"6.724398202","decile":"8","lat":40.22665351133891,"lng":-111.65383972460799},{"vid":"6229490","name":"Audy Gusikowski","party":"Rep","address":"408 E 500 S, Provo, UT 84606","precinct":"25PR52","hd":"62","v_score":"2.744440783","decile":"6","lat":40.226835286488765,"lng":-111.65144745958851},{"vid":"6237584","name":"Mrs. Joleen Dooley","party":"Dem","address":"526 S 300 E, Provo, UT 84606","precinct":"25PR52","hd":"62","v_score":"0","decile":"3","lat":40.22665351133891,"lng":-111.65383972460799},{"vid":"6258156","name":"Meghan Bechtelar","party":"Rep","address":"456 S 600 E, Provo, UT 84606","precinct":"25PR52","hd":"62","v_score":"6.881235673","decile":"8","lat":40.227650911850716,"lng":-111.64861383742637},{"vid":"6261536","name":"Kymani West","party":"","address":"490 S State St, Unit B101, Provo, UT 84606","precinct":"25PR52","hd":"62","v_score":"0","decile":"3","lat":40.22737035087505,"lng":-111.64531805797576},{"vid":"6285688","name":"Dorian Will","party":"Rep","address":"662 E 400 S, Provo, UT 84606","precinct":"25PR52","hd":"62","v_score":"1.121327652","decile":"3","lat":40.227937370915726,"lng":-111.64720031748912},{"vid":"6337825","name":"Rodrick Schinner","party":"Rep","address":"206 E 400 S, Provo, UT 84606","precinct":"25PR52","hd":"62","v_score":"43.94216596","decile":"10","lat":40.22808680117496,"lng":-111.65493341379026},{"vid":"6337826","name":"Dr. Trudie Hermann","party":"","address":"206 E 400 S, Provo, UT 84606","precinct":"25PR52","hd":"62","v_score":"43.94216596","decile":"10","lat":40.22808680117496,"lng":-111.65493341379026},{"vid":"6337861","name":"Krysta Jenkins","party":"Dem","address":"546 S 300 E, Provo, UT 84606","precinct":"25PR52","hd":"62","v_score":"12.78815801","decile":"9","lat":40.22643736833935,"lng":-111.653752719265},{"vid":"6340483","name":"Shoji Hahn Sr.","party":"Rep","address":"608 E 500 S, Provo, UT 84606","precinct":"25PR52","hd":"62","v_score":"37.84600495","decile":"10","lat":40.22667228949295,"lng":-111.6479523048331},{"vid":"3a91f3ebf522742b93c7601a53d75dd7b02860bf87e0b22e816be71ad68649d8","name":"Bettina Wuckert DVM","party":"","address":"541 S 300 E, Provo, UT 84606","precinct":"25PR52","hd":"62","v_score":"11.6113657","decile":"9","lat":40.226492850165485,"lng":-111.65311304236603},{"vid":"09f71d5088cf47de3c532a09938881028cf62498ea173a059043788618adaef3","name":"Dr. Kade McDermott","party":"","address":"467 S 200 E, Provo, UT 84606","precinct":"25PR52","hd":"62","v_score":"14.25581744","decile":"9","lat":40.227489503525,"lng":-111.65475937292949},{"vid":"6379266","name":"Ms. Arabella Leannon MD","party":"Rep","address":"571 E 500 S, Provo, UT 84606","precinct":"25PR52","hd":"62","v_score":"26.44286492","decile":"10","lat":40.22725308253712,"lng":-111.6488442685576},{"vid":"6382159","name":"Adela Larson","party":"Dem","address":"455 S 200 E, Provo, UT 84606","precinct":"25PR52","hd":"62","v_score":"25.24361259","decile":"10","lat":40.2276301243101,"lng":-111.65475874482742},{"vid":"6382731","name":"Manson Hilpert","party":"","address":"662 E 400 S, Provo, UT 84606","precinct":"25PR52","hd":"62","v_score":"5.546183193","decile":"7","lat":40.227937370915726,"lng":-111.64720031748912},{"vid":"6389040","name":"Mr. Wong Nolan I","party":"Dem","address":"490 S State St, Unit A107, Provo, UT 84606","precinct":"25PR52","hd":"62","v_score":"1.121327652","decile":"3","lat":40.22737035087505,"lng":-111.64531805797576},{"vid":"6401914","name":"Josef Kassulke","party":"","address":"734 E 400 S, Provo, UT 84606","precinct":"25PR52","hd":"62","v_score":"5.40460374","decile":"7","lat":40.228055396310026,"lng":-111.64604975709229},{"vid":"6427751","name":"Ballard Bartell","party":"","address":"540 S 700 E, Provo, UT 84606","precinct":"25PR52","hd":"62","v_score":"1.121327652","decile":"3","lat":40.22647009003738,"lng":-111.64652991366343},{"vid":"6428069","name":"Ms. Brittnee Prosacco MD","party":"","address":"648 E 400 S, Provo, UT 84606","precinct":"25PR52","hd":"62","v_score":"1.121327652","decile":"3","lat":40.22786110967622,"lng":-111.6473910516455},{"vid":"6432852","name":"Renea Gaylord","party":"Dem","address":"455 S 200 E, Provo, UT 84606","precinct":"25PR52","hd":"62","v_score":"25.24361259","decile":"10","lat":40.2276301243101,"lng":-111.65475874482742},{"vid":"6452875","name":"Star Buckridge","party":"Dem","address":"486 S 600 E, Provo, UT 84606","precinct":"25PR52","hd":"62","v_score":"1.121327652","decile":"3","lat":40.22723848488481,"lng":-111.64855318769564},{"vid":"6482194","name":"Jeremiah Murazik","party":"Rep","address":"408 S 500 E, Provo, UT 84606","precinct":"25PR52","hd":"62","v_score":"2.315214949","decile":"5","lat":40.22811142576121,"lng":-111.6502869308041},{"vid":"6494565","name":"Ms. Arely Kirlin","party":"","address":"348 E 400 S, Provo, UT 84606","precinct":"25PR52","hd":"62","v_score":"7.367763134","decile":"8","lat":40.228022331957604,"lng":-111.65270187483667},{"vid":"6499650","name":"Dr. Fitzgerald Bruen II","party":"Dem","address":"626 E 400 S, Provo, UT 84606","precinct":"25PR52","hd":"62","v_score":"1.193887297","decile":"4","lat":40.22787806010401,"lng":-111.64768145161015},{"vid":"ddf8ad11e19b5f6c39df29a7ac29dc7940417fcc5e7a6e54029b429ae79189fc","name":"Adrain Kertzmann II","party":"Dem","address":"453 S 300 E, Provo, UT 84606","precinct":"25PR52","hd":"62","v_score":"1.623113131","decile":"5","lat":40.22762392463773,"lng":-111.65306013698567},{"vid":"6502205","name":"Keeley Johnston","party":"","address":"264 E 400 S, Provo, UT 84606","precinct":"25PR52","hd":"62","v_score":"13.97430753","decile":"9","lat":40.22802809224062,"lng":-111.65411319462336},{"vid":"6532750","name":"Asha Reichert-Ebert","party":"Dem","address":"398 E 400 S, Provo, UT 84606","precinct":"25PR52","hd":"62","v_score":"0","decile":"3","lat":40.22809238861946,"lng":-111.6519977124349}]