[{"vid":"1583405","name":"Haley Wiegand-Fadel","party":"Dem","address":"660 N 200 E, Apt 4, Provo, UT 84606","precinct":"25PR37","hd":"60","v_score":"1.121327652","decile":"3","lat":40.2425667622508,"lng":-111.65456722613915,"phone":"(302) 979-3839","sd":"24","ssbd":"13","lsbd":"School Board Provo 7"},{"vid":"1698180","name":"Antonina Fritsch","party":"","address":"851 N 50 E, Apt 330, Provo, UT 84604","precinct":"25PR37","hd":"60","v_score":"1.121327652","decile":"3","lat":40.24513392312898,"lng":-111.65756706687215,"phone":"(187) 660-0421","sd":"24","ssbd":"13","lsbd":"School Board Provo 7"},{"vid":"1704815","name":"Denis Carroll-Rempel","party":"Dem","address":"876 N University Ave, Apt 1, Provo, UT 84604","precinct":"25PR37","hd":"60","v_score":"1.193887297","decile":"3","lat":40.24529056332503,"lng":-111.65813065982026,"phone":"(171) 097-0250","sd":"24","ssbd":"13","lsbd":"School Board Provo 7"},{"vid":"1780220","name":"Jaycob Lebsack","party":"Dem","address":"637 N 300 E, Provo, UT 84606","precinct":"25PR37","hd":"60","v_score":"1.193887297","decile":"3","lat":40.242218880336374,"lng":-111.65376085668396,"phone":"(492) 822-8773","sd":"24","ssbd":"13","lsbd":"School Board Provo 7"},{"vid":"1781668","name":"Ardis Howell PhD","party":"Dem","address":"222 E 700 N, Apt 11, Provo, UT 84606","precinct":"25PR37","hd":"60","v_score":"4.568975008","decile":"7","lat":40.24279456703664,"lng":-111.65443265311968,"phone":"(909) 110-8261","sd":"24","ssbd":"13","lsbd":"School Board Provo 7"},{"vid":"1831998","name":"Fabiola Ruecker","party":"","address":"660 N 200 E, Apt 16, Provo, UT 84606","precinct":"25PR37","hd":"60","v_score":"2.587603312","decile":"5","lat":40.2425667622508,"lng":-111.65456722613915,"phone":"(663) 448-2077","sd":"24","ssbd":"13","lsbd":"School Board Provo 7"},{"vid":"1862819","name":"Cesar Cremin IV","party":"Dem","address":"673 N 400 E, Apt E2, Provo, UT 84606","precinct":"25PR37","hd":"60","v_score":"2.315214949","decile":"5","lat":40.24270377127313,"lng":-111.65200840885466,"phone":"(379) 515-3264","sd":"24","ssbd":"13","lsbd":"School Board Provo 7"},{"vid":"1869829","name":"Dr. Trey Schaefer","party":"","address":"645 N 100 E, Provo, UT 84606","precinct":"25PR37","hd":"60","v_score":"1.121327652","decile":"3","lat":40.24227963407362,"lng":-111.65713330329979,"phone":"(430) 822-3524","sd":"24","ssbd":"13","lsbd":"School Board Provo 7"},{"vid":"605c93dfd6067f4b86c721d8b2a86747562ce1b932b395bd502c5252c0671c83","name":"Scarlet Sipes","party":"Dem","address":"49 E 900 N, Provo, UT 84604","precinct":"25PR37","hd":"60","v_score":"25.8334544","decile":"10","lat":40.245929075753715,"lng":-111.65754792161746,"phone":"(363) 634-2972","sd":"24","ssbd":"13","lsbd":"School Board Provo 7"},{"vid":"1895178","name":"Leva Krajcik","party":"Dem","address":"769 N 200 E, Apt 104, Provo, UT 84606","precinct":"25PR37","hd":"60","v_score":"8.670935747","decile":"8","lat":40.24386625138591,"lng":-111.65538803264172,"phone":"(706) 648-5755","sd":"24","ssbd":"13","lsbd":"School Board Provo 7"},{"vid":"1931883","name":"Dawn Yundt-Kunze","party":"","address":"665 N 100 E, Apt 4, Provo, UT 84606","precinct":"25PR37","hd":"60","v_score":"4.283276088","decile":"7","lat":40.24253176731533,"lng":-111.65707869722893,"phone":"(615) 545-7852","sd":"24","ssbd":"13","lsbd":"School Board Provo 7"},{"vid":"f2b63712f5f892e82c0290afdc9cb0fad832335db90384f9ae55d7228962f498","name":"Ms. Thomasina Rutherford","party":"","address":"146 E 800 N, Provo, UT 84606","precinct":"25PR37","hd":"60","v_score":"5.258122542","decile":"7","lat":40.24409754379405,"lng":-111.65606588160074,"phone":"(956) 086-9033","sd":"24","ssbd":"13","lsbd":"School Board Provo 7"},{"vid":"1962110","name":"Moesha Hand-Murray","party":"Rep","address":"49 E 900 N, Provo, UT 84604","precinct":"25PR37","hd":"60","v_score":"10.68211388","decile":"9","lat":40.245929075753715,"lng":-111.65754792161746,"phone":"(532) 752-8097","sd":"24","ssbd":"13","lsbd":"School Board Provo 7"},{"vid":"1968998","name":"Angus Auer","party":"","address":"715 N 200 E, Apt 204, Provo, UT 84606","precinct":"25PR37","hd":"60","v_score":"1.121327652","decile":"3","lat":40.2432936094983,"lng":-111.65555043565689,"phone":"(368) 683-9360","sd":"24","ssbd":"13","lsbd":"School Board Provo 7"},{"vid":"2010943","name":"Dr. Peyton Jacobs MD","party":"Rep","address":"281 E 600 N, Provo, UT 84606","precinct":"25PR37","hd":"60","v_score":"2.817000428","decile":"6","lat":40.24194281057745,"lng":-111.65379702393528,"phone":"(965) 023-0743","sd":"24","ssbd":"13","lsbd":"School Board Provo 7"},{"vid":"2027356","name":"Alysia Cronin","party":"Rep","address":"715 N 200 E, Apt 103, Provo, UT 84606","precinct":"25PR37","hd":"60","v_score":"2.744440783","decile":"5","lat":40.2432936094983,"lng":-111.65555043565689,"phone":"(392) 993-0187","sd":"24","ssbd":"13","lsbd":"School Board Provo 7"},{"vid":"6a8031d6f737a5937c36dbbdba79990b09ecb88470e1128fd2ea3847ec62c763","name":"Vernell Jast","party":"","address":"905 N 150 E, Provo, UT 84604","precinct":"25PR37","hd":"60","v_score":"4.192796624","decile":"7","lat":40.24566009817251,"lng":-111.65642967816918,"phone":"(443) 700-2370","sd":"24","ssbd":"13","lsbd":"School Board Provo 7"},{"vid":"2031947","name":"Mr. Drew Bradtke","party":"Rep","address":"47 E 600 N, Apt 403, Provo, UT 84606","precinct":"25PR37","hd":"60","v_score":"0","decile":"1","lat":40.24243064361217,"lng":-111.6578537109831,"phone":"(751) 584-5702","sd":"24","ssbd":"13","lsbd":"School Board Provo 7"},{"vid":"2034530","name":"Miss Myla Bayer DDS","party":"Dem","address":"918 N 50 E, Provo, UT 84604","precinct":"25PR37","hd":"60","v_score":"5.258122542","decile":"7","lat":40.24601570037362,"lng":-111.65706322105322,"phone":"(625) 218-1431","sd":"24","ssbd":"13","lsbd":"School Board Provo 7"},{"vid":"2035118","name":"Jep Lemke","party":"","address":"665 N 100 E, Apt 6, Provo, UT 84606","precinct":"25PR37","hd":"60","v_score":"2.942907593","decile":"6","lat":40.24253176731533,"lng":-111.65707869722893,"phone":"(130) 471-7195","sd":"24","ssbd":"13","lsbd":"School Board Provo 7"},{"vid":"2037119","name":"Mr. Tito Grant","party":"","address":"915 N 150 E, Apt 110, Provo, UT 84604","precinct":"25PR37","hd":"60","v_score":"5.530510904","decile":"7","lat":40.24607306015791,"lng":-111.65654993347869,"phone":"(274) 988-1024","sd":"24","ssbd":"13","lsbd":"School Board Provo 7"},{"vid":"2046463","name":"Brannon Predovic-Frami","party":"Dem","address":"747 N 200 E, Apt 8, Provo, UT 84606","precinct":"25PR37","hd":"60","v_score":"18.34238708","decile":"10","lat":40.24356916209855,"lng":-111.65557882288974,"phone":"(447) 586-7549","sd":"24","ssbd":"13","lsbd":"School Board Provo 7"},{"vid":"2064471","name":"Dr. Darold Quitzon","party":"Dem","address":"645 N 100 E, Provo, UT 84606","precinct":"25PR37","hd":"60","v_score":"1.121327652","decile":"3","lat":40.24227963407362,"lng":-111.65713330329979,"phone":"(701) 393-6643","sd":"24","ssbd":"13","lsbd":"School Board Provo 7"},{"vid":"2065316","name":"Ms. Tobi Kassulke","party":"","address":"358 E 800 N, Provo, UT 84606","precinct":"25PR37","hd":"60","v_score":"5.536205522","decile":"7","lat":40.39275531694824,"lng":-111.78909765523234,"phone":"(407) 895-0053","sd":"24","ssbd":"13","lsbd":"School Board Provo 7"},{"vid":"289440c8b50bc2b47ac37f9cbd8028f438d5e9438ec70c807f95a1360bfc7288","name":"Polk Stark","party":"","address":"153 E 600 N, Provo, UT 84606","precinct":"25PR37","hd":"60","v_score":"5.69030266","decile":"7","lat":40.242072472979714,"lng":-111.65587108483165,"phone":"(529) 506-6114","sd":"24","ssbd":"13","lsbd":"School Board Provo 7"},{"vid":"850e0d212e6c1e263c678c3d396a0533cf6d563f3870f6b289280a96dc9f2530","name":"Celine Block","party":"","address":"25 E 900 N, Apt 4, Provo, UT 84604","precinct":"25PR37","hd":"60","v_score":"8.280646305","decile":"8","lat":40.245916862625634,"lng":-111.65809148596757,"phone":"(723) 620-6172","sd":"24","ssbd":"13","lsbd":"School Board Provo 7"},{"vid":"2091640","name":"Jaycee Zemlak-Morar","party":"","address":"141 E 700 N, Apt 28, Provo, UT 84606","precinct":"25PR37","hd":"60","v_score":"1.46627566","decile":"4","lat":40.24327238762275,"lng":-111.65623401316391,"phone":"(618) 013-3416","sd":"24","ssbd":"13","lsbd":"School Board Provo 7"},{"vid":"22cfd48bcfd5848e57f429bf0bbdd14735f46eb398d6417cc16ff60dfccf350c","name":"Dollie Gleichner","party":"","address":"915 N 150 E, Apt 110, Provo, UT 84604","precinct":"25PR37","hd":"60","v_score":"0","decile":"1","lat":40.24607306015791,"lng":-111.65654993347869,"phone":"(209) 017-0736","sd":"24","ssbd":"13","lsbd":"School Board Provo 7"},{"vid":"0ad669df09c08b662015c6c3004412cb74de83877072a76af55215e9ebad43c3","name":"Santiago Daugherty","party":"Rep","address":"727 N 300 E, Apt 201, Provo, UT 84606","precinct":"25PR37","hd":"60","v_score":"4.192796624","decile":"7","lat":40.243454898579834,"lng":-111.65398322205614,"phone":"(578) 083-5868","sd":"24","ssbd":"13","lsbd":"School Board Provo 7"},{"vid":"2101800","name":"Miss Araceli Graham","party":"","address":"659 N 300 E, Apt 6, Provo, UT 84606","precinct":"25PR37","hd":"60","v_score":"1.121327652","decile":"3","lat":40.24246331882138,"lng":-111.65386905129394,"phone":"(506) 135-9692","sd":"24","ssbd":"13","lsbd":"School Board Provo 7"},{"vid":"2109808","name":"Alyssia Schumm","party":"","address":"25 E 900 N, Apt 4, Provo, UT 84604","precinct":"25PR37","hd":"60","v_score":"14.18213378","decile":"9","lat":40.245916862625634,"lng":-111.65809148596757,"phone":"(244) 447-5793","sd":"24","ssbd":"13","lsbd":"School Board Provo 7"},{"vid":"2110414","name":"Eliseo Schamberger","party":"Rep","address":"362 E 700 N, Apt D6, Provo, UT 84606","precinct":"25PR37","hd":"60","v_score":"1.46627566","decile":"4","lat":40.24278703023381,"lng":-111.65237576393064,"phone":"(420) 800-4371","sd":"24","ssbd":"13","lsbd":"School Board Provo 7"},{"vid":"2127092","name":"Dr. Winton Pouros I","party":"Rep","address":"896 N 50 E, Provo, UT 84604","precinct":"25PR37","hd":"60","v_score":"5.546183193","decile":"7","lat":40.24566545832788,"lng":-111.65708534902262,"phone":"(681) 550-9191","sd":"24","ssbd":"13","lsbd":"School Board Provo 7"},{"vid":"2127366","name":"Jett Pfeffer","party":"Dem","address":"905 N 150 E, Apt 7, Provo, UT 84604","precinct":"25PR37","hd":"60","v_score":"1.121327652","decile":"3","lat":40.24566009817251,"lng":-111.65642967816918,"phone":"(420) 739-4886","sd":"24","ssbd":"13","lsbd":"School Board Provo 7"},{"vid":"2130204","name":"Mr. Lamarcus Botsford V","party":"Dem","address":"670 N 300 E, Apt C4, Provo, UT 84606","precinct":"25PR37","hd":"60","v_score":"3.781490609","decile":"6","lat":40.24242386782226,"lng":-111.6529791102047,"phone":"(416) 571-0630","sd":"24","ssbd":"13","lsbd":"School Board Provo 7"},{"vid":"2139175","name":"Kaiya O'Connell-Frami","party":"Rep","address":"745 N 400 E, Apt 7, Provo, UT 84606","precinct":"25PR37","hd":"60","v_score":"2.315214949","decile":"5","lat":40.177219263210404,"lng":-111.60347402371241,"phone":"(835) 954-5621","sd":"24","ssbd":"13","lsbd":"School Board Provo 7"},{"vid":"407c6a6f3d2f2ce4e871c1510ec1632c71938f0fa79728532b01f6c1b4523179","name":"Ollie Kuhlman","party":"","address":"642 N 200 E, Apt 211, Provo, UT 84606","precinct":"25PR37","hd":"60","v_score":"1.121327652","decile":"3","lat":40.24227720506709,"lng":-111.65456226692545,"phone":"(685) 141-2091","sd":"24","ssbd":"13","lsbd":"School Board Provo 7"},{"vid":"89af1b94894a81c52b03f6ca58c721eca177a59d6b74e51f8ef08f296f989bc0","name":"Glinda Purdy","party":"Rep","address":"851 N 50 E, Apt 332, Provo, UT 84604","precinct":"25PR37","hd":"60","v_score":"2.587603312","decile":"5","lat":40.24513392312898,"lng":-111.65756706687215,"phone":"(967) 768-9566","sd":"24","ssbd":"13","lsbd":"School Board Provo 7"},{"vid":"2165146","name":"Alvia Douglas-Thompson","party":"Dem","address":"329 E 700 N, Provo, UT 84606","precinct":"25PR37","hd":"60","v_score":"6.724398202","decile":"8","lat":40.243270623005316,"lng":-111.65282249894472,"phone":"(763) 413-9061","sd":"24","ssbd":"13","lsbd":"School Board Provo 7"},{"vid":"b29f63b03a4edd0e4fba0b8af37636fe0ce1e9040610b0033cffda1309bc43ca","name":"Eustace Walsh","party":"Dem","address":"735 N 400 E, Apt 28, Provo, UT 84606","precinct":"25PR37","hd":"60","v_score":"9.781676628","decile":"8","lat":40.11931451311093,"lng":-111.64800879803333,"phone":"(888) 026-4356","sd":"24","ssbd":"13","lsbd":"School Board Provo 7"},{"vid":"ce16b65205194f4b87790a2fb7b9ca27f6b61a0dd0d5e194c09aacdd242f12c7","name":"Frances Brakus","party":"Dem","address":"673 N 400 E, Apt E2, Provo, UT 84606","precinct":"25PR37","hd":"60","v_score":"0","decile":"1","lat":40.24270377127313,"lng":-111.65200840885466,"phone":"(303) 639-7611","sd":"24","ssbd":"13","lsbd":"School Board Provo 7"},{"vid":"2177152","name":"Mari Huel","party":"Dem","address":"635 N 100 E, Provo, UT 84606","precinct":"25PR37","hd":"60","v_score":"0","decile":"1","lat":40.242143833616225,"lng":-111.65713381911243,"phone":"(190) 725-9334","sd":"24","ssbd":"13","lsbd":"School Board Provo 7"},{"vid":"2190292","name":"Mr. Orrin Walsh","party":"","address":"905 N 150 E, Apt 6, Provo, UT 84604","precinct":"25PR37","hd":"60","v_score":"2.958579882","decile":"6","lat":40.24566009817251,"lng":-111.65642967816918,"phone":"(681) 014-5051","sd":"24","ssbd":"13","lsbd":"School Board Provo 7"},{"vid":"2191886","name":"Dr. Arbie Waters DDS","party":"Rep","address":"182 E 800 N, Apt 6, Provo, UT 84606","precinct":"25PR37","hd":"60","v_score":"0","decile":"1","lat":40.24409126944978,"lng":-111.65554573513235,"phone":"(164) 124-4660","sd":"24","ssbd":"13","lsbd":"School Board Provo 7"},{"vid":"00cbdf93e9eef320476e6bc818d6410073f03268930c674fc6a5439a0e1cd512","name":"Mr. Elby Ankunding","party":"","address":"281 E 600 N, Apt 1, Provo, UT 84606","precinct":"25PR37","hd":"60","v_score":"8.284004873","decile":"8","lat":40.24194281057745,"lng":-111.65379702393528,"phone":"(637) 308-3109","sd":"24","ssbd":"13","lsbd":"School Board Provo 7"},{"vid":"9585a1b1d043db53ac2b7c21384f8237fb69192a933790227a788cc2bc66e3dc","name":"Karli Harris-Barrows","party":"","address":"745 N 400 E, Apt 1, Provo, UT 84606","precinct":"25PR37","hd":"60","v_score":"0","decile":"1","lat":40.177219263210404,"lng":-111.60347402371241,"phone":"(122) 814-0363","sd":"24","ssbd":"13","lsbd":"School Board Provo 7"},{"vid":"ed06f586b35f68b8fa52b430708003e82b18608f4d5a7115bff4d479a6624019","name":"Clifford Schuppe","party":"","address":"25 E 900 N, Apt 2, Provo, UT 84604","precinct":"25PR37","hd":"60","v_score":"6.814370645","decile":"8","lat":40.245916862625634,"lng":-111.65809148596757,"phone":"(333) 936-7874","sd":"24","ssbd":"13","lsbd":"School Board Provo 7"},{"vid":"2203662","name":"Oneida Russel","party":"Rep","address":"642 N 200 E, Apt 211, Provo, UT 84606","precinct":"25PR37","hd":"60","v_score":"0","decile":"1","lat":40.24227720506709,"lng":-111.65456226692545,"phone":"(638) 014-1252","sd":"24","ssbd":"13","lsbd":"School Board Provo 7"},{"vid":"2204307","name":"Stefan Lesch","party":"Dem","address":"195 E 600 N, Apt 22, Provo, UT 84606","precinct":"25PR37","hd":"60","v_score":"1.121327652","decile":"3","lat":40.24203004275811,"lng":-111.65555560779697,"phone":"(139) 558-8734","sd":"24","ssbd":"13","lsbd":"School Board Provo 7"},{"vid":"670a171cebf29c86710f4820f6cf6cd89242390bba8507cee30f920b6d19586e","name":"Anna Schuster","party":"Dem","address":"740 N University Ave, Apt 203a, Provo, UT 84601","precinct":"25PR37","hd":"60","v_score":"1.193887297","decile":"3","lat":40.243707073183764,"lng":-111.65755713800468,"phone":"(353) 615-4841","sd":"24","ssbd":"13","lsbd":"School Board Provo 7"},{"vid":"50e30460bde0e8cd05d20c77bff8967fff02c6c6da66a427f4338bd49fdcefeb","name":"Latoya Stokes","party":"Dem","address":"358 E 800 N, Provo, UT 84606","precinct":"25PR37","hd":"60","v_score":"2.315214949","decile":"5","lat":40.39275531694824,"lng":-111.78909765523234,"phone":"(782) 151-5707","sd":"24","ssbd":"13","lsbd":"School Board Provo 7"},{"vid":"2221201","name":"Savanah Walker-Dickens","party":"Rep","address":"948 N 50 E, Apt 201, Provo, UT 84604","precinct":"25PR37","hd":"60","v_score":"0","decile":"1","lat":40.246287615284885,"lng":-111.6571267245613,"phone":"(589) 176-4838","sd":"24","ssbd":"13","lsbd":"School Board Provo 7"},{"vid":"2222005","name":"Dr. Alma Koepp DDS","party":"","address":"850 N University Ave, Apt 100, Provo, UT 84604","precinct":"25PR37","hd":"60","v_score":"0","decile":"1","lat":40.245083194347224,"lng":-111.65812985013415,"phone":"(440) 097-7480","sd":"24","ssbd":"13","lsbd":"School Board Provo 7"},{"vid":"cda6c5542295fd23cfe2b8b26b57e4380457d127bc3412923f61ed7508a03ae1","name":"Cale Schumm-Jacobson","party":"Rep","address":"330 E 700 N, Apt B5, Provo, UT 84606","precinct":"25PR37","hd":"60","v_score":"6.814370645","decile":"8","lat":40.24282467619309,"lng":-111.65271593975906,"phone":"(827) 271-2898","sd":"24","ssbd":"13","lsbd":"School Board Provo 7"},{"vid":"2253224","name":"Micheal Ullrich","party":"","address":"640 N 300 E, Provo, UT 84606","precinct":"25PR37","hd":"60","v_score":"8.284004873","decile":"8","lat":40.242301353256785,"lng":-111.6531097468066,"phone":"(800) 912-5801","sd":"24","ssbd":"13","lsbd":"School Board Provo 7"},{"vid":"f1975e7381269dafada85af7b2b34c80721b0568d6abb0cf6a29fd60c7095d7e","name":"Nellie Osinski-Emard","party":"Dem","address":"130 E 700 N, Apt 11, Provo, UT 84606","precinct":"25PR37","hd":"60","v_score":"2.315214949","decile":"5","lat":40.24273094574559,"lng":-111.65627866754403,"phone":"(122) 930-5185","sd":"24","ssbd":"13","lsbd":"School Board Provo 7"},{"vid":"cba8fa568df887fbbae0c5b7ad0791f44546516636f2cd4cd67bd57918675adb","name":"Leander Johnston-Gislason","party":"","address":"670 N 300 E, # C8, Provo, UT 84606","precinct":"25PR37","hd":"60","v_score":"2.315214949","decile":"5","lat":40.24242386782226,"lng":-111.6529791102047,"phone":"(214) 267-6453","sd":"24","ssbd":"13","lsbd":"School Board Provo 7"},{"vid":"69af3a3901d3e315884bbd68ad2c15c6165408e1c292b67cbc1d953d0022049e","name":"Noel Smith","party":"","address":"362 E 700 N, Apt D3, Provo, UT 84606","precinct":"25PR37","hd":"60","v_score":"8.703939628","decile":"8","lat":40.24278703023381,"lng":-111.65237576393064,"phone":"(225) 708-9657","sd":"24","ssbd":"13","lsbd":"School Board Provo 7"},{"vid":"34103b31d99d3c7c1c8307984a45ee124c4cdf770ab508a90f2349b0a6e28c58","name":"Whit Bins-Parker","party":"Rep","address":"769 N 200 E, Apt 104, Provo, UT 84606","precinct":"25PR37","hd":"60","v_score":"7.052493863","decile":"8","lat":40.24386625138591,"lng":-111.65538803264172,"phone":"(854) 068-4682","sd":"24","ssbd":"13","lsbd":"School Board Provo 7"},{"vid":"2279580","name":"Marisol Witting","party":"","address":"630 N 100 E, Apt 3, Provo, UT 84606","precinct":"25PR37","hd":"60","v_score":"2.817000428","decile":"6","lat":40.242144376967246,"lng":-111.6564604430534,"phone":"(287) 539-1807","sd":"24","ssbd":"13","lsbd":"School Board Provo 7"},{"vid":"2282299","name":"Mr. Wylie Hauck IV","party":"Dem","address":"850 N University Ave, Apt 101, Provo, UT 84604","precinct":"25PR37","hd":"60","v_score":"8.69195232","decile":"8","lat":40.245083194347224,"lng":-111.65812985013415,"phone":"(260) 148-5573","sd":"24","ssbd":"13","lsbd":"School Board Provo 7"},{"vid":"2285154","name":"Mr. Jajuan Beatty DVM","party":"Rep","address":"195 E 600 N, Apt 37, Provo, UT 84606","precinct":"25PR37","hd":"60","v_score":"11.29456446","decile":"9","lat":40.24203004275811,"lng":-111.65555560779697,"phone":"(795) 983-8419","sd":"24","ssbd":"13","lsbd":"School Board Provo 7"},{"vid":"2290296","name":"Aubree Homenick","party":"","address":"835 N 50 E, Apt 120, Provo, UT 84604","precinct":"25PR37","hd":"60","v_score":"6.881235673","decile":"8","lat":40.24481440928662,"lng":-111.6575172120422,"phone":"(378) 401-9834","sd":"24","ssbd":"13","lsbd":"School Board Provo 7"},{"vid":"c05eaae89666da6a9d55778390c5147381ecd3e33757a57229f7adf1c3a7154c","name":"Suellen Boyle","party":"","address":"915 N 150 E, Apt 206, Provo, UT 84604","precinct":"25PR37","hd":"60","v_score":"1.121327652","decile":"3","lat":40.24607306015791,"lng":-111.65654993347869,"phone":"(367) 588-7756","sd":"24","ssbd":"13","lsbd":"School Board Provo 7"},{"vid":"2296517","name":"Dr. Gussie Little DDS","party":"Dem","address":"948 N 50 E, Apt 305, Provo, UT 84604","precinct":"25PR37","hd":"60","v_score":"5.258122542","decile":"7","lat":40.246287615284885,"lng":-111.6571267245613,"phone":"(694) 337-1900","sd":"24","ssbd":"13","lsbd":"School Board Provo 7"},{"vid":"2297023","name":"Mrs. Mackenzie Prosacco","party":"Rep","address":"195 E 600 N, Apt 14, Provo, UT 84606","precinct":"25PR37","hd":"60","v_score":"4.064235245","decile":"6","lat":40.24203004275811,"lng":-111.65555560779697,"phone":"(499) 988-8784","sd":"24","ssbd":"13","lsbd":"School Board Provo 7"},{"vid":"2297200","name":"Edrie Reinger-Hammes","party":"","address":"745 N 400 E, Apt 21, Provo, UT 84606","precinct":"25PR37","hd":"60","v_score":"2.942907593","decile":"6","lat":40.177219263210404,"lng":-111.60347402371241,"phone":"(998) 259-9626","sd":"24","ssbd":"13","lsbd":"School Board Provo 7"},{"vid":"e44a07945458969a14377660af9de7e27aab4b650c262852b02ec6640a8e7ec9","name":"Dr. Danniel Schuster II","party":"","address":"735 N 400 E, Apt 23, Provo, UT 84606","precinct":"25PR37","hd":"60","v_score":"24.93539042","decile":"10","lat":40.11931451311093,"lng":-111.64800879803333,"phone":"(687) 204-7349","sd":"24","ssbd":"13","lsbd":"School Board Provo 7"},{"vid":"2297728","name":"Donte Harber","party":"Rep","address":"49 E 900 N, Provo, UT 84604","precinct":"25PR37","hd":"60","v_score":"8.703939628","decile":"8","lat":40.245929075753715,"lng":-111.65754792161746,"phone":"(199) 907-5663","sd":"24","ssbd":"13","lsbd":"School Board Provo 7"},{"vid":"2300213","name":"Anjelica Bednar","party":"Dem","address":"49 E 900 N, Provo, UT 84604","precinct":"25PR37","hd":"60","v_score":"5.761032035","decile":"7","lat":40.245929075753715,"lng":-111.65754792161746,"phone":"(415) 239-5647","sd":"24","ssbd":"13","lsbd":"School Board Provo 7"},{"vid":"c56bcd04210b8d6d87e6670a89d5387f70f6f2b48a3e0b24f1b65230ba084ce8","name":"Quinn Stokes","party":"Rep","address":"222 E 700 N, Apt 8, Provo, UT 84606","precinct":"25PR37","hd":"60","v_score":"6.015500579","decile":"7","lat":40.24279456703664,"lng":-111.65443265311968,"phone":"(101) 083-0009","sd":"24","ssbd":"13","lsbd":"School Board Provo 7"},{"vid":"2317846","name":"Miss Felecia Hegmann","party":"Dem","address":"665 N 100 E, Apt 4, Provo, UT 84606","precinct":"25PR37","hd":"60","v_score":"8.903210001","decile":"8","lat":40.24253176731533,"lng":-111.65707869722893,"phone":"(711) 113-9764","sd":"24","ssbd":"13","lsbd":"School Board Provo 7"},{"vid":"2320331","name":"Dr. Levern Kohler","party":"Rep","address":"316 E 700 N, Apt H3, Provo, UT 84606","precinct":"25PR37","hd":"60","v_score":"7.013961469","decile":"8","lat":40.24282593746243,"lng":-111.65301468384928,"phone":"(384) 346-8780","sd":"24","ssbd":"13","lsbd":"School Board Provo 7"},{"vid":"2320495","name":"Zadie Fritsch","party":"Dem","address":"642 N 200 E, Apt 108, Provo, UT 84606","precinct":"25PR37","hd":"60","v_score":"1.121327652","decile":"3","lat":40.24227720506709,"lng":-111.65456226692545,"phone":"(144) 916-3559","sd":"24","ssbd":"13","lsbd":"School Board Provo 7"},{"vid":"2326307","name":"Kaitlin Block","party":"","address":"727 N 300 E, Apt 209, Provo, UT 84606","precinct":"25PR37","hd":"60","v_score":"4.622022458","decile":"7","lat":40.243454898579834,"lng":-111.65398322205614,"phone":"(953) 290-8660","sd":"24","ssbd":"13","lsbd":"School Board Provo 7"},{"vid":"2332816","name":"Dr. Ignatz Daugherty","party":"Dem","address":"686 N 100 E, Provo, UT 84606","precinct":"25PR37","hd":"60","v_score":"1.193887297","decile":"3","lat":40.39562167339505,"lng":-111.84737367225122,"phone":"(243) 337-3729","sd":"24","ssbd":"13","lsbd":"School Board Provo 7"},{"vid":"2333470","name":"Edward Mosciski","party":"","address":"316 E 700 N, Apt H3, Provo, UT 84606","precinct":"25PR37","hd":"60","v_score":"1.121327652","decile":"3","lat":40.24282593746243,"lng":-111.65301468384928,"phone":"(850) 808-9743","sd":"24","ssbd":"13","lsbd":"School Board Provo 7"},{"vid":"2333668","name":"Sharlene Johns","party":"","address":"915 N 150 E, Provo, UT 84604","precinct":"25PR37","hd":"60","v_score":"2.315214949","decile":"5","lat":40.24607306015791,"lng":-111.65654993347869,"phone":"(221) 667-2962","sd":"24","ssbd":"13","lsbd":"School Board Provo 7"},{"vid":"2345607","name":"Hubbard Kassulke","party":"","address":"681 N 100 E, Apt 4, Provo, UT 84606","precinct":"25PR37","hd":"60","v_score":"0","decile":"1","lat":40.24267098350594,"lng":-111.65747306446588,"phone":"(324) 785-0436","sd":"24","ssbd":"13","lsbd":"School Board Provo 7"},{"vid":"2348549","name":"Mrs. Elia Gutmann","party":"Rep","address":"915 N 150 E, Apt 307, Provo, UT 84604","precinct":"25PR37","hd":"60","v_score":"1.121327652","decile":"3","lat":40.24607306015791,"lng":-111.65654993347869,"phone":"(730) 117-4041","sd":"24","ssbd":"13","lsbd":"School Board Provo 7"},{"vid":"2352694","name":"Destini Swaniawski MD","party":"","address":"895 N 50 E, Provo, UT 84604","precinct":"25PR37","hd":"60","v_score":"1.121327652","decile":"3","lat":40.245558159244354,"lng":-111.65754457341676,"phone":"(744) 292-7569","sd":"24","ssbd":"13","lsbd":"School Board Provo 7"},{"vid":"2357574","name":"Dr. Echo Dickens DDS","party":"Dem","address":"146 E 800 N, Provo, UT 84606","precinct":"25PR37","hd":"60","v_score":"1.121327652","decile":"3","lat":40.24409754379405,"lng":-111.65606588160074,"phone":"(570) 496-4392","sd":"24","ssbd":"13","lsbd":"School Board Provo 7"},{"vid":"2358188","name":"Miss Shamika Kulas","party":"Dem","address":"315 E 600 N, Apt 3, Provo, UT 84606","precinct":"25PR37","hd":"60","v_score":"3.93832808","decile":"6","lat":40.11773968841133,"lng":-111.6491380473598,"phone":"(615) 759-5306","sd":"24","ssbd":"13","lsbd":"School Board Provo 7"},{"vid":"2364701","name":"Verlyn Jacobs-Kuhn","party":"","address":"362 E 700 N, Apt D3, Provo, UT 84606","precinct":"25PR37","hd":"60","v_score":"5.761032035","decile":"7","lat":40.24278703023381,"lng":-111.65237576393064,"phone":"(646) 377-2012","sd":"24","ssbd":"13","lsbd":"School Board Provo 7"},{"vid":"2368849","name":"Elda Ankunding PhD","party":"","address":"141 E 700 N, Provo, UT 84606","precinct":"25PR37","hd":"60","v_score":"2.315214949","decile":"5","lat":40.24327238762275,"lng":-111.65623401316391,"phone":"(488) 603-2615","sd":"24","ssbd":"13","lsbd":"School Board Provo 7"},{"vid":"2384069","name":"Mrs. Nia Beahan","party":"Dem","address":"870 N 50 E, Bsmt, Provo, UT 84604","precinct":"25PR37","hd":"60","v_score":"2.315214949","decile":"5","lat":40.24530076623211,"lng":-111.6569449612796,"phone":"(646) 712-1225","sd":"24","ssbd":"13","lsbd":"School Board Provo 7"},{"vid":"2396274","name":"Katelyn Towne","party":"","address":"710 N 300 E, Provo, UT 84606","precinct":"25PR37","hd":"60","v_score":"1.121327652","decile":"3","lat":40.37136824479462,"lng":-111.73542635870177,"phone":"(158) 037-2530","sd":"24","ssbd":"13","lsbd":"School Board Provo 7"},{"vid":"2401373","name":"Magdalene Doyle","party":"Rep","address":"680 N 300 E, Provo, UT 84606","precinct":"25PR37","hd":"60","v_score":"2.744440783","decile":"5","lat":40.24260499376218,"lng":-111.65297814235981,"phone":"(964) 431-3209","sd":"24","ssbd":"13","lsbd":"School Board Provo 7"},{"vid":"2405309","name":"Waylon Langosh","party":"","address":"146 E 800 N, Provo, UT 84606","precinct":"25PR37","hd":"60","v_score":"1.121327652","decile":"3","lat":40.24409754379405,"lng":-111.65606588160074,"phone":"(987) 516-3101","sd":"24","ssbd":"13","lsbd":"School Board Provo 7"},{"vid":"2408464","name":"Hiram Spinka","party":"Dem","address":"195 E 600 N, Apt 22, Provo, UT 84606","precinct":"25PR37","hd":"60","v_score":"3.737122292","decile":"6","lat":40.24203004275811,"lng":-111.65555560779697,"phone":"(585) 572-9234","sd":"24","ssbd":"13","lsbd":"School Board Provo 7"},{"vid":"2416194","name":"Arvil Rau","party":"","address":"225 E 700 N, Apt 8, Provo, UT 84606","precinct":"25PR37","hd":"60","v_score":"0","decile":"1","lat":40.24338975632332,"lng":-111.65448917652901,"phone":"(103) 284-0574","sd":"24","ssbd":"13","lsbd":"School Board Provo 7"},{"vid":"2416252","name":"Dollye West","party":"Dem","address":"745 N 400 E, Apt 8, Provo, UT 84606","precinct":"25PR37","hd":"60","v_score":"1.121327652","decile":"3","lat":40.177219263210404,"lng":-111.60347402371241,"phone":"(765) 021-6630","sd":"24","ssbd":"13","lsbd":"School Board Provo 7"},{"vid":"2416377","name":"Berkley Romaguera","party":"","address":"735 N 400 E, Apt 24, Provo, UT 84606","precinct":"25PR37","hd":"60","v_score":"1.121327652","decile":"3","lat":40.11931451311093,"lng":-111.64800879803333,"phone":"(176) 466-1257","sd":"24","ssbd":"13","lsbd":"School Board Provo 7"},{"vid":"2416837","name":"Dona Cruickshank","party":"","address":"47 E 600 N, Apt 302, Provo, UT 84606","precinct":"25PR37","hd":"60","v_score":"1.121327652","decile":"3","lat":40.24243064361217,"lng":-111.6578537109831,"phone":"(297) 437-9966","sd":"24","ssbd":"13","lsbd":"School Board Provo 7"},{"vid":"2418993","name":"Zoie Volkman","party":"","address":"125 E 600 N, Provo, UT 84606","precinct":"25PR37","hd":"60","v_score":"0","decile":"1","lat":40.24192401869196,"lng":-111.65636980250224,"phone":"(941) 808-9070","sd":"24","ssbd":"13","lsbd":"School Board Provo 7"},{"vid":"2424150","name":"Ferris Lemke","party":"","address":"659 N 300 E, Apt 3, Provo, UT 84606","precinct":"25PR37","hd":"60","v_score":"1.121327652","decile":"3","lat":40.24246331882138,"lng":-111.65386905129394,"phone":"(320) 737-4006","sd":"24","ssbd":"13","lsbd":"School Board Provo 7"},{"vid":"2426484","name":"Lawerence Lakin DDS","party":"Rep","address":"665 N 400 E, Apt A3, Provo, UT 84606","precinct":"25PR37","hd":"60","v_score":"6.52928996","decile":"7","lat":40.24251402567312,"lng":-111.65210592978222,"phone":"(675) 809-2593","sd":"24","ssbd":"13","lsbd":"School Board Provo 7"},{"vid":"2432807","name":"Camren Gaylord","party":"","address":"195 E 600 N, Apt 17, Provo, UT 84606","precinct":"25PR37","hd":"60","v_score":"1.121327652","decile":"3","lat":40.24203004275811,"lng":-111.65555560779697,"phone":"(653) 909-0252","sd":"24","ssbd":"13","lsbd":"School Board Provo 7"},{"vid":"2434666","name":"Jesus Mayer-Volkman","party":"","address":"316 E 700 N, Apt H6, Provo, UT 84606","precinct":"25PR37","hd":"60","v_score":"1.121327652","decile":"3","lat":40.24282593746243,"lng":-111.65301468384928,"phone":"(345) 007-7285","sd":"24","ssbd":"13","lsbd":"School Board Provo 7"},{"vid":"2438286","name":"Adalyn White","party":"","address":"345 E 600 N, Apt F1, Provo, UT 84606","precinct":"25PR37","hd":"60","v_score":"1.193887297","decile":"3","lat":40.24202044043116,"lng":-111.65260763904806,"phone":"(710) 699-9902","sd":"24","ssbd":"13","lsbd":"School Board Provo 7"},{"vid":"2439854","name":"Daren Bruen","party":"Dem","address":"738 N 200 E, Apt 2, Provo, UT 84606","precinct":"25PR37","hd":"60","v_score":"0","decile":"1","lat":40.24350949865665,"lng":-111.6547934426146,"phone":"(299) 368-0285","sd":"24","ssbd":"13","lsbd":"School Board Provo 7"},{"vid":"2443403","name":"Jaren Torphy","party":"Rep","address":"727 N 300 E, Apt 310, Provo, UT 84606","precinct":"25PR37","hd":"60","v_score":"1.121327652","decile":"3","lat":40.243454898579834,"lng":-111.65398322205614,"phone":"(523) 727-0718","sd":"24","ssbd":"13","lsbd":"School Board Provo 7"},{"vid":"2445538","name":"Veta Weimann","party":"","address":"742 N 200 E, Apt 7, Provo, UT 84606","precinct":"25PR37","hd":"60","v_score":"1.121327652","decile":"3","lat":40.24363699208573,"lng":-111.65480842727214,"phone":"(522) 663-3447","sd":"24","ssbd":"13","lsbd":"School Board Provo 7"},{"vid":"2445597","name":"Jamaal Mante","party":"","address":"70 E 800 N, Provo, UT 84606","precinct":"25PR37","hd":"60","v_score":"0","decile":"1","lat":40.244161455059114,"lng":-111.65735391102828,"phone":"(660) 885-1810","sd":"24","ssbd":"13","lsbd":"School Board Provo 7"},{"vid":"2452113","name":"Essie Runolfsson","party":"","address":"630 N 300 E, Provo, UT 84606","precinct":"25PR37","hd":"60","v_score":"1.121327652","decile":"3","lat":40.24217511359576,"lng":-111.65311042108205,"phone":"(415) 066-7306","sd":"24","ssbd":"13","lsbd":"School Board Provo 7"},{"vid":"2452872","name":"Dr. Chanie Bernhard","party":"Dem","address":"727 N 300 E, Apt 110, Provo, UT 84606","precinct":"25PR37","hd":"60","v_score":"1.121327652","decile":"3","lat":40.243454898579834,"lng":-111.65398322205614,"phone":"(329) 025-5607","sd":"24","ssbd":"13","lsbd":"School Board Provo 7"},{"vid":"2452968","name":"Sharman Mueller-Bogisich","party":"Dem","address":"642 N 200 E, Apt 105, Provo, UT 84606","precinct":"25PR37","hd":"60","v_score":"1.121327652","decile":"3","lat":40.24227720506709,"lng":-111.65456226692545,"phone":"(954) 060-7808","sd":"24","ssbd":"13","lsbd":"School Board Provo 7"},{"vid":"2453783","name":"Merlene Bednar","party":"Dem","address":"34 E 700 N, Apt 24, Provo, UT 84606","precinct":"25PR37","hd":"60","v_score":"1.121327652","decile":"3","lat":40.242840541175624,"lng":-111.65793785848321,"phone":"(927) 373-8022","sd":"24","ssbd":"13","lsbd":"School Board Provo 7"},{"vid":"2454429","name":"Tolbert Schroeder-Hilll","party":"Dem","address":"727 N 300 E, Apt 301, Provo, UT 84606","precinct":"25PR37","hd":"60","v_score":"3.93832808","decile":"6","lat":40.243454898579834,"lng":-111.65398322205614,"phone":"(221) 947-0751","sd":"24","ssbd":"13","lsbd":"School Board Provo 7"},{"vid":"2455504","name":"Kelsey Willms MD","party":"Dem","address":"12 E 900 N, Provo, UT 84604","precinct":"25PR37","hd":"60","v_score":"1.121327652","decile":"3","lat":40.24565434514889,"lng":-111.65832074620901,"phone":"(881) 103-3666","sd":"24","ssbd":"13","lsbd":"School Board Provo 7"},{"vid":"2456788","name":"Dr. Dale Ziemann","party":"","address":"745 N 400 E, Apt 3, Provo, UT 84606","precinct":"25PR37","hd":"60","v_score":"1.121327652","decile":"3","lat":40.177219263210404,"lng":-111.60347402371241,"phone":"(163) 574-3403","sd":"24","ssbd":"13","lsbd":"School Board Provo 7"},{"vid":"2456985","name":"Saul Kreiger","party":"Rep","address":"735 N 400 E, Apt 24, Provo, UT 84606","precinct":"25PR37","hd":"60","v_score":"1.121327652","decile":"3","lat":40.11931451311093,"lng":-111.64800879803333,"phone":"(131) 241-0059","sd":"24","ssbd":"13","lsbd":"School Board Provo 7"},{"vid":"2456993","name":"Ebba Jacobi","party":"Dem","address":"727 N 300 E, Apt 201, Provo, UT 84606","precinct":"25PR37","hd":"60","v_score":"2.315214949","decile":"5","lat":40.243454898579834,"lng":-111.65398322205614,"phone":"(196) 101-0613","sd":"24","ssbd":"13","lsbd":"School Board Provo 7"},{"vid":"2458130","name":"Adriana Roob","party":"Dem","address":"870 N 50 E, Provo, UT 84604","precinct":"25PR37","hd":"60","v_score":"1.121327652","decile":"3","lat":40.24530076623211,"lng":-111.6569449612796,"phone":"(571) 852-1642","sd":"24","ssbd":"13","lsbd":"School Board Provo 7"},{"vid":"2458155","name":"Dr. Hattie Connelly","party":"Rep","address":"309 E 700 N, Provo, UT 84606","precinct":"25PR37","hd":"60","v_score":"2.315214949","decile":"5","lat":40.2432702686987,"lng":-111.65311316471659,"phone":"(222) 052-5072","sd":"24","ssbd":"13","lsbd":"School Board Provo 7"},{"vid":"2460484","name":"Marcelo Hodkiewicz","party":"","address":"876 N University Ave, Apt 1, Provo, UT 84604","precinct":"25PR37","hd":"60","v_score":"1.193887297","decile":"3","lat":40.24529056332503,"lng":-111.65813065982026,"phone":"(979) 252-7654","sd":"24","ssbd":"13","lsbd":"School Board Provo 7"},{"vid":"2460868","name":"Solon Stiedemann","party":"Rep","address":"182 E 800 N, Apt 6, Provo, UT 84606","precinct":"25PR37","hd":"60","v_score":"0","decile":"1","lat":40.24409126944978,"lng":-111.65554573513235,"phone":"(762) 124-9103","sd":"24","ssbd":"13","lsbd":"School Board Provo 7"},{"vid":"2462903","name":"Dr. Dolph Kihn DVM","party":"","address":"948 N 50 E, Apt 202, Provo, UT 84604","precinct":"25PR37","hd":"60","v_score":"0","decile":"1","lat":40.246287615284885,"lng":-111.6571267245613,"phone":"(968) 859-4049","sd":"24","ssbd":"13","lsbd":"School Board Provo 7"},{"vid":"2465511","name":"Arlene Williamson-Smitham","party":"Dem","address":"195 E 600 N, Apt 13, Provo, UT 84606","precinct":"25PR37","hd":"60","v_score":"0","decile":"1","lat":40.24203004275811,"lng":-111.65555560779697,"phone":"(491) 588-5542","sd":"24","ssbd":"13","lsbd":"School Board Provo 7"},{"vid":"2470742","name":"Worley Dietrich","party":"Dem","address":"99 E 800 N, Provo, UT 84606","precinct":"25PR37","hd":"60","v_score":"0","decile":"1","lat":40.24458479413288,"lng":-111.65697070481976,"phone":"(618) 131-4598","sd":"24","ssbd":"13","lsbd":"School Board Provo 7"},{"vid":"2476089","name":"Bynum Hettinger","party":"Dem","address":"851 N 50 E, Apt 332, Provo, UT 84604","precinct":"25PR37","hd":"60","v_score":"1.193887297","decile":"3","lat":40.24513392312898,"lng":-111.65756706687215,"phone":"(963) 151-2107","sd":"24","ssbd":"13","lsbd":"School Board Provo 7"},{"vid":"2476380","name":"Mrs. Cathern Bartoletti","party":"Dem","address":"625 N 300 E, Provo, UT 84606","precinct":"25PR37","hd":"60","v_score":"11.26156058","decile":"9","lat":40.37038199862187,"lng":-111.73628956656695,"phone":"(220) 775-3874","sd":"24","ssbd":"13","lsbd":"School Board Provo 7"},{"vid":"2479327","name":"Luanne Wiegand-Schroeder","party":"Dem","address":"642 N 200 E, Apt 220, Provo, UT 84606","precinct":"25PR37","hd":"60","v_score":"0","decile":"1","lat":40.24227720506709,"lng":-111.65456226692545,"phone":"(118) 957-1008","sd":"24","ssbd":"13","lsbd":"School Board Provo 7"},{"vid":"2482177","name":"Terrie Gutkowski","party":"Rep","address":"34 E 700 N, Apt 10, Provo, UT 84606","precinct":"25PR37","hd":"60","v_score":"0","decile":"1","lat":40.242840541175624,"lng":-111.65793785848321,"phone":"(232) 012-7798","sd":"24","ssbd":"13","lsbd":"School Board Provo 7"},{"vid":"2482199","name":"Dr. Brendan Kuhlman","party":"","address":"670 N 300 E, Apt C5, Provo, UT 84606","precinct":"25PR37","hd":"60","v_score":"0","decile":"1","lat":40.24242386782226,"lng":-111.6529791102047,"phone":"(123) 839-6511","sd":"24","ssbd":"13","lsbd":"School Board Provo 7"},{"vid":"2487978","name":"Mrs. Onnie Collier MD","party":"","address":"740 N University Ave, Apt D211, Provo, UT 84601","precinct":"25PR37","hd":"60","v_score":"0","decile":"1","lat":40.243707073183764,"lng":-111.65755713800468,"phone":"(125) 555-8578","sd":"24","ssbd":"13","lsbd":"School Board Provo 7"},{"vid":"2490005","name":"Jade Crist","party":"Rep","address":"942 N University Ave, Apt 34, Provo, UT 84604","precinct":"25PR37","hd":"60","v_score":"8.875197818","decile":"8","lat":40.24622996076953,"lng":-111.65812240591978,"phone":"(977) 150-9930","sd":"24","ssbd":"13","lsbd":"School Board Provo 7"},{"vid":"2491690","name":"Byrd Bechtelar","party":"Dem","address":"747 N 200 E, Apt 2, Provo, UT 84606","precinct":"25PR37","hd":"60","v_score":"1.193887297","decile":"3","lat":40.24356916209855,"lng":-111.65557882288974,"phone":"(296) 088-8703","sd":"24","ssbd":"13","lsbd":"School Board Provo 7"},{"vid":"2493097","name":"Dr. Annabella Waelchi","party":"Dem","address":"345 E 600 N, Apt F1, Provo, UT 84606","precinct":"25PR37","hd":"60","v_score":"2.817000428","decile":"6","lat":40.24202044043116,"lng":-111.65260763904806,"phone":"(456) 638-7339","sd":"24","ssbd":"13","lsbd":"School Board Provo 7"},{"vid":"2503292","name":"Linus Friesen-Emmerich","party":"","address":"899 N 50 E, Provo, UT 84604","precinct":"25PR37","hd":"60","v_score":"0","decile":"1","lat":40.245640502893714,"lng":-111.65754411743191,"phone":"(669) 210-3372","sd":"24","ssbd":"13","lsbd":"School Board Provo 7"},{"vid":"2503922","name":"Leo Pollich","party":"","address":"695 N 100 E, Apt 8, Provo, UT 84606","precinct":"25PR37","hd":"60","v_score":"1.193887297","decile":"3","lat":40.24281988710165,"lng":-111.65705325409311,"phone":"(911) 323-2874","sd":"24","ssbd":"13","lsbd":"School Board Provo 7"},{"vid":"2504987","name":"Mckayla Beer","party":"","address":"642 N 200 E, Apt 207, Provo, UT 84606","precinct":"25PR37","hd":"60","v_score":"0","decile":"1","lat":40.24227720506709,"lng":-111.65456226692545,"phone":"(451) 159-5723","sd":"24","ssbd":"13","lsbd":"School Board Provo 7"},{"vid":"2519913","name":"Dr. Blaine Kassulke MD","party":"","address":"642 N 200 E, Apt 108, Provo, UT 84606","precinct":"25PR37","hd":"60","v_score":"1.193887297","decile":"4","lat":40.24227720506709,"lng":-111.65456226692545,"phone":"(882) 564-5158","sd":"24","ssbd":"13","lsbd":"School Board Provo 7"},{"vid":"2521162","name":"Mr. Gunnar Wisozk V","party":"Dem","address":"341 E 700 N, Provo, UT 84606","precinct":"25PR37","hd":"60","v_score":"1.193887297","decile":"4","lat":40.24321388448661,"lng":-111.65266276967516,"phone":"(921) 852-4777","sd":"24","ssbd":"13","lsbd":"School Board Provo 7"},{"vid":"2523898","name":"Willow Pfannerstill-Torphy","party":"Rep","address":"642 N 300 E, Provo, UT 84606","precinct":"25PR37","hd":"60","v_score":"2.817000428","decile":"6","lat":40.30892232391361,"lng":-111.68834930236014,"phone":"(148) 133-4236","sd":"24","ssbd":"13","lsbd":"School Board Provo 7"},{"vid":"2526069","name":"Bryn Yundt","party":"Dem","address":"851 N 50 E, Apt 130, Provo, UT 84604","precinct":"25PR37","hd":"60","v_score":"4.732607667","decile":"7","lat":40.24513392312898,"lng":-111.65756706687215,"phone":"(131) 401-7652","sd":"24","ssbd":"13","lsbd":"School Board Provo 7"},{"vid":"2526296","name":"Simon Walsh","party":"Dem","address":"345 E 600 N, Apt F2, Provo, UT 84606","precinct":"25PR37","hd":"60","v_score":"0","decile":"1","lat":40.24202044043116,"lng":-111.65260763904806,"phone":"(997) 793-6717","sd":"24","ssbd":"13","lsbd":"School Board Provo 7"},{"vid":"2526465","name":"Haley Graham","party":"Rep","address":"745 N 400 E, Apt 8, Provo, UT 84606","precinct":"25PR37","hd":"60","v_score":"1.193887297","decile":"4","lat":40.177219263210404,"lng":-111.60347402371241,"phone":"(139) 263-0893","sd":"24","ssbd":"13","lsbd":"School Board Provo 7"},{"vid":"2527442","name":"Mr. Guss Romaguera","party":"Dem","address":"660 N 200 E, Apt 17, Provo, UT 84606","precinct":"25PR37","hd":"60","v_score":"1.193887297","decile":"4","lat":40.2425667622508,"lng":-111.65456722613915,"phone":"(621) 688-7441","sd":"24","ssbd":"13","lsbd":"School Board Provo 7"},{"vid":"2540369","name":"Ms. Unique Walker","party":"","address":"35 E 800 N, Provo, UT 84606","precinct":"25PR37","hd":"60","v_score":"0","decile":"1","lat":40.24458950868002,"lng":-111.65796042129709,"phone":"(734) 628-9009","sd":"24","ssbd":"13","lsbd":"School Board Provo 7"},{"vid":"2544036","name":"Jettie Kuphal","party":"Rep","address":"137 E 600 N, Apt 2, Provo, UT 84606","precinct":"25PR37","hd":"60","v_score":"0","decile":"1","lat":40.241923402928684,"lng":-111.65618071539946,"phone":"(526) 845-4040","sd":"24","ssbd":"13","lsbd":"School Board Provo 7"},{"vid":"2547964","name":"Amy Maggio","party":"","address":"657 N 400 E, Apt G5, Provo, UT 84606","precinct":"25PR37","hd":"60","v_score":"0","decile":"1","lat":40.11823534299475,"lng":-111.64802151458449,"phone":"(925) 872-7857","sd":"24","ssbd":"13","lsbd":"School Board Provo 7"},{"vid":"2550337","name":"Mr. Estes Littel","party":"","address":"673 N 400 E, Apt E3, Provo, UT 84606","precinct":"25PR37","hd":"60","v_score":"1.623113131","decile":"5","lat":40.24270377127313,"lng":-111.65200840885466,"phone":"(256) 004-5331","sd":"24","ssbd":"13","lsbd":"School Board Provo 7"},{"vid":"2556020","name":"Ab Conroy","party":"Dem","address":"731 N 400 E, Provo, UT 84606","precinct":"25PR37","hd":"60","v_score":"0","decile":"1","lat":40.17692153902556,"lng":-111.60347653504263,"phone":"(283) 334-8439","sd":"24","ssbd":"13","lsbd":"School Board Provo 7"},{"vid":"2556123","name":"Ellsworth Ryan","party":"","address":"745 N 100 E, Apt B306, Provo, UT 84606","precinct":"25PR37","hd":"60","v_score":"1.623113131","decile":"5","lat":40.11939101214207,"lng":-111.65320003360117,"phone":"(454) 985-0843","sd":"24","ssbd":"13","lsbd":"School Board Provo 7"},{"vid":"2556139","name":"Mr. Trayvon Terry V","party":"Dem","address":"34 E 700 N, Apt 15, Provo, UT 84606","precinct":"25PR37","hd":"60","v_score":"0","decile":"1","lat":40.242840541175624,"lng":-111.65793785848321,"phone":"(790) 151-0803","sd":"24","ssbd":"13","lsbd":"School Board Provo 7"},{"vid":"2556207","name":"Gerry Auer","party":"Rep","address":"41 E 800 N, Apt 3, Provo, UT 84606","precinct":"25PR37","hd":"60","v_score":"0","decile":"1","lat":40.24464726362401,"lng":-111.65773783237273,"phone":"(182) 976-9328","sd":"24","ssbd":"13","lsbd":"School Board Provo 7"},{"vid":"2557237","name":"Mr. Callie Goyette III","party":"","address":"836 N University Ave, Apt 212, Provo, UT 84604","precinct":"25PR37","hd":"60","v_score":"0","decile":"1","lat":40.24485720911138,"lng":-111.65789695616135,"phone":"(488) 182-5022","sd":"24","ssbd":"13","lsbd":"School Board Provo 7"},{"vid":"2557719","name":"Nicklaus Mueller","party":"Rep","address":"150 E 700 N, Apt 16, Provo, UT 84606","precinct":"25PR37","hd":"60","v_score":"2.876042565","decile":"6","lat":40.2426860076945,"lng":-111.65587591930785,"phone":"(894) 561-4171","sd":"24","ssbd":"13","lsbd":"School Board Provo 7"},{"vid":"2557870","name":"Wylie Koss-Kohler","party":"","address":"740 N University Ave, Apt B304, Provo, UT 84601","precinct":"25PR37","hd":"60","v_score":"6.355720798","decile":"7","lat":40.243707073183764,"lng":-111.65755713800468,"phone":"(136) 890-5602","sd":"24","ssbd":"13","lsbd":"School Board Provo 7"},{"vid":"2558257","name":"Helga Schulist","party":"Rep","address":"642 N 200 E, Apt 213, Provo, UT 84606","precinct":"25PR37","hd":"60","v_score":"0","decile":"1","lat":40.24227720506709,"lng":-111.65456226692545,"phone":"(138) 032-1176","sd":"24","ssbd":"13","lsbd":"School Board Provo 7"},{"vid":"2560612","name":"Leatrice Kilback","party":"Rep","address":"915 N 150 E, Apt 206, Provo, UT 84604","precinct":"25PR37","hd":"60","v_score":"0","decile":"1","lat":40.24607306015791,"lng":-111.65654993347869,"phone":"(508) 929-1181","sd":"24","ssbd":"13","lsbd":"School Board Provo 7"},{"vid":"2563656","name":"Washington Runolfsdottir","party":"Dem","address":"617 N 100 E, Provo, UT 84606","precinct":"25PR37","hd":"60","v_score":"1.193887297","decile":"4","lat":40.24209141142741,"lng":-111.65724596651211,"phone":"(770) 244-9653","sd":"24","ssbd":"13","lsbd":"School Board Provo 7"},{"vid":"2568139","name":"Jed Pagac","party":"Rep","address":"942 N University Ave, Apt 14, Provo, UT 84604","precinct":"25PR37","hd":"60","v_score":"0","decile":"1","lat":40.24622996076953,"lng":-111.65812240591978,"phone":"(785) 285-6823","sd":"24","ssbd":"13","lsbd":"School Board Provo 7"},{"vid":"2570858","name":"Wende O'Hara","party":"Dem","address":"747 N 200 E, Apt 10, Provo, UT 84606","precinct":"25PR37","hd":"60","v_score":"0","decile":"1","lat":40.24356916209855,"lng":-111.65557882288974,"phone":"(815) 354-6673","sd":"24","ssbd":"13","lsbd":"School Board Provo 7"},{"vid":"2580020","name":"Charmaine Brakus","party":"","address":"141 E 700 N, # 9, Provo, UT 84606","precinct":"25PR37","hd":"60","v_score":"5.693042993","decile":"7","lat":40.24327238762275,"lng":-111.65623401316391,"phone":"(997) 388-7778","sd":"24","ssbd":"13","lsbd":"School Board Provo 7"},{"vid":"2587118","name":"Orvis Hamill","party":"Dem","address":"735 N 400 E, Apt 28, Provo, UT 84606","precinct":"25PR37","hd":"60","v_score":"0","decile":"1","lat":40.11931451311093,"lng":-111.64800879803333,"phone":"(907) 906-8912","sd":"24","ssbd":"13","lsbd":"School Board Provo 7"},{"vid":"2588743","name":"Ever Kulas","party":"","address":"642 N 200 E, Apt 104, Provo, UT 84606","precinct":"25PR37","hd":"60","v_score":"0","decile":"1","lat":40.24227720506709,"lng":-111.65456226692545,"phone":"(424) 734-5766","sd":"24","ssbd":"13","lsbd":"School Board Provo 7"},{"vid":"2588751","name":"Antwain Farrell-Jacobs","party":"","address":"150 E 700 N, Apt 5, Provo, UT 84606","precinct":"25PR37","hd":"60","v_score":"1.623113131","decile":"5","lat":40.2426860076945,"lng":-111.65587591930785,"phone":"(452) 439-7986","sd":"24","ssbd":"13","lsbd":"School Board Provo 7"},{"vid":"2591599","name":"Viva Fisher","party":"","address":"915 N 150 E, Apt 102, Provo, UT 84604","precinct":"25PR37","hd":"60","v_score":"4.166348126","decile":"7","lat":40.24607306015791,"lng":-111.65654993347869,"phone":"(715) 381-5511","sd":"24","ssbd":"13","lsbd":"School Board Provo 7"},{"vid":"2592165","name":"Gaynell Buckridge","party":"","address":"44 E 900 N, Provo, UT 84604","precinct":"25PR37","hd":"60","v_score":"8.284004873","decile":"8","lat":40.24564490323368,"lng":-111.65779125169207,"phone":"(627) 014-7498","sd":"24","ssbd":"13","lsbd":"School Board Provo 7"},{"vid":"2594210","name":"Anton Fritsch","party":"Rep","address":"745 N 400 E, Apt 26, Provo, UT 84606","precinct":"25PR37","hd":"60","v_score":"0","decile":"1","lat":40.177219263210404,"lng":-111.60347402371241,"phone":"(414) 628-4101","sd":"24","ssbd":"13","lsbd":"School Board Provo 7"},{"vid":"2595719","name":"Dr. Lish Ferry","party":"Rep","address":"330 E 700 N, Apt B3, Provo, UT 84606","precinct":"25PR37","hd":"60","v_score":"10.42565066","decile":"9","lat":40.24282467619309,"lng":-111.65271593975906,"phone":"(717) 184-4364","sd":"24","ssbd":"13","lsbd":"School Board Provo 7"},{"vid":"2604463","name":"Rosaline West-Hammes","party":"Dem","address":"222 E 700 N, Apt 10, Provo, UT 84606","precinct":"25PR37","hd":"60","v_score":"7.549608095","decile":"8","lat":40.24279456703664,"lng":-111.65443265311968,"phone":"(191) 555-8474","sd":"24","ssbd":"13","lsbd":"School Board Provo 7"},{"vid":"2610093","name":"Vester Gorczany","party":"Dem","address":"915 N 150 E, Apt 109, Provo, UT 84604","precinct":"25PR37","hd":"60","v_score":"0","decile":"1","lat":40.24607306015791,"lng":-111.65654993347869,"phone":"(245) 556-1861","sd":"24","ssbd":"13","lsbd":"School Board Provo 7"},{"vid":"2610914","name":"Margene Volkman-Heathcote","party":"","address":"851 N 50 E, Apt 331, Provo, UT 84604","precinct":"25PR37","hd":"60","v_score":"0","decile":"1","lat":40.24513392312898,"lng":-111.65756706687215,"phone":"(796) 864-9536","sd":"24","ssbd":"13","lsbd":"School Board Provo 7"},{"vid":"2629682","name":"Stephen Quigley","party":"Rep","address":"905 N 150 E, Apt 8, Provo, UT 84604","precinct":"25PR37","hd":"60","v_score":"1.193887297","decile":"4","lat":40.24566009817251,"lng":-111.65642967816918,"phone":"(569) 678-1942","sd":"24","ssbd":"13","lsbd":"School Board Provo 7"},{"vid":"2629819","name":"Carrie Rosenbaum","party":"Dem","address":"695 N 100 E, Apt 2, Provo, UT 84606","precinct":"25PR37","hd":"60","v_score":"1.623113131","decile":"5","lat":40.24281988710165,"lng":-111.65705325409311,"phone":"(956) 812-9444","sd":"24","ssbd":"13","lsbd":"School Board Provo 7"},{"vid":"2629822","name":"Gunner Harber","party":"","address":"150 E 700 N, Apt 8, Provo, UT 84606","precinct":"25PR37","hd":"60","v_score":"5.407962308","decile":"7","lat":40.2426860076945,"lng":-111.65587591930785,"phone":"(224) 724-4429","sd":"24","ssbd":"13","lsbd":"School Board Provo 7"},{"vid":"2629931","name":"Ethen Windler III","party":"Rep","address":"658 N 100 E, Provo, UT 84606","precinct":"25PR37","hd":"60","v_score":"4.069929862","decile":"6","lat":40.242418454219475,"lng":-111.6564590571326,"phone":"(494) 825-6719","sd":"24","ssbd":"13","lsbd":"School Board Provo 7"},{"vid":"2630188","name":"Timmie Kertzmann","party":"","address":"657 N 400 E, Apt G13, Provo, UT 84606","precinct":"25PR37","hd":"60","v_score":"2.817000428","decile":"6","lat":40.11823534299475,"lng":-111.64802151458449,"phone":"(678) 552-5387","sd":"24","ssbd":"13","lsbd":"School Board Provo 7"},{"vid":"2630299","name":"Axel Bechtelar","party":"Dem","address":"130 E 700 N, Apt 15, Provo, UT 84606","precinct":"25PR37","hd":"60","v_score":"18.88777439","decile":"10","lat":40.24273094574559,"lng":-111.65627866754403,"phone":"(233) 365-5519","sd":"24","ssbd":"13","lsbd":"School Board Provo 7"},{"vid":"2630521","name":"Quentin Lesch","party":"Rep","address":"635 N 100 E, Provo, UT 84606","precinct":"25PR37","hd":"60","v_score":"0","decile":"1","lat":40.242143833616225,"lng":-111.65713381911243,"phone":"(923) 390-3782","sd":"24","ssbd":"13","lsbd":"School Board Provo 7"},{"vid":"2630534","name":"Ms. Paige Herman","party":"","address":"735 N 400 E, Apt 24, Provo, UT 84606","precinct":"25PR37","hd":"60","v_score":"0","decile":"1","lat":40.11931451311093,"lng":-111.64800879803333,"phone":"(150) 304-1919","sd":"24","ssbd":"13","lsbd":"School Board Provo 7"},{"vid":"2631616","name":"Finley Spencer II","party":"Dem","address":"195 E 600 N, Apt 31, Provo, UT 84606","precinct":"25PR37","hd":"60","v_score":"6.355720798","decile":"7","lat":40.24203004275811,"lng":-111.65555560779697,"phone":"(124) 755-2202","sd":"24","ssbd":"13","lsbd":"School Board Provo 7"},{"vid":"cd2bd3ae2556792723824dc64202306ce2e857892c1861189cac05bdf730ded8","name":"Destini Eichmann","party":"Dem","address":"665 N 400 E, Apt A3, Provo, UT 84606","precinct":"25PR37","hd":"60","v_score":"18.35167816","decile":"10","lat":40.24251402567312,"lng":-111.65210592978222,"phone":"(632) 497-8680","sd":"24","ssbd":"13","lsbd":"School Board Provo 7"},{"vid":"2632189","name":"Star Kulas-Marquardt","party":"Dem","address":"161 E 700 N, Apt 9, Provo, UT 84606","precinct":"25PR37","hd":"60","v_score":"0","decile":"1","lat":40.243503431815995,"lng":-111.65585072413072,"phone":"(632) 328-7975","sd":"24","ssbd":"13","lsbd":"School Board Provo 7"},{"vid":"2632526","name":"Dr. Drusilla Yundt","party":"Rep","address":"42 E 800 N, Apt 102, Provo, UT 84606","precinct":"25PR37","hd":"60","v_score":"1.623113131","decile":"5","lat":40.24400613825566,"lng":-111.65778770583205,"phone":"(469) 749-4899","sd":"24","ssbd":"13","lsbd":"School Board Provo 7"},{"vid":"2632553","name":"Mr. Brendon Upton PhD","party":"Rep","address":"715 N 200 E, Apt 202, Provo, UT 84606","precinct":"25PR37","hd":"60","v_score":"2.817000428","decile":"6","lat":40.2432936094983,"lng":-111.65555043565689,"phone":"(894) 105-9035","sd":"24","ssbd":"13","lsbd":"School Board Provo 7"},{"vid":"2632813","name":"Orval Hills","party":"","address":"745 N 100 E, Apt A101, Provo, UT 84606","precinct":"25PR37","hd":"60","v_score":"0","decile":"1","lat":40.11939101214207,"lng":-111.65320003360117,"phone":"(895) 889-1212","sd":"24","ssbd":"13","lsbd":"School Board Provo 7"},{"vid":"2633507","name":"Roland Mohr","party":"Dem","address":"770 N University Ave, Apt 8, Provo, UT 84601","precinct":"25PR37","hd":"60","v_score":"0","decile":"1","lat":40.24381893437279,"lng":-111.65822456125589,"phone":"(420) 265-1922","sd":"24","ssbd":"13","lsbd":"School Board Provo 7"},{"vid":"2638172","name":"Annabel Erdman","party":"Rep","address":"660 N 200 E, Apt 8, Provo, UT 84606","precinct":"25PR37","hd":"60","v_score":"7.031075439","decile":"8","lat":40.2425667622508,"lng":-111.65456722613915,"phone":"(202) 331-8095","sd":"24","ssbd":"13","lsbd":"School Board Provo 7"},{"vid":"2638184","name":"Tamie Upton","party":"Rep","address":"681 N 100 E, Apt 2, Provo, UT 84606","precinct":"25PR37","hd":"60","v_score":"10.42565066","decile":"9","lat":40.24267098350594,"lng":-111.65747306446588,"phone":"(691) 253-0132","sd":"24","ssbd":"13","lsbd":"School Board Provo 7"},{"vid":"2638205","name":"Dr. Rylie Ruecker PhD","party":"Rep","address":"47 E 600 N, Apt 203, Provo, UT 84606","precinct":"25PR37","hd":"60","v_score":"4.499155696","decile":"7","lat":40.24243064361217,"lng":-111.6578537109831,"phone":"(863) 171-7561","sd":"24","ssbd":"13","lsbd":"School Board Provo 7"},{"vid":"2640258","name":"Harlow Stehr DDS","party":"Rep","address":"341 E 700 N, Provo, UT 84606","precinct":"25PR37","hd":"60","v_score":"1.193887297","decile":"4","lat":40.24321388448661,"lng":-111.65266276967516,"phone":"(527) 127-1936","sd":"24","ssbd":"13","lsbd":"School Board Provo 7"},{"vid":"2640601","name":"Myrtle Goyette","party":"Dem","address":"765 N 400 E, Provo, UT 84606","precinct":"25PR37","hd":"60","v_score":"1.193887297","decile":"4","lat":40.119588955661314,"lng":-111.64800938966378,"phone":"(655) 607-4530","sd":"24","ssbd":"13","lsbd":"School Board Provo 7"},{"vid":"2642429","name":"Jack Cartwright","party":"Dem","address":"642 N 200 E, Apt 206, Provo, UT 84606","precinct":"25PR37","hd":"60","v_score":"2.817000428","decile":"6","lat":40.24227720506709,"lng":-111.65456226692545,"phone":"(379) 549-3474","sd":"24","ssbd":"13","lsbd":"School Board Provo 7"},{"vid":"2643851","name":"Galilea Schmidt-Donnelly","party":"Dem","address":"665 N 100 E, Apt 4, Provo, UT 84606","precinct":"25PR37","hd":"60","v_score":"1.623113131","decile":"5","lat":40.24253176731533,"lng":-111.65707869722893,"phone":"(902) 337-7410","sd":"24","ssbd":"13","lsbd":"School Board Provo 7"},{"vid":"2644307","name":"Ivie Wolff","party":"Rep","address":"660 N 200 E, Apt 8, Provo, UT 84606","precinct":"25PR37","hd":"60","v_score":"7.549608095","decile":"8","lat":40.2425667622508,"lng":-111.65456722613915,"phone":"(757) 682-4195","sd":"24","ssbd":"13","lsbd":"School Board Provo 7"},{"vid":"2644889","name":"Dr. Clifton Schuppe MD","party":"","address":"161 E 700 N, Apt 9, Provo, UT 84606","precinct":"25PR37","hd":"60","v_score":"2.817000428","decile":"6","lat":40.243503431815995,"lng":-111.65585072413072,"phone":"(371) 698-5101","sd":"24","ssbd":"13","lsbd":"School Board Provo 7"},{"vid":"2652497","name":"Ms. Glendora Beatty","party":"Rep","address":"948 N 50 E, Apt 104, Provo, UT 84604","precinct":"25PR37","hd":"60","v_score":"0","decile":"1","lat":40.246287615284885,"lng":-111.6571267245613,"phone":"(454) 343-7039","sd":"24","ssbd":"13","lsbd":"School Board Provo 7"},{"vid":"2658030","name":"Flint Johnson","party":"Rep","address":"747 N 200 E, Provo, UT 84606","precinct":"25PR37","hd":"60","v_score":"1.193887297","decile":"4","lat":40.24356916209855,"lng":-111.65557882288974,"phone":"(358) 736-0714","sd":"24","ssbd":"13","lsbd":"School Board Provo 7"},{"vid":"2660306","name":"Miss Daneen Bailey PhD","party":"Rep","address":"899 N 50 E, Provo, UT 84604","precinct":"25PR37","hd":"60","v_score":"0","decile":"1","lat":40.245640502893714,"lng":-111.65754411743191,"phone":"(258) 219-4862","sd":"24","ssbd":"13","lsbd":"School Board Provo 7"},{"vid":"2662284","name":"Mr. Arvo DuBuque MD","party":"","address":"225 E 700 N, Apt 10, Provo, UT 84606","precinct":"25PR37","hd":"60","v_score":"0","decile":"1","lat":40.24338975632332,"lng":-111.65448917652901,"phone":"(836) 017-1451","sd":"24","ssbd":"13","lsbd":"School Board Provo 7"},{"vid":"2662876","name":"Stephany Klocko","party":"","address":"345 E 600 N, Apt F6, Provo, UT 84606","precinct":"25PR37","hd":"60","v_score":"1.193887297","decile":"4","lat":40.24202044043116,"lng":-111.65260763904806,"phone":"(272) 652-9131","sd":"24","ssbd":"13","lsbd":"School Board Provo 7"},{"vid":"2667181","name":"Mr. Durell Stokes","party":"","address":"330 E 700 N, Apt B6, Provo, UT 84606","precinct":"25PR37","hd":"60","v_score":"14.90715135","decile":"9","lat":40.24282467619309,"lng":-111.65271593975906,"phone":"(266) 021-5346","sd":"24","ssbd":"13","lsbd":"School Board Provo 7"},{"vid":"2668620","name":"Icey Hartmann","party":"Dem","address":"835 N 50 E, Apt 223, Provo, UT 84604","precinct":"25PR37","hd":"60","v_score":"0","decile":"1","lat":40.24481440928662,"lng":-111.6575172120422,"phone":"(276) 839-8362","sd":"24","ssbd":"13","lsbd":"School Board Provo 7"},{"vid":"2669419","name":"Audy Adams III","party":"Rep","address":"896 N 50 E, Provo, UT 84604","precinct":"25PR37","hd":"60","v_score":"1.193887297","decile":"4","lat":40.24566545832788,"lng":-111.65708534902262,"phone":"(157) 203-6536","sd":"24","ssbd":"13","lsbd":"School Board Provo 7"},{"vid":"2669690","name":"Mr. Jessee Abshire","party":"Rep","address":"316 E 700 N, Apt H2, Provo, UT 84606","precinct":"25PR37","hd":"60","v_score":"0","decile":"2","lat":40.24282593746243,"lng":-111.65301468384928,"phone":"(919) 775-9426","sd":"24","ssbd":"13","lsbd":"School Board Provo 7"},{"vid":"2671624","name":"Dr. Albertina Konopelski","party":"Dem","address":"745 N 100 E, Apt B205, Provo, UT 84606","precinct":"25PR37","hd":"60","v_score":"0","decile":"2","lat":40.11939101214207,"lng":-111.65320003360117,"phone":"(691) 724-9680","sd":"24","ssbd":"13","lsbd":"School Board Provo 7"},{"vid":"2671719","name":"Otelia Rolfson","party":"Dem","address":"760 N 300 E, Apt 2, Provo, UT 84606","precinct":"25PR37","hd":"60","v_score":"0","decile":"2","lat":40.24376533523651,"lng":-111.65296014784705,"phone":"(174) 271-1963","sd":"24","ssbd":"13","lsbd":"School Board Provo 7"},{"vid":"2673150","name":"Mrs. Ina Kiehn DVM","party":"","address":"760 N 300 E, Apt 3, Provo, UT 84606","precinct":"25PR37","hd":"60","v_score":"1.193887297","decile":"4","lat":40.24376533523651,"lng":-111.65296014784705,"phone":"(252) 841-4449","sd":"24","ssbd":"13","lsbd":"School Board Provo 7"},{"vid":"2675976","name":"Adelle Feeney","party":"Rep","address":"42 E 800 N, Apt 102, Provo, UT 84606","precinct":"25PR37","hd":"60","v_score":"0","decile":"2","lat":40.24400613825566,"lng":-111.65778770583205,"phone":"(996) 857-0688","sd":"24","ssbd":"13","lsbd":"School Board Provo 7"},{"vid":"2676998","name":"Mabelle Kuvalis","party":"","address":"42 E 800 N, Apt 302, Provo, UT 84606","precinct":"25PR37","hd":"60","v_score":"0","decile":"2","lat":40.24400613825566,"lng":-111.65778770583205,"phone":"(219) 349-8233","sd":"24","ssbd":"13","lsbd":"School Board Provo 7"},{"vid":"2678465","name":"Dr. Dayami Rosenbaum PhD","party":"Rep","address":"642 N 200 E, Apt 219, Provo, UT 84606","precinct":"25PR37","hd":"60","v_score":"1.193887297","decile":"4","lat":40.24227720506709,"lng":-111.65456226692545,"phone":"(962) 773-6960","sd":"24","ssbd":"13","lsbd":"School Board Provo 7"},{"vid":"2678474","name":"Mr. Adrian Leffler","party":"Dem","address":"222 E 700 N, Apt 14, Provo, UT 84606","precinct":"25PR37","hd":"60","v_score":"1.193887297","decile":"4","lat":40.24279456703664,"lng":-111.65443265311968,"phone":"(689) 137-6152","sd":"24","ssbd":"13","lsbd":"School Board Provo 7"},{"vid":"2679091","name":"Clemon Ortiz","party":"","address":"886 N 50 E, Provo, UT 84604","precinct":"25PR37","hd":"60","v_score":"1.193887297","decile":"4","lat":40.24548306864061,"lng":-111.65713556633563,"phone":"(608) 740-8713","sd":"24","ssbd":"13","lsbd":"School Board Provo 7"},{"vid":"2679172","name":"Blanchard Considine MD","party":"","address":"225 E 700 N, Apt 11, Provo, UT 84606","precinct":"25PR37","hd":"60","v_score":"0","decile":"2","lat":40.24338975632332,"lng":-111.65448917652901,"phone":"(212) 971-8942","sd":"24","ssbd":"13","lsbd":"School Board Provo 7"},{"vid":"2679844","name":"Gilbert Will","party":"","address":"820 N University Ave, Provo, UT 84604","precinct":"25PR37","hd":"60","v_score":"1.193887297","decile":"4","lat":40.24467495047721,"lng":-111.65825090183633,"phone":"(988) 115-6814","sd":"24","ssbd":"13","lsbd":"School Board Provo 7"},{"vid":"2680980","name":"Mr. Marcus Gulgowski DVM","party":"","address":"886 N 50 E, Provo, UT 84604","precinct":"25PR37","hd":"60","v_score":"1.193887297","decile":"4","lat":40.24548306864061,"lng":-111.65713556633563,"phone":"(437) 123-7954","sd":"24","ssbd":"13","lsbd":"School Board Provo 7"},{"vid":"2681709","name":"Ms. Enid Gottlieb","party":"Rep","address":"161 E 700 N, Apt 10, Provo, UT 84606","precinct":"25PR37","hd":"60","v_score":"1.193887297","decile":"4","lat":40.243503431815995,"lng":-111.65585072413072,"phone":"(930) 472-7819","sd":"24","ssbd":"13","lsbd":"School Board Provo 7"},{"vid":"2688194","name":"Ms. Lora Schimmel","party":"Dem","address":"47 E 600 N, Provo, UT 84606","precinct":"25PR37","hd":"60","v_score":"0","decile":"2","lat":40.24243064361217,"lng":-111.6578537109831,"phone":"(123) 723-8500","sd":"24","ssbd":"13","lsbd":"School Board Provo 7"},{"vid":"2689255","name":"Admiral O'Kon IV","party":"Dem","address":"660 N 200 E, Apt 9, Provo, UT 84606","precinct":"25PR37","hd":"60","v_score":"0","decile":"2","lat":40.2425667622508,"lng":-111.65456722613915,"phone":"(950) 658-5308","sd":"24","ssbd":"13","lsbd":"School Board Provo 7"},{"vid":"2689500","name":"Dr. Brittnay Kautzer DDS","party":"Dem","address":"680 N 300 E, Provo, UT 84606","precinct":"25PR37","hd":"60","v_score":"4.069929862","decile":"7","lat":40.24260499376218,"lng":-111.65297814235981,"phone":"(137) 983-3521","sd":"24","ssbd":"13","lsbd":"School Board Provo 7"},{"vid":"2694667","name":"Arvo Ledner","party":"","address":"665 N 400 E, Apt A1, Provo, UT 84606","precinct":"25PR37","hd":"60","v_score":"0","decile":"2","lat":40.24251402567312,"lng":-111.65210592978222,"phone":"(119) 070-0462","sd":"24","ssbd":"13","lsbd":"School Board Provo 7"},{"vid":"2697457","name":"Dennie Klein-Huels","party":"Rep","address":"915 N 150 E, Apt 202, Provo, UT 84604","precinct":"25PR37","hd":"60","v_score":"5.926494964","decile":"7","lat":40.24607306015791,"lng":-111.65654993347869,"phone":"(901) 238-0772","sd":"24","ssbd":"13","lsbd":"School Board Provo 7"},{"vid":"2701073","name":"Osie Crooks-Tremblay","party":"Rep","address":"727 N 300 E, Apt 306, Provo, UT 84606","precinct":"25PR37","hd":"60","v_score":"1.193887297","decile":"4","lat":40.243454898579834,"lng":-111.65398322205614,"phone":"(420) 174-1544","sd":"24","ssbd":"13","lsbd":"School Board Provo 7"},{"vid":"2701629","name":"Efrem Rippin","party":"","address":"660 N 200 E, Apt 13, Provo, UT 84606","precinct":"25PR37","hd":"60","v_score":"0","decile":"2","lat":40.2425667622508,"lng":-111.65456722613915,"phone":"(413) 515-2695","sd":"24","ssbd":"13","lsbd":"School Board Provo 7"},{"vid":"2706853","name":"Anya Crona","party":"Rep","address":"222 E 700 N, Provo, UT 84606","precinct":"25PR37","hd":"60","v_score":"4.069929862","decile":"7","lat":40.24279456703664,"lng":-111.65443265311968,"phone":"(571) 506-0801","sd":"24","ssbd":"13","lsbd":"School Board Provo 7"},{"vid":"2710386","name":"Dionicio Bradtke","party":"Rep","address":"850 N University Ave, Apt 300, Provo, UT 84604","precinct":"25PR37","hd":"60","v_score":"0","decile":"2","lat":40.245083194347224,"lng":-111.65812985013415,"phone":"(976) 846-9311","sd":"24","ssbd":"13","lsbd":"School Board Provo 7"},{"vid":"2711021","name":"Mechelle Ullrich DDS","party":"Dem","address":"195 E 600 N, Apt 11, Provo, UT 84606","precinct":"25PR37","hd":"60","v_score":"1.193887297","decile":"4","lat":40.24203004275811,"lng":-111.65555560779697,"phone":"(325) 933-6537","sd":"24","ssbd":"13","lsbd":"School Board Provo 7"},{"vid":"2712455","name":"Krish Eichmann","party":"","address":"715 N 200 E, Apt 303, Provo, UT 84606","precinct":"25PR37","hd":"60","v_score":"4.069929862","decile":"7","lat":40.2432936094983,"lng":-111.65555043565689,"phone":"(980) 134-4388","sd":"24","ssbd":"13","lsbd":"School Board Provo 7"},{"vid":"2713093","name":"Sharita Ullrich-Rath","party":"Rep","address":"915 N 150 E, Apt 211, Provo, UT 84604","precinct":"25PR37","hd":"60","v_score":"4.905839784","decile":"7","lat":40.24607306015791,"lng":-111.65654993347869,"phone":"(312) 790-9078","sd":"24","ssbd":"13","lsbd":"School Board Provo 7"},{"vid":"2725083","name":"Jessika Abbott","party":"","address":"161 E 700 N, Apt 25, Provo, UT 84606","precinct":"25PR37","hd":"60","v_score":"1.193887297","decile":"4","lat":40.243503431815995,"lng":-111.65585072413072,"phone":"(935) 359-6247","sd":"24","ssbd":"13","lsbd":"School Board Provo 7"},{"vid":"2727374","name":"Dr. Amy Lemke","party":"Dem","address":"745 N 100 E, Apt 204, Provo, UT 84606","precinct":"25PR37","hd":"60","v_score":"8.284004873","decile":"8","lat":40.11939101214207,"lng":-111.65320003360117,"phone":"(507) 637-2814","sd":"24","ssbd":"13","lsbd":"School Board Provo 7"},{"vid":"2729335","name":"Chancey Crona-Bednar","party":"","address":"851 N 50 E, Apt 231, Provo, UT 84604","precinct":"25PR37","hd":"60","v_score":"4.905839784","decile":"7","lat":40.24513392312898,"lng":-111.65756706687215,"phone":"(277) 162-8728","sd":"24","ssbd":"13","lsbd":"School Board Provo 7"},{"vid":"2731661","name":"Archer Heathcote","party":"Dem","address":"25 E 900 N, Apt 5, Provo, UT 84604","precinct":"25PR37","hd":"60","v_score":"4.905839784","decile":"7","lat":40.245916862625634,"lng":-111.65809148596757,"phone":"(633) 092-0272","sd":"24","ssbd":"13","lsbd":"School Board Provo 7"},{"vid":"2733535","name":"Mr. Kwame Reichert","party":"Dem","address":"735 N 400 E, Apt 25, Provo, UT 84606","precinct":"25PR37","hd":"60","v_score":"4.905839784","decile":"7","lat":40.11931451311093,"lng":-111.64800879803333,"phone":"(879) 062-3941","sd":"24","ssbd":"13","lsbd":"School Board Provo 7"},{"vid":"2735178","name":"Jair Windler-Schaefer","party":"Dem","address":"161 E 700 N, Apt 1, Provo, UT 84606","precinct":"25PR37","hd":"60","v_score":"0","decile":"2","lat":40.243503431815995,"lng":-111.65585072413072,"phone":"(558) 369-8562","sd":"24","ssbd":"13","lsbd":"School Board Provo 7"},{"vid":"2738767","name":"Mr. Avon Johns","party":"Dem","address":"391 E 700 N, Apt 1, Provo, UT 84606","precinct":"25PR37","hd":"60","v_score":"1.193887297","decile":"4","lat":40.11902001633094,"lng":-111.64794516569054,"phone":"(945) 034-3152","sd":"24","ssbd":"13","lsbd":"School Board Provo 7"},{"vid":"2739141","name":"Tiney Braun","party":"","address":"635 N 100 E, Provo, UT 84606","precinct":"25PR37","hd":"60","v_score":"0","decile":"2","lat":40.242143833616225,"lng":-111.65713381911243,"phone":"(145) 026-6459","sd":"24","ssbd":"13","lsbd":"School Board Provo 7"},{"vid":"2744521","name":"Smith Mosciski","party":"Rep","address":"659 N 300 E, Apt 6, Provo, UT 84606","precinct":"25PR37","hd":"60","v_score":"1.193887297","decile":"4","lat":40.24246331882138,"lng":-111.65386905129394,"phone":"(418) 668-3542","sd":"24","ssbd":"13","lsbd":"School Board Provo 7"},{"vid":"2747274","name":"Carrie Sporer","party":"","address":"897 N 150 E, Apt 5, Provo, UT 84604","precinct":"25PR37","hd":"60","v_score":"9.338633761","decile":"8","lat":40.245516110084104,"lng":-111.65664959641197,"phone":"(271) 732-7487","sd":"24","ssbd":"13","lsbd":"School Board Provo 7"},{"vid":"2757510","name":"Karren Romaguera","party":"Rep","address":"905 N 150 E, Apt 9, Provo, UT 84604","precinct":"25PR37","hd":"60","v_score":"0","decile":"2","lat":40.24566009817251,"lng":-111.65642967816918,"phone":"(402) 008-5325","sd":"24","ssbd":"13","lsbd":"School Board Provo 7"},{"vid":"2759568","name":"Kasey Wisozk III","party":"","address":"850 N University Ave, Apt 103, Provo, UT 84604","precinct":"25PR37","hd":"60","v_score":"0","decile":"2","lat":40.245083194347224,"lng":-111.65812985013415,"phone":"(620) 631-8599","sd":"24","ssbd":"13","lsbd":"School Board Provo 7"},{"vid":"2760912","name":"Conor Gleichner DDS","party":"","address":"905 N 150 E, Apt 1, Provo, UT 84604","precinct":"25PR37","hd":"60","v_score":"0","decile":"2","lat":40.24566009817251,"lng":-111.65642967816918,"phone":"(572) 970-7843","sd":"24","ssbd":"13","lsbd":"School Board Provo 7"},{"vid":"2762766","name":"Lute Sporer","party":"Rep","address":"948 N 50 E, Apt 203, Provo, UT 84604","precinct":"25PR37","hd":"60","v_score":"1.193887297","decile":"4","lat":40.246287615284885,"lng":-111.6571267245613,"phone":"(363) 925-3217","sd":"24","ssbd":"13","lsbd":"School Board Provo 7"},{"vid":"2763480","name":"Hyrum Reilly","party":"Rep","address":"642 N 200 E, Apt 106, Provo, UT 84606","precinct":"25PR37","hd":"60","v_score":"1.193887297","decile":"4","lat":40.24227720506709,"lng":-111.65456226692545,"phone":"(984) 519-5929","sd":"24","ssbd":"13","lsbd":"School Board Provo 7"},{"vid":"2766932","name":"Isham Fahey","party":"Dem","address":"195 E 600 N, Apt 11, Provo, UT 84606","precinct":"25PR37","hd":"60","v_score":"1.193887297","decile":"4","lat":40.24203004275811,"lng":-111.65555560779697,"phone":"(230) 267-1328","sd":"24","ssbd":"13","lsbd":"School Board Provo 7"},{"vid":"2767320","name":"Maudie Nicolas-Osinski","party":"Dem","address":"195 E 600 N, Provo, UT 84606","precinct":"25PR37","hd":"60","v_score":"0","decile":"2","lat":40.24203004275811,"lng":-111.65555560779697,"phone":"(369) 206-9860","sd":"24","ssbd":"13","lsbd":"School Board Provo 7"},{"vid":"2773542","name":"Jamin Hermiston III","party":"Dem","address":"851 N 50 E, Apt 332, Provo, UT 84604","precinct":"25PR37","hd":"60","v_score":"0","decile":"2","lat":40.24513392312898,"lng":-111.65756706687215,"phone":"(549) 628-4164","sd":"24","ssbd":"13","lsbd":"School Board Provo 7"},{"vid":"2774015","name":"Mrs. Devan Hermiston DDS","party":"Rep","address":"727 N 300 E, Apt 101, Provo, UT 84606","precinct":"25PR37","hd":"60","v_score":"1.193887297","decile":"4","lat":40.243454898579834,"lng":-111.65398322205614,"phone":"(595) 694-5839","sd":"24","ssbd":"13","lsbd":"School Board Provo 7"},{"vid":"2778876","name":"Merrily Feest","party":"Rep","address":"630 N 100 E, Apt 1, Provo, UT 84606","precinct":"25PR37","hd":"60","v_score":"5.407962308","decile":"7","lat":40.242144376967246,"lng":-111.6564604430534,"phone":"(601) 821-3374","sd":"24","ssbd":"13","lsbd":"School Board Provo 7"},{"vid":"2781232","name":"Fawn Lueilwitz","party":"Rep","address":"34 E 700 N, Apt 7, Provo, UT 84606","precinct":"25PR37","hd":"60","v_score":"0","decile":"2","lat":40.242840541175624,"lng":-111.65793785848321,"phone":"(815) 825-1962","sd":"24","ssbd":"13","lsbd":"School Board Provo 7"},{"vid":"2782843","name":"Dessie Armstrong","party":"Rep","address":"161 E 700 N, Apt 15, Provo, UT 84606","precinct":"25PR37","hd":"60","v_score":"0","decile":"2","lat":40.243503431815995,"lng":-111.65585072413072,"phone":"(417) 670-9703","sd":"24","ssbd":"13","lsbd":"School Board Provo 7"},{"vid":"2788152","name":"Kalel Hilll","party":"Rep","address":"695 N 100 E, Apt 3, Provo, UT 84606","precinct":"25PR37","hd":"60","v_score":"4.069929862","decile":"7","lat":40.24281988710165,"lng":-111.65705325409311,"phone":"(360) 869-8811","sd":"24","ssbd":"13","lsbd":"School Board Provo 7"},{"vid":"2788365","name":"Dr. Newton Jacobi","party":"","address":"141 E 700 N, Apt 30, Provo, UT 84606","precinct":"25PR37","hd":"60","v_score":"1.193887297","decile":"4","lat":40.24327238762275,"lng":-111.65623401316391,"phone":"(632) 564-1062","sd":"24","ssbd":"13","lsbd":"School Board Provo 7"},{"vid":"2789859","name":"Marlee Muller","party":"","address":"34 E 700 N, Apt 3, Provo, UT 84606","precinct":"25PR37","hd":"60","v_score":"0","decile":"2","lat":40.242840541175624,"lng":-111.65793785848321,"phone":"(846) 672-7064","sd":"24","ssbd":"13","lsbd":"School Board Provo 7"},{"vid":"2789880","name":"Kathleen Kshlerin","party":"Rep","address":"141 E 700 N, Apt 19, Provo, UT 84606","precinct":"25PR37","hd":"60","v_score":"1.193887297","decile":"4","lat":40.24327238762275,"lng":-111.65623401316391,"phone":"(510) 060-8794","sd":"24","ssbd":"13","lsbd":"School Board Provo 7"},{"vid":"2790353","name":"Braylon Christiansen","party":"Rep","address":"659 N 300 E, Apt 5, Provo, UT 84606","precinct":"25PR37","hd":"60","v_score":"0","decile":"2","lat":40.24246331882138,"lng":-111.65386905129394,"phone":"(307) 085-3368","sd":"24","ssbd":"13","lsbd":"School Board Provo 7"},{"vid":"2795777","name":"Salina Miller","party":"","address":"681 N 100 E, Apt 5, Provo, UT 84606","precinct":"25PR37","hd":"60","v_score":"1.193887297","decile":"4","lat":40.24267098350594,"lng":-111.65747306446588,"phone":"(508) 108-6623","sd":"24","ssbd":"13","lsbd":"School Board Provo 7"},{"vid":"2801716","name":"Maybelle Jakubowski","party":"Dem","address":"948 N 50 E, Apt 103, Provo, UT 84604","precinct":"25PR37","hd":"60","v_score":"0","decile":"2","lat":40.246287615284885,"lng":-111.6571267245613,"phone":"(793) 425-4859","sd":"24","ssbd":"13","lsbd":"School Board Provo 7"},{"vid":"2803073","name":"Dr. Hailey Muller","party":"Dem","address":"680 N 300 E, Provo, UT 84606","precinct":"25PR37","hd":"60","v_score":"1.193887297","decile":"4","lat":40.24260499376218,"lng":-111.65297814235981,"phone":"(188) 503-1153","sd":"24","ssbd":"13","lsbd":"School Board Provo 7"},{"vid":"2805702","name":"Dr. Tai Kunze","party":"Rep","address":"760 N 300 E, Apt 2, Provo, UT 84606","precinct":"25PR37","hd":"60","v_score":"1.193887297","decile":"4","lat":40.24376533523651,"lng":-111.65296014784705,"phone":"(216) 074-8450","sd":"24","ssbd":"13","lsbd":"School Board Provo 7"},{"vid":"2813386","name":"Brook Crooks","party":"Rep","address":"760 N 300 E, Apt 4, Provo, UT 84606","precinct":"25PR37","hd":"60","v_score":"1.193887297","decile":"4","lat":40.24376533523651,"lng":-111.65296014784705,"phone":"(351) 023-7878","sd":"24","ssbd":"13","lsbd":"School Board Provo 7"},{"vid":"2813746","name":"Achsah Weimann","party":"","address":"897 N 150 E, Apt 7, Provo, UT 84604","precinct":"25PR37","hd":"60","v_score":"1.193887297","decile":"4","lat":40.245516110084104,"lng":-111.65664959641197,"phone":"(765) 619-8305","sd":"24","ssbd":"13","lsbd":"School Board Provo 7"},{"vid":"2815264","name":"Michale Botsford","party":"","address":"182 E 800 N, Apt 2, Provo, UT 84606","precinct":"25PR37","hd":"60","v_score":"1.193887297","decile":"4","lat":40.24409126944978,"lng":-111.65554573513235,"phone":"(862) 411-4233","sd":"24","ssbd":"13","lsbd":"School Board Provo 7"},{"vid":"2816927","name":"Jahir Walter","party":"","address":"630 N 100 E, Apt 2, Provo, UT 84606","precinct":"25PR37","hd":"60","v_score":"1.193887297","decile":"4","lat":40.242144376967246,"lng":-111.6564604430534,"phone":"(746) 091-5666","sd":"24","ssbd":"13","lsbd":"School Board Provo 7"},{"vid":"2817566","name":"Berenice Hayes-Kessler","party":"Rep","address":"315 E 600 N, Apt 5, Provo, UT 84606","precinct":"25PR37","hd":"60","v_score":"1.193887297","decile":"4","lat":40.11773968841133,"lng":-111.6491380473598,"phone":"(465) 192-1222","sd":"24","ssbd":"13","lsbd":"School Board Provo 7"},{"vid":"2817930","name":"Verona Stamm DVM","party":"Rep","address":"161 E 700 N, Apt 11, Provo, UT 84606","precinct":"25PR37","hd":"60","v_score":"1.193887297","decile":"4","lat":40.243503431815995,"lng":-111.65585072413072,"phone":"(681) 888-7837","sd":"24","ssbd":"13","lsbd":"School Board Provo 7"},{"vid":"2818867","name":"Kalyn Moen","party":"","address":"161 E 700 N, Apt 1, Provo, UT 84606","precinct":"25PR37","hd":"60","v_score":"4.069929862","decile":"7","lat":40.243503431815995,"lng":-111.65585072413072,"phone":"(756) 085-2288","sd":"24","ssbd":"13","lsbd":"School Board Provo 7"},{"vid":"2822293","name":"Ciara Sanford","party":"Rep","address":"905 N 150 E, Apt 11, Provo, UT 84604","precinct":"25PR37","hd":"60","v_score":"1.193887297","decile":"4","lat":40.24566009817251,"lng":-111.65642967816918,"phone":"(899) 693-8948","sd":"24","ssbd":"13","lsbd":"School Board Provo 7"},{"vid":"2825343","name":"Author Williamson-Schroeder","party":"Rep","address":"642 N 200 E, Apt 208, Provo, UT 84606","precinct":"25PR37","hd":"60","v_score":"8.284004873","decile":"8","lat":40.24227720506709,"lng":-111.65456226692545,"phone":"(746) 248-1628","sd":"24","ssbd":"13","lsbd":"School Board Provo 7"},{"vid":"2828142","name":"Kaylyn Fadel MD","party":"Rep","address":"645 N 100 E, Provo, UT 84606","precinct":"25PR37","hd":"60","v_score":"1.193887297","decile":"4","lat":40.24227963407362,"lng":-111.65713330329979,"phone":"(985) 170-8806","sd":"24","ssbd":"13","lsbd":"School Board Provo 7"},{"vid":"2830216","name":"Miss Vashti Green DVM","party":"Dem","address":"948 N 50 E, Apt 301, Provo, UT 84604","precinct":"25PR37","hd":"60","v_score":"8.284004873","decile":"8","lat":40.246287615284885,"lng":-111.6571267245613,"phone":"(967) 595-2215","sd":"24","ssbd":"13","lsbd":"School Board Provo 7"},{"vid":"2834923","name":"Marlena O'Connell","party":"Rep","address":"727 N 300 E, Apt 108, Provo, UT 84606","precinct":"25PR37","hd":"60","v_score":"4.069929862","decile":"7","lat":40.243454898579834,"lng":-111.65398322205614,"phone":"(780) 019-2852","sd":"24","ssbd":"13","lsbd":"School Board Provo 7"},{"vid":"2839158","name":"Georgette Terry","party":"Dem","address":"897 N 150 E, Apt 5, Provo, UT 84604","precinct":"25PR37","hd":"60","v_score":"4.069929862","decile":"7","lat":40.245516110084104,"lng":-111.65664959641197,"phone":"(715) 442-4738","sd":"24","ssbd":"13","lsbd":"School Board Provo 7"},{"vid":"2839571","name":"Miss Albertine Green MD","party":"Dem","address":"44 E 900 N, Provo, UT 84604","precinct":"25PR37","hd":"60","v_score":"8.284004873","decile":"8","lat":40.24564490323368,"lng":-111.65779125169207,"phone":"(423) 976-8915","sd":"24","ssbd":"13","lsbd":"School Board Provo 7"},{"vid":"2842258","name":"Takisha Runolfsson","party":"","address":"222 E 700 N, Apt 3, Provo, UT 84606","precinct":"25PR37","hd":"60","v_score":"4.069929862","decile":"7","lat":40.24279456703664,"lng":-111.65443265311968,"phone":"(372) 712-0989","sd":"24","ssbd":"13","lsbd":"School Board Provo 7"},{"vid":"2847131","name":"Lyndsay Wilkinson","party":"","address":"34 E 700 N, Apt 8, Provo, UT 84606","precinct":"25PR37","hd":"60","v_score":"1.193887297","decile":"4","lat":40.242840541175624,"lng":-111.65793785848321,"phone":"(559) 379-2957","sd":"24","ssbd":"13","lsbd":"School Board Provo 7"},{"vid":"2850483","name":"Jamya Purdy","party":"","address":"642 N 200 E, Provo, UT 84606","precinct":"25PR37","hd":"60","v_score":"1.193887297","decile":"4","lat":40.24227720506709,"lng":-111.65456226692545,"phone":"(804) 940-1489","sd":"24","ssbd":"13","lsbd":"School Board Provo 7"},{"vid":"2852072","name":"Patty Barrows","party":"Rep","address":"745 N 100 E, Apt A301, Provo, UT 84606","precinct":"25PR37","hd":"60","v_score":"1.193887297","decile":"4","lat":40.11939101214207,"lng":-111.65320003360117,"phone":"(344) 278-5621","sd":"24","ssbd":"13","lsbd":"School Board Provo 7"},{"vid":"2854006","name":"Eppie Kohler","party":"Dem","address":"715 N 200 E, Apt 203, Provo, UT 84606","precinct":"25PR37","hd":"60","v_score":"0","decile":"2","lat":40.2432936094983,"lng":-111.65555043565689,"phone":"(413) 930-0437","sd":"24","ssbd":"13","lsbd":"School Board Provo 7"},{"vid":"2855511","name":"Colleen Murphy","party":"","address":"727 N 300 E, Apt 109, Provo, UT 84606","precinct":"25PR37","hd":"60","v_score":"1.193887297","decile":"4","lat":40.243454898579834,"lng":-111.65398322205614,"phone":"(456) 998-9936","sd":"24","ssbd":"13","lsbd":"School Board Provo 7"},{"vid":"2856398","name":"Junia Brekke","party":"Dem","address":"747 N 200 E, Apt 11, Provo, UT 84606","precinct":"25PR37","hd":"60","v_score":"1.193887297","decile":"4","lat":40.24356916209855,"lng":-111.65557882288974,"phone":"(931) 166-1477","sd":"24","ssbd":"13","lsbd":"School Board Provo 7"},{"vid":"2857064","name":"Alwin Murray","party":"","address":"850 N University Ave, Apt 301, Provo, UT 84604","precinct":"25PR37","hd":"60","v_score":"1.193887297","decile":"4","lat":40.245083194347224,"lng":-111.65812985013415,"phone":"(185) 279-9851","sd":"24","ssbd":"13","lsbd":"School Board Provo 7"},{"vid":"2860858","name":"Hattie Medhurst","party":"Dem","address":"195 E 600 N, Provo, UT 84606","precinct":"25PR37","hd":"60","v_score":"4.069929862","decile":"7","lat":40.24203004275811,"lng":-111.65555560779697,"phone":"(899) 564-5753","sd":"24","ssbd":"13","lsbd":"School Board Provo 7"},{"vid":"2862740","name":"Mrs. Gretta Bergstrom PhD","party":"Dem","address":"760 N 300 E, Apt 5, Provo, UT 84606","precinct":"25PR37","hd":"60","v_score":"1.193887297","decile":"4","lat":40.24376533523651,"lng":-111.65296014784705,"phone":"(887) 936-6476","sd":"24","ssbd":"13","lsbd":"School Board Provo 7"},{"vid":"2869166","name":"Booker Lebsack","party":"Dem","address":"905 N 150 E, Apt 10, Provo, UT 84604","precinct":"25PR37","hd":"60","v_score":"1.193887297","decile":"4","lat":40.24566009817251,"lng":-111.65642967816918,"phone":"(160) 217-6698","sd":"24","ssbd":"13","lsbd":"School Board Provo 7"},{"vid":"2869593","name":"Mr. Jahiem Grant DVM","party":"Dem","address":"915 N 150 E, Apt 308, Provo, UT 84604","precinct":"25PR37","hd":"60","v_score":"4.069929862","decile":"7","lat":40.24607306015791,"lng":-111.65654993347869,"phone":"(949) 822-8378","sd":"24","ssbd":"13","lsbd":"School Board Provo 7"},{"vid":"2869629","name":"Aurelia Huel","party":"Dem","address":"665 N 100 E, Apt 3, Provo, UT 84606","precinct":"25PR37","hd":"60","v_score":"1.193887297","decile":"4","lat":40.24253176731533,"lng":-111.65707869722893,"phone":"(976) 930-3640","sd":"24","ssbd":"13","lsbd":"School Board Provo 7"},{"vid":"2870970","name":"Elfreda Keebler-Pouros","party":"","address":"42 E 800 N, Apt 302, Provo, UT 84606","precinct":"25PR37","hd":"60","v_score":"1.193887297","decile":"4","lat":40.24400613825566,"lng":-111.65778770583205,"phone":"(616) 558-2663","sd":"24","ssbd":"13","lsbd":"School Board Provo 7"},{"vid":"2874711","name":"Dianna Effertz","party":"","address":"850 N University Ave, Apt 300, Provo, UT 84604","precinct":"25PR37","hd":"60","v_score":"1.193887297","decile":"4","lat":40.245083194347224,"lng":-111.65812985013415,"phone":"(880) 224-2789","sd":"24","ssbd":"13","lsbd":"School Board Provo 7"},{"vid":"2875037","name":"Mabell Wisoky-Price","party":"Rep","address":"836 N University Ave, Apt 110, Provo, UT 84604","precinct":"25PR37","hd":"60","v_score":"1.193887297","decile":"4","lat":40.24485720911138,"lng":-111.65789695616135,"phone":"(641) 474-0150","sd":"24","ssbd":"13","lsbd":"School Board Provo 7"},{"vid":"2875597","name":"Dr. Rona Wilderman","party":"Rep","address":"740 N University Ave, Apt C209, Provo, UT 84601","precinct":"25PR37","hd":"60","v_score":"1.193887297","decile":"4","lat":40.243707073183764,"lng":-111.65755713800468,"phone":"(402) 515-3439","sd":"24","ssbd":"13","lsbd":"School Board Provo 7"},{"vid":"2875694","name":"Danna Gulgowski","party":"","address":"659 N 300 E, Apt 5, Provo, UT 84606","precinct":"25PR37","hd":"60","v_score":"1.193887297","decile":"4","lat":40.24246331882138,"lng":-111.65386905129394,"phone":"(161) 724-6414","sd":"24","ssbd":"13","lsbd":"School Board Provo 7"},{"vid":"2876981","name":"Vern Turner","party":"Rep","address":"915 N 150 E, Apt 308, Provo, UT 84604","precinct":"25PR37","hd":"60","v_score":"1.193887297","decile":"4","lat":40.24607306015791,"lng":-111.65654993347869,"phone":"(123) 652-7707","sd":"24","ssbd":"13","lsbd":"School Board Provo 7"},{"vid":"2880052","name":"Deric Conroy","party":"Rep","address":"836 N University Ave, Apt 110, Provo, UT 84604","precinct":"25PR37","hd":"60","v_score":"1.193887297","decile":"4","lat":40.24485720911138,"lng":-111.65789695616135,"phone":"(685) 666-4975","sd":"24","ssbd":"13","lsbd":"School Board Provo 7"},{"vid":"2880377","name":"Miss Edyth Gaylord","party":"","address":"835 N 50 E, Apt 320, Provo, UT 84604","precinct":"25PR37","hd":"60","v_score":"1.193887297","decile":"4","lat":40.24481440928662,"lng":-111.6575172120422,"phone":"(835) 682-8698","sd":"24","ssbd":"13","lsbd":"School Board Provo 7"},{"vid":"2883107","name":"Jenna Ryan","party":"Rep","address":"783 N 200 E, Apt D, Provo, UT 84606","precinct":"25PR37","hd":"60","v_score":"1.193887297","decile":"4","lat":40.24403095936134,"lng":-111.6554058997983,"phone":"(462) 327-7409","sd":"24","ssbd":"13","lsbd":"School Board Provo 7"},{"vid":"2883924","name":"Starr Mann","party":"Rep","address":"642 N 200 E, Apt 106, Provo, UT 84606","precinct":"25PR37","hd":"60","v_score":"1.193887297","decile":"4","lat":40.24227720506709,"lng":-111.65456226692545,"phone":"(665) 388-5356","sd":"24","ssbd":"13","lsbd":"School Board Provo 7"},{"vid":"2883936","name":"Arminda Zboncak","party":"Rep","address":"850 N University Ave, Apt 122, Provo, UT 84604","precinct":"25PR37","hd":"60","v_score":"1.193887297","decile":"4","lat":40.245083194347224,"lng":-111.65812985013415,"phone":"(600) 934-0743","sd":"24","ssbd":"13","lsbd":"School Board Provo 7"},{"vid":"2883949","name":"Harman Hartmann","party":"Rep","address":"727 N 300 E, Apt 112, Provo, UT 84606","precinct":"25PR37","hd":"60","v_score":"1.193887297","decile":"4","lat":40.243454898579834,"lng":-111.65398322205614,"phone":"(605) 557-8536","sd":"24","ssbd":"13","lsbd":"School Board Provo 7"},{"vid":"2883960","name":"Dr. Roy Ziemann","party":"Dem","address":"225 E 700 N, Apt 6, Provo, UT 84606","precinct":"25PR37","hd":"60","v_score":"1.193887297","decile":"4","lat":40.24338975632332,"lng":-111.65448917652901,"phone":"(234) 007-0470","sd":"24","ssbd":"13","lsbd":"School Board Provo 7"},{"vid":"2883965","name":"Cordaro Emmerich III","party":"Rep","address":"745 N 400 E, Apt 7, Provo, UT 84606","precinct":"25PR37","hd":"60","v_score":"5.407962308","decile":"7","lat":40.177219263210404,"lng":-111.60347402371241,"phone":"(838) 248-7150","sd":"24","ssbd":"13","lsbd":"School Board Provo 7"},{"vid":"2885284","name":"Alvera Fritsch","party":"","address":"915 N 150 E, Apt 202, Provo, UT 84604","precinct":"25PR37","hd":"60","v_score":"1.193887297","decile":"4","lat":40.24607306015791,"lng":-111.65654993347869,"phone":"(271) 308-1155","sd":"24","ssbd":"13","lsbd":"School Board Provo 7"},{"vid":"2887124","name":"Octavius Reichert","party":"","address":"161 E 700 N, Apt 15, Provo, UT 84606","precinct":"25PR37","hd":"60","v_score":"1.193887297","decile":"4","lat":40.243503431815995,"lng":-111.65585072413072,"phone":"(843) 915-4805","sd":"24","ssbd":"13","lsbd":"School Board Provo 7"},{"vid":"2887862","name":"Josiephine Waters PhD","party":"","address":"836 N University Ave, Provo, UT 84604","precinct":"25PR37","hd":"60","v_score":"1.193887297","decile":"4","lat":40.24485720911138,"lng":-111.65789695616135,"phone":"(378) 926-9224","sd":"24","ssbd":"13","lsbd":"School Board Provo 7"},{"vid":"2887962","name":"Mrs. Cassandra Schumm","party":"Rep","address":"695 N 100 E, Apt 8, Provo, UT 84606","precinct":"25PR37","hd":"60","v_score":"4.069929862","decile":"7","lat":40.24281988710165,"lng":-111.65705325409311,"phone":"(725) 041-9025","sd":"24","ssbd":"13","lsbd":"School Board Provo 7"},{"vid":"2887978","name":"Miss Raina Shields","party":"","address":"745 N 100 E, Apt W25, Provo, UT 84606","precinct":"25PR37","hd":"60","v_score":"1.193887297","decile":"4","lat":40.11939101214207,"lng":-111.65320003360117,"phone":"(891) 191-4879","sd":"24","ssbd":"13","lsbd":"School Board Provo 7"},{"vid":"2888714","name":"Ms. Marilla Schaden DDS","party":"Dem","address":"660 N 200 E, Apt 14, Provo, UT 84606","precinct":"25PR37","hd":"60","v_score":"1.193887297","decile":"4","lat":40.2425667622508,"lng":-111.65456722613915,"phone":"(940) 918-2789","sd":"24","ssbd":"13","lsbd":"School Board Provo 7"},{"vid":"2888730","name":"Ione Kreiger MD","party":"","address":"660 N 200 E, Apt 14, Provo, UT 84606","precinct":"25PR37","hd":"60","v_score":"1.193887297","decile":"4","lat":40.2425667622508,"lng":-111.65456722613915,"phone":"(597) 270-8580","sd":"24","ssbd":"13","lsbd":"School Board Provo 7"},{"vid":"2888801","name":"Arnav Prohaska","party":"Rep","address":"665 N 100 E, Apt 6, Provo, UT 84606","precinct":"25PR37","hd":"60","v_score":"0","decile":"2","lat":40.24253176731533,"lng":-111.65707869722893,"phone":"(136) 211-8247","sd":"24","ssbd":"13","lsbd":"School Board Provo 7"},{"vid":"2888802","name":"Kelvin Schinner-Rau","party":"Rep","address":"642 N 200 E, Apt 102, Provo, UT 84606","precinct":"25PR37","hd":"60","v_score":"4.069929862","decile":"7","lat":40.24227720506709,"lng":-111.65456226692545,"phone":"(407) 404-3335","sd":"24","ssbd":"13","lsbd":"School Board Provo 7"},{"vid":"2888984","name":"Mr. Lawton Schulist III","party":"","address":"769 N 200 E, Apt 104, Provo, UT 84606","precinct":"25PR37","hd":"60","v_score":"1.193887297","decile":"4","lat":40.24386625138591,"lng":-111.65538803264172,"phone":"(363) 098-7042","sd":"24","ssbd":"13","lsbd":"School Board Provo 7"},{"vid":"2889083","name":"Violet Stoltenberg DVM","party":"Rep","address":"642 N 200 E, Apt 217, Provo, UT 84606","precinct":"25PR37","hd":"60","v_score":"1.193887297","decile":"4","lat":40.24227720506709,"lng":-111.65456226692545,"phone":"(204) 768-5567","sd":"24","ssbd":"13","lsbd":"School Board Provo 7"},{"vid":"2889146","name":"Iver Feeney","party":"Rep","address":"765 N 400 E, Provo, UT 84606","precinct":"25PR37","hd":"60","v_score":"1.193887297","decile":"4","lat":40.119588955661314,"lng":-111.64800938966378,"phone":"(408) 787-2979","sd":"24","ssbd":"13","lsbd":"School Board Provo 7"},{"vid":"2889226","name":"Rachelle Flatley","party":"Dem","address":"141 E 700 N, Apt 18, Provo, UT 84606","precinct":"25PR37","hd":"60","v_score":"1.193887297","decile":"4","lat":40.24327238762275,"lng":-111.65623401316391,"phone":"(691) 403-3393","sd":"24","ssbd":"13","lsbd":"School Board Provo 7"},{"vid":"2889272","name":"Kayli Kub-Simonis","party":"Dem","address":"905 N 150 E, Apt 3, Provo, UT 84604","precinct":"25PR37","hd":"60","v_score":"1.193887297","decile":"4","lat":40.24566009817251,"lng":-111.65642967816918,"phone":"(500) 289-3435","sd":"24","ssbd":"13","lsbd":"School Board Provo 7"},{"vid":"2889503","name":"Emmie Lebsack DVM","party":"Rep","address":"681 N 100 E, Apt 5, Provo, UT 84606","precinct":"25PR37","hd":"60","v_score":"1.193887297","decile":"4","lat":40.24267098350594,"lng":-111.65747306446588,"phone":"(946) 591-4364","sd":"24","ssbd":"13","lsbd":"School Board Provo 7"},{"vid":"2889552","name":"Macey White","party":"Dem","address":"836 N University Ave, Apt 311, Provo, UT 84604","precinct":"25PR37","hd":"60","v_score":"0","decile":"2","lat":40.24485720911138,"lng":-111.65789695616135,"phone":"(939) 686-8938","sd":"24","ssbd":"13","lsbd":"School Board Provo 7"},{"vid":"2889661","name":"Loda Kassulke DDS","party":"Rep","address":"195 E 600 N, Apt 22, Provo, UT 84606","precinct":"25PR37","hd":"60","v_score":"1.193887297","decile":"4","lat":40.24203004275811,"lng":-111.65555560779697,"phone":"(101) 229-6030","sd":"24","ssbd":"13","lsbd":"School Board Provo 7"},{"vid":"2889752","name":"Vaughn Weber-Effertz","party":"Dem","address":"222 E 700 N, Apt 6, Provo, UT 84606","precinct":"25PR37","hd":"60","v_score":"2.876042565","decile":"6","lat":40.24279456703664,"lng":-111.65443265311968,"phone":"(755) 761-5465","sd":"24","ssbd":"13","lsbd":"School Board Provo 7"},{"vid":"2893040","name":"Osbaldo Spencer","party":"Rep","address":"905 N 150 E, Apt 12, Provo, UT 84604","precinct":"25PR37","hd":"60","v_score":"0","decile":"2","lat":40.24566009817251,"lng":-111.65642967816918,"phone":"(129) 599-0171","sd":"24","ssbd":"13","lsbd":"School Board Provo 7"},{"vid":"2896546","name":"Ellie Murphy","party":"","address":"360 E 800 N, Provo, UT 84606","precinct":"25PR37","hd":"60","v_score":"0","decile":"2","lat":40.11987382237857,"lng":-111.64838838421093,"phone":"(847) 820-8003","sd":"24","ssbd":"13","lsbd":"School Board Provo 7"},{"vid":"2901028","name":"Dr. Audrina Blanda DDS","party":"","address":"316 E 700 N, Apt H1, Provo, UT 84606","precinct":"25PR37","hd":"60","v_score":"0","decile":"2","lat":40.24282593746243,"lng":-111.65301468384928,"phone":"(765) 230-3063","sd":"24","ssbd":"13","lsbd":"School Board Provo 7"},{"vid":"2901334","name":"Rhianna Steuber DVM","party":"Rep","address":"760 N 300 E, Apt 2, Provo, UT 84606","precinct":"25PR37","hd":"60","v_score":"0","decile":"2","lat":40.24376533523651,"lng":-111.65296014784705,"phone":"(256) 171-7458","sd":"24","ssbd":"13","lsbd":"School Board Provo 7"},{"vid":"2907232","name":"Dr. Kamari Ruecker III","party":"Dem","address":"850 N University Ave, Apt 101, Provo, UT 84604","precinct":"25PR37","hd":"60","v_score":"0","decile":"2","lat":40.245083194347224,"lng":-111.65812985013415,"phone":"(205) 717-0091","sd":"24","ssbd":"13","lsbd":"School Board Provo 7"},{"vid":"2907632","name":"Carole Haag","party":"","address":"899 N 50 E, Provo, UT 84604","precinct":"25PR37","hd":"60","v_score":"0","decile":"2","lat":40.245640502893714,"lng":-111.65754411743191,"phone":"(768) 340-8560","sd":"24","ssbd":"13","lsbd":"School Board Provo 7"},{"vid":"2908129","name":"Ura Olson","party":"","address":"886 N 50 E, Provo, UT 84604","precinct":"25PR37","hd":"60","v_score":"0","decile":"2","lat":40.24548306864061,"lng":-111.65713556633563,"phone":"(126) 099-7863","sd":"24","ssbd":"13","lsbd":"School Board Provo 7"},{"vid":"2911060","name":"Christy Mante PhD","party":"","address":"915 N 150 E, Apt 102, Provo, UT 84604","precinct":"25PR37","hd":"60","v_score":"0","decile":"2","lat":40.24607306015791,"lng":-111.65654993347869,"phone":"(602) 128-4618","sd":"24","ssbd":"13","lsbd":"School Board Provo 7"},{"vid":"2917686","name":"Lakisha Grant MD","party":"Rep","address":"125 E 600 N, Provo, UT 84606","precinct":"25PR37","hd":"60","v_score":"0","decile":"2","lat":40.24192401869196,"lng":-111.65636980250224,"phone":"(200) 593-9361","sd":"24","ssbd":"13","lsbd":"School Board Provo 7"},{"vid":"2918078","name":"Herlinda Shanahan","party":"","address":"657 N 400 E, Apt G8, Provo, UT 84606","precinct":"25PR37","hd":"60","v_score":"2.876042565","decile":"6","lat":40.11823534299475,"lng":-111.64802151458449,"phone":"(247) 421-4187","sd":"24","ssbd":"13","lsbd":"School Board Provo 7"},{"vid":"2918493","name":"Leonie Langosh","party":"Dem","address":"222 E 700 N, Apt 3, Provo, UT 84606","precinct":"25PR37","hd":"60","v_score":"2.876042565","decile":"6","lat":40.24279456703664,"lng":-111.65443265311968,"phone":"(237) 746-8162","sd":"24","ssbd":"13","lsbd":"School Board Provo 7"},{"vid":"2919058","name":"Sharon Krajcik","party":"","address":"735 N 400 E, Provo, UT 84606","precinct":"25PR37","hd":"60","v_score":"0","decile":"2","lat":40.11931451311093,"lng":-111.64800879803333,"phone":"(266) 176-5263","sd":"24","ssbd":"13","lsbd":"School Board Provo 7"},{"vid":"2919836","name":"Catalina Kovacek-Dietrich","party":"Rep","address":"770 N University Ave, Apt 4, Provo, UT 84601","precinct":"25PR37","hd":"60","v_score":"0","decile":"2","lat":40.24381893437279,"lng":-111.65822456125589,"phone":"(832) 316-1129","sd":"24","ssbd":"13","lsbd":"School Board Provo 7"},{"vid":"2919837","name":"Mordechai Lemke","party":"","address":"695 N 100 E, Apt 7, Provo, UT 84606","precinct":"25PR37","hd":"60","v_score":"2.876042565","decile":"6","lat":40.24281988710165,"lng":-111.65705325409311,"phone":"(889) 212-1459","sd":"24","ssbd":"13","lsbd":"School Board Provo 7"},{"vid":"2922155","name":"Deeann Goldner","party":"Dem","address":"195 E 600 N, Apt 37, Provo, UT 84606","precinct":"25PR37","hd":"60","v_score":"0","decile":"2","lat":40.24203004275811,"lng":-111.65555560779697,"phone":"(378) 028-9724","sd":"24","ssbd":"13","lsbd":"School Board Provo 7"},{"vid":"2923300","name":"Concepcion Mueller","party":"Rep","address":"141 E 700 N, Apt 30, Provo, UT 84606","precinct":"25PR37","hd":"60","v_score":"0","decile":"2","lat":40.24327238762275,"lng":-111.65623401316391,"phone":"(612) 461-3824","sd":"24","ssbd":"13","lsbd":"School Board Provo 7"},{"vid":"2923638","name":"Ida Legros","party":"Dem","address":"222 E 700 N, Apt 10, Provo, UT 84606","precinct":"25PR37","hd":"60","v_score":"0","decile":"2","lat":40.24279456703664,"lng":-111.65443265311968,"phone":"(829) 085-8968","sd":"24","ssbd":"13","lsbd":"School Board Provo 7"},{"vid":"2926135","name":"Mr. Owens Wunsch","party":"Rep","address":"34 E 700 N, Apt 4, Provo, UT 84606","precinct":"25PR37","hd":"60","v_score":"0","decile":"2","lat":40.242840541175624,"lng":-111.65793785848321,"phone":"(154) 872-3842","sd":"24","ssbd":"13","lsbd":"School Board Provo 7"},{"vid":"2926881","name":"Rahul Nienow Sr.","party":"Dem","address":"948 N 50 E, Apt 101, Provo, UT 84604","precinct":"25PR37","hd":"60","v_score":"0","decile":"2","lat":40.246287615284885,"lng":-111.6571267245613,"phone":"(970) 617-0082","sd":"24","ssbd":"13","lsbd":"School Board Provo 7"},