[{"id":"341","name":"Miss Leatrice Walter","party":"Rep","address":"1398 S 400 W, Provo, UT 84601","precinct":"25PR65","hd":"62","v_score":"4.064235245","decile":"6","lat":40.215155001833,"lng":-111.666228579412},{"id":"1036","name":"Orlo Lang DVM","party":"Rep","address":"510 W 1820 S, Provo, UT 84601","precinct":"25PR65","hd":"62","v_score":"1.193887297","decile":"3","lat":40.209450303534,"lng":-111.667498994563},{"id":"1189","name":"Michaele Ward","party":"","address":"542 W 1670 S, Provo, UT 84601","precinct":"25PR65","hd":"62","v_score":"19.81367103","decile":"10","lat":40.21156044719,"lng":-111.667493452493},{"id":"2104","name":"Marshall Durgan","party":"Rep","address":"605 W 1660 S, Provo, UT 84601","precinct":"25PR65","hd":"62","v_score":"31.69165621","decile":"10","lat":40.21147082987,"lng":-111.66933397524},{"id":"2135","name":"Lemuel Luettgen","party":"","address":"1685 S 400 W, Provo, UT 84601","precinct":"25PR65","hd":"62","v_score":"0","decile":"1","lat":40.210521090043,"lng":-111.665446365691},{"id":"3127","name":"Greta Leannon-Parker","party":"Dem","address":"1716 S 730 W, Provo, UT 84601","precinct":"25PR65","hd":"62","v_score":"26.8582098","decile":"10","lat":40.210937961119,"lng":-111.671491908799},{"id":"3943","name":"Margaret Wilderman","party":"","address":"399 W 1500 S, Provo, UT 84601","precinct":"25PR65","hd":"62","v_score":"3.781490609","decile":"6","lat":40.213430711572,"lng":-111.666045103483},{"id":"4058","name":"Azaria Kozey","party":"Rep","address":"1813 S 730 W, Provo, UT 84601","precinct":"25PR65","hd":"62","v_score":"24.88981162","decile":"10","lat":40.210032889364,"lng":-111.671336811116},{"id":"4703","name":"Nylah Hackett","party":"","address":"1672 S 300 W, Provo, UT 84601","precinct":"25PR65","hd":"62","v_score":"1.121327652","decile":"3","lat":40.211262740114,"lng":-111.662972499072},{"id":"5008","name":"Lucina Grant-Hauck","party":"Dem","address":"1419 S 400 W, Provo, UT 84601","precinct":"25PR65","hd":"62","v_score":"0","decile":"1","lat":40.214930871001,"lng":-111.666076851076},{"id":"5470","name":"Viola Johns PhD","party":"Dem","address":"543 W 1770 S, Provo, UT 84601","precinct":"25PR65","hd":"62","v_score":"5.40460374","decile":"7","lat":40.21004671207,"lng":-111.66750681476},{"id":"5873","name":"Madonna Ankunding-Brakus","party":"","address":"399 W 1500 S, Provo, UT 84601","precinct":"25PR65","hd":"62","v_score":"2.587603312","decile":"5","lat":40.213430711572,"lng":-111.666045103483},{"id":"6179","name":"Val Lockman","party":"Rep","address":"1815 S 620 W, Provo, UT 84601","precinct":"25PR65","hd":"62","v_score":"9.616113056","decile":"8","lat":40.21000548316,"lng":-111.669462742396},{"id":"6937","name":"Adel Ratke PhD","party":"","address":"642 W 1720 S, Provo, UT 84601","precinct":"25PR65","hd":"62","v_score":"4.283276088","decile":"7","lat":40.21087210156,"lng":-111.669758110556},{"id":"6987","name":"Hanson Gibson-Durgan","party":"Dem","address":"323 Lakewood Dr, Provo, UT 84601","precinct":"25PR65","hd":"62","v_score":"3.781490609","decile":"6","lat":40.210667534097,"lng":-111.663269200447},{"id":"7025","name":"Rolla Steuber-Olson","party":"Dem","address":"1592 S 300 W, Provo, UT 84601","precinct":"25PR65","hd":"62","v_score":"5.40460374","decile":"7","lat":40.212230558301,"lng":-111.663757126816},{"id":"7699","name":"Pollie Reynolds-Collins","party":"Rep","address":"616 W 1870 S, Unit 1087, Provo, UT 84601","precinct":"25PR65","hd":"62","v_score":"3.781490609","decile":"6","lat":40.224787628617,"lng":-111.669371734955},{"id":"7813","name":"Eartha Schroeder","party":"Dem","address":"1632 S 400 W, Provo, UT 84601","precinct":"25PR65","hd":"62","v_score":"23.09567533","decile":"10","lat":40.212018129601,"lng":-111.66560141121},{"id":"7876","name":"Ms. Jailene Sauer","party":"Dem","address":"398 W 1570 S, Provo, UT 84601","precinct":"25PR65","hd":"62","v_score":"10.74302793","decile":"9","lat":40.212834780389,"lng":-111.665451984438},{"id":"7878","name":"Dr. Doc Erdman MD","party":"Dem","address":"398 W 1570 S, Provo, UT 84601","precinct":"25PR65","hd":"62","v_score":"27.62043607","decile":"10","lat":40.212834780389,"lng":-111.665451984438},{"id":"7911","name":"Evia Heidenreich","party":"Dem","address":"1761 S 730 W, Provo, UT 84601","precinct":"25PR65","hd":"62","v_score":"0","decile":"1","lat":40.210390431303,"lng":-111.671338991203},{"id":"7981","name":"Timothy Mertz","party":"Dem","address":"1817 S 680 W, Provo, UT 84601","precinct":"25PR65","hd":"62","v_score":"0","decile":"1","lat":40.210003480646,"lng":-111.670408937287},{"id":"8650","name":"Constance Goyette-Sporer","party":"Dem","address":"364 W 1670 S, Provo, UT 84601","precinct":"25PR65","hd":"62","v_score":"5.40460374","decile":"7","lat":40.211100470891,"lng":-111.664986705313},{"id":"8872","name":"Rosalinda Parisian PhD","party":"","address":"1401 S 500 W, Provo, UT 84601","precinct":"25PR65","hd":"62","v_score":"8.280646305","decile":"8","lat":40.214981400155,"lng":-111.667354831754},{"id":"9350","name":"Marcia Weber","party":"","address":"1690 S 730 W, Provo, UT 84601","precinct":"25PR65","hd":"62","v_score":"13.98702554","decile":"9","lat":40.211005097824,"lng":-111.67149190879},{"id":"12014","name":"Valentina Schulist","party":"","address":"1682 S 400 W, Provo, UT 84601","precinct":"25PR65","hd":"62","v_score":"14.58356067","decile":"9","lat":40.2107582713,"lng":-111.665598701435},{"id":"13329","name":"Laraine Keebler","party":"","address":"1580 S 730 W, Provo, UT 84601","precinct":"25PR65","hd":"62","v_score":"28.27390347","decile":"10","lat":40.21128913773,"lng":-111.671491908754},{"id":"14191","name":"Malissa Koelpin","party":"","address":"1765 S 500 W, Provo, UT 84601","precinct":"25PR65","hd":"62","v_score":"3.781490609","decile":"6","lat":40.210413146025,"lng":-111.667303347861},{"id":"14219","name":"Olena Johnson-Haley","party":"","address":"1765 S 500 W, Provo, UT 84601","precinct":"25PR65","hd":"62","v_score":"2.315214949","decile":"5","lat":40.210413146025,"lng":-111.667303347861},{"id":"14294","name":"Dicie Beer PhD","party":"Dem","address":"1601 S 450 W, Provo, UT 84601","precinct":"25PR65","hd":"62","v_score":"8.016984044","decile":"8","lat":40.212022713654,"lng":-111.66636250839},{"id":"15852","name":"Chip Langosh IV","party":"Dem","address":"436 W 1500 S, Provo, UT 84601","precinct":"25PR65","hd":"62","v_score":"7.282185415","decile":"8","lat":40.213545302993,"lng":-111.666541098207},{"id":"16560","name":"Fae Howell","party":"","address":"1688 S 400 W, Provo, UT 84601","precinct":"25PR65","hd":"62","v_score":"1.121327652","decile":"3","lat":40.210534249955,"lng":-111.665596547413},{"id":"16774","name":"Antony Hoppe","party":"Dem","address":"491 W 1300 S, Provo, UT 84601","precinct":"25PR65","hd":"62","v_score":"8.280646305","decile":"8","lat":40.21620964135,"lng":-111.667320454392},{"id":"17426","name":"Dr. Flor Schmeler MD","party":"Dem","address":"605 W 1660 S, Provo, UT 84601","precinct":"25PR65","hd":"62","v_score":"26.42295231","decile":"10","lat":40.21147082987,"lng":-111.66933397524},{"id":"17818","name":"Tatyanna Will","party":"Dem","address":"615 W 1820 S, Provo, UT 84601","precinct":"25PR65","hd":"62","v_score":"25.83361671","decile":"10","lat":40.209344712272,"lng":-111.669109474637},{"id":"18366","name":"Alphonsine Hayes","party":"Rep","address":"475 Lakewood Dr, Provo, UT 84601","precinct":"25PR65","hd":"62","v_score":"11.30609121","decile":"9","lat":40.209658155144,"lng":-111.666865549256},{"id":"18482","name":"Alys Kutch MD","party":"","address":"1797 S 620 W, Provo, UT 84601","precinct":"25PR65","hd":"62","v_score":"9.699007114","decile":"8","lat":40.210122703233,"lng":-111.669460488149},{"id":"19194","name":"Kiefer Weimann","party":"Rep","address":"491 W 1300 S, Provo, UT 84601","precinct":"25PR65","hd":"62","v_score":"6.896907962","decile":"8","lat":40.21620964135,"lng":-111.667320454392},{"id":"19882","name":"Elder Marks","party":"Dem","address":"345 W Lakewood Dr, Provo, UT 84601","precinct":"25PR65","hd":"62","v_score":"1.121327652","decile":"3","lat":40.210494490781,"lng":-111.663892156521},{"id":"21361","name":"Marcel Prosacco","party":"","address":"374 W 1670 S, Provo, UT 84601","precinct":"25PR65","hd":"62","v_score":"2.315214949","decile":"5","lat":40.211097303165,"lng":-111.665117681599},{"id":"21708","name":"Mrs. Lailah Dibbert","party":"","address":"1617 S 450 W, Provo, UT 84601","precinct":"25PR65","hd":"62","v_score":"2.315214949","decile":"5","lat":40.211909732403,"lng":-111.66636216077},{"id":"22198","name":"Brock Little-Balistreri","party":"Rep","address":"1758 S 730 W, Provo, UT 84601","precinct":"25PR65","hd":"62","v_score":"15.53273099","decile":"9","lat":40.210549160587,"lng":-111.671490013485},{"id":"22306","name":"Nobie Skiles-Barton","party":"","address":"673 W 1920 S, Unit 1063, Provo, UT 84601","precinct":"25PR65","hd":"62","v_score":"5.191257514","decile":"7","lat":40.22472541242,"lng":-111.670049385371},{"id":"22459","name":"Colter Champlin","party":"Rep","address":"1716 S 730 W, Provo, UT 84601","precinct":"25PR65","hd":"62","v_score":"26.8582098","decile":"10","lat":40.210937961119,"lng":-111.671491908799},{"id":"23220","name":"Deven Powlowski","party":"Dem","address":"1581 S 680 W, Provo, UT 84601","precinct":"25PR65","hd":"62","v_score":"0","decile":"1","lat":40.213115164095,"lng":-111.670447256905},{"id":"24245","name":"Fannie Gibson-Will","party":"Dem","address":"387 W Lakewood Dr, Provo, UT 84601","precinct":"25PR65","hd":"62","v_score":"9.600440767","decile":"8","lat":40.210164135361,"lng":-111.665081436298},{"id":"24428","name":"Roel Mills","party":"","address":"398 W 1570 S, Provo, UT 84601","precinct":"25PR65","hd":"62","v_score":"13.78463406","decile":"9","lat":40.212834780389,"lng":-111.665451984438},{"id":"24653","name":"Crissy Denesik","party":"","address":"601 W 1820 S, Provo, UT 84601","precinct":"25PR65","hd":"62","v_score":"9.913499214","decile":"8","lat":40.209344712254,"lng":-111.668877276504},{"id":"24885","name":"Ms. Kittie Vandervort","party":"","address":"1736 S 680 W, Provo, UT 84601","precinct":"25PR65","hd":"62","v_score":"1.46627566","decile":"4","lat":40.21054155061,"lng":-111.670565677634},{"id":"25195","name":"Cammie Kreiger DVM","party":"Rep","address":"661 W 1920 S, Unit 1070, Provo, UT 84601","precinct":"25PR65","hd":"62","v_score":"5.258122542","decile":"7","lat":40.224696265361,"lng":-111.669699621014},{"id":"25253","name":"Jasmyn Goodwin","party":"Dem","address":"638 W 1920 S, Unit 1053, Provo, UT 84601","precinct":"25PR65","hd":"62","v_score":"3.93832808","decile":"6","lat":40.224793540699,"lng":-111.669457460041},{"id":"26247","name":"Dickie Schuster MD","party":"Dem","address":"1650 S 620 W, Provo, UT 84601","precinct":"25PR65","hd":"62","v_score":"2.315214949","decile":"5","lat":40.211898717996,"lng":-111.669655411188},{"id":"26555","name":"Wenzel Kassulke","party":"","address":"514 W 1670 S, Provo, UT 84601","precinct":"25PR65","hd":"62","v_score":"1.46627566","decile":"4","lat":40.211559214409,"lng":-111.667454003584},{"id":"26826","name":"Hiram Osinski","party":"","address":"1581 S 570 W, Provo, UT 84601","precinct":"25PR65","hd":"62","v_score":"2.660162957","decile":"5","lat":40.2122420383,"lng":-111.668500129711},{"id":"27066","name":"Angie Renner","party":"Rep","address":"1654 S 450 W, Provo, UT 84601","precinct":"25PR65","hd":"62","v_score":"16.79207149","decile":"9","lat":40.21164113268,"lng":-111.666511385361},{"id":"27272","name":"Cecil Anderson-Rolfson","party":"Rep","address":"448 W 1570 S, Provo, UT 84601","precinct":"25PR65","hd":"62","v_score":"2.587603312","decile":"5","lat":40.212841484619,"lng":-111.666254827168},{"id":"27957","name":"Taurus Hilpert-Murphy","party":"Dem","address":"1632 S 400 W, Provo, UT 84601","precinct":"25PR65","hd":"62","v_score":"24.56195099","decile":"10","lat":40.212018129601,"lng":-111.66560141121},{"id":"28285","name":"Valarie Dicki","party":"","address":"622 W 1890 S, Unit 1103, Provo, UT 84601","precinct":"25PR65","hd":"62","v_score":"3.781490609","decile":"6","lat":40.240803955406,"lng":-111.686865940685},{"id":"28597","name":"Dr. Hal Kuhic","party":"Rep","address":"615 W 1820 S, Provo, UT 84601","precinct":"25PR65","hd":"62","v_score":"18.46989245","decile":"10","lat":40.209344712272,"lng":-111.669109474637},{"id":"29121","name":"Jodie Jaskolski","party":"Rep","address":"323 Lakewood Dr, Provo, UT 84601","precinct":"25PR65","hd":"62","v_score":"2.587603312","decile":"5","lat":40.210667534097,"lng":-111.663269200447},{"id":"29622","name":"Luster Wehner Sr.","party":"Dem","address":"318 W 1610 S, Provo, UT 84601","precinct":"25PR65","hd":"62","v_score":"8.347511332","decile":"8","lat":40.212083605272,"lng":-111.663816137156},{"id":"29789","name":"Miss Robin Schoen PhD","party":"","address":"311 W 1610 S, Provo, UT 84601","precinct":"25PR65","hd":"62","v_score":"0","decile":"1","lat":40.212008930768,"lng":-111.663677938005},{"id":"29891","name":"Dr. Rashaad Stark III","party":"Rep","address":"1601 S 450 W, Provo, UT 84601","precinct":"25PR65","hd":"62","v_score":"8.016984044","decile":"8","lat":40.212022713654,"lng":-111.66636250839},{"id":"29914","name":"Anderson Prohaska","party":"Rep","address":"315 Lakewood Dr, Provo, UT 84601","precinct":"25PR65","hd":"62","v_score":"0","decile":"1","lat":40.210730458939,"lng":-111.663042670965},{"id":"30460","name":"Dr. Colin Gaylord Sr.","party":"","address":"645 W 1920 S, Unit 1077, Provo, UT 84601","precinct":"25PR65","hd":"62","v_score":"2.315214949","decile":"5","lat":40.22468102631,"lng":-111.669494341115},{"id":"30596","name":"Nery Pacocha","party":"","address":"1682 S 400 W, Provo, UT 84601","precinct":"25PR65","hd":"62","v_score":"32.40059519","decile":"10","lat":40.2107582713,"lng":-111.665598701435},{"id":"30697","name":"Paisley Hayes PhD","party":"","address":"662 W 1870 S, Unit 1041, Provo, UT 84601","precinct":"25PR65","hd":"62","v_score":"3.781490609","decile":"6","lat":40.224815038124,"lng":-111.669741631032},{"id":"31100","name":"Teresa McClure","party":"","address":"1633 S 620 W, Provo, UT 84601","precinct":"25PR65","hd":"62","v_score":"5.40460374","decile":"7","lat":40.212020622057,"lng":-111.669509544222},{"id":"31215","name":"Dr. Leonora Mraz DVM","party":"Rep","address":"542 W 1670 S, Provo, UT 84601","precinct":"25PR65","hd":"62","v_score":"15.57817759","decile":"9","lat":40.21156044719,"lng":-111.667493452493},{"id":"31244","name":"Orrie Ullrich","party":"Rep","address":"1654 S 300 W, Provo, UT 84601","precinct":"25PR65","hd":"62","v_score":"2.587603312","decile":"5","lat":40.211491336642,"lng":-111.663157916198},{"id":"31273","name":"Dr. Garrick Treutel","party":"Dem","address":"332 W 1610 S, Provo, UT 84601","precinct":"25PR65","hd":"62","v_score":"0","decile":"1","lat":40.212069302961,"lng":-111.663908914448},{"id":"31407","name":"Randolf Stark","party":"Dem","address":"323 Lakewood Dr, Provo, UT 84601","precinct":"25PR65","hd":"62","v_score":"2.315214949","decile":"5","lat":40.210667534097,"lng":-111.663269200447},{"id":"31789","name":"Miss Kizzie Smith PhD","party":"","address":"1578 S 680 W, Provo, UT 84601","precinct":"25PR65","hd":"62","v_score":"9.472197552","decile":"8","lat":40.213121915361,"lng":-111.670597579654},{"id":"31953","name":"Dr. Kaylee Torphy","party":"Dem","address":"433 W 1570 S, Provo, UT 84601","precinct":"25PR65","hd":"62","v_score":"3.781490609","decile":"6","lat":40.212725470042,"lng":-111.666111342931},{"id":"32267","name":"Barrett Strosin","party":"","address":"354 W 1670 S, Provo, UT 84601","precinct":"25PR65","hd":"62","v_score":"17.70472416","decile":"10","lat":40.211121464283,"lng":-111.664871441769},{"id":"32464","name":"Shelley Feeney","party":"","address":"1795 S 570 W, Provo, UT 84601","precinct":"25PR65","hd":"62","v_score":"4.210716443","decile":"7","lat":40.210222069283,"lng":-111.668477619828},{"id":"33262","name":"Vaughn Cormier","party":"Rep","address":"516 W 1610 S, Provo, UT 84601","precinct":"25PR65","hd":"62","v_score":"23.45862629","decile":"10","lat":40.212267303209,"lng":-111.667453227589},{"id":"34307","name":"Chester Dach","party":"","address":"1662 S 400 W, Provo, UT 84601","precinct":"25PR65","hd":"62","v_score":"4.235493435","decile":"7","lat":40.211360396458,"lng":-111.665601411295},{"id":"34754","name":"Mai O'Connell","party":"","address":"1616 S 730 W, Provo, UT 84601","precinct":"25PR65","hd":"62","v_score":"5.463645877","decile":"7","lat":40.211196179215,"lng":-111.671491908766},{"id":"35340","name":"Hallie Anderson","party":"Rep","address":"1689 S 300 W, Provo, UT 84601","precinct":"25PR65","hd":"62","v_score":"3.781490609","decile":"6","lat":40.21165382257,"lng":-111.663113200942},{"id":"35390","name":"Mr. Tre White","party":"Rep","address":"337 Lakewood Dr, Provo, UT 84601","precinct":"25PR65","hd":"62","v_score":"6.814370645","decile":"8","lat":40.210557415623,"lng":-111.663665627039},{"id":"35458","name":"Mr. Jeramie Rosenbaum MD","party":"","address":"1650 S 620 W, Provo, UT 84601","precinct":"25PR65","hd":"62","v_score":"9.116556227","decile":"8","lat":40.211898717996,"lng":-111.669655411188},{"id":"35843","name":"Miss Lesia Christiansen","party":"","address":"476 W 1500 S, Provo, UT 84601","precinct":"25PR65","hd":"62","v_score":"7.995565619","decile":"8","lat":40.213545303033,"lng":-111.667063197932},{"id":"36356","name":"Samuel Runte DDS","party":"","address":"387 W Lakewood Dr, Provo, UT 84601","precinct":"25PR65","hd":"62","v_score":"5.191257514","decile":"7","lat":40.210164135361,"lng":-111.665081436298},{"id":"36820","name":"Reginal Lowe DDS","party":"","address":"662 W 1870 S, Unit 1042, Provo, UT 84601","precinct":"25PR65","hd":"62","v_score":"8.347511332","decile":"8","lat":40.224815038124,"lng":-111.669741631032},{"id":"36840","name":"Dr. Quinn Keebler","party":"","address":"1689 S 300 W, Provo, UT 84601","precinct":"25PR65","hd":"62","v_score":"2.587603312","decile":"5","lat":40.21165382257,"lng":-111.663113200942},{"id":"37650","name":"Mr. Demario Jerde III","party":"","address":"673 W 1920 S, Unit 1063, Provo, UT 84601","precinct":"25PR65","hd":"62","v_score":"5.191257514","decile":"7","lat":40.22472541242,"lng":-111.670049385371},{"id":"37992","name":"Shawnna Gaylord","party":"Rep","address":"1631 S 400 W, Provo, UT 84601","precinct":"25PR65","hd":"62","v_score":"12.38292299","decile":"9","lat":40.211433656155,"lng":-111.665451354227},{"id":"38551","name":"Frida Nicolas","party":"","address":"1673 S 570 W, Provo, UT 84601","precinct":"25PR65","hd":"62","v_score":"1.121327652","decile":"3","lat":40.211355643914,"lng":-111.668499026746},{"id":"38784","name":"Travon Oberbrunner-O'Conner","party":"","address":"1812 S 620 W, Provo, UT 84601","precinct":"25PR65","hd":"62","v_score":"8.315400969","decile":"8","lat":40.210020190336,"lng":-111.66961252844},{"id":"39035","name":"Shaquan Hand","party":"Rep","address":"323 W Lakewood Dr, Provo, UT 84601","precinct":"25PR65","hd":"62","v_score":"1.46627566","decile":"4","lat":40.210667534097,"lng":-111.663269200447},{"id":"39148","name":"Alicia Fritsch","party":"","address":"1401 S 500 W, Provo, UT 84601","precinct":"25PR65","hd":"62","v_score":"8.280646305","decile":"8","lat":40.214981400155,"lng":-111.667354831754},{"id":"39207","name":"Jovanni Volkman","party":"Rep","address":"1597 S 620 W, Provo, UT 84601","precinct":"25PR65","hd":"62","v_score":"5.40460374","decile":"7","lat":40.212258340043,"lng":-111.669517819184},{"id":"39756","name":"Holmes Morissette","party":"Dem","address":"694 W 1870 S, Unit 1031, Provo, UT 84601","precinct":"25PR65","hd":"62","v_score":"0","decile":"1","lat":40.224864874253,"lng":-111.670889885368},{"id":"40018","name":"Cathleen Grant","party":"Rep","address":"1672 S 300 W, Provo, UT 84601","precinct":"25PR65","hd":"62","v_score":"1.121327652","decile":"3","lat":40.211262740114,"lng":-111.662972499072},{"id":"40022","name":"Fleta Wolff DVM","party":"","address":"386 Lakewood Dr, Provo, UT 84601","precinct":"25PR65","hd":"62","v_score":"1.121327652","decile":"3","lat":40.210271824756,"lng":-111.665132727753},{"id":"40679","name":"Citlalli Haley-Halvorson","party":"Dem","address":"1596 S 680 W, Provo, UT 84601","precinct":"25PR65","hd":"62","v_score":"11.47267816","decile":"9","lat":40.213015670592,"lng":-111.670594130163},{"id":"40848","name":"Dr. Oneal Lowe DVM","party":"Rep","address":"1852 S 730 W, Unit 1003, Provo, UT 84601","precinct":"25PR65","hd":"62","v_score":"6.814370645","decile":"8","lat":40.209805134361,"lng":-111.671485476836},{"id":"40883","name":"Ethan McDermott","party":"Rep","address":"1737 S 620 W, Provo, UT 84601","precinct":"25PR65","hd":"62","v_score":"0","decile":"1","lat":40.210513436812,"lng":-111.669452973992},{"id":"41696","name":"Jimmy Gottlieb","party":"","address":"662 W 1870 S, Unit 1041, Provo, UT 84601","precinct":"25PR65","hd":"62","v_score":"13.17481923","decile":"9","lat":40.224815038124,"lng":-111.669741631032},{"id":"42160","name":"Mr. Mace Reilly Jr.","party":"","address":"316 Lakewood Dr, Provo, UT 84601","precinct":"25PR65","hd":"62","v_score":"35.30276996","decile":"10","lat":40.210822417124,"lng":-111.66315059479},{"id":"42239","name":"Elfie Parker","party":"","address":"336 W 1570 S, Provo, UT 84601","precinct":"25PR65","hd":"62","v_score":"3.93832808","decile":"6","lat":40.212839867619,"lng":-111.664655823522},{"id":"42320","name":"Harrold Schroeder","party":"Rep","address":"1758 S 730 W, Provo, UT 84601","precinct":"25PR65","hd":"62","v_score":"15.53273099","decile":"9","lat":40.210549160587,"lng":-111.671490013485},{"id":"42323","name":"Dr. Natalia Upton DVM","party":"","address":"634 W 1870 S, Unit 1081, Provo, UT 84601","precinct":"25PR65","hd":"62","v_score":"5.273794831","decile":"7","lat":40.224792465775,"lng":-111.669441873662},{"id":"42916","name":"Auston Boyle","party":"","address":"1743 S 450 W, Provo, UT 84601","precinct":"25PR65","hd":"62","v_score":"8.363183621","decile":"8","lat":40.211020005058,"lng":-111.666359423263},{"id":"43522","name":"Vollie Renner-Weissnat","party":"","address":"309 W Lakewood Dr, Provo, UT 84601","precinct":"25PR65","hd":"62","v_score":"2.587603312","decile":"5","lat":40.21077765257,"lng":-111.662872773854},{"id":"43835","name":"Mrs. Magdalene Hane","party":"","address":"1420 S 400 W, Provo, UT 84601","precinct":"25PR65","hd":"62","v_score":"4.210716443","decile":"7","lat":40.214918555413,"lng":-111.666226913278},{"id":"43922","name":"Hettie Cole DDS","party":"Dem","address":"661 W 1920 S, Unit 1070, Provo, UT 84601","precinct":"25PR65","hd":"62","v_score":"5.258122542","decile":"7","lat":40.224696265361,"lng":-111.669699621014},{"id":"43959","name":"Elgie Huel","party":"Dem","address":"645 W 1920 S, Unit 1076, Provo, UT 84601","precinct":"25PR65","hd":"62","v_score":"21.49890814","decile":"10","lat":40.22468102631,"lng":-111.669494341115},{"id":"45165","name":"Bessie Dach","party":"Rep","address":"401 W 1450 S, Provo, UT 84601","precinct":"25PR65","hd":"62","v_score":"3.781490609","decile":"6","lat":40.214299964614,"lng":-111.666221511834},{"id":"45195","name":"Josh Fahey MD","party":"","address":"1635 S 570 W, Provo, UT 84601","precinct":"25PR65","hd":"62","v_score":"1.46627566","decile":"4","lat":40.211792126438,"lng":-111.668501544586},{"id":"45208","name":"Caylee Beahan PhD","party":"Rep","address":"1743 S 450 W, Provo, UT 84601","precinct":"25PR65","hd":"62","v_score":"8.363183621","decile":"8","lat":40.211020005058,"lng":-111.666359423263},{"id":"45768","name":"Miss Sally Sauer","party":"","address":"341 W 1570 S, Provo, UT 84601","precinct":"25PR65","hd":"62","v_score":"8.347511332","decile":"8","lat":40.21272495203,"lng":-111.664705933215},{"id":"46067","name":"Hardin Heller I","party":"Rep","address":"1650 S 620 W, Provo, UT 84601","precinct":"25PR65","hd":"62","v_score":"8.903210001","decile":"8","lat":40.211898717996,"lng":-111.669655411188},{"id":"47044","name":"Muhammad Hagenes","party":"Dem","address":"1718 S 450 W, Provo, UT 84601","precinct":"25PR65","hd":"62","v_score":"0","decile":"1","lat":40.211189207679,"lng":-111.666509994882},{"id":"47246","name":"Orma Huel","party":"Rep","address":"323 W Lakewood Dr, Provo, UT 84601","precinct":"25PR65","hd":"62","v_score":"1.121327652","decile":"3","lat":40.210667534097,"lng":-111.663269200447},{"id":"47409","name":"Wendell Nicolas-Schmeler","party":"Rep","address":"321 W 1570 S, Provo, UT 84601","precinct":"25PR65","hd":"62","v_score":"2.744440783","decile":"5","lat":40.212726593072,"lng":-111.664449107113},{"id":"48432","name":"Giles Daugherty-O'Kon","party":"","address":"631 W 1820 S, Provo, UT 84601","precinct":"25PR65","hd":"62","v_score":"2.315214949","decile":"5","lat":40.209344712292,"lng":-111.669374843931},{"id":"48684","name":"Kasey O'Connell","party":"Dem","address":"675 W 1660 S, Provo, UT 84601","precinct":"25PR65","hd":"62","v_score":"3.93832808","decile":"6","lat":40.211468712122,"lng":-111.670326121136},{"id":"49499","name":"Mr. Ignatius Stiedemann","party":"","address":"1581 S 570 W, Provo, UT 84601","precinct":"25PR65","hd":"62","v_score":"2.587603312","decile":"5","lat":40.2122420383,"lng":-111.668500129711},{"id":"50028","name":"Zeno Feil","party":"Dem","address":"374 W 1670 S, Provo, UT 84601","precinct":"25PR65","hd":"62","v_score":"2.587603312","decile":"5","lat":40.211097303165,"lng":-111.665117681599},{"id":"50329","name":"Mr. Jeromy Reichel Jr.","party":"Dem","address":"1662 S 400 W, Provo, UT 84601","precinct":"25PR65","hd":"62","v_score":"1.46627566","decile":"4","lat":40.211360396458,"lng":-111.665601411295},{"id":"51611","name":"Ms. Norita Friesen","party":"","address":"1611 S 500 W, Provo, UT 84601","precinct":"25PR65","hd":"62","v_score":"7.159318653","decile":"8","lat":40.212064728224,"lng":-111.667283773014},{"id":"51831","name":"Jaida Bergstrom","party":"Dem","address":"641 W 1660 S, Provo, UT 84601","precinct":"25PR65","hd":"62","v_score":"5.530510904","decile":"7","lat":40.211468712082,"lng":-111.66979779818},{"id":"51833","name":"Sibbie Feeney","party":"Dem","address":"641 W 1660 S, Provo, UT 84601","precinct":"25PR65","hd":"62","v_score":"5.530510904","decile":"7","lat":40.211468712082,"lng":-111.66979779818},{"id":"52544","name":"Dedric Koelpin","party":"","address":"514 W 1670 S, Provo, UT 84601","precinct":"25PR65","hd":"62","v_score":"1.46627566","decile":"4","lat":40.211559214409,"lng":-111.667454003584},{"id":"53303","name":"Jeremie Weber II","party":"","address":"1662 S 400 W, Provo, UT 84601","precinct":"25PR65","hd":"62","v_score":"2.587603312","decile":"5","lat":40.211360396458,"lng":-111.665601411295},{"id":"53901","name":"Jarrell Ratke","party":"","address":"476 W 1500 S, Provo, UT 84601","precinct":"25PR65","hd":"62","v_score":"10.9541455","decile":"9","lat":40.213545303033,"lng":-111.667063197932},{"id":"54085","name":"Celeste Beer DVM","party":"","address":"642 W 1720 S, Provo, UT 84601","precinct":"25PR65","hd":"62","v_score":"4.283276088","decile":"7","lat":40.21087210156,"lng":-111.669758110556},{"id":"54423","name":"Kirstin White","party":"","address":"415 Lakewood Dr, Provo, UT 84601","precinct":"25PR65","hd":"62","v_score":"0","decile":"1","lat":40.209971172453,"lng":-111.665788662485},{"id":"54565","name":"Jorge Balistreri","party":"","address":"333 W 1610 S, Provo, UT 84601","precinct":"25PR65","hd":"62","v_score":"6.881235673","decile":"8","lat":40.211954711577,"lng":-111.663908914463},{"id":"54727","name":"Dr. Charisse Turner","party":"Rep","address":"1465 S 500 W, Provo, UT 84601","precinct":"25PR65","hd":"62","v_score":"1.121327652","decile":"3","lat":40.214063850319,"lng":-111.667356475289},{"id":"55142","name":"Jaydin Denesik","party":"Rep","address":"372 W Lakewood Dr, Provo, UT 84601","precinct":"25PR65","hd":"62","v_score":"1.121327652","decile":"3","lat":40.21038194323,"lng":-111.66473630116},{"id":"56339","name":"Jetta Cummerata-Toy","party":"","address":"331 Lakewood Dr, Provo, UT 84601","precinct":"25PR65","hd":"62","v_score":"0","decile":"1","lat":40.210604609255,"lng":-111.663495729928},{"id":"56819","name":"Mr. Cleave Harris Sr.","party":"","address":"337 Lakewood Dr, Provo, UT 84601","precinct":"25PR65","hd":"62","v_score":"9.757278238","decile":"8","lat":40.210557415623,"lng":-111.663665627039},{"id":"57439","name":"Koda Douglas","party":"","address":"433 W 1570 S, Provo, UT 84601","precinct":"25PR65","hd":"62","v_score":"2.315214949","decile":"5","lat":40.212725470042,"lng":-111.666111342931},{"id":"57598","name":"Lanny McLaughlin","party":"Dem","address":"316 Lakewood Dr, Provo, UT 84601","precinct":"25PR65","hd":"62","v_score":"25.60376284","decile":"10","lat":40.210822417124,"lng":-111.66315059479},{"id":"58512","name":"Blane Schneider","party":"","address":"1581 S 570 W, Provo, UT 84601","precinct":"25PR65","hd":"62","v_score":"2.315214949","decile":"5","lat":40.2122420383,"lng":-111.668500129711},{"id":"58535","name":"Rodrick Sauer DDS","party":"","address":"337 Lakewood Dr, Provo, UT 84601","precinct":"25PR65","hd":"62","v_score":"2.315214949","decile":"5","lat":40.210557415623,"lng":-111.663665627039},{"id":"58773","name":"Isabella Hammes DVM","party":"","address":"341 W 1670 S, Provo, UT 84601","precinct":"25PR65","hd":"62","v_score":"1.121327652","decile":"3","lat":40.211067173122,"lng":-111.664636179882},{"id":"60154","name":"Zachary Tillman-Murazik","party":"Dem","address":"386 Lakewood Dr, Provo, UT 84601","precinct":"25PR65","hd":"62","v_score":"0","decile":"1","lat":40.210271824756,"lng":-111.665132727753},{"id":"60351","name":"Shane Kautzer","party":"","address":"1655 S 300 W, Provo, UT 84601","precinct":"25PR65","hd":"62","v_score":"26.49214183","decile":"10","lat":40.211858111941,"lng":-111.663278902269},{"id":"60481","name":"Kalel Hoppe","party":"","address":"1612 S 620 W, Provo, UT 84601","precinct":"25PR65","hd":"62","v_score":"29.66799809","decile":"10","lat":40.212149642537,"lng":-111.669664145869},{"id":"60659","name":"Monna Torphy","party":"Rep","address":"332 W 1610 S, Provo, UT 84601","precinct":"25PR65","hd":"62","v_score":"1.121327652","decile":"3","lat":40.212069302961,"lng":-111.663908914448},{"id":"60792","name":"Cheryle Pfeffer","party":"Rep","address":"641 W 1660 S, Provo, UT 84601","precinct":"25PR65","hd":"62","v_score":"0","decile":"1","lat":40.211468712082,"lng":-111.66979779818},{"id":"61938","name":"Villa Senger","party":"","address":"412 W 1570 S, Provo, UT 84601","precinct":"25PR65","hd":"62","v_score":"0","decile":"1","lat":40.212836649186,"lng":-111.665764034519},{"id":"62029","name":"Bobby Terry","party":"Rep","address":"1465 S 500 W, Provo, UT 84601","precinct":"25PR65","hd":"62","v_score":"1.121327652","decile":"3","lat":40.214063850319,"lng":-111.667356475289},{"id":"63683","name":"Ollie Swift","party":"","address":"1852 S 730 W, Provo, UT 84601","precinct":"25PR65","hd":"62","v_score":"0","decile":"1","lat":40.209805134361,"lng":-111.671485476836},{"id":"64260","name":"Meggan Champlin","party":"Dem","address":"622 W 1890 S, Unit 1099, Provo, UT 84601","precinct":"25PR65","hd":"62","v_score":"2.315214949","decile":"5","lat":40.240803955406,"lng":-111.686865940685},{"id":"65571","name":"Mrs. Janessa Witting","party":"Dem","address":"1812 S 620 W, Provo, UT 84601","precinct":"25PR65","hd":"62","v_score":"5.356821087","decile":"7","lat":40.210020190336,"lng":-111.66961252844},{"id":"65773","name":"Clinton Hane-Lueilwitz","party":"","address":"1864 S 730 W, Unit 1009, Provo, UT 84601","precinct":"25PR65","hd":"62","v_score":"5.258122542","decile":"7","lat":40.20971015229,"lng":-111.67148489769},{"id":"65893","name":"Clare Fay","party":"","address":"1798 S 730 W, Provo, UT 84601","precinct":"25PR65","hd":"62","v_score":"4.13679489","decile":"7","lat":40.210232553682,"lng":-111.671488082996},{"id":"65989","name":"Ms. Jaylee Luettgen","party":"Rep","address":"341 W 1570 S, Provo, UT 84601","precinct":"25PR65","hd":"62","v_score":"2.315214949","decile":"5","lat":40.21272495203,"lng":-111.664705933215},{"id":"66728","name":"Precious Smith","party":"","address":"358 W Lakewood Dr, Provo, UT 84601","precinct":"25PR65","hd":"62","v_score":"1.121327652","decile":"3","lat":40.210492061704,"lng":-111.664339874568},{"id":"67077","name":"Shelly Luettgen","party":"","address":"1672 S 300 W, Provo, UT 84601","precinct":"25PR65","hd":"62","v_score":"5.191257514","decile":"7","lat":40.211262740114,"lng":-111.662972499072},{"id":"67453","name":"Dr. Archer Paucek Jr.","party":"Dem","address":"1781 S 730 W, Provo, UT 84601","precinct":"25PR65","hd":"62","v_score":"2.315214949","decile":"5","lat":40.210252915172,"lng":-111.671338152708},{"id":"68639","name":"Mr. Yusuf Swift III","party":"","address":"1616 S 730 W, Provo, UT 84601","precinct":"25PR65","hd":"62","v_score":"3.997370217","decile":"6","lat":40.211196179215,"lng":-111.671491908766},{"id":"68764","name":"Hence Schoen","party":"Dem","address":"1371 S 500 W, Provo, UT 84601","precinct":"25PR65","hd":"62","v_score":"1.193887297","decile":"3","lat":40.215350402186,"lng":-111.667352257274},{"id":"68961","name":"Jonatan Witting","party":"","address":"374 W 1670 S, Provo, UT 84601","precinct":"25PR65","hd":"62","v_score":"1.121327652","decile":"3","lat":40.211097303165,"lng":-111.665117681599},{"id":"69427","name":"Ms. Verne Hauck MD","party":"Dem","address":"483 W 1570 S, Provo, UT 84601","precinct":"25PR65","hd":"62","v_score":"2.315214949","decile":"5","lat":40.212779425588,"lng":-111.667041231873},{"id":"69428","name":"Karon Herzog MD","party":"Dem","address":"483 W 1570 S, Provo, UT 84601","precinct":"25PR65","hd":"62","v_score":"2.315214949","decile":"5","lat":40.212779425588,"lng":-111.667041231873},{"id":"70645","name":"Taja Ryan","party":"Rep","address":"387 W Lakewood Dr, Provo, UT 84601","precinct":"25PR65","hd":"62","v_score":"2.315214949","decile":"5","lat":40.210164135361,"lng":-111.665081436298},{"id":"71187","name":"Britta Luettgen DVM","party":"Rep","address":"341 W 1570 S, Provo, UT 84601","precinct":"25PR65","hd":"62","v_score":"1.121327652","decile":"3","lat":40.21272495203,"lng":-111.664705933215},{"id":"71810","name":"Xander Collins-Durgan","party":"","address":"642 W 1720 S, Provo, UT 84601","precinct":"25PR65","hd":"62","v_score":"15.2589308","decile":"9","lat":40.21087210156,"lng":-111.669758110556},{"id":"72078","name":"Darrian Leffler","party":"Dem","address":"1781 S 730 W, Provo, UT 84601","precinct":"25PR65","hd":"62","v_score":"2.315214949","decile":"5","lat":40.210252915172,"lng":-111.671338152708},{"id":"73419","name":"Illa Schaefer","party":"Dem","address":"458 W 1500 S, Provo, UT 84601","precinct":"25PR65","hd":"62","v_score":"2.315214949","decile":"5","lat":40.213545303015,"lng":-111.666828253056},{"id":"74375","name":"Simona Christiansen","party":"Dem","address":"1581 S 680 W, Provo, UT 84601","precinct":"25PR65","hd":"62","v_score":"0","decile":"1","lat":40.213115164095,"lng":-111.670447256905},{"id":"76174","name":"Demetric Orn","party":"Rep","address":"1795 S 570 W, Provo, UT 84601","precinct":"25PR65","hd":"62","v_score":"9.830961897","decile":"8","lat":40.210222069283,"lng":-111.668477619828},{"id":"77240","name":"Christian Hills","party":"Dem","address":"1797 S 620 W, Provo, UT 84601","precinct":"25PR65","hd":"62","v_score":"1.121327652","decile":"3","lat":40.210122703233,"lng":-111.669460488149},{"id":"77302","name":"Mr. Andrew Langworth V","party":"Rep","address":"1814 S 680 W, Provo, UT 84601","precinct":"25PR65","hd":"62","v_score":"4.833280139","decile":"7","lat":40.210015872522,"lng":-111.67055914754},{"id":"77390","name":"Regan Hoppe","party":"","address":"676 W 1720 S, Provo, UT 84601","precinct":"25PR65","hd":"62","v_score":"1.121327652","decile":"3","lat":40.21089280693,"lng":-111.670317154348},{"id":"77806","name":"Mila Dietrich-Koch","party":"Dem","address":"645 W 1820 S, Provo, UT 84601","precinct":"25PR65","hd":"62","v_score":"0","decile":"1","lat":40.209342372186,"lng":-111.669789939163},{"id":"78166","name":"Axel Monahan-Buckridge","party":"Dem","address":"1465 S 500 W, Provo, UT 84601","precinct":"25PR65","hd":"62","v_score":"0","decile":"1","lat":40.214063850319,"lng":-111.667356475289},{"id":"78432","name":"Erwin Greenholt DDS","party":"","address":"308 Lakewood Dr, Provo, UT 84601","precinct":"25PR65","hd":"62","v_score":"1.193887297","decile":"3","lat":40.210885341966,"lng":-111.662924065309},{"id":"79130","name":"Mrs. Buna Haley","party":"Rep","address":"711 W 1660 S, Provo, UT 84601","precinct":"25PR65","hd":"62","v_score":"15.26393909","decile":"9","lat":40.211476406427,"lng":-111.670758706177},{"id":"79480","name":"Mackenzie Carter","party":"Dem","address":"675 W 1660 S, Provo, UT 84601","precinct":"25PR65","hd":"62","v_score":"2.817000428","decile":"6","lat":40.211468712122,"lng":-111.670326121136},{"id":"79653","name":"Angie Bailey","party":"","address":"691 W 1820 S, Provo, UT 84601","precinct":"25PR65","hd":"62","v_score":"1.121327652","decile":"3","lat":40.209333714401,"lng":-111.670682699157},{"id":"79685","name":"Dr. Lorin Beier Jr.","party":"Rep","address":"332 W 1610 S, Provo, UT 84601","precinct":"25PR65","hd":"62","v_score":"1.121327652","decile":"3","lat":40.212069302961,"lng":-111.663908914448},{"id":"79982","name":"Ms. Corrina Wilderman MD","party":"Rep","address":"691 W 1820 S, Provo, UT 84601","precinct":"25PR65","hd":"62","v_score":"1.121327652","decile":"3","lat":40.209333714401,"lng":-111.670682699157},{"id":"80334","name":"Karyme Cassin-Prosacco","party":"Dem","address":"477 W 1450 S, Provo, UT 84601","precinct":"25PR65","hd":"62","v_score":"3.93832808","decile":"6","lat":40.214276711556,"lng":-111.667109260381},{"id":"81811","name":"Dr. Blaine Huel DVM","party":"Dem","address":"336 Lakewood Dr, Provo, UT 84601","precinct":"25PR65","hd":"62","v_score":"5.693042993","decile":"7","lat":40.210665105019,"lng":-111.663716918494},{"id":"84529","name":"Dr. Price O'Hara IV","party":"Rep","address":"1662 S 400 W, Provo, UT 84601","precinct":"25PR65","hd":"62","v_score":"4.069929862","decile":"6","lat":40.211360396458,"lng":-111.665601411295},{"id":"85215","name":"Mr. Dustin Hickle","party":"Dem","address":"1581 S 680 W, Provo, UT 84601","precinct":"25PR65","hd":"62","v_score":"0","decile":"1","lat":40.213115164095,"lng":-111.670447256905},{"id":"86056","name":"Kathlyn Jacobs","party":"","address":"1611 S 500 W, Provo, UT 84601","precinct":"25PR65","hd":"62","v_score":"1.193887297","decile":"3","lat":40.212064728224,"lng":-111.667283773014},{"id":"86166","name":"Dr. Giuseppe Klocko DVM","party":"Rep","address":"448 W 1570 S, Provo, UT 84601","precinct":"25PR65","hd":"62","v_score":"5.83359168","decile":"7","lat":40.212841484619,"lng":-111.666254827168},{"id":"86958","name":"Gearldine Powlowski","party":"Dem","address":"514 W 1670 S, Provo, UT 84601","precinct":"25PR65","hd":"62","v_score":"0","decile":"1","lat":40.211559214409,"lng":-111.667454003584},{"id":"87585","name":"Kelley Rutherford","party":"","address":"1731 S 730 W, Provo, UT 84601","precinct":"25PR65","hd":"62","v_score":"2.817000428","decile":"6","lat":40.210596705498,"lng":-111.671340248945},{"id":"87612","name":"Dylon Abernathy","party":"Rep","address":"512 W 1770 S, Provo, UT 84601","precinct":"25PR65","hd":"62","v_score":"0","decile":"1","lat":40.210161303451,"lng":-111.667470095724},{"id":"87877","name":"Love Kub PhD","party":"Dem","address":"606 W 1720 S, Provo, UT 84601","precinct":"25PR65","hd":"62","v_score":"0","decile":"1","lat":40.210863303486,"lng":-111.668985385894},{"id":"87978","name":"Erwin Runolfsdottir","party":"Dem","address":"336 Lakewood Dr, Provo, UT 84601","precinct":"25PR65","hd":"62","v_score":"5.407962308","decile":"7","lat":40.210665105019,"lng":-111.663716918494},{"id":"88722","name":"Leota Haag","party":"Dem","address":"1702 S 450 W, Provo, UT 84601","precinct":"25PR65","hd":"62","v_score":"0","decile":"1","lat":40.211302188929,"lng":-111.666510342502},{"id":"88795","name":"Gauge Ruecker","party":"","address":"1739 S 680 W, Provo, UT 84601","precinct":"25PR65","hd":"62","v_score":"0","decile":"1","lat":40.210529158734,"lng":-111.670415467381},{"id":"89152","name":"Toy Keebler","party":"","address":"622 W 1720 S, Provo, UT 84601","precinct":"25PR65","hd":"62","v_score":"0","decile":"1","lat":40.21086330351,"lng":-111.669293365746},{"id":"90451","name":"Claus Tremblay","party":"","address":"622 W 1720 S, Provo, UT 84601","precinct":"25PR65","hd":"62","v_score":"1.193887297","decile":"4","lat":40.21086330351,"lng":-111.669293365746},{"id":"90592","name":"Braiden Torphy DDS","party":"Dem","address":"544 W 1610 S, Provo, UT 84601","precinct":"25PR65","hd":"62","v_score":"2.817000428","decile":"6","lat":40.212267303212,"lng":-111.667488783058},{"id":"90954","name":"Mr. Rush Kozey DDS","party":"","address":"1695 S 450 W, Provo, UT 84601","precinct":"25PR65","hd":"62","v_score":"1.193887297","decile":"4","lat":40.211358948809,"lng":-111.666360466123},{"id":"91161","name":"Dr. Lucas Kozey","party":"","address":"1864 S 730 W, Unit 1008, Provo, UT 84601","precinct":"25PR65","hd":"62","v_score":"0","decile":"1","lat":40.20971015229,"lng":-111.67148489769},{"id":"91297","name":"Alyse Lehner MD","party":"Dem","address":"492 W 1300 S, Provo, UT 84601","precinct":"25PR65","hd":"62","v_score":"0","decile":"1","lat":40.21632433177,"lng":-111.667323301792},{"id":"92157","name":"Kaye Walker-Hoppe","party":"Rep","address":"1735 S 570 W, Provo, UT 84601","precinct":"25PR65","hd":"62","v_score":"0","decile":"1","lat":40.21066164456,"lng":-111.668486073141},{"id":"92280","name":"Cletus Herman I","party":"Rep","address":"691 W 1660 S, Provo, UT 84601","precinct":"25PR65","hd":"62","v_score":"0","decile":"1","lat":40.211472507902,"lng":-111.67062550694},{"id":"92355","name":"Dr. Dedric Cruickshank","party":"","address":"1601 S 300 W, Provo, UT 84601","precinct":"25PR65","hd":"62","v_score":"0","decile":"1","lat":40.212324416267,"lng":-111.663656648081},{"id":"92371","name":"Harrie Willms Sr.","party":"","address":"1631 S 400 W, Provo, UT 84601","precinct":"25PR65","hd":"62","v_score":"0","decile":"1","lat":40.211433656155,"lng":-111.665451354227},{"id":"92522","name":"Anastacio Gutmann","party":"Dem","address":"606 W 1720 S, Provo, UT 84601","precinct":"25PR65","hd":"62","v_score":"5.926494964","decile":"7","lat":40.210863303486,"lng":-111.668985385894},{"id":"92584","name":"Dr. Ronny Marvin","party":"","address":"387 W Lakewood Dr, Provo, UT 84601","precinct":"25PR65","hd":"62","v_score":"4.069929862","decile":"6","lat":40.210164135361,"lng":-111.665081436298},{"id":"93372","name":"Gottlieb Zieme II","party":"Dem","address":"398 W 1570 S, Provo, UT 84601","precinct":"25PR65","hd":"62","v_score":"6.528952915","decile":"7","lat":40.212834780389,"lng":-111.665451984438},{"id":"93438","name":"Shanta Braun","party":"Dem","address":"316 Lakewood Dr, Provo, UT 84601","precinct":"25PR65","hd":"62","v_score":"13.55270877","decile":"9","lat":40.210822417124,"lng":-111.66315059479},{"id":"94043","name":"Ms. Windy Reilly","party":"","address":"323 Lakewood Dr, Provo, UT 84601","precinct":"25PR65","hd":"62","v_score":"1.193887297","decile":"4","lat":40.210667534097,"lng":-111.663269200447},{"id":"94972","name":"Thaddeus McKenzie","party":"","address":"469 W 1570 S, Provo, UT 84601","precinct":"25PR65","hd":"62","v_score":"0","decile":"1","lat":40.212778883176,"lng":-111.666822669324},{"id":"95641","name":"Gilda Lemke-Willms","party":"Rep","address":"1616 S 730 W, Provo, UT 84601","precinct":"25PR65","hd":"62","v_score":"7.549608095","decile":"8","lat":40.211196179215,"lng":-111.671491908766},{"id":"96897","name":"Darby Heller-Streich","party":"","address":"1731 S 730 W, Provo, UT 84601","precinct":"25PR65","hd":"62","v_score":"2.817000428","decile":"6","lat":40.210596705498,"lng":-111.671340248945},{"id":"97620","name":"Sharman Altenwerth","party":"Dem","address":"1581 S 570 W, Provo, UT 84601","precinct":"25PR65","hd":"62","v_score":"1.193887297","decile":"4","lat":40.2122420383,"lng":-111.668500129711},{"id":"98116","name":"Kimball Funk","party":"Dem","address":"1731 S 730 W, Provo, UT 84601","precinct":"25PR65","hd":"62","v_score":"5.693042993","decile":"7","lat":40.210596705498,"lng":-111.671340248945},{"id":"99094","name":"Maxie DuBuque-Dickinson","party":"","address":"436 W 1500 S, Provo, UT 84601","precinct":"25PR65","hd":"62","v_score":"0","decile":"1","lat":40.213545302993,"lng":-111.666541098207},{"id":"100427","name":"Mena Muller DDS","party":"","address":"549 W 1720 S, Provo, UT 84601","precinct":"25PR65","hd":"62","v_score":"0","decile":"1","lat":40.210744147865,"lng":-111.667722509429},{"id":"100461","name":"Kaitlynn Stiedemann","party":"Dem","address":"1727 S 450 W, Provo, UT 84601","precinct":"25PR65","hd":"62","v_score":"0","decile":"1","lat":40.211132986308,"lng":-111.666359770883},{"id":"101324","name":"Mrs. Carrie Rosenbaum","party":"Dem","address":"336 Lakewood Dr, Provo, UT 84601","precinct":"25PR65","hd":"62","v_score":"0","decile":"2","lat":40.210665105019,"lng":-111.663716918494},{"id":"104575","name":"Dr. Kristy Harber","party":"Dem","address":"1817 S 680 W, Provo, UT 84601","precinct":"25PR65","hd":"62","v_score":"0","decile":"2","lat":40.210003480646,"lng":-111.670408937287},{"id":"104618","name":"Mr. Acy Rippin DVM","party":"Rep","address":"1812 S 620 W, Provo, UT 84601","precinct":"25PR65","hd":"62","v_score":"0","decile":"2","lat":40.210020190336,"lng":-111.66961252844},{"id":"105452","name":"Cullen Padberg","party":"Dem","address":"1622 S 450 W, Provo, UT 84601","precinct":"25PR65","hd":"62","v_score":"0","decile":"2","lat":40.21186709518,"lng":-111.666512080601},{"id":"105664","name":"Bernard Bashirian","party":"Rep","address":"1685 S 400 W, Provo, UT 84601","precinct":"25PR65","hd":"62","v_score":"0","decile":"2","lat":40.210521090043,"lng":-111.665446365691},{"id":"107009","name":"Mr. Jereme Schamberger PhD","party":"Rep","address":"549 W 1720 S, Provo, UT 84601","precinct":"25PR65","hd":"62","v_score":"4.069929862","decile":"7","lat":40.210744147865,"lng":-111.667722509429},{"id":"107674","name":"Mac Labadie","party":"Dem","address":"483 W 1570 S, Provo, UT 84601","precinct":"25PR65","hd":"62","v_score":"4.069929862","decile":"7","lat":40.212779425588,"lng":-111.667041231873},{"id":"107928","name":"Mrs. Vilma Considine DDS","party":"Rep","address":"358 W 1570 S, Provo, UT 84601","precinct":"25PR65","hd":"62","v_score":"1.193887297","decile":"4","lat":40.212838062472,"lng":-111.664938332234},{"id":"108341","name":"Jeanetta Gusikowski-Olson","party":"","address":"436 Lakewood Dr, Provo, UT 84601","precinct":"25PR65","hd":"62","v_score":"0","decile":"2","lat":40.209985288442,"lng":-111.666191761522},{"id":"109105","name":"Rusty Legros","party":"Dem","address":"1581 S 680 W, Provo, UT 84601","precinct":"25PR65","hd":"62","v_score":"0","decile":"2","lat":40.213115164095,"lng":-111.670447256905},{"id":"109654","name":"Aurthur Shields","party":"Dem","address":"1651 S 570 W, Provo, UT 84601","precinct":"25PR65","hd":"62","v_score":"1.193887297","decile":"4","lat":40.21165881922,"lng":-111.668501963808},{"id":"109715","name":"Otto Hudson-Hodkiewicz","party":"","address":"335 W 1610 S, Provo, UT 84601","precinct":"25PR65","hd":"62","v_score":"0","decile":"2","lat":40.211954711579,"lng":-111.663927006134},{"id":"109845","name":"Antonio Schimmel","party":"","address":"1864 S 730 W, Unit 1007, Provo, UT 84601","precinct":"25PR65","hd":"62","v_score":"0","decile":"2","lat":40.20971015229,"lng":-111.67148489769},{"id":"110775","name":"Dionte Klocko","party":"Rep","address":"1690 S 730 W, Provo, UT 84601","precinct":"25PR65","hd":"62","v_score":"4.069929862","decile":"7","lat":40.211005097824,"lng":-111.67149190879},{"id":"110904","name":"Niles Champlin DDS","party":"Dem","address":"1735 S 570 W, Provo, UT 84601","precinct":"25PR65","hd":"62","v_score":"0","decile":"2","lat":40.21066164456,"lng":-111.668486073141},{"id":"110921","name":"Mr. Donal Reichert DDS","party":"Dem","address":"675 W 1820 S, Provo, UT 84601","precinct":"25PR65","hd":"62","v_score":"2.876042565","decile":"6","lat":40.209334643669,"lng":-111.670586519186},{"id":"111074","name":"Ms. Danita Purdy","party":"","address":"1691 S 500 W, Provo, UT 84601","precinct":"25PR65","hd":"62","v_score":"1.193887297","decile":"4","lat":40.211196118019,"lng":-111.667293172008},{"id":"111538","name":"Walter Pfannerstill","party":"","address":"549 W 1720 S, Provo, UT 84601","precinct":"25PR65","hd":"62","v_score":"0","decile":"2","lat":40.210744147865,"lng":-111.667722509429},{"id":"112279","name":"Norman Bergstrom","party":"","address":"1772 S 730 W, Provo, UT 84601","precinct":"25PR65","hd":"62","v_score":"1.193887297","decile":"4","lat":40.21043834817,"lng":-111.671489337814},{"id":"112609","name":"Kendell Altenwerth","party":"Dem","address":"1734 S 620 W, Provo, UT 84601","precinct":"25PR65","hd":"62","v_score":"1.193887297","decile":"4","lat":40.210528143988,"lng":-111.669602760035},{"id":"112646","name":"Stafford Paucek-Gleason","party":"","address":"1772 S 730 W, Provo, UT 84601","precinct":"25PR65","hd":"62","v_score":"1.193887297","decile":"4","lat":40.21043834817,"lng":-111.671489337814},{"id":"112759","name":"Dorcas Blanda MD","party":"","address":"336 W 1570 S, Provo, UT 84601","precinct":"25PR65","hd":"62","v_score":"0","decile":"2","lat":40.212839867619,"lng":-111.664655823522},{"id":"114020","name":"Alex Smitham","party":"","address":"1682 S 400 W, Provo, UT 84601","precinct":"25PR65","hd":"62","v_score":"1.193887297","decile":"4","lat":40.2107582713,"lng":-111.665598701435},{"id":"114166","name":"Marylin McCullough","party":"","address":"308 Lakewood Dr, Provo, UT 84601","precinct":"25PR65","hd":"62","v_score":"1.193887297","decile":"4","lat":40.210885341966,"lng":-111.662924065309},{"id":"114847","name":"Tyreese Hintz","party":"","address":"605 W 1660 S, Provo, UT 84601","precinct":"25PR65","hd":"62","v_score":"1.193887297","decile":"4","lat":40.21147082987,"lng":-111.66933397524},{"id":"115617","name":"Mr. Little Lindgren II","party":"Rep","address":"1772 S 730 W, Provo, UT 84601","precinct":"25PR65","hd":"62","v_score":"2.876042565","decile":"6","lat":40.21043834817,"lng":-111.671489337814},{"id":"115953","name":"Benton Rogahn","party":"","address":"1598 S 730 W, Provo, UT 84601","precinct":"25PR65","hd":"62","v_score":"8.284004873","decile":"8","lat":40.211242658473,"lng":-111.67149190876},{"id":"116520","name":"Mr. Lennie Ziemann MD","party":"","address":"373 Lakewood Dr, Provo, UT 84601","precinct":"25PR65","hd":"62","v_score":"4.069929862","decile":"7","lat":40.210274253834,"lng":-111.664685009706},{"id":"116525","name":"Marci Ritchie","party":"Dem","address":"373 Lakewood Dr, Provo, UT 84601","precinct":"25PR65","hd":"62","v_score":"4.069929862","decile":"7","lat":40.210274253834,"lng":-111.664685009706},{"id":"121142","name":"Miss Kala Collins","party":"Dem","address":"387 W Lakewood Dr, Provo, UT 84601","precinct":"25PR65","hd":"62","v_score":"4.069929862","decile":"7","lat":40.210164135361,"lng":-111.665081436298},{"id":"123378","name":"Alfonse Conroy","party":"Dem","address":"401 W 1450 S, Provo, UT 84601","precinct":"25PR65","hd":"62","v_score":"1.193887297","decile":"4","lat":40.214299964614,"lng":-111.666221511834},{"id":"123467","name":"Dr. Lacy Beahan III","party":"","address":"371 W 1670 S, Provo, UT 84601","precinct":"25PR65","hd":"62","v_score":"1.193887297","decile":"4","lat":40.210982711776,"lng":-111.665062069182},{"id":"123587","name":"Erastus Stokes","party":"Dem","address":"371 W 1670 S, Provo, UT 84601","precinct":"25PR65","hd":"62","v_score":"1.193887297","decile":"4","lat":40.210982711776,"lng":-111.665062069182},{"id":"123645","name":"Mathilde Block","party":"Dem","address":"510 W 1820 S, Provo, UT 84601","precinct":"25PR65","hd":"62","v_score":"1.193887297","decile":"4","lat":40.209450303534,"lng":-111.667498994563},{"id":"124605","name":"Dr. Drusilla Wyman","party":"Dem","address":"1711 S 570 W, Provo, UT 84601","precinct":"25PR65","hd":"62","v_score":"0","decile":"2","lat":40.210966511253,"lng":-111.668491820637},{"id":"124853","name":"Etha Kohler","party":"Rep","address":"476 W 1450 S, Provo, UT 84601","precinct":"25PR65","hd":"62","v_score":"2.876042565","decile":"6","lat":40.21439130294,"lng":-111.667109260367},{"id":"124916","name":"Adria Langosh DDS","party":"","address":"1727 S 450 W, Provo, UT 84601","precinct":"25PR65","hd":"62","v_score":"0","decile":"2","lat":40.211132986308,"lng":-111.666359770883},{"id":"125245","name":"Dr. Lucio Pouros","party":"Dem","address":"1465 S 500 W, Provo, UT 84601","precinct":"25PR65","hd":"62","v_score":"0","decile":"2","lat":40.214063850319,"lng":-111.667356475289},{"id":"125464","name":"Fannye Koss-Mosciski","party":"","address":"691 W 1820 S, Provo, UT 84601","precinct":"25PR65","hd":"62","v_score":"0","decile":"2","lat":40.209333714401,"lng":-111.670682699157},{"id":"125809","name":"Miss Kerri Dickinson","party":"Dem","address":"514 W 1670 S, Provo, UT 84601","precinct":"25PR65","hd":"62","v_score":"0","decile":"2","lat":40.211559214409,"lng":-111.667454003584},{"id":"126697","name":"Toshio Bogisich","party":"Dem","address":"426 W 1570 S, Provo, UT 84601","precinct":"25PR65","hd":"62","v_score":"0","decile":"2","lat":40.212838529632,"lng":-111.665954898327},{"id":"127058","name":"Lexie Macejkovic","party":"Rep","address":"399 W 1500 S, Provo, UT 84601","precinct":"25PR65","hd":"62","v_score":"0","decile":"2","lat":40.213430711572,"lng":-111.666045103483},{"id":"127059","name":"Amparo Jerde-Fritsch","party":"Rep","address":"399 W 1500 S, Provo, UT 84601","precinct":"25PR65","hd":"62","v_score":"0","decile":"2","lat":40.213430711572,"lng":-111.666045103483},{"id":"127078","name":"Kacy Grimes","party":"Dem","address":"1677 S 400 W, Provo, UT 84601","precinct":"25PR65","hd":"62","v_score":"0","decile":"2","lat":40.210726442943,"lng":-111.665448340211},{"id":"127126","name":"Mauricio Eichmann","party":"","address":"1691 S 500 W, Provo, UT 84601","precinct":"25PR65","hd":"62","v_score":"0","decile":"2","lat":40.211196118019,"lng":-111.667293172008},{"id":"127510","name":"Dena Ebert","party":"Dem","address":"1752 S 570 W, Provo, UT 84601","precinct":"25PR65","hd":"62","v_score":"0","decile":"2","lat":40.210409241111,"lng":-111.668631285029},{"id":"127730","name":"Link Cormier IV","party":"","address":"412 W 1570 S, Provo, UT 84601","precinct":"25PR65","hd":"62","v_score":"0","decile":"2","lat":40.212836649186,"lng":-111.665764034519},{"id":"128262","name":"Herma Klein","party":"Rep","address":"1864 S 730 W, Unit 1006, Provo, UT 84601","precinct":"25PR65","hd":"62","v_score":"0","decile":"2","lat":40.20971015229,"lng":-111.67148489769},{"id":"128264","name":"Jann Satterfield","party":"","address":"1864 S 730 W, Provo, UT 84601","precinct":"25PR65","hd":"62","v_score":"0","decile":"2","lat":40.20971015229,"lng":-111.67148489769},{"id":"129636","name":"Hosie Jakubowski-Schuppe","party":"Rep","address":"1690 S 730 W, Provo, UT 84601","precinct":"25PR65","hd":"62","v_score":"4.214075011","decile":"7","lat":40.211005097824,"lng":-111.67149190879},{"id":"130064","name":"Hal Koss","party":"","address":"691 W 1660 S, Provo, UT 84601","precinct":"25PR65","hd":"62","v_score":"0","decile":"2","lat":40.211472507902,"lng":-111.67062550694},{"id":"132879","name":"Leeroy Legros PhD","party":"","address":"475 Lakewood Dr, Provo, UT 84601","precinct":"25PR65","hd":"62","v_score":"0","decile":"2","lat":40.209658155144,"lng":-111.666865549256},{"id":"136460","name":"Columbia Hoeger MD","party":"Dem","address":"621 W 1660 S, Provo, UT 84601","precinct":"25PR65","hd":"62","v_score":"27.77230001","decile":"10","lat":40.211469875382,"lng":-111.669438969757},{"id":"137634","name":"Lorine Zieme","party":"Rep","address":"1786 S 730 W, Provo, UT 84601","precinct":"25PR65","hd":"62","v_score":"8.964340683","decile":"8","lat":40.210327535754,"lng":-111.671488662143},{"id":"138707","name":"Nell Shanahan","party":"Dem","address":"1735 S 500 W, Provo, UT 84601","precinct":"25PR65","hd":"62","v_score":"0","decile":"2","lat":40.210635611388,"lng":-111.667301903252},{"id":"139639","name":"Dena Kautzer DVM","party":"","address":"1578 S 570 W, Provo, UT 84601","precinct":"25PR65","hd":"62","v_score":"3.93832808","decile":"6","lat":40.212390264307,"lng":-111.668649721482},{"id":"141102","name":"Rance Bailey-Crist","party":"","address":"1668 S 400 W, Provo, UT 84601","precinct":"25PR65","hd":"62","v_score":"0","decile":"2","lat":40.21122884983,"lng":-111.665601411312},{"id":"141136","name":"Ingrid Champlin","party":"","address":"346 Lakewood Dr, Provo, UT 84601","precinct":"25PR65","hd":"62","v_score":"10.59318816","decile":"9","lat":40.210586448967,"lng":-111.664000080346},{"id":"142138","name":"Dr. Monroe Cassin Sr.","party":"","address":"1415 S 500 W, Provo, UT 84601","precinct":"25PR65","hd":"62","v_score":"9.968733675","decile":"9","lat":40.214809199207,"lng":-111.667356033178},{"id":"144370","name":"Shyheim Funk","party":"","address":"1786 S 730 W, Provo, UT 84601","precinct":"25PR65","hd":"62","v_score":"10.04533889","decile":"9","lat":40.210327535754,"lng":-111.671488662143},{"id":"144446","name":"Adeline Mohr","party":"Rep","address":"1616 S 730 W, Provo, UT 84601","precinct":"25PR65","hd":"62","v_score":"4.069929862","decile":"7","lat":40.211196179215,"lng":-111.671491908766},{"id":"144522","name":"Gidget Klein DVM","party":"Dem","address":"1616 S 730 W, Provo, UT 84601","precinct":"25PR65","hd":"62","v_score":"4.069929862","decile":"7","lat":40.211196179215,"lng":-111.671491908766},{"id":"144523","name":"Jovita Stamm-Grady","party":"Dem","address":"1777 S 570 W, Provo, UT 84601","precinct":"25PR65","hd":"62","v_score":"0","decile":"3","lat":40.210353941866,"lng":-111.668480155821},{"id":"144647","name":"Hazen Weber","party":"Rep","address":"346 Lakewood Dr, Provo, UT 84601","precinct":"25PR65","hd":"62","v_score":"33.51306988","decile":"10","lat":40.210586448967,"lng":-111.664000080346},{"id":"144714","name":"Trent Kemmer","party":"Dem","address":"1420 S 400 W, Provo, UT 84601","precinct":"25PR65","hd":"62","v_score":"2.744440783","decile":"6","lat":40.214918555413,"lng":-111.666226913278},{"id":"144918","name":"Kassidy Kautzer","party":"","address":"1813 S 730 W, Provo, UT 84601","precinct":"25PR65","hd":"62","v_score":"33.23358095","decile":"10","lat":40.210032889364,"lng":-111.671336811116},{"id":"145501","name":"Miss Maricela Zboncak MD","party":"","address":"1602 S 300 W, Provo, UT 84601","precinct":"25PR65","hd":"62","v_score":"7.493443096","decile":"8","lat":40.212178754004,"lng":-111.663715257603},{"id":"145936","name":"Ms. Ariane Weimann MD","party":"Dem","address":"542 W 1670 S, Provo, UT 84601","precinct":"25PR65","hd":"62","v_score":"2.315214949","decile":"5","lat":40.21156044719,"lng":-111.667493452493},{"id":"146086","name":"Zebulon Moen-Wyman","party":"Dem","address":"1596 S 680 W, Provo, UT 84601","precinct":"25PR65","hd":"62","v_score":"11.47267816","decile":"9","lat":40.213015670592,"lng":-111.670594130163},{"id":"146146","name":"Jaquan Frami PhD","party":"Rep","address":"516 W 1610 S, Provo, UT 84601","precinct":"25PR65","hd":"62","v_score":"23.45862629","decile":"10","lat":40.212267303209,"lng":-111.667453227589},{"id":"146981","name":"Tanner Boehm","party":"","address":"1602 S 300 W, Provo, UT 84601","precinct":"25PR65","hd":"62","v_score":"7.493443096","decile":"8","lat":40.212178754004,"lng":-111.663715257603},{"id":"147392","name":"Miss Kanesha Stark DDS","party":"Rep","address":"763 W 1560 S, Provo, UT 84601","precinct":"25PR65","hd":"62","v_score":"3.93832808","decile":"6","lat":40.212876132598,"lng":-111.672396888889},{"id":"149190","name":"Marlyn Schaefer","party":"Rep","address":"364 W 1670 S, Provo, UT 84601","precinct":"25PR65","hd":"62","v_score":"11.37977487","decile":"9","lat":40.211100470891,"lng":-111.664986705313},{"id":"149191","name":"Mr. Kelly Crist PhD","party":"Dem","address":"364 W 1670 S, Provo, UT 84601","precinct":"25PR65","hd":"62","v_score":"8.363183621","decile":"8","lat":40.211100470891,"lng":-111.664986705313},{"id":"149230","name":"Destry Welch MD","party":"Dem","address":"484 W 1570 S, Provo, UT 84601","precinct":"25PR65","hd":"62","v_score":"26.35608728","decile":"10","lat":40.212894212184,"lng":-111.667031155948},{"id":"149771","name":"Odalis Leffler","party":"","address":"346 Lakewood Dr, Provo, UT 84601","precinct":"25PR65","hd":"62","v_score":"27.55357104","decile":"10","lat":40.210586448967,"lng":-111.664000080346},{"id":"150457","name":"Clyde Jenkins","party":"Dem","address":"1701 S 300 W, Provo, UT 84601","precinct":"25PR65","hd":"62","v_score":"19.18667211","decile":"10","lat":40.21158172044,"lng":-111.663054718121},{"id":"151254","name":"Teddy Krajcik","party":"Rep","address":"318 W 1610 S, Provo, UT 84601","precinct":"25PR65","hd":"62","v_score":"34.09285363","decile":"10","lat":40.212083605272,"lng":-111.663816137156},{"id":"151461","name":"Miss Alba Lemke","party":"Rep","address":"712 W 1720 S, Provo, UT 84601","precinct":"25PR65","hd":"62","v_score":"1.193887297","decile":"4","lat":40.210904450532,"lng":-111.670757203257},{"id":"151480","name":"Huldah Vandervort-Durgan","party":"Dem","address":"437 W 1450 S, Provo, UT 84601","precinct":"25PR65","hd":"62","v_score":"2.744440783","decile":"6","lat":40.214276711521,"lng":-111.666654548808},{"id":"152448","name":"Dove Ruecker-Baumbach","party":"Dem","address":"1578 S 570 W, Provo, UT 84601","precinct":"25PR65","hd":"62","v_score":"2.958579882","decile":"6","lat":40.212390264307,"lng":-111.668649721482},{"id":"153016","name":"Dr. Marybeth Hand","party":"Dem","address":"336 Lakewood Dr, Provo, UT 84601","precinct":"25PR65","hd":"62","v_score":"35.30276996","decile":"10","lat":40.210665105019,"lng":-111.663716918494},{"id":"153068","name":"Mr. Skylar Bernhard","party":"","address":"1649 S 450 W, Provo, UT 84601","precinct":"25PR65","hd":"62","v_score":"11.02844566","decile":"9","lat":40.211683769903,"lng":-111.66636146553},{"id":"153593","name":"Sonny Reinger","party":"Rep","address":"1792 S 570 W, Provo, UT 84601","precinct":"25PR65","hd":"62","v_score":"12.66004699","decile":"9","lat":40.210148752058,"lng":-111.668626275658},{"id":"153925","name":"Nikolas Lowe","party":"Dem","address":"1599 S 570 W, Provo, UT 84601","precinct":"25PR65","hd":"62","v_score":"5.191257514","decile":"7","lat":40.21209206768,"lng":-111.668500601336},{"id":"154001","name":"Miss Kelsie Cole PhD","party":"","address":"1792 S 570 W, Provo, UT 84601","precinct":"25PR65","hd":"62","v_score":"12.66004699","decile":"9","lat":40.210148752058,"lng":-111.668626275658},{"id":"156301","name":"Jocelynn Zieme MD","party":"","address":"1645 S 500 W, Provo, UT 84601","precinct":"25PR65","hd":"62","v_score":"0","decile":"3","lat":40.211766523287,"lng":-111.667285660425},{"id":"156347","name":"Mr. Alfonso King","party":"Rep","address":"588 W 1720 S, Provo, UT 84601","precinct":"25PR65","hd":"62","v_score":"5.40460374","decile":"7","lat":40.21086330346,"lng":-111.668638908561},{"id":"156537","name":"Zeno Paucek Jr.","party":"","address":"308 Lakewood Dr, Provo, UT 84601","precinct":"25PR65","hd":"62","v_score":"1.121327652","decile":"3","lat":40.210885341966,"lng":-111.662924065309},{"id":"156540","name":"Samatha Kunze-Kunde","party":"","address":"1649 S 450 W, Provo, UT 84601","precinct":"25PR65","hd":"62","v_score":"8.280646305","decile":"8","lat":40.211683769903,"lng":-111.66636146553},{"id":"157909","name":"Hailey Hammes","party":"","address":"336 W 1570 S, Provo, UT 84601","precinct":"25PR65","hd":"62","v_score":"3.93832808","decile":"6","lat":40.212839867619,"lng":-111.664655823522},{"id":"159577","name":"Watson Swift","party":"Dem","address":"433 W 1500 S, Provo, UT 84601","precinct":"25PR65","hd":"62","v_score":"38.24567755","decile":"10","lat":40.213430711605,"lng":-111.666488888249},{"id":"160134","name":"Dr. Elgin Sauer","party":"Rep","address":"1348 S 400 W, Provo, UT 84601","precinct":"25PR65","hd":"62","v_score":"30.57016229","decile":"10","lat":40.215708683075,"lng":-111.666458130445},{"id":"160166","name":"Dr. Laron Toy II","party":"","address":"815 W 1560 S, Provo, UT 84601","precinct":"25PR65","hd":"62","v_score":"38.49335091","decile":"10","lat":40.212872712179,"lng":-111.673188187239},{"id":"160184","name":"Dr. Shayne O'Reilly IV","party":"Rep","address":"318 W 1610 S, Provo, UT 84601","precinct":"25PR65","hd":"62","v_score":"29.8573602","decile":"10","lat":40.212083605272,"lng":-111.663816137156},{"id":"160452","name":"Hezzie Kling","party":"","address":"1612 S 620 W, Provo, UT 84601","precinct":"25PR65","hd":"62","v_score":"35.28709767","decile":"10","lat":40.212149642537,"lng":-111.669664145869},{"id":"160576","name":"Ivette Cartwright DVM","party":"Dem","address":"1435 S 500 W, Provo, UT 84601","precinct":"25PR65","hd":"62","v_score":"2.315214949","decile":"5","lat":40.214563197853,"lng":-111.667357749499},{"id":"160895","name":"Orlin Bartell","party":"Dem","address":"308 Lakewood Dr, Provo, UT 84601","precinct":"25PR65","hd":"62","v_score":"0","decile":"3","lat":40.210885341966,"lng":-111.662924065309},{"id":"163607","name":"Mr. Bridger Trantow MD","party":"","address":"541 W 1820 S, Provo, UT 84601","precinct":"25PR65","hd":"62","v_score":"2.315214949","decile":"5","lat":40.209335712174,"lng":-111.6678038743},{"id":"164124","name":"Bee Berge","party":"","address":"341 W 1670 S, Provo, UT 84601","precinct":"25PR65","hd":"62","v_score":"14.58356067","decile":"9","lat":40.211067173122,"lng":-111.664636179882},{"id":"165050","name":"Geoff Hayes","party":"","address":"1729 S 500 W, Provo, UT 84601","precinct":"25PR65","hd":"62","v_score":"34.09285363","decile":"10","lat":40.210680104461,"lng":-111.66730161433},{"id":"165513","name":"Walker Dietrich","party":"","address":"1735 S 570 W, Provo, UT 84601","precinct":"25PR65","hd":"62","v_score":"21.02102166","decile":"10","lat":40.21066164456,"lng":-111.668486073141},{"id":"165639","name":"Zion Cruickshank Sr.","party":"","address":"1729 S 500 W, Provo, UT 84601","precinct":"25PR65","hd":"62","v_score":"31.14994604","decile":"10","lat":40.210680104461,"lng":-111.66730161433},{"id":"166916","name":"Jaliyah Kreiger-Hammes","party":"Rep","address":"1817 S 680 W, Provo, UT 84601","precinct":"25PR65","hd":"62","v_score":"0","decile":"3","lat":40.210003480646,"lng":-111.670408937287},{"id":"167479","name":"Eddy Olson","party":"","address":"316 Lakewood Dr, Provo, UT 84601","precinct":"25PR65","hd":"62","v_score":"35.30276996","decile":"10","lat":40.210822417124,"lng":-111.66315059479},{"id":"169054","name":"Cherri Smith","party":"Rep","address":"1580 S 730 W, Provo, UT 84601","precinct":"25PR65","hd":"62","v_score":"28.27390347","decile":"10","lat":40.21128913773,"lng":-111.671491908754},{"id":"169447","name":"Mandi Fadel","party":"Dem","address":"1654 S 450 W, Provo, UT 84601","precinct":"25PR65","hd":"62","v_score":"15.95616156","decile":"9","lat":40.21164113268,"lng":-111.666511385361},{"id":"169540","name":"Rowan Rohan","party":"Dem","address":"789 W 1560 S, Provo, UT 84601","precinct":"25PR65","hd":"62","v_score":"1.121327652","decile":"3","lat":40.212873970425,"lng":-111.672778517526},{"id":"169702","name":"Sanford Rippin","party":"","address":"476 W 1500 S, Provo, UT 84601","precinct":"25PR65","hd":"62","v_score":"10.9541455","decile":"9","lat":40.213545303033,"lng":-111.667063197932},{"id":"169920","name":"Grayling Schroeder","party":"","address":"412 W 1570 S, Provo, UT 84601","precinct":"25PR65","hd":"62","v_score":"1.121327652","decile":"3","lat":40.212836649186,"lng":-111.665764034519},{"id":"170626","name":"Ronald Schmidt","party":"Dem","address":"1754 S 620 W, Provo, UT 84601","precinct":"25PR65","hd":"62","v_score":"12.49472132","decile":"9","lat":40.210397899462,"lng":-111.669605264754},{"id":"170689","name":"Jahiem Deckow","party":"Dem","address":"1677 S 400 W, Provo, UT 84601","precinct":"25PR65","hd":"62","v_score":"4.192796624","decile":"7","lat":40.210726442943,"lng":-111.665448340211},{"id":"171395","name":"Jemima Bauch","party":"Dem","address":"374 W 1670 S, Provo, UT 84601","precinct":"25PR65","hd":"62","v_score":"3.781490609","decile":"6","lat":40.211097303165,"lng":-111.665117681599},{"id":"171554","name":"Hazel McKenzie","party":"","address":"323 Lakewood Dr, Provo, UT 84601","precinct":"25PR65","hd":"62","v_score":"3.781490609","decile":"6","lat":40.210667534097,"lng":-111.663269200447},{"id":"172192","name":"Miss Helen Hahn DVM","party":"","address":"1371 S 500 W, Provo, UT 84601","precinct":"25PR65","hd":"62","v_score":"0","decile":"3","lat":40.215350402186,"lng":-111.667352257274},{"id":"172220","name":"Leandro Ullrich","party":"","address":"1690 S 730 W, Provo, UT 84601","precinct":"25PR65","hd":"62","v_score":"12.79313824","decile":"9","lat":40.211005097824,"lng":-111.67149190879},{"id":"172576","name":"Houston Kshlerin IV","party":"Dem","address":"1711 S 570 W, Provo, UT 84601","precinct":"25PR65","hd":"62","v_score":"0","decile":"3","lat":40.210966511253,"lng":-111.668491820637},{"id":"172870","name":"Myrle Rolfson","party":"Rep","address":"1671 S 500 W, Provo, UT 84601","precinct":"25PR65","hd":"62","v_score":"12.51613974","decile":"9","lat":40.211440876724,"lng":-111.667288465079},{"id":"173911","name":"Mr. Jeptha Morar","party":"Rep","address":"1649 S 450 W, Provo, UT 84601","precinct":"25PR65","hd":"62","v_score":"1.121327652","decile":"3","lat":40.211683769903,"lng":-111.66636146553},{"id":"173983","name":"Lainey Kiehn","party":"","address":"1711 S 570 W, Provo, UT 84601","precinct":"25PR65","hd":"62","v_score":"0","decile":"3","lat":40.210966511253,"lng":-111.668491820637},{"id":"174052","name":"Shay Bauch MD","party":"","address":"1636 S 300 W, Provo, UT 84601","precinct":"25PR65","hd":"62","v_score":"1.121327652","decile":"3","lat":40.21171993317,"lng":-111.663343333325},{"id":"174379","name":"Mariah Zemlak","party":"","address":"1815 S 620 W, Provo, UT 84601","precinct":"25PR65","hd":"62","v_score":"8.149837396","decile":"8","lat":40.21000548316,"lng":-111.669462742396},{"id":"175513","name":"Rick Reichel V","party":"","address":"1598 S 730 W, Provo, UT 84601","precinct":"25PR65","hd":"62","v_score":"35.30276996","decile":"10","lat":40.211242658473,"lng":-111.67149190876},{"id":"176787","name":"Kendall Robel","party":"Dem","address":"815 W 1560 S, Provo, UT 84601","precinct":"25PR65","hd":"62","v_score":"38.49335091","decile":"10","lat":40.212872712179,"lng":-111.673188187239},{"id":"178476","name":"Christina Jerde-Murazik","party":"","address":"588 W 1720 S, Provo, UT 84601","precinct":"25PR65","hd":"62","v_score":"5.40460374","decile":"7","lat":40.21086330346,"lng":-111.668638908561},{"id":"178612","name":"Valentine Feeney","party":"Rep","address":"1609 S 300 W, Provo, UT 84601","precinct":"25PR65","hd":"62","v_score":"8.347511332","decile":"8","lat":40.212231168534,"lng":-111.663581283498},{"id":"179230","name":"Mel Feeney","party":"Rep","address":"1772 S 730 W, Provo, UT 84601","precinct":"25PR65","hd":"62","v_score":"26.41733837","decile":"10","lat":40.21043834817,"lng":-111.671489337814},{"id":"180675","name":"Mrs. Billy Renner DDS","party":"Rep","address":"1634 S 730 W, Provo, UT 84601","precinct":"25PR65","hd":"62","v_score":"5.40460374","decile":"7","lat":40.211149699958,"lng":-111.671491908772},{"id":"180856","name":"Dr. Cornelious Mraz","party":"Dem","address":"1631 S 300 W, Provo, UT 84601","precinct":"25PR65","hd":"62","v_score":"8.016984044","decile":"8","lat":40.212002316202,"lng":-111.663395867912}]