[{"id":"779","name":"Brynlee Johnson","party":"","address":"1748 N Curlew Way, Salem, UT 84653","precinct":"25SA01","hd":"65","v_score":"2.315214949","decile":"5","lat":40.081344738108,"lng":-111.666025145959},{"id":"780","name":"Orlin Kemmer","party":"Rep","address":"1748 N Curlew Way, Salem, UT 84653","precinct":"25SA01","hd":"65","v_score":"2.315214949","decile":"5","lat":40.081344738108,"lng":-111.666025145959},{"id":"2006","name":"Elinor Bayer","party":"","address":"1764 N Warbler Rd, Salem, UT 84653","precinct":"25SA01","hd":"65","v_score":"11.29723756","decile":"9","lat":40.081921913682,"lng":-111.665214078939},{"id":"2030","name":"Kenton Gibson","party":"","address":"320 State Road 198, Salem, UT 84653","precinct":"25SA01","hd":"65","v_score":"3.997370217","decile":"6","lat":40.05247181301,"lng":-111.681022599523},{"id":"2097","name":"Dr. Wiliam Lang","party":"Rep","address":"1781 N 290 E, Salem, UT 84653","precinct":"25SA01","hd":"65","v_score":"5.40460374","decile":"7","lat":40.082003726271,"lng":-111.667175338918},{"id":"2861","name":"Mr. Orley Goldner Jr.","party":"Dem","address":"118 E Salem Park Cir, Salem, UT 84653","precinct":"25SA01","hd":"65","v_score":"15.07605507","decile":"9","lat":40.080830061391,"lng":-111.670329928941},{"id":"3339","name":"Dimitrios Nitzsche","party":"Dem","address":"686 N 150 E, Salem, UT 84653","precinct":"25SA01","hd":"65","v_score":"1.121327652","decile":"3","lat":40.065468816896,"lng":-111.669992098949},{"id":"4257","name":"Levy Bahringer","party":"Dem","address":"725 N 150 E, Salem, UT 84653","precinct":"25SA01","hd":"65","v_score":"30.7921053","decile":"10","lat":40.06573082694,"lng":-111.670138391857},{"id":"5934","name":"Arno Watsica","party":"","address":"1641 N Wood Thrush Cv, Salem, UT 84653","precinct":"25SA01","hd":"65","v_score":"2.744440783","decile":"5","lat":40.080227524213,"lng":-111.670235130238},{"id":"6216","name":"Burton Wilderman","party":"Dem","address":"412 E Salem Park Cir, Salem, UT 84653","precinct":"25SA01","hd":"65","v_score":"3.93832808","decile":"6","lat":40.08075901454,"lng":-111.664834781422},{"id":"6386","name":"Gurney Pacocha MD","party":"Rep","address":"178 E Salem Park Cir, Salem, UT 84653","precinct":"25SA01","hd":"65","v_score":"8.280646305","decile":"8","lat":40.080609877054,"lng":-111.669312802647},{"id":"7232","name":"Coty Kuhlman","party":"","address":"662 N 220 E, Salem, UT 84653","precinct":"25SA01","hd":"65","v_score":"10.96442999","decile":"9","lat":40.065119968666,"lng":-111.669062033308},{"id":"7386","name":"Dr. Miriam Padberg","party":"Dem","address":"369 E Salem Park Cir, Salem, UT 84653","precinct":"25SA01","hd":"65","v_score":"0","decile":"1","lat":40.080855471786,"lng":-111.665712662721},{"id":"7396","name":"Loda Feest DVM","party":"Dem","address":"88 S 500 W, Salem, UT 84653","precinct":"25SA01","hd":"65","v_score":"7.904749111","decile":"8","lat":40.053418492825,"lng":-111.684286659534},{"id":"9272","name":"Trystan Kris","party":"","address":"716 N 220 E, Salem, UT 84653","precinct":"25SA01","hd":"65","v_score":"8.347511332","decile":"8","lat":40.065373444391,"lng":-111.66905984814},{"id":"9526","name":"Rosanne Trantow","party":"","address":"672 N 220 E, Salem, UT 84653","precinct":"25SA01","hd":"65","v_score":"0","decile":"1","lat":40.065166908615,"lng":-111.669061628648},{"id":"9655","name":"Marylin Lang","party":"Dem","address":"313 Wood Thrush Cv, Salem, UT 84653","precinct":"25SA01","hd":"65","v_score":"8.202307279","decile":"8","lat":40.079877318541,"lng":-111.669613227484},{"id":"9734","name":"Mrs. Adelaide Lebsack PhD","party":"Rep","address":"250 W Center St, Salem, UT 84653","precinct":"25SA01","hd":"65","v_score":"13.32779236","decile":"9","lat":40.054671850144,"lng":-111.6783628422},{"id":"10299","name":"Myrl Lockman","party":"Rep","address":"327 Wood Thrush Cv, Salem, UT 84653","precinct":"25SA01","hd":"65","v_score":"5.40460374","decile":"7","lat":40.079877318539,"lng":-111.669584636691},{"id":"10485","name":"Odette Bradtke","party":"","address":"229 Wood Thrush Cv, Salem, UT 84653","precinct":"25SA01","hd":"65","v_score":"5.40460374","decile":"7","lat":40.079879437693,"lng":-111.669782738413},{"id":"10528","name":"Tamera Roob PhD","party":"Dem","address":"302 E Salem Park Cir, Salem, UT 84653","precinct":"25SA01","hd":"65","v_score":"17.98456202","decile":"10","lat":40.080759263817,"lng":-111.66705340862},{"id":"10886","name":"Orrin Armstrong","party":"","address":"42 W 400 N, Salem, UT 84653","precinct":"25SA01","hd":"65","v_score":"17.89408627","decile":"10","lat":40.060747150661,"lng":-111.674018283754},{"id":"11327","name":"Mr. Lex Hirthe","party":"Dem","address":"250 W Center St, Salem, UT 84653","precinct":"25SA01","hd":"65","v_score":"24.74649836","decile":"10","lat":40.054671850144,"lng":-111.6783628422},{"id":"11860","name":"Dr. Leigh Bernier","party":"Dem","address":"262 E 850 N, Salem, UT 84653","precinct":"25SA01","hd":"65","v_score":"10.8238813","decile":"9","lat":40.041440731553,"lng":-111.669534438209},{"id":"12941","name":"Mr. Doyle Hyatt","party":"Dem","address":"327 Wood Thrush Cv, Salem, UT 84653","precinct":"25SA01","hd":"65","v_score":"4.210716443","decile":"7","lat":40.079877318539,"lng":-111.669584636691},{"id":"13029","name":"Cordero Stamm-Lebsack","party":"Rep","address":"736 N 150 E, Salem, UT 84653","precinct":"25SA01","hd":"65","v_score":"3.997370217","decile":"6","lat":40.065900064674,"lng":-111.669986637643},{"id":"13034","name":"Mr. Elzie Balistreri","party":"Rep","address":"298 N 460 W, Salem, UT 84653","precinct":"25SA01","hd":"65","v_score":"5.287675778","decile":"7","lat":40.059371618394,"lng":-111.682624073537},{"id":"13477","name":"Fannie Hermiston","party":"","address":"412 Wood Thrush Cv, Salem, UT 84653","precinct":"25SA01","hd":"65","v_score":"1.121327652","decile":"3","lat":40.079786244559,"lng":-111.669395733313},{"id":"14408","name":"Delois Ebert","party":"","address":"412 E Salem Park Cir, Salem, UT 84653","precinct":"25SA01","hd":"65","v_score":"8.421194992","decile":"8","lat":40.08075901454,"lng":-111.664834781422},{"id":"14835","name":"Marlys Wolff","party":"","address":"692 N 220 E, Salem, UT 84653","precinct":"25SA01","hd":"65","v_score":"8.207848766","decile":"8","lat":40.065260788513,"lng":-111.669060819326},{"id":"15058","name":"Fran Hagenes-Goyette","party":"Rep","address":"1748 N Warbler Rd, Salem, UT 84653","precinct":"25SA01","hd":"65","v_score":"4.210716443","decile":"7","lat":40.081744749081,"lng":-111.665147642244},{"id":"15379","name":"Edwardo Ratke","party":"Rep","address":"1641 N Wood Thrush Cv, Salem, UT 84653","precinct":"25SA01","hd":"65","v_score":"0","decile":"1","lat":40.080227524213,"lng":-111.670235130238},{"id":"17822","name":"Verner Tromp","party":"Rep","address":"338 W 90 S, Salem, UT 84653","precinct":"25SA01","hd":"65","v_score":"0","decile":"1","lat":40.054004983954,"lng":-111.680974770528},{"id":"18019","name":"Dakota Cole","party":"","address":"179 Wood Thrush Cv, Salem, UT 84653","precinct":"25SA01","hd":"65","v_score":"3.781490609","decile":"6","lat":40.079881520837,"lng":-111.669884812093},{"id":"20674","name":"Dr. Dustyn Walter","party":"Dem","address":"1737 N Warbler Rd, Salem, UT 84653","precinct":"25SA01","hd":"65","v_score":"8.347511332","decile":"8","lat":40.081459399736,"lng":-111.665196445975},{"id":"20730","name":"Leilani Osinski","party":"","address":"1736 N Warbler Rd, Salem, UT 84653","precinct":"25SA01","hd":"65","v_score":"6.881235673","decile":"8","lat":40.081532151559,"lng":-111.66506791821},{"id":"21171","name":"Tammie Reilly PhD","party":"Rep","address":"1759 N 290 E, Salem, UT 84653","precinct":"25SA01","hd":"65","v_score":"2.315214949","decile":"5","lat":40.081727494649,"lng":-111.667191535323},{"id":"21463","name":"Rolla Kohler","party":"Rep","address":"704 N 220 E, Salem, UT 84653","precinct":"25SA01","hd":"65","v_score":"7.781882349","decile":"8","lat":40.065317116452,"lng":-111.669060333733},{"id":"21528","name":"Barron Runte","party":"Dem","address":"721 N 220 E, Salem, UT 84653","precinct":"25SA01","hd":"65","v_score":"1.46627566","decile":"4","lat":40.065392976377,"lng":-111.669209415869},{"id":"22009","name":"Ms. Zelma Kuhic","party":"Dem","address":"42 W 400 N, Salem, UT 84653","precinct":"25SA01","hd":"65","v_score":"2.660162957","decile":"5","lat":40.060747150661,"lng":-111.674018283754},{"id":"22554","name":"Dr. Alvie Considine V","party":"Rep","address":"692 N 220 E, Salem, UT 84653","precinct":"25SA01","hd":"65","v_score":"14.06645533","decile":"9","lat":40.065260788513,"lng":-111.669060819326},{"id":"22625","name":"Maiya Nolan","party":"Dem","address":"686 N 220 E, Salem, UT 84653","precinct":"25SA01","hd":"65","v_score":"0","decile":"1","lat":40.065232624544,"lng":-111.669061062123},{"id":"22640","name":"Tishie Feeney","party":"Dem","address":"1813 N Warbler Rd, Salem, UT 84653","precinct":"25SA01","hd":"65","v_score":"2.817000428","decile":"6","lat":40.082214858417,"lng":-111.665420209441},{"id":"23183","name":"Aime Barrows-Veum","party":"Rep","address":"262 E 850 N, Salem, UT 84653","precinct":"25SA01","hd":"65","v_score":"9.35760564","decile":"8","lat":40.041440731553,"lng":-111.669534438209},{"id":"25185","name":"Lady Waters","party":"Dem","address":"1762 N 290 E, Salem, UT 84653","precinct":"25SA01","hd":"65","v_score":"1.121327652","decile":"3","lat":40.081504125511,"lng":-111.667058533482},{"id":"28019","name":"Ansel Kutch","party":"Dem","address":"13 N 500 W, Salem, UT 84653","precinct":"25SA01","hd":"65","v_score":"3.93832808","decile":"6","lat":40.054751572343,"lng":-111.663328382887},{"id":"29061","name":"Retta Olson DDS","party":"Rep","address":"203 N 460 W, Salem, UT 84653","precinct":"25SA01","hd":"65","v_score":"0","decile":"1","lat":40.058070087235,"lng":-111.682729054375},{"id":"29709","name":"Piper Koss","party":"Dem","address":"158 E 660 N, Salem, UT 84653","precinct":"25SA01","hd":"65","v_score":"1.121327652","decile":"3","lat":40.064720992176,"lng":-111.669760819636},{"id":"31524","name":"Dani Cartwright","party":"","address":"1736 N Warbler Rd, Salem, UT 84653","precinct":"25SA01","hd":"65","v_score":"0","decile":"1","lat":40.081532151559,"lng":-111.66506791821},{"id":"32880","name":"Brett O'Hara","party":"Rep","address":"413 Wood Thrush Cv, Salem, UT 84653","precinct":"25SA01","hd":"65","v_score":"1.121327652","decile":"3","lat":40.079898210558,"lng":-111.669427607837},{"id":"32933","name":"Lex Kub","party":"","address":"42 W 400 N, Salem, UT 84653","precinct":"25SA01","hd":"65","v_score":"7.650280567","decile":"8","lat":40.060747150661,"lng":-111.674018283754},{"id":"33364","name":"Ceasar Considine","party":"","address":"1671 N Wood Thrush Cv, Salem, UT 84653","precinct":"25SA01","hd":"65","v_score":"11.687527","decile":"9","lat":40.080504226182,"lng":-111.670199827548},{"id":"33533","name":"Shirlene Torphy","party":"Dem","address":"312 Wood Thrush Cv, Salem, UT 84653","precinct":"25SA01","hd":"65","v_score":"2.315214949","decile":"5","lat":40.079762727157,"lng":-111.669613227499},{"id":"33828","name":"Dr. Bertie Mayert MD","party":"","address":"704 N 220 E, Salem, UT 84653","precinct":"25SA01","hd":"65","v_score":"17.77840782","decile":"10","lat":40.065317116452,"lng":-111.669060333733},{"id":"34169","name":"Dr. Pattie Connelly","party":"Rep","address":"95 E 400 N, Salem, UT 84653","precinct":"25SA01","hd":"65","v_score":"1.46627566","decile":"4","lat":40.060722376032,"lng":-111.671630052886},{"id":"35455","name":"Rodrick Schiller","party":"","address":"212 Wood Thrush Cv, Salem, UT 84653","precinct":"25SA01","hd":"65","v_score":"13.24168426","decile":"9","lat":40.079765553662,"lng":-111.669819395107},{"id":"38415","name":"Miss Kennedy Hane","party":"Dem","address":"1686 N Wood Thrush Cv, Salem, UT 84653","precinct":"25SA01","hd":"65","v_score":"2.315214949","decile":"5","lat":40.080603017396,"lng":-111.670003365802},{"id":"38704","name":"Dejuan Flatley","party":"Rep","address":"290 S 500 W, Salem, UT 84653","precinct":"25SA01","hd":"65","v_score":"6.724398202","decile":"8","lat":40.050179531068,"lng":-111.683439826207},{"id":"39068","name":"Rheta Fay DDS","party":"","address":"687 N 150 E, Salem, UT 84653","precinct":"25SA01","hd":"65","v_score":"5.40460374","decile":"7","lat":40.065460250818,"lng":-111.670141952104},{"id":"39478","name":"Marjory Pfeffer","party":"","address":"719 N 150 E, Salem, UT 84653","precinct":"25SA01","hd":"65","v_score":"1.193887297","decile":"3","lat":40.065688104394,"lng":-111.670138954002},{"id":"39942","name":"Leonidas Bergstrom","party":"","address":"42 W 400 N, Salem, UT 84653","precinct":"25SA01","hd":"65","v_score":"2.587603312","decile":"5","lat":40.060747150661,"lng":-111.674018283754},{"id":"40300","name":"Ms. Bobbie Smith","party":"Rep","address":"662 N 220 E, Salem, UT 84653","precinct":"25SA01","hd":"65","v_score":"8.601979876","decile":"8","lat":40.065119968666,"lng":-111.669062033308},{"id":"42739","name":"Tomie Schulist","party":"","address":"1794 N Sparrow Way, Salem, UT 84653","precinct":"25SA01","hd":"65","v_score":"8.147429559","decile":"8","lat":40.08189255654,"lng":-111.668088038805},{"id":"43152","name":"Dr. Zena Hauck","party":"Dem","address":"412 E Salem Park Cir, Salem, UT 84653","precinct":"25SA01","hd":"65","v_score":"3.93832808","decile":"6","lat":40.08075901454,"lng":-111.664834781422},{"id":"43961","name":"Ms. Jazmyne Rolfson","party":"Rep","address":"739 N 150 E, Salem, UT 84653","precinct":"25SA01","hd":"65","v_score":"0","decile":"1","lat":40.065910068558,"lng":-111.670136269031},{"id":"43996","name":"Ola Gulgowski","party":"","address":"123 S 500 W, Salem, UT 84653","precinct":"25SA01","hd":"65","v_score":"7.153624035","decile":"8","lat":40.052765831791,"lng":-111.683763663599},{"id":"44565","name":"Barb Simonis-Hayes","party":"Dem","address":"95 E 400 N, Salem, UT 84653","precinct":"25SA01","hd":"65","v_score":"12.73027884","decile":"9","lat":40.060722376032,"lng":-111.671630052886},{"id":"44754","name":"Janette Ankunding PhD","party":"Dem","address":"13 N 500 W, Salem, UT 84653","precinct":"25SA01","hd":"65","v_score":"3.93832808","decile":"6","lat":40.054751572343,"lng":-111.663328382887},{"id":"44989","name":"Walter Waelchi","party":"Dem","address":"369 E Salem Park Cir, Salem, UT 84653","precinct":"25SA01","hd":"65","v_score":"6.724398202","decile":"8","lat":40.080855471786,"lng":-111.665712662721},{"id":"45726","name":"Hallie Kreiger","party":"","address":"91 E Salem Park Cir, Salem, UT 84653","precinct":"25SA01","hd":"65","v_score":"10.6918867","decile":"9","lat":40.081040039252,"lng":-111.670532912671},{"id":"45733","name":"Lilla Green","party":"Rep","address":"87 W 400 N, Salem, UT 84653","precinct":"25SA01","hd":"65","v_score":"17.94515708","decile":"10","lat":40.060636479485,"lng":-111.674797908494},{"id":"47802","name":"Dr. Jorden Mraz","party":"Dem","address":"386 Wood Thrush Cv, Salem, UT 84653","precinct":"25SA01","hd":"65","v_score":"1.121327652","decile":"3","lat":40.07977759778,"lng":-111.669447614005},{"id":"47834","name":"Jaymes Sporer-Gleason","party":"Rep","address":"352 Wood Thrush Cv, Salem, UT 84653","precinct":"25SA01","hd":"65","v_score":"5.258122542","decile":"7","lat":40.079767939744,"lng":-111.669521752552},{"id":"50949","name":"Mr. Darron McKenzie","party":"","address":"430 N Main St, Salem, UT 84653","precinct":"25SA01","hd":"65","v_score":"3.93832808","decile":"6","lat":40.061194426235,"lng":-111.673169853389},{"id":"50984","name":"Rosy Jacobi","party":"","address":"722 N 220 E, Salem, UT 84653","precinct":"25SA01","hd":"65","v_score":"14.74552778","decile":"9","lat":40.06540160836,"lng":-111.669059605344},{"id":"51151","name":"Marley Kling","party":"","address":"496 W 90 S, Salem, UT 84653","precinct":"25SA01","hd":"65","v_score":"11.63424342","decile":"9","lat":40.053610651709,"lng":-111.68298816456},{"id":"51395","name":"Hence Reichert Jr.","party":"","address":"1763 N Curlew Way, Salem, UT 84653","precinct":"25SA01","hd":"65","v_score":"11.30205234","decile":"9","lat":40.081488030785,"lng":-111.666176637545},{"id":"51661","name":"Will Torphy Sr.","party":"","address":"123 S 500 W, Salem, UT 84653","precinct":"25SA01","hd":"65","v_score":"7.153624035","decile":"8","lat":40.052765831791,"lng":-111.683763663599},{"id":"53611","name":"Jane Ankunding","party":"Rep","address":"87 W 400 N, Salem, UT 84653","precinct":"25SA01","hd":"65","v_score":"19.9075236","decile":"10","lat":40.060636479485,"lng":-111.674797908494},{"id":"54655","name":"Wende Schuster","party":"Rep","address":"1813 N Warbler Rd, Salem, UT 84653","precinct":"25SA01","hd":"65","v_score":"0","decile":"1","lat":40.082214858417,"lng":-111.665420209441},{"id":"55248","name":"Keshawn Hickle","party":"","address":"501 W 90 S, Salem, UT 84653","precinct":"25SA01","hd":"65","v_score":"1.121327652","decile":"3","lat":40.05347994045,"lng":-111.683034662339},{"id":"56030","name":"Rodger Walter-Huel","party":"","address":"712 N 150 E, Salem, UT 84653","precinct":"25SA01","hd":"65","v_score":"0","decile":"1","lat":40.065656886515,"lng":-111.669989624325},{"id":"56061","name":"Ginger Waelchi","party":"","address":"1762 N Curlew Way, Salem, UT 84653","precinct":"25SA01","hd":"65","v_score":"11.91980125","decile":"9","lat":40.081489082867,"lng":-111.666026878077},{"id":"56216","name":"Louie Bode","party":"Rep","address":"724 N 220 E, Salem, UT 84653","precinct":"25SA01","hd":"65","v_score":"9.913499214","decile":"9","lat":40.06541099635,"lng":-111.669059524412},{"id":"56537","name":"Elgin Schmidt","party":"Dem","address":"95 E 400 N, Salem, UT 84653","precinct":"25SA01","hd":"65","v_score":"1.121327652","decile":"3","lat":40.060722376032,"lng":-111.671630052886},{"id":"57314","name":"Octavio Padberg DVM","party":"Dem","address":"1715 N Sparrow Way, Salem, UT 84653","precinct":"25SA01","hd":"65","v_score":"2.315214949","decile":"5","lat":40.080914629154,"lng":-111.668517126252},{"id":"57328","name":"Isidor Towne","party":"","address":"301 E Salem Park Cir, Salem, UT 84653","precinct":"25SA01","hd":"65","v_score":"1.877581675","decile":"5","lat":40.080878777837,"lng":-111.667104348785},{"id":"59337","name":"Dr. Griffith Sporer PhD","party":"","address":"358 Wood Thrush Cv, Salem, UT 84653","precinct":"25SA01","hd":"65","v_score":"2.315214949","decile":"5","lat":40.079769217519,"lng":-111.669509613687},{"id":"59348","name":"Ms. Porsche Abernathy DDS","party":"Dem","address":"358 Wood Thrush Cv, Salem, UT 84653","precinct":"25SA01","hd":"65","v_score":"2.315214949","decile":"5","lat":40.079769217519,"lng":-111.669509613687},{"id":"59506","name":"Ples Sanford-Lakin","party":"Dem","address":"683 N 220 E, Salem, UT 84653","precinct":"25SA01","hd":"65","v_score":"2.315214949","decile":"5","lat":40.065214604571,"lng":-111.669210953579},{"id":"60380","name":"Emmanuel Zemlak-Lemke","party":"","address":"1813 N Warbler Rd, Salem, UT 84653","precinct":"25SA01","hd":"65","v_score":"2.958579882","decile":"6","lat":40.082214858417,"lng":-111.665420209441},{"id":"60713","name":"Vessie Stracke","party":"","address":"358 Wood Thrush Cv, Salem, UT 84653","precinct":"25SA01","hd":"65","v_score":"1.121327652","decile":"3","lat":40.079769217519,"lng":-111.669509613687},{"id":"60827","name":"Miss Damaris Waters PhD","party":"Rep","address":"678 N 150 E, Salem, UT 84653","precinct":"25SA01","hd":"65","v_score":"22.57788051","decile":"10","lat":40.065410949321,"lng":-111.669992860372},{"id":"60850","name":"Myron Stroman","party":"Rep","address":"103 E 400 N, Salem, UT 84653","precinct":"25SA01","hd":"65","v_score":"19.20031516","decile":"10","lat":40.06072067619,"lng":-111.671498032601},{"id":"60892","name":"Mr. Purl Smitham III","party":"","address":"1762 N 290 E, Salem, UT 84653","precinct":"25SA01","hd":"65","v_score":"0","decile":"1","lat":40.081504125511,"lng":-111.667058533482},{"id":"62240","name":"Shaylee Wehner-Dare","party":"Rep","address":"719 N 150 E, Salem, UT 84653","precinct":"25SA01","hd":"65","v_score":"3.93832808","decile":"6","lat":40.065688104394,"lng":-111.670138954002},{"id":"62638","name":"Lelia Johns PhD","party":"","address":"33 W 400 N, Salem, UT 84653","precinct":"25SA01","hd":"65","v_score":"11.94823048","decile":"9","lat":40.060631850574,"lng":-111.67387792646},{"id":"63818","name":"Delphin Rempel","party":"","address":"734 N 150 E, Salem, UT 84653","precinct":"25SA01","hd":"65","v_score":"4.064235245","decile":"6","lat":40.065890993722,"lng":-111.669986734144},{"id":"64220","name":"Dr. Val Muller","party":"Dem","address":"410 N Main St, Salem, UT 84653","precinct":"25SA01","hd":"65","v_score":"2.315214949","decile":"5","lat":40.060892953877,"lng":-111.673177368134},{"id":"65472","name":"Shirley Goyette","party":"Dem","address":"413 Wood Thrush Cv, Salem, UT 84653","precinct":"25SA01","hd":"65","v_score":"1.121327652","decile":"3","lat":40.079898210558,"lng":-111.669427607837},{"id":"66742","name":"Kaylene Abshire","party":"Dem","address":"1762 N Curlew Way, Salem, UT 84653","precinct":"25SA01","hd":"65","v_score":"3.016591252","decile":"6","lat":40.081489082867,"lng":-111.666026878077},{"id":"70577","name":"Mrs. Charla Cronin MD","party":"Rep","address":"410 N Main St, Salem, UT 84653","precinct":"25SA01","hd":"65","v_score":"2.315214949","decile":"5","lat":40.060892953877,"lng":-111.673177368134},{"id":"71079","name":"Magan Jaskolski","party":"Rep","address":"1762 N Curlew Way, Salem, UT 84653","precinct":"25SA01","hd":"65","v_score":"14.1719139","decile":"9","lat":40.081489082867,"lng":-111.666026878077},{"id":"71161","name":"Mr. Deegan Goldner","party":"","address":"178 E Salem Park Cir, Salem, UT 84653","precinct":"25SA01","hd":"65","v_score":"3.93832808","decile":"6","lat":40.080609877054,"lng":-111.669312802647},{"id":"71598","name":"Deb Connelly-Stroman","party":"Rep","address":"329 E Salem Park Cir, Salem, UT 84653","precinct":"25SA01","hd":"65","v_score":"3.93832808","decile":"6","lat":40.080855291838,"lng":-111.666603573397},{"id":"71941","name":"Buel Barton","party":"Rep","address":"155 Wood Thrush Cv, Salem, UT 84653","precinct":"25SA01","hd":"65","v_score":"1.121327652","decile":"3","lat":40.079882520746,"lng":-111.669933807459},{"id":"72704","name":"Edwardo Predovic","party":"Rep","address":"734 N 150 E, Salem, UT 84653","precinct":"25SA01","hd":"65","v_score":"1.121327652","decile":"3","lat":40.065890993722,"lng":-111.669986734144},{"id":"75103","name":"Margaretta Bradtke DVM","party":"","address":"79 E Salem Park Cir, Salem, UT 84653","precinct":"25SA01","hd":"65","v_score":"3.93832808","decile":"6","lat":40.081085989962,"lng":-111.670630220028},{"id":"75862","name":"Shirleen Ledner","party":"","address":"242 W 360 N, Salem, UT 84653","precinct":"25SA01","hd":"65","v_score":"0","decile":"1","lat":40.06029086375,"lng":-111.678123882932},{"id":"77542","name":"Aedan Reilly PhD","party":"Rep","address":"708 N 150 E, Salem, UT 84653","precinct":"25SA01","hd":"65","v_score":"1.193887297","decile":"3","lat":40.065627952727,"lng":-111.669990005036},{"id":"78837","name":"Helma Blanda","party":"","address":"98 E Salem Park Cir, Salem, UT 84653","precinct":"25SA01","hd":"65","v_score":"2.315214949","decile":"5","lat":40.080898394117,"lng":-111.670510522512},{"id":"79369","name":"Hettie Green","party":"","address":"1737 N Warbler Rd, Salem, UT 84653","precinct":"25SA01","hd":"65","v_score":"3.93832808","decile":"6","lat":40.081459399736,"lng":-111.665196445975},{"id":"80839","name":"Mohammed Stamm","party":"Rep","address":"79 E Salem Park Cir, Salem, UT 84653","precinct":"25SA01","hd":"65","v_score":"0","decile":"1","lat":40.081085989962,"lng":-111.670630220028},{"id":"83153","name":"Tami Larkin PhD","party":"Dem","address":"103 E 400 N, Salem, UT 84653","precinct":"25SA01","hd":"65","v_score":"9.131230047","decile":"8","lat":40.06072067619,"lng":-111.671498032601},{"id":"83193","name":"Jolie VonRueden","party":"","address":"75 S 500 W, Salem, UT 84653","precinct":"25SA01","hd":"65","v_score":"1.623113131","decile":"5","lat":40.053751646087,"lng":-111.663203221455},{"id":"83196","name":"Miss Ruthanne Rodriguez DDS","party":"","address":"369 E Salem Park Cir, Salem, UT 84653","precinct":"25SA01","hd":"65","v_score":"7.052493863","decile":"8","lat":40.080855471786,"lng":-111.665712662721},{"id":"83521","name":"Tammy Borer","party":"Dem","address":"724 N 220 E, Salem, UT 84653","precinct":"25SA01","hd":"65","v_score":"1.193887297","decile":"3","lat":40.06541099635,"lng":-111.669059524412},{"id":"83744","name":"June Treutel","party":"","address":"1718 N Sparrow Way, Salem, UT 84653","precinct":"25SA01","hd":"65","v_score":"4.069929862","decile":"6","lat":40.081037484785,"lng":-111.668359088261},{"id":"84753","name":"Dr. Jennette Bode","party":"","address":"718 N 150 E, Salem, UT 84653","precinct":"25SA01","hd":"65","v_score":"0","decile":"1","lat":40.065700287196,"lng":-111.669989053257},{"id":"86355","name":"Brendon Olson-Watsica","party":"Dem","address":"734 N 150 E, Salem, UT 84653","precinct":"25SA01","hd":"65","v_score":"0","decile":"1","lat":40.065890993722,"lng":-111.669986734144},{"id":"86366","name":"Candida Green","party":"Dem","address":"159 E Salem Park Cir, Salem, UT 84653","precinct":"25SA01","hd":"65","v_score":"0","decile":"1","lat":40.080759638459,"lng":-111.669692648176},{"id":"86911","name":"Mr. Leslie Wintheiser","party":"","address":"1793 N 290 E, Salem, UT 84653","precinct":"25SA01","hd":"65","v_score":"0","decile":"1","lat":40.082027577542,"lng":-111.667175048046},{"id":"88212","name":"Natalee Koss","party":"","address":"212 Wood Thrush Cv, Salem, UT 84653","precinct":"25SA01","hd":"65","v_score":"9.07218791","decile":"8","lat":40.079765553662,"lng":-111.669819395107},{"id":"88871","name":"Harrison Stracke","party":"Dem","address":"677 N 150 E, Salem, UT 84653","precinct":"25SA01","hd":"65","v_score":"4.069929862","decile":"6","lat":40.065389046575,"lng":-111.670142889011},{"id":"89221","name":"Vernetta Swaniawski","party":"Dem","address":"496 W 90 S, Salem, UT 84653","precinct":"25SA01","hd":"65","v_score":"1.193887297","decile":"4","lat":40.053610651709,"lng":-111.68298816456},{"id":"91440","name":"Mr. Abelardo Lynch MD","party":"Rep","address":"372 Wood Thrush Cv, Salem, UT 84653","precinct":"25SA01","hd":"65","v_score":"1.193887297","decile":"4","lat":40.079772198993,"lng":-111.669481289667},{"id":"92542","name":"Dr. Mayra Hilpert","party":"Rep","address":"55 W 400 N, Salem, UT 84653","precinct":"25SA01","hd":"65","v_score":"1.193887297","decile":"4","lat":40.060633736427,"lng":-111.674252733955},{"id":"92566","name":"Dr. Hardy Cartwright","party":"","address":"678 N 150 E, Salem, UT 84653","precinct":"25SA01","hd":"65","v_score":"11.26156058","decile":"9","lat":40.065410949321,"lng":-111.669992860372},{"id":"93928","name":"Dr. Daisey McGlynn PhD","party":"","address":"372 Wood Thrush Cv, Salem, UT 84653","precinct":"25SA01","hd":"65","v_score":"1.623113131","decile":"5","lat":40.079772198993,"lng":-111.669481289667},{"id":"94270","name":"Mr. Stetson Sanford","party":"Rep","address":"1811 N 290 E, Salem, UT 84653","precinct":"25SA01","hd":"65","v_score":"1.193887297","decile":"4","lat":40.082063354449,"lng":-111.667174611738},{"id":"94318","name":"Naoma Erdman MD","party":"Rep","address":"203 N 460 W, Salem, UT 84653","precinct":"25SA01","hd":"65","v_score":"0","decile":"1","lat":40.058070087235,"lng":-111.682729054375},{"id":"94976","name":"Bridger Corwin I","party":"Dem","address":"278 E 850 N, Salem, UT 84653","precinct":"25SA01","hd":"65","v_score":"0","decile":"1","lat":40.041440731545,"lng":-111.669420351724},{"id":"95369","name":"Cayden Kutch","party":"Dem","address":"411 W 400 N, Salem, UT 84653","precinct":"25SA01","hd":"65","v_score":"9.638447451","decile":"8","lat":40.060708048926,"lng":-111.680852247223},{"id":"96187","name":"Sherlyn Rutherford","party":"Rep","address":"728 N 220 E, Salem, UT 84653","precinct":"25SA01","hd":"65","v_score":"0","decile":"1","lat":40.065429772329,"lng":-111.669059362548},{"id":"97561","name":"Mr. Rhett Langworth PhD","party":"Rep","address":"1725 N Sparrow Way, Salem, UT 84653","precinct":"25SA01","hd":"65","v_score":"1.193887297","decile":"4","lat":40.080972131122,"lng":-111.668513343221},{"id":"97618","name":"Adrien Beier","party":"","address":"42 W 400 N, Salem, UT 84653","precinct":"25SA01","hd":"65","v_score":"1.193887297","decile":"4","lat":40.060747150661,"lng":-111.674018283754},{"id":"97621","name":"Mr. Reynaldo Greenholt","party":"","address":"1653 N Wood Thrush Cv, Salem, UT 84653","precinct":"25SA01","hd":"65","v_score":"2.817000428","decile":"6","lat":40.080340966582,"lng":-111.670244629853},{"id":"99014","name":"Deontae Schaden","party":"Rep","address":"359 Wood Thrush Cv, Salem, UT 84653","precinct":"25SA01","hd":"65","v_score":"0","decile":"1","lat":40.07988273968,"lng":-111.66953002475},{"id":"99215","name":"Dr. Prentice Roberts DDS","party":"Rep","address":"1762 N 290 E, Salem, UT 84653","precinct":"25SA01","hd":"65","v_score":"0","decile":"1","lat":40.081504125511,"lng":-111.667058533482},{"id":"100330","name":"Patti Padberg","party":"","address":"123 S 500 W, Salem, UT 84653","precinct":"25SA01","hd":"65","v_score":"1.193887297","decile":"4","lat":40.052765831791,"lng":-111.683763663599},{"id":"101005","name":"Cheryll Bartoletti PhD","party":"","address":"347 W 90 S, Salem, UT 84653","precinct":"25SA01","hd":"65","v_score":"4.069929862","decile":"6","lat":40.053896731,"lng":-111.681136343187},{"id":"101053","name":"Shanda Smith","party":"Dem","address":"260 W Center St, Salem, UT 84653","precinct":"25SA01","hd":"65","v_score":"4.069929862","decile":"6","lat":40.054678842926,"lng":-111.678506193987},{"id":"101260","name":"Keyon Schoen","party":"Rep","address":"239 N 460 W, Salem, UT 84653","precinct":"25SA01","hd":"65","v_score":"0","decile":"2","lat":40.058559605411,"lng":-111.682745897947},{"id":"102995","name":"Shawnda O'Kon","party":"Dem","address":"1743 N 290 E, Salem, UT 84653","precinct":"25SA01","hd":"65","v_score":"0","decile":"2","lat":40.081496032824,"lng":-111.667209170538},{"id":"103275","name":"Garnet Quitzon","party":"Rep","address":"142 Wood Thrush Cv, Salem, UT 84653","precinct":"25SA01","hd":"65","v_score":"7.781882349","decile":"8","lat":40.079768470064,"lng":-111.669962298259},{"id":"103907","name":"Stevie Moore","party":"","address":"359 Wood Thrush Cv, Salem, UT 84653","precinct":"25SA01","hd":"65","v_score":"0","decile":"2","lat":40.07988273968,"lng":-111.66953002475},{"id":"104050","name":"Veronica Bogisich","party":"","address":"398 E Salem Park Cir, Salem, UT 84653","precinct":"25SA01","hd":"65","v_score":"0","decile":"2","lat":40.080756171773,"lng":-111.664898269997},{"id":"104199","name":"Winona Wyman","party":"","address":"399 W 90 S, Salem, UT 84653","precinct":"25SA01","hd":"65","v_score":"0","decile":"2","lat":40.053763618914,"lng":-111.681806258189},{"id":"104843","name":"Christoper Emmerich","party":"Rep","address":"1811 N 290 E, Salem, UT 84653","precinct":"25SA01","hd":"65","v_score":"0","decile":"2","lat":40.082063354449,"lng":-111.667174611738},{"id":"106867","name":"Horton Buckridge","party":"","address":"1748 N Warbler Rd, Salem, UT 84653","precinct":"25SA01","hd":"65","v_score":"0","decile":"2","lat":40.081744749081,"lng":-111.665147642244},{"id":"106884","name":"Gary Eichmann","party":"Dem","address":"724 N 220 E, Salem, UT 84653","precinct":"25SA01","hd":"65","v_score":"1.193887297","decile":"4","lat":40.06541099635,"lng":-111.669059524412},{"id":"108905","name":"Jeremie O'Keefe","party":"","address":"441 N Main St, Salem, UT 84653","precinct":"25SA01","hd":"65","v_score":"0","decile":"2","lat":40.061341257847,"lng":-111.673315942168},{"id":"109667","name":"Eartha Runte","party":"","address":"1762 N 290 E, Salem, UT 84653","precinct":"25SA01","hd":"65","v_score":"0","decile":"2","lat":40.081504125511,"lng":-111.667058533482},{"id":"110440","name":"Adlai Bergnaum","party":"Rep","address":"368 E Salem Park Cir, Salem, UT 84653","precinct":"25SA01","hd":"65","v_score":"1.193887297","decile":"4","lat":40.080744920127,"lng":-111.66546061937},{"id":"110762","name":"Daulton Conroy IV","party":"Rep","address":"327 Wood Thrush Cv, Salem, UT 84653","precinct":"25SA01","hd":"65","v_score":"0","decile":"2","lat":40.079877318539,"lng":-111.669584636691},{"id":"111171","name":"Yaakov Will","party":"Dem","address":"179 Wood Thrush Cv, Salem, UT 84653","precinct":"25SA01","hd":"65","v_score":"0","decile":"2","lat":40.079881520837,"lng":-111.669884812093},{"id":"111514","name":"Dr. Ingram Terry","party":"","address":"202 E 660 N, Salem, UT 84653","precinct":"25SA01","hd":"65","v_score":"0","decile":"2","lat":40.064714728874,"lng":-111.669463264986},{"id":"113025","name":"Winnie Zboncak","party":"Dem","address":"329 E Salem Park Cir, Salem, UT 84653","precinct":"25SA01","hd":"65","v_score":"0","decile":"2","lat":40.080855291838,"lng":-111.666603573397},{"id":"113772","name":"Lennie Schimmel","party":"","address":"329 E Salem Park Cir, Salem, UT 84653","precinct":"25SA01","hd":"65","v_score":"1.193887297","decile":"4","lat":40.080855291838,"lng":-111.666603573397},{"id":"114105","name":"Lary Moore Sr.","party":"Dem","address":"255 N Main St, Salem, UT 84653","precinct":"25SA01","hd":"65","v_score":"0","decile":"2","lat":40.058454962909,"lng":-111.673387239787},{"id":"115818","name":"Tyrin McCullough","party":"Dem","address":"360 State Road 198, Salem, UT 84653","precinct":"25SA01","hd":"65","v_score":"1.193887297","decile":"4","lat":40.052786229208,"lng":-111.680464764266},{"id":"115825","name":"Mr. Abelardo Buckridge DDS","party":"Dem","address":"360 State Road 198, Salem, UT 84653","precinct":"25SA01","hd":"65","v_score":"1.193887297","decile":"4","lat":40.052786229208,"lng":-111.680464764266},{"id":"116937","name":"Dr. Alonza Mosciski DDS","party":"","address":"1781 N 290 E, Salem, UT 84653","precinct":"25SA01","hd":"65","v_score":"1.193887297","decile":"4","lat":40.082003726271,"lng":-111.667175338918},{"id":"117129","name":"Madalynn Roob","party":"Rep","address":"72 S 500 W, Salem, UT 84653","precinct":"25SA01","hd":"65","v_score":"0","decile":"2","lat":40.053705735487,"lng":-111.684448153678},{"id":"119268","name":"Stonewall Wilkinson","party":"","address":"1793 N 290 E, Salem, UT 84653","precinct":"25SA01","hd":"65","v_score":"1.193887297","decile":"4","lat":40.082027577542,"lng":-111.667175048046},{"id":"120154","name":"Kendrick Bernier","party":"Rep","address":"327 Wood Thrush Cv, Salem, UT 84653","precinct":"25SA01","hd":"65","v_score":"1.193887297","decile":"4","lat":40.079877318539,"lng":-111.669584636691},{"id":"120983","name":"Yasmeen Swaniawski","party":"","address":"142 Wood Thrush Cv, Salem, UT 84653","precinct":"25SA01","hd":"65","v_score":"1.193887297","decile":"4","lat":40.079768470064,"lng":-111.669962298259},{"id":"121134","name":"Mardell Cruickshank","party":"Rep","address":"299 E Wood Thrush Cove, Apt A, Salem, UT 84653","precinct":"25SA01","hd":"65","v_score":"1.193887297","decile":"4","lat":40.079877318543,"lng":-111.669641818277},{"id":"121339","name":"Gifford Conroy","party":"","address":"1794 N Sparrow Way, Salem, UT 84653","precinct":"25SA01","hd":"65","v_score":"1.193887297","decile":"4","lat":40.08189255654,"lng":-111.668088038805},{"id":"122106","name":"Irven Ondricka","party":"Dem","address":"299 Wood Thrush Cv, Salem, UT 84653","precinct":"25SA01","hd":"65","v_score":"1.193887297","decile":"4","lat":40.079877318543,"lng":-111.669641818277},{"id":"122632","name":"Briley Pagac DVM","party":"Rep","address":"321 Sanderling Dr, Salem, UT 84653","precinct":"25SA01","hd":"65","v_score":"1.193887297","decile":"4","lat":40.081979161551,"lng":-111.666641660941},{"id":"125805","name":"Dr. Lelah Runolfsson","party":"","address":"724 N 220 E, Salem, UT 84653","precinct":"25SA01","hd":"65","v_score":"0","decile":"2","lat":40.06541099635,"lng":-111.669059524412},{"id":"126282","name":"Dereck Goldner","party":"","address":"1759 N 290 E, Salem, UT 84653","precinct":"25SA01","hd":"65","v_score":"0","decile":"2","lat":40.081727494649,"lng":-111.667191535323},{"id":"128607","name":"Oswaldo Champlin","party":"","address":"441 N Main St, Salem, UT 84653","precinct":"25SA01","hd":"65","v_score":"0","decile":"2","lat":40.061341257847,"lng":-111.673315942168},{"id":"129120","name":"Zaniyah Bins","party":"","address":"1217 N 500 E, Salem, UT 84653","precinct":"25SA01","hd":"65","v_score":"0","decile":"2","lat":40.043126917907,"lng":-111.663418988508},{"id":"130089","name":"Rocio Ondricka","party":"Rep","address":"734 N 150 E, Salem, UT 84653","precinct":"25SA01","hd":"65","v_score":"0","decile":"2","lat":40.065890993722,"lng":-111.669986734144},{"id":"130678","name":"Jamal Huels Jr.","party":"","address":"312 Wood Thrush Cv, Salem, UT 84653","precinct":"25SA01","hd":"65","v_score":"0","decile":"2","lat":40.079762727157,"lng":-111.669613227499},{"id":"132639","name":"Casimir Mitchell","party":"Dem","address":"278 E 850 N, Salem, UT 84653","precinct":"25SA01","hd":"65","v_score":"0","decile":"2","lat":40.041440731545,"lng":-111.669420351724},{"id":"133018","name":"Lovey Lindgren","party":"Rep","address":"737 N 150 E, Salem, UT 84653","precinct":"25SA01","hd":"65","v_score":"0","decile":"2","lat":40.065900997606,"lng":-111.670136365532},{"id":"136665","name":"Clarissa Barton","party":"Dem","address":"212 Wood Thrush Cv, Salem, UT 84653","precinct":"25SA01","hd":"65","v_score":"0","decile":"2","lat":40.079765553662,"lng":-111.669819395107},{"id":"137994","name":"Jefferson Hegmann-Orn","party":"Dem","address":"118 E Salem Park Cir, Salem, UT 84653","precinct":"25SA01","hd":"65","v_score":"15.07605507","decile":"9","lat":40.080830061391,"lng":-111.670329928941},{"id":"138386","name":"Journey Lind-Rutherford","party":"Dem","address":"256 E Salem Park Cir, Salem, UT 84653","precinct":"25SA01","hd":"65","v_score":"5.40460374","decile":"7","lat":40.08074642058,"lng":-111.667874867247},{"id":"138389","name":"Vanesa Streich","party":"Rep","address":"256 E Salem Park Cir, Salem, UT 84653","precinct":"25SA01","hd":"65","v_score":"5.40460374","decile":"7","lat":40.08074642058,"lng":-111.667874867247},{"id":"141257","name":"Lyman Barrows","party":"Dem","address":"86 N 460 W, Salem, UT 84653","precinct":"25SA01","hd":"65","v_score":"11.38334565","decile":"9","lat":40.056471598259,"lng":-111.682532843839},{"id":"141292","name":"Brice Welch","party":"Rep","address":"254 N 460 W, Salem, UT 84653","precinct":"25SA01","hd":"65","v_score":"6.896907962","decile":"8","lat":40.058770296684,"lng":-111.682603382977},{"id":"141753","name":"Lukas Kemmer","party":"Dem","address":"143 E Salem Park Cir, Salem, UT 84653","precinct":"25SA01","hd":"65","v_score":"0","decile":"2","lat":40.080870171439,"lng":-111.670098077583},{"id":"142020","name":"Sigurd Gulgowski","party":"Rep","address":"723 N 150 E, Salem, UT 84653","precinct":"25SA01","hd":"65","v_score":"5.40460374","decile":"7","lat":40.065716586091,"lng":-111.670138579239},{"id":"142229","name":"Orrin Hoppe","party":"Rep","address":"263 E 850 N, Salem, UT 84653","precinct":"25SA01","hd":"65","v_score":"1.193887297","decile":"4","lat":40.041562152047,"lng":-111.668465804309},{"id":"142735","name":"Stacey Gerlach","party":"Rep","address":"686 N 150 E, Salem, UT 84653","precinct":"25SA01","hd":"65","v_score":"0","decile":"3","lat":40.065468816896,"lng":-111.669992098949},{"id":"143943","name":"Mr. Harman Stamm","party":"Dem","address":"97 E Salem Park Cir, Salem, UT 84653","precinct":"25SA01","hd":"65","v_score":"3.93832808","decile":"6","lat":40.081017063896,"lng":-111.670484258993},{"id":"144236","name":"Dr. Amos Runolfsson II","party":"Dem","address":"686 N 220 E, Salem, UT 84653","precinct":"25SA01","hd":"65","v_score":"9.03120571","decile":"8","lat":40.065232624544,"lng":-111.669061062123},{"id":"144450","name":"Mr. Scot Schuster II","party":"","address":"1758 N Sparrow Way, Salem, UT 84653","precinct":"25SA01","hd":"65","v_score":"1.193887297","decile":"4","lat":40.08146759836,"lng":-111.668198131115},{"id":"145040","name":"Dr. Wilfred O'Connell Sr.","party":"Rep","address":"369 E Salem Park Cir, Salem, UT 84653","precinct":"25SA01","hd":"65","v_score":"8.280646305","decile":"8","lat":40.080855471786,"lng":-111.665712662721},{"id":"145752","name":"Mrs. Toni Douglas DDS","party":"","address":"1686 N Wood Thrush Cv, Salem, UT 84653","precinct":"25SA01","hd":"65","v_score":"2.315214949","decile":"5","lat":40.080603017396,"lng":-111.670003365802},{"id":"145866","name":"Leta Heidenreich","party":"Rep","address":"716 N 150 E, Salem, UT 84653","precinct":"25SA01","hd":"65","v_score":"2.660162957","decile":"5","lat":40.065685820302,"lng":-111.669989243613},{"id":"146546","name":"Lenna Dach","party":"Rep","address":"1509 N 1750 W, Salem, UT 84653","precinct":"25SA01","hd":"65","v_score":"1.193887297","decile":"4","lat":40.078116233884,"lng":-111.708285203366},{"id":"146589","name":"Devan Thompson PhD","party":"","address":"234 W 360 N, Salem, UT 84653","precinct":"25SA01","hd":"65","v_score":"5.530510904","decile":"7","lat":40.060285268568,"lng":-111.678094974502},{"id":"147533","name":"Doshia Raynor PhD","party":"Rep","address":"95 E 400 N, Salem, UT 84653","precinct":"25SA01","hd":"65","v_score":"9.616113056","decile":"8","lat":40.060722376032,"lng":-111.671630052886},{"id":"148185","name":"Jovany Corwin","party":"Dem","address":"721 N 220 E, Salem, UT 84653","precinct":"25SA01","hd":"65","v_score":"4.694582103","decile":"7","lat":40.065392976377,"lng":-111.669209415869},{"id":"148303","name":"Dr. Rahn Abernathy","party":"Rep","address":"348 E Salem Park Cir, Salem, UT 84653","precinct":"25SA01","hd":"65","v_score":"2.315214949","decile":"5","lat":40.080740197435,"lng":-111.665753427624},{"id":"148454","name":"Linwood Swaniawski","party":"Rep","address":"126 S 500 W, Salem, UT 84653","precinct":"25SA01","hd":"65","v_score":"14.25581744","decile":"9","lat":40.052646483005,"lng":-111.6838602325},{"id":"148777","name":"Dr. Reed Trantow II","party":"Dem","address":"217 N 460 W, Salem, UT 84653","precinct":"25SA01","hd":"65","v_score":"1.121327652","decile":"3","lat":40.058260455415,"lng":-111.682735604653},{"id":"149070","name":"Mr. Jarrett Rippin","party":"Rep","address":"872 N 460 W, Salem, UT 84653","precinct":"25SA01","hd":"65","v_score":"36.0608092","decile":"10","lat":40.069005424361,"lng":-111.683132521758},{"id":"149221","name":"Jannette Will","party":"","address":"381 W 90 S, Salem, UT 84653","precinct":"25SA01","hd":"65","v_score":"5.40460374","decile":"7","lat":40.053816507402,"lng":-111.681568259926},{"id":"149699","name":"Martell Friesen MD","party":"","address":"299 Wood Thrush Cv, Apt A, Salem, UT 84653","precinct":"25SA01","hd":"65","v_score":"10.22509301","decile":"9","lat":40.079877318543,"lng":-111.669641818277},{"id":"150407","name":"Davante McCullough Jr.","party":"Rep","address":"320 State Road 198, Salem, UT 84653","precinct":"25SA01","hd":"65","v_score":"27.8491977","decile":"10","lat":40.05247181301,"lng":-111.681022599523},{"id":"150539","name":"Mr. Cortez Schmitt","party":"","address":"872 N 460 W, Salem, UT 84653","precinct":"25SA01","hd":"65","v_score":"36.0608092","decile":"10","lat":40.069005424361,"lng":-111.683132521758},{"id":"150717","name":"Oneta Gutmann","party":"","address":"255 W 360 N, Salem, UT 84653","precinct":"25SA01","hd":"65","v_score":"25.56043125","decile":"10","lat":40.060188162341,"lng":-111.678203951864},{"id":"151082","name":"Jailene McLaughlin","party":"Rep","address":"321 Sanderling Dr, Salem, UT 84653","precinct":"25SA01","hd":"65","v_score":"5.258122542","decile":"7","lat":40.081979161551,"lng":-111.666641660941},{"id":"151579","name":"Meyer Metz","party":"Rep","address":"91 E Salem Park Cir, Salem, UT 84653","precinct":"25SA01","hd":"65","v_score":"32.66968697","decile":"10","lat":40.081040039252,"lng":-111.670532912671},{"id":"151818","name":"Alijah Sawayn","party":"Rep","address":"430 N Main St, Salem, UT 84653","precinct":"25SA01","hd":"65","v_score":"3.93832808","decile":"6","lat":40.061194426235,"lng":-111.673169853389},{"id":"152072","name":"Vere Schneider Jr.","party":"Dem","address":"91 E Salem Park Cir, Salem, UT 84653","precinct":"25SA01","hd":"65","v_score":"30.75337554","decile":"10","lat":40.081040039252,"lng":-111.670532912671},{"id":"152272","name":"Gorden Harris","party":"","address":"321 Sanderling Dr, Salem, UT 84653","precinct":"25SA01","hd":"65","v_score":"1.121327652","decile":"3","lat":40.081979161551,"lng":-111.666641660941},{"id":"152540","name":"Aurelia Dare","party":"","address":"42 W 400 N, Salem, UT 84653","precinct":"25SA01","hd":"65","v_score":"5.659072284","decile":"7","lat":40.060747150661,"lng":-111.674018283754},{"id":"152541","name":"Warner Terry","party":"","address":"42 W 400 N, Salem, UT 84653","precinct":"25SA01","hd":"65","v_score":"18.29267428","decile":"10","lat":40.060747150661,"lng":-111.674018283754},{"id":"153019","name":"Gillie Kling-Watsica","party":"","address":"123 S 500 W, Salem, UT 84653","precinct":"25SA01","hd":"65","v_score":"8.280646305","decile":"8","lat":40.052765831791,"lng":-111.683763663599},{"id":"153411","name":"Robbin Ullrich-Ondricka","party":"Rep","address":"258 Wood Thrush Cv, Salem, UT 84653","precinct":"25SA01","hd":"65","v_score":"7.801357537","decile":"8","lat":40.079763637169,"lng":-111.669725487322},{"id":"153566","name":"Truman Schimmel MD","party":"Dem","address":"108 W 400 N, Salem, UT 84653","precinct":"25SA01","hd":"65","v_score":"25.23227905","decile":"10","lat":40.060752850126,"lng":-111.675151035295},{"id":"153767","name":"Chantelle Gleason DDS","party":"","address":"86 N 460 W, Salem, UT 84653","precinct":"25SA01","hd":"65","v_score":"5.40460374","decile":"7","lat":40.056471598259,"lng":-111.682532843839},{"id":"153771","name":"Dr. Ingram Spinka","party":"","address":"217 N 460 W, Salem, UT 84653","precinct":"25SA01","hd":"65","v_score":"3.93832808","decile":"6","lat":40.058260455415,"lng":-111.682735604653},{"id":"153964","name":"Governor Hettinger","party":"Dem","address":"722 N 150 E, Salem, UT 84653","precinct":"25SA01","hd":"65","v_score":"2.315214949","decile":"5","lat":40.065729220983,"lng":-111.669988672546},{"id":"154942","name":"Florie Feil","party":"Dem","address":"1736 N Warbler Rd, Salem, UT 84653","precinct":"25SA01","hd":"65","v_score":"7.493443096","decile":"8","lat":40.081532151559,"lng":-111.66506791821},{"id":"155839","name":"Ezzard Kuvalis","party":"Rep","address":"497 N Main St, Salem, UT 84653","precinct":"25SA01","hd":"65","v_score":"20.7369877","decile":"10","lat":40.062176853958,"lng":-111.67329511342},{"id":"156828","name":"Nat Boyle","party":"","address":"1013 N 350 E, Salem, UT 84653","precinct":"25SA01","hd":"65","v_score":"3.781490609","decile":"6","lat":40.037698940683,"lng":-111.666660545255},{"id":"156843","name":"Fleta Ullrich","party":"","address":"1671 N Wood Thrush Cv, Salem, UT 84653","precinct":"25SA01","hd":"65","v_score":"5.40460374","decile":"7","lat":40.080504226182,"lng":-111.670199827548},{"id":"157179","name":"Levie Beier I","party":"","address":"290 S 500 W, Salem, UT 84653","precinct":"25SA01","hd":"65","v_score":"6.724398202","decile":"8","lat":40.050179531068,"lng":-111.683439826207},{"id":"157438","name":"Concha Price","party":"Rep","address":"87 W 400 N, Salem, UT 84653","precinct":"25SA01","hd":"65","v_score":"15.14191205","decile":"9","lat":40.060636479485,"lng":-111.674797908494},{"id":"158756","name":"Ryley Lindgren","party":"Rep","address":"947 State Road 198, Salem, UT 84653","precinct":"25SA01","hd":"65","v_score":"6.657533174","decile":"7","lat":40.048402571628,"lng":-111.692493936614},{"id":"158880","name":"Fitzhugh Schneider","party":"","address":"328 E Salem Park Cir, Salem, UT 84653","precinct":"25SA01","hd":"65","v_score":"0","decile":"3","lat":40.080735609202,"lng":-111.666169418172},{"id":"159107","name":"Ms. Theda Sanford","party":"Dem","address":"450 N Main St, Salem, UT 84653","precinct":"25SA01","hd":"65","v_score":"29.80562171","decile":"10","lat":40.061495898593,"lng":-111.673162338644},{"id":"159108","name":"Zigmund Legros-Rippin","party":"","address":"450 N Main St, Salem, UT 84653","precinct":"25SA01","hd":"65","v_score":"36.0608092","decile":"10","lat":40.061495898593,"lng":-111.673162338644},{"id":"159117","name":"Pearly Kling-Barrows","party":"Dem","address":"50 S 500 W, Salem, UT 84653","precinct":"25SA01","hd":"65","v_score":"22.20326336","decile":"10","lat":40.054099370492,"lng":-111.684680756099},{"id":"159264","name":"Jaxton Block","party":"","address":"485 N Main St, Salem, UT 84653","precinct":"25SA01","hd":"65","v_score":"18.91187591","decile":"10","lat":40.061997797648,"lng":-111.673299576724},{"id":"159351","name":"Mr. Stetson Schoen","party":"","address":"485 N Main St, Salem, UT 84653","precinct":"25SA01","hd":"65","v_score":"29.71097489","decile":"10","lat":40.061997797648,"lng":-111.673299576724},{"id":"159406","name":"Frona Champlin","party":"","address":"505 N Main St, Salem, UT 84653","precinct":"25SA01","hd":"65","v_score":"21.07046927","decile":"10","lat":40.062296224831,"lng":-111.673292137885},{"id":"159687","name":"Eithel Aufderhar-Heaney","party":"","address":"721 N 220 E, Salem, UT 84653","precinct":"25SA01","hd":"65","v_score":"8.347511332","decile":"8","lat":40.065392976377,"lng":-111.669209415869},{"id":"160439","name":"Franz Dooley","party":"","address":"103 E 400 N, Salem, UT 84653","precinct":"25SA01","hd":"65","v_score":"30.7921053","decile":"10","lat":40.06072067619,"lng":-111.671498032601},{"id":"161444","name":"Leroy Hoppe","party":"","address":"87 W 400 N, Salem, UT 84653","precinct":"25SA01","hd":"65","v_score":"31.38374128","decile":"10","lat":40.060636479485,"lng":-111.674797908494},{"id":"161959","name":"Beda Leannon","party":"Dem","address":"95 E 400 N, Salem, UT 84653","precinct":"25SA01","hd":"65","v_score":"11.23922619","decile":"9","lat":40.060722376032,"lng":-111.671630052886},{"id":"162179","name":"Hyman Gorczany","party":"Dem","address":"1736 N Warbler Rd, Salem, UT 84653","precinct":"25SA01","hd":"65","v_score":"9.116556227","decile":"8","lat":40.081532151559,"lng":-111.66506791821},{"id":"164101","name":"Dr. Westin Bednar PhD","party":"","address":"320 N 460 W, Salem, UT 84653","precinct":"25SA01","hd":"65","v_score":"1.121327652","decile":"3","lat":40.059672279249,"lng":-111.682634418817},{"id":"164221","name":"Manning Feest","party":"Rep","address":"239 N 460 W, Salem, UT 84653","precinct":"25SA01","hd":"65","v_score":"3.781490609","decile":"6","lat":40.058559605411,"lng":-111.682745897947},{"id":"164659","name":"Hymen Hoppe","party":"","address":"1689 N Wood Thrush Cv, Salem, UT 84653","precinct":"25SA01","hd":"65","v_score":"8.363183621","decile":"8","lat":40.080653304431,"lng":-111.670139832627},{"id":"164789","name":"Ines Ryan","party":"Dem","address":"412 E Salem Park Cir, Salem, UT 84653","precinct":"25SA01","hd":"65","v_score":"5.40460374","decile":"7","lat":40.08075901454,"lng":-111.664834781422},{"id":"166976","name":"Prudence Lynch","party":"","address":"385 N 280 W, Salem, UT 84653","precinct":"25SA01","hd":"65","v_score":"9.248158009","decile":"8","lat":40.060564364151,"lng":-111.678840998058},{"id":"167228","name":"Jeffry Roberts","party":"Rep","address":"735 N 150 E, # 67, Salem, UT 84653","precinct":"25SA01","hd":"65","v_score":"1.121327652","decile":"3","lat":40.065891926654,"lng":-111.670136462032},{"id":"167354","name":"Bell Kub","party":"Rep","address":"265 E Salem Park Cir, Salem, UT 84653","precinct":"25SA01","hd":"65","v_score":"1.121327652","decile":"3","lat":40.08086897893,"lng":-111.667652252258},{"id":"167363","name":"Micah Ledner","party":"","address":"359 Wood Thrush Cv, Salem, UT 84653","precinct":"25SA01","hd":"65","v_score":"0","decile":"3","lat":40.07988273968,"lng":-111.66953002475},{"id":"167482","name":"Jonnie Ruecker","party":"","address":"508 N Main St, Salem, UT 84653","precinct":"25SA01","hd":"65","v_score":"7.169296324","decile":"8","lat":40.06237016843,"lng":-111.673140545884},{"id":"167876","name":"Letty Nienow","party":"Rep","address":"198 Wood Thrush Cv, Salem, UT 84653","precinct":"25SA01","hd":"65","v_score":"3.93832808","decile":"6","lat":40.079766136942,"lng":-111.669847975738},{"id":"169218","name":"Dr. Normand Bayer IV","party":"","address":"441 N Main St, Salem, UT 84653","precinct":"25SA01","hd":"65","v_score":"5.40460374","decile":"7","lat":40.061341257847,"lng":-111.673315942168},{"id":"169414","name":"Orvis Schaefer","party":"Dem","address":"252 W 360 N, Salem, UT 84653","precinct":"25SA01","hd":"65","v_score":"6.954919332","decile":"8","lat":40.060297857729,"lng":-111.67816001847},{"id":"169703","name":"Mrs. Cayla Schultz DVM","party":"Dem","address":"239 N 460 W, Salem, UT 84653","precinct":"25SA01","hd":"65","v_score":"5.40460374","decile":"7","lat":40.058559605411,"lng":-111.682745897947},{"id":"169854","name":"Reilly Krajcik-Considine","party":"Rep","address":"947 State Road 198, Salem, UT 84653","precinct":"25SA01","hd":"65","v_score":"6.657533174","decile":"7","lat":40.048402571628,"lng":-111.692493936614},{"id":"169905","name":"Cherri Graham","party":"Rep","address":"1238 N 1750 W, Salem, UT 84653","precinct":"25SA01","hd":"65","v_score":"4.210716443","decile":"7","lat":40.074485838039,"lng":-111.7081137394},{"id":"170064","name":"Lennon Gorczany DDS","party":"Rep","address":"143 E Salem Park Cir, Salem, UT 84653","precinct":"25SA01","hd":"65","v_score":"1.46627566","decile":"4","lat":40.080870171439,"lng":-111.670098077583},{"id":"170628","name":"Jalissa Langworth","party":"Rep","address":"691 N 150 E, Salem, UT 84653","precinct":"25SA01","hd":"65","v_score":"4.283276088","decile":"7","lat":40.065488732515,"lng":-111.670141577341},{"id":"171565","name":"Miss Rossie Kihn DVM","party":"Rep","address":"160 N 460 W, Salem, UT 84653","precinct":"25SA01","hd":"65","v_score":"17.07309906","decile":"9","lat":40.05748565485,"lng":-111.682559180416},{"id":"171761","name":"Horton Satterfield","party":"Rep","address":"1749 N Curlew Way, Salem, UT 84653","precinct":"25SA01","hd":"65","v_score":"18.19442671","decile":"10","lat":40.081343686026,"lng":-111.666174905427},{"id":"172021","name":"Mr. Michial Fahey II","party":"Rep","address":"88 S 500 W, Salem, UT 84653","precinct":"25SA01","hd":"65","v_score":"5.191257514","decile":"7","lat":40.053418492825,"lng":-111.684286659534},{"id":"172445","name":"Adonis Reichel","party":"","address":"178 E Salem Park Cir, Salem, UT 84653","precinct":"25SA01","hd":"65","v_score":"8.280646305","decile":"8","lat":40.080609877054,"lng":-111.669312802647},{"id":"173054","name":"Beecher Tillman IV","party":"Rep","address":"250 W Center St, Salem, UT 84653","precinct":"25SA01","hd":"65","v_score":"24.74649836","decile":"10","lat":40.054671850144,"lng":-111.6783628422},{"id":"173103","name":"Miss Shelva Boyer DDS","party":"Dem","address":"203 N 460 W, Salem, UT 84653","precinct":"25SA01","hd":"65","v_score":"6.657533174","decile":"7","lat":40.058070087235,"lng":-111.682729054375},{"id":"174937","name":"Theodora Maggio","party":"Dem","address":"722 N 150 E, Salem, UT 84653","precinct":"25SA01","hd":"65","v_score":"2.315214949","decile":"5","lat":40.065729220983,"lng":-111.669988672546},{"id":"175261","name":"Mr. Ovila Hagenes V","party":"","address":"103 E 400 N, Salem, UT 84653","precinct":"25SA01","hd":"65","v_score":"27.8491977","decile":"10","lat":40.06072067619,"lng":-111.671498032601},{"id":"175395","name":"Eino Jast III","party":"","address":"712 N 220 E, Salem, UT 84653","precinct":"25SA01","hd":"65","v_score":"6.550708384","decile":"7","lat":40.065354668411,"lng":-111.669060010005},{"id":"175856","name":"Christine Mayer","party":"Rep","address":"1781 N 290 E, Salem, UT 84653","precinct":"25SA01","hd":"65","v_score":"5.40460374","decile":"7","lat":40.082003726271,"lng":-111.667175338918},{"id":"175905","name":"Tawanda Welch","party":"Rep","address":"159 E Salem Park Cir, Salem, UT 84653","precinct":"25SA01","hd":"65","v_score":"2.315214949","decile":"5","lat":40.080759638459,"lng":-111.669692648176},{"id":"175912","name":"Orah Berge","party":"Rep","address":"329 E Salem Park Cir, Salem, UT 84653","precinct":"25SA01","hd":"65","v_score":"5.40460374","decile":"7","lat":40.080855291838,"lng":-111.666603573397},{"id":"176105","name":"Dr. Dan Hirthe DVM","party":"Rep","address":"172 E 660 N, Salem, UT 84653","precinct":"25SA01","hd":"65","v_score":"12.65668843","decile":"9","lat":40.064718811513,"lng":-111.669701941874},{"id":"176427","name":"Hazle Gerlach","party":"Rep","address":"687 N 150 E, Salem, UT 84653","precinct":"25SA01","hd":"65","v_score":"10.67330764","decile":"9","lat":40.065460250818,"lng":-111.670141952104},{"id":"176536","name":"Levin Hagenes V","party":"","address":"211 E 730 N, Salem, UT 84653","precinct":"25SA01","hd":"65","v_score":"3.997370217","decile":"6","lat":40.065877461965,"lng":-111.669345335944},{"id":"176604","name":"Kody Heller","party":"Dem","address":"1811 N 290 E, Salem, UT 84653","precinct":"25SA01","hd":"65","v_score":"4.192796624","decile":"7","lat":40.082063354449,"lng":-111.667174611738},{"id":"176644","name":"Ova Steuber-Effertz","party":"","address":"320 N 460 W, Salem, UT 84653","precinct":"25SA01","hd":"65","v_score":"0","decile":"3","lat":40.059672279249,"lng":-111.682634418817},{"id":"176874","name":"Jackie Mueller","party":"Dem","address":"312 Wood Thrush Cv, Salem, UT 84653","precinct":"25SA01","hd":"65","v_score":"5.40460374","decile":"7","lat":40.079762727157,"lng":-111.669613227499},{"id":"179128","name":"Ilene Schowalter","party":"Dem","address":"126 S Sheen Rd, Salem, UT 84653","precinct":"25SA01","hd":"65","v_score":"20.51100492","decile":"10","lat":40.052646483005,"lng":-111.6838602325},{"id":"179497","name":"Chantel Hills-Stroman","party":"Rep","address":"412 E Salem Park Cir, Salem, UT 84653","precinct":"25SA01","hd":"65","v_score":"5.40460374","decile":"7","lat":40.08075901454,"lng":-111.664834781422},{"id":"179845","name":"Ellery Gerlach","party":"Dem","address":"276 N 460 W, Salem, UT 84653","precinct":"25SA01","hd":"65","v_score":"3.93832808","decile":"6","lat":40.059070957539,"lng":-111.682613728257},{"id":"181126","name":"Mena Rolfson DDS","party":"","address":"340 N 280 W, Salem, UT 84653","precinct":"25SA01","hd":"65","v_score":"27.8491977","decile":"10","lat":40.060099216317,"lng":-111.678758715936},{"id":"181180","name":"Mckinley Gleason","party":"","address":"1764 N Warbler Rd, Salem, UT 84653","precinct":"25SA01","hd":"65","v_score":"11.29723756","decile":"9","lat":40.081921913682,"lng":-111.665214078939},{"id":"181224","name":"Shellie Prosacco","party":"","address":"1782 N Warbler Rd, Salem, UT 84653","precinct":"25SA01","hd":"65","v_score":"3.93832808","decile":"6","lat":40.082319959779,"lng":-111.665288805161}]