[{"vid":"1230211","name":"Brynlee Johnson","party":"","address":"1748 N Curlew Way, Salem, UT 84653","precinct":"25SA01","hd":"65","v_score":"2.315214949","decile":"5","lat":40.081464271403284,"lng":-111.66585285630063},{"vid":"1230213","name":"Orlin Kemmer","party":"Rep","address":"1748 N Curlew Way, Salem, UT 84653","precinct":"25SA01","hd":"65","v_score":"2.315214949","decile":"5","lat":40.081464271403284,"lng":-111.66585285630063},{"vid":"1257432","name":"Melonie Crooks","party":"Rep","address":"1749 N Killdeer Dr, Salem, UT 84653","precinct":"25SA01","hd":"65","v_score":"1.193887297","decile":"3","lat":40.0813620921171,"lng":-111.67592256375902},{"vid":"1266671","name":"Jerrod Collier","party":"Dem","address":"167 E Snowy Egret Dr, Salem, UT 84653","precinct":"25SA01","hd":"65","v_score":"0","decile":"1","lat":40.08282897790928,"lng":-111.66961596032853},{"vid":"1273619","name":"Elinor Bayer","party":"","address":"1764 N Warbler Rd, Salem, UT 84653","precinct":"25SA01","hd":"65","v_score":"11.29723756","decile":"9","lat":40.08176023972119,"lng":-111.66496904841907},{"vid":"af546b73b81d97ecb5d66baeffc7d9537064ec791f9b9778d61684e9e77c601f","name":"Dr. Wiliam Lang","party":"Rep","address":"1781 N 290 E, Salem, UT 84653","precinct":"25SA01","hd":"65","v_score":"5.40460374","decile":"7","lat":40.081965189687836,"lng":-111.66738181936711},{"vid":"1293393","name":"Mr. Orley Goldner Jr.","party":"Dem","address":"118 E Salem Park Cir, Salem, UT 84653","precinct":"25SA01","hd":"65","v_score":"15.07605507","decile":"9","lat":40.08078195805758,"lng":-111.67066853188317},{"vid":"1311140","name":"Mr. Willaim Thiel I","party":"Rep","address":"981 N 350 E, Salem, UT 84653","precinct":"25SA01","hd":"65","v_score":"5.191257514","decile":"7","lat":40.069612655221334,"lng":-111.66633635527836},{"vid":"136fce88ce39f552c21af25ef185dbaac698772327bccab38450720cbe6ae279","name":"Dimitrios Nitzsche","party":"Dem","address":"686 N 150 E, Salem, UT 84653","precinct":"25SA01","hd":"65","v_score":"1.121327652","decile":"3","lat":40.06515984795544,"lng":-111.66989982979716},{"vid":"1333311","name":"Levy Bahringer","party":"Dem","address":"725 N 150 E, Salem, UT 84653","precinct":"25SA01","hd":"65","v_score":"30.7921053","decile":"10","lat":40.06570864330797,"lng":-111.67033785058547},{"vid":"989c370cecc731ff762e056258eb005dd18fcaf122ebf9c261ffffbdd7f1cc85","name":"Isaac Gorczany-Stroman","party":"Rep","address":"913 N 350 E, Salem, UT 84653","precinct":"25SA01","hd":"65","v_score":"8.280646305","decile":"8","lat":40.06862467083379,"lng":-111.66633846470232},{"vid":"1347291","name":"Chandra Hahn","party":"Rep","address":"167 W Dunlin Dr, Salem, UT 84653","precinct":"25SA01","hd":"65","v_score":"11.56055976","decile":"9","lat":40.08131185446425,"lng":-111.67546085547687},{"vid":"86c2e20cfc1d7fc0b6d9cf3bae7347e25ae9e2a9a5e872f3afc3725bf1529f06","name":"Arno Watsica","party":"","address":"1641 N Wood Thrush Cv, Salem, UT 84653","precinct":"25SA01","hd":"65","v_score":"2.744440783","decile":"5","lat":40.079769139767876,"lng":-111.67042540994547},{"vid":"1381903","name":"Brent Hoeger-Barton","party":"Rep","address":"193 W Willet Dr, Salem, UT 84653","precinct":"25SA01","hd":"65","v_score":"10.17021529","decile":"9","lat":40.08177535250164,"lng":-111.67661036454528},{"vid":"1382364","name":"Burton Wilderman","party":"Dem","address":"412 E Salem Park Cir, Salem, UT 84653","precinct":"25SA01","hd":"65","v_score":"3.93832808","decile":"6","lat":40.080529119436626,"lng":-111.66467284766904},{"vid":"1385433","name":"Gurney Pacocha MD","party":"Rep","address":"178 E Salem Park Cir, Salem, UT 84653","precinct":"25SA01","hd":"65","v_score":"8.280646305","decile":"8","lat":40.08046865106117,"lng":-111.6693438018792},{"vid":"1389615","name":"Miss Leighton Hansen","party":"Rep","address":"304 E Snowy Egret Dr, Salem, UT 84653","precinct":"25SA01","hd":"65","v_score":"11.2235539","decile":"9","lat":40.08252864404947,"lng":-111.66689676265183},{"vid":"1389932","name":"Addie Mann","party":"Dem","address":"1788 N 630 W, Salem, UT 84653","precinct":"25SA01","hd":"65","v_score":"12.768328","decile":"9","lat":40.08237240385998,"lng":-111.6852294318188},{"vid":"1392884","name":"Clay Bednar","party":"","address":"1616 N Westview Ln, Salem, UT 84653","precinct":"25SA01","hd":"65","v_score":"10.57584419","decile":"9","lat":40.07997716023801,"lng":-111.67857465688952},{"vid":"1396127","name":"Coty Kuhlman","party":"","address":"662 N 220 E, Salem, UT 84653","precinct":"25SA01","hd":"65","v_score":"10.96442999","decile":"9","lat":40.064757181490094,"lng":-111.66887172242735},{"vid":"1397375","name":"Dr. Miriam Padberg","party":"Dem","address":"369 E Salem Park Cir, Salem, UT 84653","precinct":"25SA01","hd":"65","v_score":"0","decile":"1","lat":40.08101211808354,"lng":-111.66553773700078},{"vid":"1397471","name":"Loda Feest DVM","party":"Dem","address":"88 S 500 W, Salem, UT 84653","precinct":"25SA01","hd":"65","v_score":"7.904749111","decile":"8","lat":40.052972061362134,"lng":-111.68507914265366},{"vid":"1408526","name":"Josef Lang","party":"","address":"334 E 850 N, Salem, UT 84653","precinct":"25SA01","hd":"65","v_score":"1.121327652","decile":"3","lat":40.06742102537864,"lng":-111.66629983157554},{"vid":"1416749","name":"Mrs. Anjelica Pagac DDS","party":"","address":"244 W Dunlin Dr, Salem, UT 84653","precinct":"25SA01","hd":"65","v_score":"25.53404256","decile":"10","lat":40.08013308587352,"lng":-111.67653081100137},{"vid":"1416756","name":"Dr. Elfie Bins MD","party":"Rep","address":"244 W Dunlin Dr, Salem, UT 84653","precinct":"25SA01","hd":"65","v_score":"25.53404256","decile":"10","lat":40.08013308587352,"lng":-111.67653081100137},{"vid":"1418351","name":"Stan Turcotte","party":"","address":"1631 N 840 W, Salem, UT 84653","precinct":"25SA01","hd":"65","v_score":"16.4922578","decile":"9","lat":40.07990363464269,"lng":-111.69015001181873},{"vid":"1424045","name":"Delfina Ziemann","party":"","address":"167 E Snowy Egret Dr, Salem, UT 84653","precinct":"25SA01","hd":"65","v_score":"0","decile":"1","lat":40.08282897790928,"lng":-111.66961596032853},{"vid":"9e0352a3d70dd8c6ad71c7aca1a61380aec3df4ca8cbdb5f1d724f33db2e224a","name":"Trystan Kris","party":"","address":"716 N 220 E, Salem, UT 84653","precinct":"25SA01","hd":"65","v_score":"8.347511332","decile":"8","lat":40.0655532306051,"lng":-111.6688757591568},{"vid":"1448666","name":"Rosanne Trantow","party":"","address":"672 N 220 E, Salem, UT 84653","precinct":"25SA01","hd":"65","v_score":"0","decile":"1","lat":40.06490516813138,"lng":-111.66885104829998},{"vid":"1452586","name":"Pamella Nader DDS","party":"","address":"199 E Snowy Egret Dr, Salem, UT 84653","precinct":"25SA01","hd":"65","v_score":"0","decile":"1","lat":40.08285219300963,"lng":-111.66899056450889},{"vid":"1453050","name":"Mrs. Adelaide Lebsack PhD","party":"Rep","address":"250 W Center St, Salem, UT 84653","precinct":"25SA01","hd":"65","v_score":"13.32779236","decile":"9","lat":40.054992987756265,"lng":-111.67827618064524},{"vid":"1471459","name":"Tamera Roob PhD","party":"Dem","address":"302 E Salem Park Cir, Salem, UT 84653","precinct":"25SA01","hd":"65","v_score":"17.98456202","decile":"10","lat":40.080649057781365,"lng":-111.66700497974004},{"vid":"1482240","name":"Orrin Armstrong","party":"","address":"42 W 400 N, Salem, UT 84653","precinct":"25SA01","hd":"65","v_score":"17.89408627","decile":"10","lat":40.061007803115466,"lng":-111.6741092219809},{"vid":"1489354","name":"Mr. Lex Hirthe","party":"Dem","address":"250 W Center St, Salem, UT 84653","precinct":"25SA01","hd":"65","v_score":"24.74649836","decile":"10","lat":40.054992987756265,"lng":-111.67827618064524},{"vid":"1492379","name":"Gannon Rutherford-Casper","party":"Dem","address":"1753 N Killdeer Dr, Salem, UT 84653","precinct":"25SA01","hd":"65","v_score":"8.347511332","decile":"8","lat":40.081544354660544,"lng":-111.67619395067497},{"vid":"1499120","name":"Dr. Leigh Bernier","party":"Dem","address":"262 E 850 N, Salem, UT 84653","precinct":"25SA01","hd":"65","v_score":"10.8238813","decile":"9","lat":40.06748898020397,"lng":-111.66786962127499},{"vid":"1514374","name":"Dr. Rudolf Olson","party":"","address":"1028 N 310 E, Salem, UT 84653","precinct":"25SA01","hd":"65","v_score":"1.193887297","decile":"3","lat":40.070271779181525,"lng":-111.66669217400982},{"vid":"11de6e9f55b70b4dede1eabc9bdfa3d4ee6ae536ea91449b5d07cafe4c66f90b","name":"Cordero Stamm-Lebsack","party":"Rep","address":"736 N 150 E, Salem, UT 84653","precinct":"25SA01","hd":"65","v_score":"3.997370217","decile":"6","lat":40.066044493027356,"lng":-111.6699445119994},{"vid":"1524499","name":"Ms. Kay Metz DDS","party":"Rep","address":"981 N 350 E, Salem, UT 84653","precinct":"25SA01","hd":"65","v_score":"12.63306105","decile":"9","lat":40.069612655221334,"lng":-111.66633635527836},{"vid":"1527247","name":"Sada Considine","party":"Rep","address":"208 W Willet Dr, Salem, UT 84653","precinct":"25SA01","hd":"65","v_score":"0","decile":"1","lat":40.08191513927345,"lng":-111.67719034589547},{"vid":"1548947","name":"Norval Block","party":"","address":"1014 N 310 E, Salem, UT 84653","precinct":"25SA01","hd":"65","v_score":"1.121327652","decile":"3","lat":40.06994244189922,"lng":-111.66669287613304},{"vid":"1550538","name":"Mr. Zachery Stoltenberg","party":"","address":"208 W Willet Dr, Salem, UT 84653","precinct":"25SA01","hd":"65","v_score":"0","decile":"1","lat":40.08191513927345,"lng":-111.67719034589547},{"vid":"6f541ead9a0ab92c2d2a8d9f0cfc27fb66f10c93944b46d8c1063d2930ae31b3","name":"Eugenia Hane MD","party":"","address":"317 E Snowy Egret Dr, Salem, UT 84653","precinct":"25SA01","hd":"65","v_score":"9.600440767","decile":"8","lat":40.082904927891114,"lng":-111.66654537120631},{"vid":"1552350","name":"Delois Ebert","party":"","address":"412 E Salem Park Cir, Salem, UT 84653","precinct":"25SA01","hd":"65","v_score":"8.421194992","decile":"8","lat":40.080529119436626,"lng":-111.66467284766904},{"vid":"1560490","name":"Marlys Wolff","party":"","address":"692 N 220 E, Salem, UT 84653","precinct":"25SA01","hd":"65","v_score":"8.207848766","decile":"8","lat":40.06522430183463,"lng":-111.66886521849635},{"vid":"d01342263289f9e9f9d3ffe70711a927d3d72a66ebc960716bab0ea9c13efcf6","name":"Dr. Reece Ziemann","party":"","address":"556 W 1760 N, Salem, UT 84653","precinct":"25SA01","hd":"65","v_score":"8.758817347","decile":"8","lat":40.08195812297928,"lng":-111.68457807490472},{"vid":"1563615","name":"Fran Hagenes-Goyette","party":"Rep","address":"1748 N Warbler Rd, Salem, UT 84653","precinct":"25SA01","hd":"65","v_score":"4.210716443","decile":"7","lat":40.081541885369774,"lng":-111.6648744315951},{"vid":"1564340","name":"Sybil Stiedemann-Schuppe","party":"Dem","address":"273 E Snowy Egret Dr, Salem, UT 84653","precinct":"25SA01","hd":"65","v_score":"9.640097175","decile":"8","lat":40.08284482153442,"lng":-111.66737211834136},{"vid":"1570257","name":"Edwardo Ratke","party":"Rep","address":"1641 N Wood Thrush Cv, Salem, UT 84653","precinct":"25SA01","hd":"65","v_score":"0","decile":"1","lat":40.079769139767876,"lng":-111.67042540994547},{"vid":"aa53ff9d6a064f95ba89bed566448bbf7aaacd2a037cc8c10f570e9213766a9c","name":"Isreal Ondricka","party":"Rep","address":"1773 N 630 W, Salem, UT 84653","precinct":"25SA01","hd":"65","v_score":"10.52632313","decile":"9","lat":40.08191792297157,"lng":-111.68571768072842},{"vid":"1620951","name":"Verner Tromp","party":"Rep","address":"338 W 90 S, Salem, UT 84653","precinct":"25SA01","hd":"65","v_score":"0","decile":"1","lat":40.05383284908586,"lng":-111.6801353762424},{"vid":"7b29b9ce0a39bff177b19f3d8b7d05eaee1f791aacd579dcc30878e5a7fc406b","name":"Devonte Rath","party":"","address":"377 E 1100 N, Salem, UT 84653","precinct":"25SA01","hd":"65","v_score":"2.315214949","decile":"5","lat":40.07145978049392,"lng":-111.66548645577444},{"vid":"1628836","name":"Dylan Marks II","party":"Rep","address":"1014 N 310 E, Salem, UT 84653","precinct":"25SA01","hd":"65","v_score":"2.315214949","decile":"5","lat":40.06994244189922,"lng":-111.66669287613304},{"vid":"1629864","name":"Chancey Mohr","party":"Rep","address":"195 W Dunlin Dr, Salem, UT 84653","precinct":"25SA01","hd":"65","v_score":"1.193887297","decile":"3","lat":40.08093886565703,"lng":-111.67581328752718},{"vid":"c287f9305f9524e1f967b8d95e4e34245531e95ef0c3eab0c7568f956413269d","name":"Adriel Jacobi-DuBuque","party":"Dem","address":"1614 N Westview Ln, Salem, UT 84653","precinct":"25SA01","hd":"65","v_score":"3.781490609","decile":"6","lat":40.079917081921145,"lng":-111.67856991201637},{"vid":"c0f75331a455eddc1e423b211efce642d366bb32e38a506f663ffb2d8d476b02","name":"Aryana Sanford","party":"Rep","address":"415 E 1100 N, Salem, UT 84653","precinct":"25SA01","hd":"65","v_score":"20.91067752","decile":"10","lat":40.071454907174015,"lng":-111.66474944198275},{"vid":"1648575","name":"Moises Wiza","party":"","address":"1796 N 510 W, # 14, Salem, UT 84653","precinct":"25SA01","hd":"65","v_score":"2.744440783","decile":"5","lat":40.08233046844843,"lng":-111.6837333107499},{"vid":"1651007","name":"Christopher Mayert DDS","party":"Dem","address":"882 N 310 E, Salem, UT 84653","precinct":"25SA01","hd":"65","v_score":"0","decile":"1","lat":40.06829578316139,"lng":-111.66669638279657},{"vid":"1652599","name":"Lucille Kilback-Kunze","party":"","address":"116 S 460 W, Salem, UT 84653","precinct":"25SA01","hd":"65","v_score":"2.587603312","decile":"5","lat":40.05331595363101,"lng":-111.68240305573296},{"vid":"1664347","name":"Dr. Dustyn Walter","party":"Dem","address":"1737 N Warbler Rd, Salem, UT 84653","precinct":"25SA01","hd":"65","v_score":"8.347511332","decile":"8","lat":40.08129953139137,"lng":-111.66534811593937},{"vid":"15cec2f790aa59390a75460de4c32f06145c76d39cdc6d4ab4f53bac048e01d0","name":"Leilani Osinski","party":"","address":"1736 N Warbler Rd, Salem, UT 84653","precinct":"25SA01","hd":"65","v_score":"6.881235673","decile":"8","lat":40.081333507427075,"lng":-111.664777964032},{"vid":"1676578","name":"Tammie Reilly PhD","party":"Rep","address":"1759 N 290 E, Salem, UT 84653","precinct":"25SA01","hd":"65","v_score":"2.315214949","decile":"5","lat":40.08164105210624,"lng":-111.66735655346497},{"vid":"1682472","name":"Rolla Kohler","party":"Rep","address":"704 N 220 E, Salem, UT 84653","precinct":"25SA01","hd":"65","v_score":"7.781882349","decile":"8","lat":40.065364777351014,"lng":-111.6688715861401},{"vid":"e04e7ec7c06342a5c5331b3b7f5221893d83d884f7d29cd5e5f1c68c7b6e2847","name":"Barron Runte","party":"Dem","address":"721 N 220 E, Salem, UT 84653","precinct":"25SA01","hd":"65","v_score":"1.46627566","decile":"4","lat":40.06564225494705,"lng":-111.66932659829536},{"vid":"1692903","name":"Ms. Zelma Kuhic","party":"Dem","address":"42 W 400 N, Salem, UT 84653","precinct":"25SA01","hd":"65","v_score":"2.660162957","decile":"5","lat":40.061007803115466,"lng":-111.6741092219809},{"vid":"75da2219612cd338b607dc3b56e50372450c22becc80ad3b9ccb816322a0ef6f","name":"Gustavus Nienow II","party":"","address":"219 W Willet Dr, Salem, UT 84653","precinct":"25SA01","hd":"65","v_score":"6.884189957","decile":"8","lat":40.08151670976835,"lng":-111.67723135302788},{"vid":"9715bce71daad7206cd5333221be9dda3291e6f3584900a2de68ed599c321dec","name":"Dr. Alvie Considine V","party":"Rep","address":"692 N 220 E, Salem, UT 84653","precinct":"25SA01","hd":"65","v_score":"14.06645533","decile":"9","lat":40.06522430183463,"lng":-111.66886521849635},{"vid":"1704735","name":"Maiya Nolan","party":"Dem","address":"686 N 220 E, Salem, UT 84653","precinct":"25SA01","hd":"65","v_score":"0","decile":"1","lat":40.065160609811514,"lng":-111.66886848370132},{"vid":"1704834","name":"Tishie Feeney","party":"Dem","address":"1813 N Warbler Rd, Salem, UT 84653","precinct":"25SA01","hd":"65","v_score":"2.817000428","decile":"6","lat":40.08254044039486,"lng":-111.66557722492358},{"vid":"aeea5db211ec405d9f1c310e370d442951340eb2ec07e2063ddea9b3748e0564","name":"Aime Barrows-Veum","party":"Rep","address":"262 E 850 N, Salem, UT 84653","precinct":"25SA01","hd":"65","v_score":"9.35760564","decile":"8","lat":40.06748898020397,"lng":-111.66786962127499},{"vid":"1739650","name":"Shirleen Altenwerth","party":"","address":"1838 N 290 E, Salem, UT 84653","precinct":"25SA01","hd":"65","v_score":"0","decile":"1","lat":40.08283458031364,"lng":-111.66691225347411},{"vid":"1745566","name":"Ms. Jerrie Ortiz DVM","party":"Dem","address":"116 S 460 W, Salem, UT 84653","precinct":"25SA01","hd":"65","v_score":"0","decile":"1","lat":40.05331595363101,"lng":-111.68240305573296},{"vid":"76028ebb17dea3cd7b4431e416178af10d447d15a1637250cb02c254ddf9ef85","name":"Lady Waters","party":"Dem","address":"1762 N 290 E, Salem, UT 84653","precinct":"25SA01","hd":"65","v_score":"1.121327652","decile":"3","lat":40.08174347478771,"lng":-111.66690239768587},{"vid":"1763887","name":"Durrell Howell","party":"Rep","address":"388 E Snowy Egret Dr, Salem, UT 84653","precinct":"25SA01","hd":"65","v_score":"1.121327652","decile":"3","lat":40.08256703125017,"lng":-111.66517756063662},{"vid":"1766843","name":"Symone Langosh-Tillman","party":"Dem","address":"1702 N Sandpiper Dr, Salem, UT 84653","precinct":"25SA01","hd":"65","v_score":"3.781490609","decile":"6","lat":40.080782019321475,"lng":-111.67735094321138},{"vid":"1773487","name":"Ciarra Schaden","party":"Rep","address":"1848 N 1260 W, Salem, UT 84653","precinct":"25SA01","hd":"65","v_score":"5.530510904","decile":"7","lat":40.08299688346165,"lng":-111.69729094164903},{"vid":"1788927","name":"Aldona Graham MD","party":"Dem","address":"168 W Willet Dr, Salem, UT 84653","precinct":"25SA01","hd":"65","v_score":"2.660162957","decile":"5","lat":40.08235030664283,"lng":-111.67649892455604},{"vid":"1793066","name":"Stacey Maggio-Windler","party":"","address":"1737 N Northview Ln, Salem, UT 84653","precinct":"25SA01","hd":"65","v_score":"4.152467179","decile":"7","lat":40.081149757388225,"lng":-111.67828526334776},{"vid":"b19fd377889c05ee207f24b055e140bfce52710e328efa20e4664f0dfdb0ff33","name":"Fitzhugh Effertz","party":"","address":"334 E 850 N, Salem, UT 84653","precinct":"25SA01","hd":"65","v_score":"1.46627566","decile":"4","lat":40.06742102537864,"lng":-111.66629983157554},{"vid":"1803701","name":"Ansel Kutch","party":"Dem","address":"13 N 500 W, Salem, UT 84653","precinct":"25SA01","hd":"65","v_score":"3.93832808","decile":"6","lat":40.054435016401186,"lng":-111.68609445691591},{"vid":"1805448","name":"Gwyn Zulauf","party":"Dem","address":"217 W Dunlin Dr, Salem, UT 84653","precinct":"25SA01","hd":"65","v_score":"15.53273099","decile":"9","lat":40.08062128313584,"lng":-111.67593372470678},{"vid":"1816355","name":"Desiree Barrows","party":"Dem","address":"1784 N Avocet Dr, Salem, UT 84653","precinct":"25SA01","hd":"65","v_score":"0","decile":"1","lat":40.082162232788,"lng":-111.67509601556705},{"vid":"1816967","name":"Paris Schumm","party":"","address":"1794 N 510 W, Salem, UT 84653","precinct":"25SA01","hd":"65","v_score":"2.315214949","decile":"5","lat":40.082276705877106,"lng":-111.68373316691964},{"vid":"1821314","name":"Retta Olson DDS","party":"Rep","address":"203 N 460 W, Salem, UT 84653","precinct":"25SA01","hd":"65","v_score":"0","decile":"1","lat":40.05776299111,"lng":-111.68361510086275},{"vid":"1831550","name":"Sandi Bradtke MD","party":"Rep","address":"105 W Dunlin Dr, Salem, UT 84653","precinct":"25SA01","hd":"65","v_score":"5.40460374","decile":"7","lat":40.08204968778267,"lng":-111.67427019038739},{"vid":"1834306","name":"Piper Koss","party":"Dem","address":"158 E 660 N, Salem, UT 84653","precinct":"25SA01","hd":"65","v_score":"1.121327652","decile":"3","lat":40.06466412661574,"lng":-111.66999842199567},{"vid":"1839361","name":"Lorrayne Mohr MD","party":"Dem","address":"1028 N 310 E, Salem, UT 84653","precinct":"25SA01","hd":"65","v_score":"4.905839784","decile":"7","lat":40.070271779181525,"lng":-111.66669217400982},{"vid":"70133f739739e8d13840a7db724808483a4abf28a7bc7075daec6641409dc377","name":"Seldon Emard","party":"","address":"1621 N Westview Ln, Salem, UT 84653","precinct":"25SA01","hd":"65","v_score":"6.814370645","decile":"8","lat":40.079921269170924,"lng":-111.67893600567805},{"vid":"1857026","name":"Dani Cartwright","party":"","address":"1736 N Warbler Rd, Salem, UT 84653","precinct":"25SA01","hd":"65","v_score":"0","decile":"1","lat":40.081333507427075,"lng":-111.664777964032},{"vid":"1875580","name":"Dr. Lola Grant","party":"","address":"575 W 1810 N, Salem, UT 84653","precinct":"25SA01","hd":"65","v_score":"12.07513611","decile":"9","lat":40.0823428462682,"lng":-111.68483489462062},{"vid":"b27acebe80874a51ab03db19be1e7e1032d90861d565842ebef8add91b91dfd0","name":"Lex Kub","party":"","address":"42 W 400 N, Salem, UT 84653","precinct":"25SA01","hd":"65","v_score":"7.650280567","decile":"8","lat":40.061007803115466,"lng":-111.6741092219809},{"vid":"1885972","name":"Ceasar Considine","party":"","address":"1671 N Wood Thrush Cv, Salem, UT 84653","precinct":"25SA01","hd":"65","v_score":"11.687527","decile":"9","lat":40.080323926044784,"lng":-111.67040728445802},{"vid":"1890977","name":"Dr. Bertie Mayert MD","party":"","address":"704 N 220 E, Salem, UT 84653","precinct":"25SA01","hd":"65","v_score":"17.77840782","decile":"10","lat":40.065364777351014,"lng":-111.6688715861401},{"vid":"1891137","name":"Dr. Deborah Schmidt","party":"Rep","address":"1649 N 840 W, Salem, UT 84653","precinct":"25SA01","hd":"65","v_score":"1.46627566","decile":"4","lat":40.08022976047916,"lng":-111.69015091426625},{"vid":"1891845","name":"Irma Braun","party":"","address":"1617 N 840 W, Salem, UT 84653","precinct":"25SA01","hd":"65","v_score":"5.258122542","decile":"7","lat":40.07963192020601,"lng":-111.69011702891542},{"vid":"1895137","name":"Dr. Pattie Connelly","party":"Rep","address":"95 E 400 N, Salem, UT 84653","precinct":"25SA01","hd":"65","v_score":"1.46627566","decile":"4","lat":40.06088657961196,"lng":-111.6714396782989},{"vid":"1902225","name":"Jerrad Towne I","party":"","address":"193 W Willet Dr, Salem, UT 84653","precinct":"25SA01","hd":"65","v_score":"5.604194564","decile":"7","lat":40.08177535250164,"lng":-111.67661036454528},{"vid":"1911040","name":"Lizabeth Schinner","party":"Dem","address":"1639 N 800 W, Salem, UT 84653","precinct":"25SA01","hd":"65","v_score":"1.121327652","decile":"3","lat":40.079989985688684,"lng":-111.68932589611943},{"vid":"1919016","name":"Arvel Oberbrunner","party":"","address":"214 W Dunlin Dr, Salem, UT 84653","precinct":"25SA01","hd":"65","v_score":"14.39662962","decile":"9","lat":40.080822799062936,"lng":-111.67634668987179},{"vid":"1919182","name":"Ms. Kassie Brown","party":"Rep","address":"1724 N Pintail Cv, Salem, UT 84653","precinct":"25SA01","hd":"65","v_score":"6.030048853","decile":"7","lat":40.081462574422964,"lng":-111.67652864420727},{"vid":"1920889","name":"Kit Grady III","party":"Rep","address":"338 E Snowy Egret Dr, Salem, UT 84653","precinct":"25SA01","hd":"65","v_score":"2.315214949","decile":"5","lat":40.08247789645702,"lng":-111.66624959994081},{"vid":"1940382","name":"Dr. Mike Gottlieb","party":"Rep","address":"1625 N 800 W, Salem, UT 84653","precinct":"25SA01","hd":"65","v_score":"0","decile":"1","lat":40.07980284758139,"lng":-111.68934602601749},{"vid":"1949871","name":"Emaline Toy","party":"","address":"1578 N 800 W, Salem, UT 84653","precinct":"25SA01","hd":"65","v_score":"6.798081861","decile":"8","lat":40.07887246766224,"lng":-111.68874371415346},{"vid":"1957509","name":"Miss Kennedy Hane","party":"Dem","address":"1686 N Wood Thrush Cv, Salem, UT 84653","precinct":"25SA01","hd":"65","v_score":"2.315214949","decile":"5","lat":40.08057955625833,"lng":-111.66990121313299},{"vid":"cda5da5ab0306669378c6ccfe6112fed725f8690c52b8b6496ba42780522e429","name":"Dejuan Flatley","party":"Rep","address":"290 S 500 W, Salem, UT 84653","precinct":"25SA01","hd":"65","v_score":"6.724398202","decile":"8","lat":40.05079447592168,"lng":-111.68385709657983},{"vid":"1968645","name":"Rheta Fay DDS","party":"","address":"687 N 150 E, Salem, UT 84653","precinct":"25SA01","hd":"65","v_score":"5.40460374","decile":"7","lat":40.065155419359016,"lng":-111.67032686577659},{"vid":"1970531","name":"Charlize Prosacco","party":"Rep","address":"1687 N Centerpoint Ln, Salem, UT 84653","precinct":"25SA01","hd":"65","v_score":"6.724398202","decile":"8","lat":40.080817549426165,"lng":-111.67891575597469},{"vid":"1970755","name":"Marjory Pfeffer","party":"","address":"719 N 150 E, Salem, UT 84653","precinct":"25SA01","hd":"65","v_score":"1.193887297","decile":"3","lat":40.065609275272905,"lng":-111.67033831770942},{"vid":"1970967","name":"Marc Schaden","party":"","address":"217 W Dunlin Dr, Salem, UT 84653","precinct":"25SA01","hd":"65","v_score":"15.53273099","decile":"9","lat":40.08062128313584,"lng":-111.67593372470678},{"vid":"1972738","name":"Leonidas Bergstrom","party":"","address":"42 W 400 N, Salem, UT 84653","precinct":"25SA01","hd":"65","v_score":"2.587603312","decile":"5","lat":40.061007803115466,"lng":-111.6741092219809},{"vid":"1974203","name":"Ms. Bobbie Smith","party":"Rep","address":"662 N 220 E, Salem, UT 84653","precinct":"25SA01","hd":"65","v_score":"8.601979876","decile":"8","lat":40.064757181490094,"lng":-111.66887172242735},{"vid":"e4c2ac3fb98b55185cb00f5635c22b6e9a17460f0025473d3c06fff632fafaad","name":"Boss Steuber-Beatty","party":"Dem","address":"1539 N Summer Springs Cv, Salem, UT 84653","precinct":"25SA01","hd":"65","v_score":"1.193887297","decile":"3","lat":40.0783091179077,"lng":-111.689645210911},{"vid":"1997436","name":"Odalys Terry","party":"","address":"174 W Willet Dr, Salem, UT 84653","precinct":"25SA01","hd":"65","v_score":"5.331806201","decile":"7","lat":40.08222262845545,"lng":-111.67668135786319},{"vid":"1998472","name":"Laurene Jaskolski-Thiel","party":"","address":"1617 N Westview Ln, Salem, UT 84653","precinct":"25SA01","hd":"65","v_score":"0","decile":"1","lat":40.07985619114616,"lng":-111.67892986656146},{"vid":"2002360","name":"Juwan Flatley V","party":"","address":"1707 N Sandpiper Dr, Salem, UT 84653","precinct":"25SA01","hd":"65","v_score":"6.74007049","decile":"8","lat":40.08046815753686,"lng":-111.67768886793301},{"vid":"2013592","name":"Tomie Schulist","party":"","address":"1794 N Sparrow Way, Salem, UT 84653","precinct":"25SA01","hd":"65","v_score":"8.147429559","decile":"8","lat":40.08222822388172,"lng":-111.66808683152523},{"vid":"2018554","name":"Dr. Zena Hauck","party":"Dem","address":"412 E Salem Park Cir, Salem, UT 84653","precinct":"25SA01","hd":"65","v_score":"3.93832808","decile":"6","lat":40.080529119436626,"lng":-111.66467284766904},{"vid":"2029069","name":"Ms. Jazmyne Rolfson","party":"Rep","address":"739 N 150 E, Salem, UT 84653","precinct":"25SA01","hd":"65","v_score":"0","decile":"1","lat":40.06609779779419,"lng":-111.6702674116279},{"vid":"006dce569aaaed701766673a4b6d3e525801ff17df6a4b3bd933fad13b9011c2","name":"Ola Gulgowski","party":"","address":"123 S 500 W, Salem, UT 84653","precinct":"25SA01","hd":"65","v_score":"7.153624035","decile":"8","lat":40.05278666987507,"lng":-111.68358230786329},{"vid":"2037595","name":"Barb Simonis-Hayes","party":"Dem","address":"95 E 400 N, Salem, UT 84653","precinct":"25SA01","hd":"65","v_score":"12.73027884","decile":"9","lat":40.06088657961196,"lng":-111.6714396782989},{"vid":"2c11049791cf21298afbec5b6d97dbf6159816f902dd8f108266259ef5d8b169","name":"Janette Ankunding PhD","party":"Dem","address":"13 N 500 W, Salem, UT 84653","precinct":"25SA01","hd":"65","v_score":"3.93832808","decile":"6","lat":40.054435016401186,"lng":-111.68609445691591},{"vid":"2540d3b6f78dfd656dc8faecb79b415209cee9e9d8c1b37d87fe5d73e2291841","name":"Walter Waelchi","party":"Dem","address":"369 E Salem Park Cir, Salem, UT 84653","precinct":"25SA01","hd":"65","v_score":"6.724398202","decile":"8","lat":40.08101211808354,"lng":-111.66553773700078},{"vid":"dc363dfbc1611f24cd57cab85cef284f99610304c6abbfd47853131e9439f681","name":"Ms. Essa Larson","party":"Rep","address":"201 W Willet Dr, Salem, UT 84653","precinct":"25SA01","hd":"65","v_score":"24.15114864","decile":"10","lat":40.08169373029663,"lng":-111.67681558125835},{"vid":"eb9db444aa6d288d5e9201000d3ba983d77adc24fabeccb7a0f3a34a376864c8","name":"Dr. Khalid Watsica DVM","party":"Dem","address":"316 E 850 N, Salem, UT 84653","precinct":"25SA01","hd":"65","v_score":"5.258122542","decile":"7","lat":40.067424252497815,"lng":-111.66665700083419},{"vid":"2057379","name":"Hallie Kreiger","party":"","address":"91 E Salem Park Cir, Salem, UT 84653","precinct":"25SA01","hd":"65","v_score":"10.6918867","decile":"9","lat":40.081561234756734,"lng":-111.67112798901228},{"vid":"2057408","name":"Lilla Green","party":"Rep","address":"87 W 400 N, Salem, UT 84653","precinct":"25SA01","hd":"65","v_score":"17.94515708","decile":"10","lat":40.060221455553986,"lng":-111.67499798652666},{"vid":"2069345","name":"Mr. Domenico Reilly","party":"Rep","address":"1843 N 630 W, Salem, UT 84653","precinct":"25SA01","hd":"65","v_score":"3.93832808","decile":"6","lat":40.083034312759224,"lng":-111.68573538005481},{"vid":"2074782","name":"Andres O'Keefe","party":"","address":"1617 N Westview Ln, Salem, UT 84653","precinct":"25SA01","hd":"65","v_score":"0","decile":"1","lat":40.07985619114616,"lng":-111.67892986656146},{"vid":"2079082","name":"Sharde Johnston","party":"Rep","address":"388 E Snowy Egret Dr, Salem, UT 84653","precinct":"25SA01","hd":"65","v_score":"2.587603312","decile":"5","lat":40.08256703125017,"lng":-111.66517756063662},{"vid":"6c25c311aec16a8d3686f44990d7bd6d7e8ad243364d4a36f7c8dbfa6db205ce","name":"Javen Hessel","party":"Dem","address":"1563 N Summer Springs Cv, Woodland Hills, UT 84653","precinct":"25SA01","hd":"65","v_score":"1.121327652","decile":"3","lat":40.07852406068638,"lng":-111.68996456055721},{"vid":"2095685","name":"Kadeem Blanda","party":"","address":"1674 N 840 W, Salem, UT 84653","precinct":"25SA01","hd":"65","v_score":"0","decile":"1","lat":40.080605253534124,"lng":-111.6896339316643},{"vid":"2114600","name":"Cedric Kassulke","party":"Dem","address":"1684 N Centerpoint Ln, Salem, UT 84653","precinct":"25SA01","hd":"65","v_score":"2.315214949","decile":"5","lat":40.08092782712159,"lng":-111.6785255443116},{"vid":"353ac3056b69df8e92b832216a19b3d44c67d7b003da23b990cbc898c0b0efb9","name":"Amparo Bins-Hills","party":"Rep","address":"534 W 1860 N, Salem, UT 84653","precinct":"25SA01","hd":"65","v_score":"10.95989164","decile":"9","lat":40.08345111665863,"lng":-111.68426466096659},{"vid":"2126099","name":"Mr. Darron McKenzie","party":"","address":"430 N Main St, Salem, UT 84653","precinct":"25SA01","hd":"65","v_score":"3.93832808","decile":"6","lat":40.13439508593156,"lng":-111.57834899733501},{"vid":"4277012aeb9d20b45d3eefc7db5d2e124015034f3c6cd3925a997abf566d7071","name":"Rosy Jacobi","party":"","address":"722 N 220 E, Salem, UT 84653","precinct":"25SA01","hd":"65","v_score":"14.74552778","decile":"9","lat":40.06566857535272,"lng":-111.6688402712115},{"vid":"2128570","name":"Marley Kling","party":"","address":"496 W 90 S, Salem, UT 84653","precinct":"25SA01","hd":"65","v_score":"11.63424342","decile":"9","lat":40.05370836398813,"lng":-111.6832777389881},{"vid":"2132001","name":"Hence Reichert Jr.","party":"","address":"1763 N Curlew Way, Salem, UT 84653","precinct":"25SA01","hd":"65","v_score":"11.30205234","decile":"9","lat":40.08176592340872,"lng":-111.66632397138339},{"vid":"036d4aaee8a12928d8eca6615be9bbe77e5e731a8cdffd65faacf498bceacd47","name":"Dr. Devin Schumm MD","party":"Rep","address":"167 W Dunlin Dr, Salem, UT 84653","precinct":"25SA01","hd":"65","v_score":"11.56055976","decile":"9","lat":40.08131185446425,"lng":-111.67546085547687},{"vid":"2133497","name":"Ms. Lurline Mante","party":"","address":"1622 N Westview Ln, Salem, UT 84653","precinct":"25SA01","hd":"65","v_score":"4.064235245","decile":"6","lat":40.080051682909286,"lng":-111.67868760346296},{"vid":"2134600","name":"Will Torphy Sr.","party":"","address":"123 S 500 W, Salem, UT 84653","precinct":"25SA01","hd":"65","v_score":"7.153624035","decile":"8","lat":40.05278666987507,"lng":-111.68358230786329},{"vid":"8cba5ababe5789c8b669babae66890199d4f7fc39d0a773530e75bdd44d04229","name":"Maiya Mertz-Luettgen","party":"Dem","address":"372 E 1480 N, Salem, UT 84653","precinct":"25SA01","hd":"65","v_score":"5.40460374","decile":"7","lat":40.077010916417684,"lng":-111.6653494269407},{"vid":"2143136","name":"Cherie Collins","party":"","address":"144 W Willet Dr, Salem, UT 84653","precinct":"25SA01","hd":"65","v_score":"9.740989453","decile":"8","lat":40.08262475218222,"lng":-111.67588210163792},{"vid":"2144773","name":"Eulalia Weber","party":"","address":"1846 N Willet Dr, Salem, UT 84653","precinct":"25SA01","hd":"65","v_score":"0","decile":"1","lat":40.082679842204705,"lng":-111.67468182853692},{"vid":"2160971","name":"Tracy Marks-Abshire","party":"Rep","address":"1765 N Warbler Rd, Salem, UT 84653","precinct":"25SA01","hd":"65","v_score":"3.781490609","decile":"6","lat":40.081772511632764,"lng":-111.66543114390413},{"vid":"2164933","name":"Jane Ankunding","party":"Rep","address":"87 W 400 N, Salem, UT 84653","precinct":"25SA01","hd":"65","v_score":"19.9075236","decile":"10","lat":40.060221455553986,"lng":-111.67499798652666},{"vid":"2167006","name":"Delisa Klocko","party":"","address":"1775 N 630 W, Salem, UT 84653","precinct":"25SA01","hd":"65","v_score":"2.587603312","decile":"5","lat":40.081977204568396,"lng":-111.68571784098786},{"vid":"2173240","name":"Odalys Schumm","party":"Dem","address":"1687 N 840 W, Salem, UT 84653","precinct":"25SA01","hd":"65","v_score":"2.876042565","decile":"6","lat":40.08082717719154,"lng":-111.69015256752573},{"vid":"2b3f506396a2e4f51925c1407adc8e211836ad15d3a289713244ff29d5a8f53c","name":"Wende Schuster","party":"Rep","address":"1813 N Warbler Rd, Salem, UT 84653","precinct":"25SA01","hd":"65","v_score":"0","decile":"1","lat":40.08254044039486,"lng":-111.66557722492358},{"vid":"2178835","name":"Keshawn Hickle","party":"","address":"501 W 90 S, Salem, UT 84653","precinct":"25SA01","hd":"65","v_score":"1.121327652","decile":"3","lat":40.05320626433056,"lng":-111.68343379968307},{"vid":"85f542d80c1e9ac7baded7b9ea52db786705fe2516e9db36da62c5eeed660d63","name":"Rodger Walter-Huel","party":"","address":"712 N 150 E, Salem, UT 84653","precinct":"25SA01","hd":"65","v_score":"0","decile":"1","lat":40.065503958985666,"lng":-111.66989531017335},{"vid":"dad19954c924bbe1996ae7aaddf8e334a99de1c6a7d8db42ac2017837d5fbfb5","name":"Ginger Waelchi","party":"","address":"1762 N Curlew Way, Salem, UT 84653","precinct":"25SA01","hd":"65","v_score":"11.91980125","decile":"9","lat":40.08176660077025,"lng":-111.66592873011194},{"vid":"7a1e793904aeafc59a86672c6c3b720e3b157938b6a343cee1a46baf4d9278ce","name":"Louie Bode","party":"Rep","address":"724 N 220 E, Salem, UT 84653","precinct":"25SA01","hd":"65","v_score":"9.913499214","decile":"9","lat":40.06571625121289,"lng":-111.66888437301651},{"vid":"2192950","name":"Elgin Schmidt","party":"Dem","address":"95 E 400 N, Salem, UT 84653","precinct":"25SA01","hd":"65","v_score":"1.121327652","decile":"3","lat":40.06088657961196,"lng":-111.6714396782989},{"vid":"2201191","name":"Benedict Jerde","party":"Dem","address":"1564 N Summer Springs Cv, Salem, UT 84653","precinct":"25SA01","hd":"65","v_score":"1.121327652","decile":"3","lat":40.07884478035401,"lng":-111.68965504225312},{"vid":"2202648","name":"Octavio Padberg DVM","party":"Dem","address":"1715 N Sparrow Way, Salem, UT 84653","precinct":"25SA01","hd":"65","v_score":"2.315214949","decile":"5","lat":40.08094263615825,"lng":-111.66870695169399},{"vid":"2202671","name":"Isidor Towne","party":"","address":"301 E Salem Park Cir, Salem, UT 84653","precinct":"25SA01","hd":"65","v_score":"1.877581675","decile":"5","lat":40.080973569237386,"lng":-111.66699619488281},{"vid":"d29340a76b708d529ddec1dc2500054f7fe9136086c2ba32beb6b886b533dce5","name":"Miss Jocelyn Koepp MD","party":"Rep","address":"1848 N 1260 W, Salem, UT 84653","precinct":"25SA01","hd":"65","v_score":"1.121327652","decile":"3","lat":40.08299688346165,"lng":-111.69729094164903},{"vid":"5fe43816f2ce541f08086f86ec39309ac452f226dbeadef5c6cb1c717d7dbc12","name":"Antone Gerhold-Reynolds","party":"","address":"174 W Willet Dr, Salem, UT 84653","precinct":"25SA01","hd":"65","v_score":"2.315214949","decile":"5","lat":40.08222262845545,"lng":-111.67668135786319},{"vid":"2219365","name":"Doctor DuBuque Jr.","party":"","address":"1792 N 510 W, Salem, UT 84653","precinct":"25SA01","hd":"65","v_score":"1.121327652","decile":"3","lat":40.082208720547364,"lng":-111.68373298506069},{"vid":"2226218","name":"Ples Sanford-Lakin","party":"Dem","address":"683 N 220 E, Salem, UT 84653","precinct":"25SA01","hd":"65","v_score":"2.315214949","decile":"5","lat":40.06510334889759,"lng":-111.66931917327038},{"vid":"2235646","name":"Emmanuel Zemlak-Lemke","party":"","address":"1813 N Warbler Rd, Salem, UT 84653","precinct":"25SA01","hd":"65","v_score":"2.958579882","decile":"6","lat":40.08254044039486,"lng":-111.66557722492358},{"vid":"21ab543c9e2f9a31ae81a04c5f82716c73d134eab54a8009a45f8b93de03598b","name":"Miss Damaris Waters PhD","party":"Rep","address":"678 N 150 E, Salem, UT 84653","precinct":"25SA01","hd":"65","v_score":"22.57788051","decile":"10","lat":40.06505439854687,"lng":-111.66990498443009},{"vid":"47e369de40e51514d4901b4cd0adc92fb09cbc1615bef4691020536a5729338f","name":"Myron Stroman","party":"Rep","address":"103 E 400 N, Salem, UT 84653","precinct":"25SA01","hd":"65","v_score":"19.20031516","decile":"10","lat":40.06088315362286,"lng":-111.67120784683958},{"vid":"2a18da8eb787430fdbd008cb4ff0b0a3c57792470b709c32a23a8f90486e39fe","name":"Mr. Purl Smitham III","party":"","address":"1762 N 290 E, Salem, UT 84653","precinct":"25SA01","hd":"65","v_score":"0","decile":"1","lat":40.08174347478771,"lng":-111.66690239768587},{"vid":"893d96fd08df4fec64f24ae78f91456016c895b3e9412202b5e3194f07d52ef2","name":"Dominga Wolf","party":"","address":"1564 N Summer Springs Cv, Salem, UT 84653","precinct":"25SA01","hd":"65","v_score":"12.38288823","decile":"9","lat":40.07884478035401,"lng":-111.68965504225312},{"vid":"ee40fb9e91ded5ef03d3f860a19624fbb34dd1e8f3b7999d7249ccc7a782dde6","name":"Dr. Zoie Jenkins","party":"","address":"105 W Dunlin Dr, Salem, UT 84653","precinct":"25SA01","hd":"65","v_score":"9.424470668","decile":"8","lat":40.08204968778267,"lng":-111.67427019038739},{"vid":"745d95c6ea4db7d493ef64b81f953fb6439540fe664420428d6b481e86e372fc","name":"Simone Walsh-Oberbrunner","party":"Rep","address":"567 W 1860 N, Salem, UT 84653","precinct":"25SA01","hd":"65","v_score":"2.315214949","decile":"5","lat":40.0830801436629,"lng":-111.6847382272722},{"vid":"2255669","name":"Ms. Beula Sipes DVM","party":"Rep","address":"1805 N Avocet Dr, Salem, UT 84653","precinct":"25SA01","hd":"65","v_score":"1.121327652","decile":"3","lat":40.082332708891734,"lng":-111.67572497874872},{"vid":"982cdadec08c7b6605b914b1cb8f552075ff1cf863de1d4caebc07935e83424d","name":"Dr. Rueben Hoppe PhD","party":"","address":"905 N 310 E, Salem, UT 84653","precinct":"25SA01","hd":"65","v_score":"19.49442423","decile":"10","lat":40.06848591925268,"lng":-111.66733180162122},{"vid":"2258122","name":"Shaylee Wehner-Dare","party":"Rep","address":"719 N 150 E, Salem, UT 84653","precinct":"25SA01","hd":"65","v_score":"3.93832808","decile":"6","lat":40.065609275272905,"lng":-111.67033831770942},{"vid":"f99708bece3ce62cd2919b9f9590137ca9ef099006bd0579cd7ae9258d1a1509","name":"Lelia Johns PhD","party":"","address":"33 W 400 N, Salem, UT 84653","precinct":"25SA01","hd":"65","v_score":"11.94823048","decile":"9","lat":40.06049645727942,"lng":-111.67402890052716},{"vid":"7645de0fce621f9ed01a44106fd0e512bb4d819b317886939d99c7b9a2ea5d03","name":"Dr. Daniela Douglas PhD","party":"Rep","address":"955 N 310 E, Salem, UT 84653","precinct":"25SA01","hd":"65","v_score":"19.7585898","decile":"10","lat":40.0693092350755,"lng":-111.66733009122893},{"vid":"665de514d313c835774760be933e475906f0ced2e0dcd8ea63c610f41dd1f8cb","name":"Mr. Dennis Beatty","party":"","address":"1827 N 630 W, Salem, UT 84653","precinct":"25SA01","hd":"65","v_score":"1.623113131","decile":"5","lat":40.08274874135519,"lng":-111.6857637700517},{"vid":"9e4299d199f3238d005a54204ef98eba2d7ea3f1acdaa44fc39b826e201b9604","name":"Bartley Nolan Jr.","party":"Rep","address":"1608 N 840 W, Salem, UT 84653","precinct":"25SA01","hd":"65","v_score":"2.817000428","decile":"6","lat":40.07947346031967,"lng":-111.68958673202332},{"vid":"154218fa5df5ac555d3b49c94401cd96ec9d76d772ff3ee8e08bcc02d37fac24","name":"Roselyn Zulauf","party":"Rep","address":"533 W 1860 N, Salem, UT 84653","precinct":"25SA01","hd":"65","v_score":"2.315214949","decile":"5","lat":40.083080892282524,"lng":-111.684255135411},{"vid":"179144d7c84d4222d97e46c62bc77bd751085ce3e4b3fad62a5c2f17339cc0c4","name":"Delphin Rempel","party":"","address":"734 N 150 E, Salem, UT 84653","precinct":"25SA01","hd":"65","v_score":"4.064235245","decile":"6","lat":40.06598927090254,"lng":-111.66994320245536},{"vid":"f4dd2c2d3a8db9513c0c8dd9ebca4df06a3d89e59a56eb969178673b5bddd2b7","name":"Dr. Val Muller","party":"Dem","address":"410 N Main St, Salem, UT 84653","precinct":"25SA01","hd":"65","v_score":"2.315214949","decile":"5","lat":40.00511154135075,"lng":-111.84317715383379},{"vid":"2282928","name":"Fitzhugh Murazik","party":"","address":"1558 N 800 W, Salem, UT 84653","precinct":"25SA01","hd":"65","v_score":"12.34824012","decile":"9","lat":40.07868194182901,"lng":-111.68874319079498},{"vid":"2300710","name":"Tennessee Lehner","party":"Rep","address":"317 E Snowy Egret Dr, Salem, UT 84653","precinct":"25SA01","hd":"65","v_score":"0","decile":"1","lat":40.082904927891114,"lng":-111.66654537120631},{"vid":"0bd0577b1b61f7e5dcc52ee19b19afaf4feb0e7b18d8ad5b8eae361dab1ad5f0","name":"Gifford Lesch-Gulgowski","party":"Rep","address":"534 W 1860 N, Salem, UT 84653","precinct":"25SA01","hd":"65","v_score":"1.121327652","decile":"3","lat":40.08345111665863,"lng":-111.68426466096659},{"vid":"1dcba2d30dae47a6f1f412cded564d3ed721664898d874841b0ec8db37baf7eb","name":"Kaylene Abshire","party":"Dem","address":"1762 N Curlew Way, Salem, UT 84653","precinct":"25SA01","hd":"65","v_score":"3.016591252","decile":"6","lat":40.08176660077025,"lng":-111.66592873011194},{"vid":"2316484","name":"Roscoe Block","party":"Dem","address":"1787 N Avocet Dr, Salem, UT 84653","precinct":"25SA01","hd":"65","v_score":"5.191257514","decile":"7","lat":40.082026338100896,"lng":-111.67548714357392},{"vid":"2345381","name":"Mr. Darl Reinger MD","party":"Rep","address":"1792 N Avocet Dr, Salem, UT 84653","precinct":"25SA01","hd":"65","v_score":"2.315214949","decile":"5","lat":40.082291743030474,"lng":-111.67515072733109},{"vid":"2348522","name":"Mr. Hakeem Hegmann III","party":"Rep","address":"1852 N 510 W, Salem, UT 84653","precinct":"25SA01","hd":"65","v_score":"2.315214949","decile":"5","lat":40.083007023187854,"lng":-111.6837351200567},{"vid":"2348540","name":"Arden Abshire-Bogan","party":"Dem","address":"1852 N 510 W, Salem, UT 84653","precinct":"25SA01","hd":"65","v_score":"2.315214949","decile":"5","lat":40.083007023187854,"lng":-111.6837351200567},{"vid":"2350241","name":"Mrs. Charla Cronin MD","party":"Rep","address":"410 N Main St, Salem, UT 84653","precinct":"25SA01","hd":"65","v_score":"2.315214949","decile":"5","lat":40.00511154135075,"lng":-111.84317715383379},{"vid":"2351424","name":"Luc Hills I","party":"Dem","address":"264 W Dunlin Dr, Salem, UT 84653","precinct":"25SA01","hd":"65","v_score":"10.52632313","decile":"9","lat":40.07958564579505,"lng":-111.67661450225395},{"vid":"2355807","name":"Magan Jaskolski","party":"Rep","address":"1762 N Curlew Way, Salem, UT 84653","precinct":"25SA01","hd":"65","v_score":"14.1719139","decile":"9","lat":40.08176660077025,"lng":-111.66592873011194},{"vid":"2357216","name":"Mr. Deegan Goldner","party":"","address":"178 E Salem Park Cir, Salem, UT 84653","precinct":"25SA01","hd":"65","v_score":"3.93832808","decile":"6","lat":40.08046865106117,"lng":-111.6693438018792},{"vid":"2359778","name":"Alger Hettinger","party":"","address":"144 W Willet Dr, Salem, UT 84653","precinct":"25SA01","hd":"65","v_score":"5.40460374","decile":"7","lat":40.08262475218222,"lng":-111.67588210163792},{"vid":"2362171","name":"Deb Connelly-Stroman","party":"Rep","address":"329 E Salem Park Cir, Salem, UT 84653","precinct":"25SA01","hd":"65","v_score":"3.93832808","decile":"6","lat":40.08095531154977,"lng":-111.66628796127056},{"vid":"2372022","name":"Dr. Thad Beatty","party":"Rep","address":"905 N 310 E, Salem, UT 84653","precinct":"25SA01","hd":"65","v_score":"17.8713111","decile":"10","lat":40.06848591925268,"lng":-111.66733180162122},{"vid":"2374613","name":"Edwardo Predovic","party":"Rep","address":"734 N 150 E, Salem, UT 84653","precinct":"25SA01","hd":"65","v_score":"1.121327652","decile":"3","lat":40.06598927090254,"lng":-111.66994320245536},{"vid":"2385644","name":"Garett Feil","party":"","address":"1836 N Willet Dr, Salem, UT 84653","precinct":"25SA01","hd":"65","v_score":"2.315214949","decile":"5","lat":40.08254143703238,"lng":-111.67410180027933},{"vid":"2385675","name":"Clair Labadie","party":"Dem","address":"953 N 350 E, Salem, UT 84653","precinct":"25SA01","hd":"65","v_score":"5.191257514","decile":"7","lat":40.069283317776865,"lng":-111.66633705812025},{"vid":"2388154","name":"Flora Howe DDS","party":"","address":"1836 N Willet Dr, Salem, UT 84653","precinct":"25SA01","hd":"65","v_score":"2.315214949","decile":"5","lat":40.08254143703238,"lng":-111.67410180027933},{"vid":"2392079","name":"Mrs. Alissa Dibbert","party":"","address":"359 E Snowy Egret Dr, Salem, UT 84653","precinct":"25SA01","hd":"65","v_score":"2.315214949","decile":"5","lat":40.08288272416594,"lng":-111.6657281268404},{"vid":"2404132","name":"Margaretta Bradtke DVM","party":"","address":"79 E Salem Park Cir, Salem, UT 84653","precinct":"25SA01","hd":"65","v_score":"3.93832808","decile":"6","lat":40.08158228231183,"lng":-111.67140808768247},{"vid":"2412309","name":"Shirleen Ledner","party":"","address":"242 W 360 N, Salem, UT 84653","precinct":"25SA01","hd":"65","v_score":"0","decile":"1","lat":40.06039824166768,"lng":-111.67809521768251},{"vid":"2419334","name":"Camila Conroy","party":"","address":"1722 N Pintail Cv, Salem, UT 84653","precinct":"25SA01","hd":"65","v_score":"5.429380732","decile":"7","lat":40.081326494665085,"lng":-111.67633636386022},{"vid":"2431764","name":"Aedan Reilly PhD","party":"Rep","address":"708 N 150 E, Salem, UT 84653","precinct":"25SA01","hd":"65","v_score":"1.193887297","decile":"3","lat":40.065448736881,"lng":-111.66989396549518},{"vid":"2432682","name":"Loria Brakus-Harvey","party":"","address":"181 E Snowy Egret Dr, Salem, UT 84653","precinct":"25SA01","hd":"65","v_score":"1.121327652","decile":"3","lat":40.08288013397946,"lng":-111.66929303499055},{"vid":"2439976","name":"Bud Gerlach","party":"Rep","address":"336 E 1480 N, Salem, UT 84653","precinct":"25SA01","hd":"65","v_score":"6.481563075","decile":"7","lat":40.07700988343398,"lng":-111.66606394709733},{"vid":"2441902","name":"Mabel Senger-Kub","party":"","address":"1725 N Pintail Cv, Salem, UT 84653","precinct":"25SA01","hd":"65","v_score":"1.121327652","decile":"3","lat":40.0812928715621,"lng":-111.6769081023319},{"vid":"2442533","name":"Helma Blanda","party":"","address":"98 E Salem Park Cir, Salem, UT 84653","precinct":"25SA01","hd":"65","v_score":"2.315214949","decile":"5","lat":40.080941220877975,"lng":-111.6710745266363},{"vid":"2446086","name":"Hettie Green","party":"","address":"1737 N Warbler Rd, Salem, UT 84653","precinct":"25SA01","hd":"65","v_score":"3.93832808","decile":"6","lat":40.08129953139137,"lng":-111.66534811593937},{"vid":"2452434","name":"Yosef Hermiston","party":"Dem","address":"257 E Snowy Egret Dr, Salem, UT 84653","precinct":"25SA01","hd":"65","v_score":"2.315214949","decile":"5","lat":40.08292133082478,"lng":-111.66777526556136},{"vid":"2454028","name":"Alford Kling IV","party":"Rep","address":"359 E Snowy Egret Dr, Salem, UT 84653","precinct":"25SA01","hd":"65","v_score":"2.315214949","decile":"5","lat":40.08288272416594,"lng":-111.6657281268404},{"vid":"2459006","name":"Mohammed Stamm","party":"Rep","address":"79 E Salem Park Cir, Salem, UT 84653","precinct":"25SA01","hd":"65","v_score":"0","decile":"1","lat":40.08158228231183,"lng":-111.67140808768247},{"vid":"2459146","name":"Landen Turcotte","party":"Dem","address":"1762 N Killdeer Dr, Salem, UT 84653","precinct":"25SA01","hd":"65","v_score":"0","decile":"1","lat":40.08210876530165,"lng":-111.67615090188986},{"vid":"2476121","name":"Miss Mechelle Parisian DVM","party":"","address":"1586 N 800 W, Salem, UT 84653","precinct":"25SA01","hd":"65","v_score":"0","decile":"1","lat":40.07907592026478,"lng":-111.68874427308523},{"vid":"2481723","name":"Tami Larkin PhD","party":"Dem","address":"103 E 400 N, Salem, UT 84653","precinct":"25SA01","hd":"65","v_score":"9.131230047","decile":"8","lat":40.06088315362286,"lng":-111.67120784683958},{"vid":"2482220","name":"Jolie VonRueden","party":"","address":"75 S 500 W, Salem, UT 84653","precinct":"25SA01","hd":"65","v_score":"1.623113131","decile":"5","lat":40.053406036820526,"lng":-111.68403436301095},{"vid":"2482226","name":"Miss Ruthanne Rodriguez DDS","party":"","address":"369 E Salem Park Cir, Salem, UT 84653","precinct":"25SA01","hd":"65","v_score":"7.052493863","decile":"8","lat":40.08101211808354,"lng":-111.66553773700078},{"vid":"2485363","name":"Tammy Borer","party":"Dem","address":"724 N 220 E, Salem, UT 84653","precinct":"25SA01","hd":"65","v_score":"1.193887297","decile":"3","lat":40.06571625121289,"lng":-111.66888437301651},{"vid":"2487622","name":"June Treutel","party":"","address":"1718 N Sparrow Way, Salem, UT 84653","precinct":"25SA01","hd":"65","v_score":"4.069929862","decile":"6","lat":40.08095497853458,"lng":-111.66825016647319},{"vid":"2488379","name":"Mr. Babe Ernser","party":"Rep","address":"158 W Willet Dr, Salem, UT 84653","precinct":"25SA01","hd":"65","v_score":"16.65708017","decile":"9","lat":40.08241056171447,"lng":-111.67632501541394},{"vid":"2497458","name":"Dr. Jennette Bode","party":"","address":"718 N 150 E, Salem, UT 84653","precinct":"25SA01","hd":"65","v_score":"0","decile":"1","lat":40.06560459268662,"lng":-111.66989342261333},{"vid":"2511929","name":"Brendon Olson-Watsica","party":"Dem","address":"734 N 150 E, Salem, UT 84653","precinct":"25SA01","hd":"65","v_score":"0","decile":"1","lat":40.06598927090254,"lng":-111.66994320245536},{"vid":"2511970","name":"Candida Green","party":"Dem","address":"159 E Salem Park Cir, Salem, UT 84653","precinct":"25SA01","hd":"65","v_score":"0","decile":"1","lat":40.081009735627234,"lng":-111.66966318955964},{"vid":"2517954","name":"Mr. Leslie Wintheiser","party":"","address":"1793 N 290 E, Salem, UT 84653","precinct":"25SA01","hd":"65","v_score":"0","decile":"1","lat":40.08223683946114,"lng":-111.66752257264599},{"vid":"2527474","name":"Zaniyah Schiller-Bailey","party":"","address":"373 E Snowy Egret Dr, Salem, UT 84653","precinct":"25SA01","hd":"65","v_score":"1.193887297","decile":"4","lat":40.08288521004109,"lng":-111.66546498819514},{"vid":"2536433","name":"Harrison Stracke","party":"Dem","address":"677 N 150 E, Salem, UT 84653","precinct":"25SA01","hd":"65","v_score":"4.069929862","decile":"6","lat":40.0650126326854,"lng":-111.67034787686201},{"vid":"2540377","name":"Vernetta Swaniawski","party":"Dem","address":"496 W 90 S, Salem, UT 84653","precinct":"25SA01","hd":"65","v_score":"1.193887297","decile":"4","lat":40.05370836398813,"lng":-111.6832777389881},{"vid":"2541466","name":"Wilbur Marks-Reinger","party":"Rep","address":"1854 N 510 W, Salem, UT 84653","precinct":"25SA01","hd":"65","v_score":"1.193887297","decile":"4","lat":40.08307500817865,"lng":-111.6837353018158},{"vid":"2571678","name":"Hobson Davis-Schulist","party":"Dem","address":"195 W Dunlin Dr, Salem, UT 84653","precinct":"25SA01","hd":"65","v_score":"1.193887297","decile":"4","lat":40.08093886565703,"lng":-111.67581328752718},{"vid":"2577954","name":"Dr. Mayra Hilpert","party":"Rep","address":"55 W 400 N, Salem, UT 84653","precinct":"25SA01","hd":"65","v_score":"1.193887297","decile":"4","lat":40.06027579251481,"lng":-111.67457623064489},{"vid":"2578075","name":"Dr. Hardy Cartwright","party":"","address":"678 N 150 E, Salem, UT 84653","precinct":"25SA01","hd":"65","v_score":"11.26156058","decile":"9","lat":40.06505439854687,"lng":-111.66990498443009},{"vid":"2595291","name":"Lissa Morissette","party":"Dem","address":"557 W 1810 N, Salem, UT 84653","precinct":"25SA01","hd":"65","v_score":"0","decile":"1","lat":40.082310313655945,"lng":-111.68459366283085},{"vid":"2604746","name":"Mr. Stetson Sanford","party":"Rep","address":"1811 N 290 E, Salem, UT 84653","precinct":"25SA01","hd":"65","v_score":"1.193887297","decile":"4","lat":40.08250450501204,"lng":-111.66732954496634},{"vid":"2605177","name":"Naoma Erdman MD","party":"Rep","address":"203 N 460 W, Salem, UT 84653","precinct":"25SA01","hd":"65","v_score":"0","decile":"1","lat":40.05776299111,"lng":-111.68361510086275},{"vid":"2611852","name":"Bridger Corwin I","party":"Dem","address":"278 E 850 N, Salem, UT 84653","precinct":"25SA01","hd":"65","v_score":"0","decile":"1","lat":40.06743079761922,"lng":-111.6674449588043},{"vid":"2615847","name":"Cayden Kutch","party":"Dem","address":"411 W 400 N, Salem, UT 84653","precinct":"25SA01","hd":"65","v_score":"9.638447451","decile":"8","lat":40.06045051162077,"lng":-111.6815716231359},{"vid":"2632625","name":"Heather Thiel","party":"","address":"254 E Snowy Egret Dr, Salem, UT 84653","precinct":"25SA01","hd":"65","v_score":"9.40499548","decile":"8","lat":40.08244042114692,"lng":-111.66779906585586},{"vid":"2632627","name":"Hank Tillman-Batz","party":"","address":"254 E Snowy Egret Dr, Salem, UT 84653","precinct":"25SA01","hd":"65","v_score":"5.693042993","decile":"7","lat":40.08244042114692,"lng":-111.66779906585586},{"vid":"2634797","name":"Ms. Jamiya Spencer","party":"Rep","address":"575 W 1810 N, Salem, UT 84653","precinct":"25SA01","hd":"65","v_score":"2.817000428","decile":"6","lat":40.0823428462682,"lng":-111.68483489462062},{"vid":"2639449","name":"Mr. Rhett Langworth PhD","party":"Rep","address":"1725 N Sparrow Way, Salem, UT 84653","precinct":"25SA01","hd":"65","v_score":"1.193887297","decile":"4","lat":40.08126701078462,"lng":-111.66868490068273},{"vid":"2639771","name":"Adrien Beier","party":"","address":"42 W 400 N, Salem, UT 84653","precinct":"25SA01","hd":"65","v_score":"1.193887297","decile":"4","lat":40.061007803115466,"lng":-111.6741092219809},{"vid":"2639775","name":"Mr. Reynaldo Greenholt","party":"","address":"1653 N Wood Thrush Cv, Salem, UT 84653","precinct":"25SA01","hd":"65","v_score":"2.817000428","decile":"6","lat":40.08000072609379,"lng":-111.6703953243734},{"vid":"2655480","name":"Dr. Prentice Roberts DDS","party":"Rep","address":"1762 N 290 E, Salem, UT 84653","precinct":"25SA01","hd":"65","v_score":"0","decile":"1","lat":40.08174347478771,"lng":-111.66690239768587},{"vid":"2661735","name":"Jacob Ritchie","party":"Dem","address":"1563 N Summer Springs Cv, Woodland Hills, UT 84653","precinct":"25SA01","hd":"65","v_score":"0","decile":"1","lat":40.07852406068638,"lng":-111.68996456055721},{"vid":"2665712","name":"Patti Padberg","party":"","address":"123 S 500 W, Salem, UT 84653","precinct":"25SA01","hd":"65","v_score":"1.193887297","decile":"4","lat":40.05278666987507,"lng":-111.68358230786329},{"vid":"2671402","name":"Cheryll Bartoletti PhD","party":"","address":"347 W 90 S, Salem, UT 84653","precinct":"25SA01","hd":"65","v_score":"4.069929862","decile":"6","lat":40.053654477182356,"lng":-111.68033978798576},{"vid":"2671611","name":"Shanda Smith","party":"Dem","address":"260 W Center St, Salem, UT 84653","precinct":"25SA01","hd":"65","v_score":"4.069929862","decile":"6","lat":40.05500521305492,"lng":-111.67857850101842},{"vid":"2674044","name":"Keyon Schoen","party":"Rep","address":"239 N 460 W, Salem, UT 84653","precinct":"25SA01","hd":"65","v_score":"0","decile":"2","lat":40.05831377071295,"lng":-111.68401794190773},{"vid":"2685245","name":"Dillion Fisher","party":"Dem","address":"1743 N 290 E, Salem, UT 84653","precinct":"25SA01","hd":"65","v_score":"0","decile":"2","lat":40.08141841020378,"lng":-111.66741662156124},{"vid":"2685306","name":"Mr. Granville Carroll III","party":"","address":"1743 N 290 E, Salem, UT 84653","precinct":"25SA01","hd":"65","v_score":"0","decile":"2","lat":40.08141841020378,"lng":-111.66741662156124},{"vid":"2686851","name":"Imo Emard","party":"Dem","address":"103 E 400 N, Salem, UT 84653","precinct":"25SA01","hd":"65","v_score":"2.876042565","decile":"6","lat":40.06088315362286,"lng":-111.67120784683958},{"vid":"2689211","name":"Shawnda O'Kon","party":"Dem","address":"1743 N 290 E, Salem, UT 84653","precinct":"25SA01","hd":"65","v_score":"0","decile":"2","lat":40.08141841020378,"lng":-111.66741662156124},{"vid":"2696125","name":"Brisa Hermiston","party":"","address":"415 E 1100 N, Salem, UT 84653","precinct":"25SA01","hd":"65","v_score":"7.781882349","decile":"8","lat":40.071454907174015,"lng":-111.66474944198275},{"vid":"2697447","name":"Veronica Bogisich","party":"","address":"398 E Salem Park Cir, Salem, UT 84653","precinct":"25SA01","hd":"65","v_score":"0","decile":"2","lat":40.080560171238446,"lng":-111.66496955671582},{"vid":"2699069","name":"Winona Wyman","party":"","address":"399 W 90 S, Salem, UT 84653","precinct":"25SA01","hd":"65","v_score":"0","decile":"2","lat":40.053750812167,"lng":-111.68130126425157},{"vid":"2701712","name":"Danika Renner","party":"","address":"1822 N 630 W, Salem, UT 84653","precinct":"25SA01","hd":"65","v_score":"1.193887297","decile":"4","lat":40.082644214169264,"lng":-111.68526025714847},{"vid":"2703438","name":"Cornie Zieme","party":"Rep","address":"1725 N Pintail Cv, Salem, UT 84653","precinct":"25SA01","hd":"65","v_score":"0","decile":"2","lat":40.0812928715621,"lng":-111.6769081023319},{"vid":"2704183","name":"Christoper Emmerich","party":"Rep","address":"1811 N 290 E, Salem, UT 84653","precinct":"25SA01","hd":"65","v_score":"0","decile":"2","lat":40.08250450501204,"lng":-111.66732954496634},{"vid":"2710463","name":"Kathryne Mayer","party":"Rep","address":"1645 N Westview Ln, Salem, UT 84653","precinct":"25SA01","hd":"65","v_score":"3.711952487","decile":"6","lat":40.08045414739641,"lng":-111.67942205983127},{"vid":"2714667","name":"Tana Yundt-Miller","party":"","address":"1703 N 840 W, Salem, UT 84653","precinct":"25SA01","hd":"65","v_score":"4.069929862","decile":"7","lat":40.08108548664361,"lng":-111.69015328258469},{"vid":"2723024","name":"Miss Era Ziemann DDS","party":"Rep","address":"377 E 1100 N, Salem, UT 84653","precinct":"25SA01","hd":"65","v_score":"1.193887297","decile":"4","lat":40.07145978049392,"lng":-111.66548645577444},{"vid":"2724364","name":"Horton Buckridge","party":"","address":"1748 N Warbler Rd, Salem, UT 84653","precinct":"25SA01","hd":"65","v_score":"0","decile":"2","lat":40.081541885369774,"lng":-111.6648744315951},{"vid":"2724520","name":"Gary Eichmann","party":"Dem","address":"724 N 220 E, Salem, UT 84653","precinct":"25SA01","hd":"65","v_score":"1.193887297","decile":"4","lat":40.06571625121289,"lng":-111.66888437301651},{"vid":"2742941","name":"Jeremie O'Keefe","party":"","address":"441 N Main St, Salem, UT 84653","precinct":"25SA01","hd":"65","v_score":"0","decile":"2","lat":40.06137986258158,"lng":-111.6737037520312},{"vid":"2746162","name":"Davis Pagac","party":"","address":"152 E Snowy Egret Dr, Salem, UT 84653","precinct":"25SA01","hd":"65","v_score":"0","decile":"2","lat":40.08244582329179,"lng":-111.66996358956212},{"vid":"2750289","name":"Eartha Runte","party":"","address":"1762 N 290 E, Salem, UT 84653","precinct":"25SA01","hd":"65","v_score":"0","decile":"2","lat":40.08174347478771,"lng":-111.66690239768587},{"vid":"2756990","name":"Coletta Ziemann-West","party":"Rep","address":"317 E Snowy Egret Dr, Salem, UT 84653","precinct":"25SA01","hd":"65","v_score":"9.050194508","decile":"8","lat":40.082904927891114,"lng":-111.66654537120631},{"vid":"2758496","name":"Adlai Bergnaum","party":"Rep","address":"368 E Salem Park Cir, Salem, UT 84653","precinct":"25SA01","hd":"65","v_score":"1.193887297","decile":"4","lat":40.08058994036446,"lng":-111.66552013109917},{"vid":"2769874","name":"Dr. Ingram Terry","party":"","address":"202 E 660 N, Salem, UT 84653","precinct":"25SA01","hd":"65","v_score":"0","decile":"2","lat":40.06464381807967,"lng":-111.66932259046172},{"vid":"2772471","name":"Arvid Schumm","party":"","address":"214 W Dunlin Dr, Salem, UT 84653","precinct":"25SA01","hd":"65","v_score":"4.069929862","decile":"7","lat":40.080822799062936,"lng":-111.67634668987179},{"vid":"2779433","name":"Alberta Schmeler","party":"Rep","address":"1792 N Avocet Dr, Salem, UT 84653","precinct":"25SA01","hd":"65","v_score":"1.193887297","decile":"4","lat":40.082291743030474,"lng":-111.67515072733109},{"vid":"2779771","name":"Anie Erdman","party":"Rep","address":"557 W 1810 N, Salem, UT 84653","precinct":"25SA01","hd":"65","v_score":"0","decile":"2","lat":40.082310313655945,"lng":-111.68459366283085},{"vid":"2784175","name":"Winnie Zboncak","party":"Dem","address":"329 E Salem Park Cir, Salem, UT 84653","precinct":"25SA01","hd":"65","v_score":"0","decile":"2","lat":40.08095531154977,"lng":-111.66628796127056},{"vid":"2785689","name":"Amya Kiehn","party":"Rep","address":"1816 N 510 W, Salem, UT 84653","precinct":"25SA01","hd":"65","v_score":"1.193887297","decile":"4","lat":40.08263291593326,"lng":-111.6837341196329},{"vid":"2791607","name":"Lennie Schimmel","party":"","address":"329 E Salem Park Cir, Salem, UT 84653","precinct":"25SA01","hd":"65","v_score":"1.193887297","decile":"4","lat":40.08095531154977,"lng":-111.66628796127056},{"vid":"2793336","name":"Lary Moore Sr.","party":"Dem","address":"255 N Main St, Salem, UT 84653","precinct":"25SA01","hd":"65","v_score":"0","decile":"2","lat":40.45642584445866,"lng":-111.778104236869},{"vid":"2805813","name":"Lucille Heidenreich DDS","party":"","address":"32 W 650 N, Salem, UT 84653","precinct":"25SA01","hd":"65","v_score":"1.193887297","decile":"4","lat":40.06483987050125,"lng":-111.67396508528736},{"vid":"2811010","name":"Lailah Jakubowski","party":"Rep","address":"1781 N 630 W, Salem, UT 84653","precinct":"25SA01","hd":"65","v_score":"1.193887297","decile":"4","lat":40.08218808882539,"lng":-111.68571839686537},{"vid":"2819126","name":"Dr. Alonza Mosciski DDS","party":"","address":"1781 N 290 E, Salem, UT 84653","precinct":"25SA01","hd":"65","v_score":"1.193887297","decile":"4","lat":40.081965189687836,"lng":-111.66738181936711},{"vid":"2820874","name":"Madalynn Roob","party":"Rep","address":"72 S 500 W, Salem, UT 84653","precinct":"25SA01","hd":"65","v_score":"0","decile":"2","lat":40.05327473122137,"lng":-111.6853169266495},{"vid":"2825856","name":"Mr. Kirk Franecki","party":"Rep","address":"1861 N 630 W, Salem, UT 84653","precinct":"25SA01","hd":"65","v_score":"0","decile":"2","lat":40.083317022110336,"lng":-111.68574406568563},{"vid":"2841522","name":"Stonewall Wilkinson","party":"","address":"1793 N 290 E, Salem, UT 84653","precinct":"25SA01","hd":"65","v_score":"1.193887297","decile":"4","lat":40.08223683946114,"lng":-111.66752257264599},{"vid":"2851252","name":"Fabian Jenkins","party":"Rep","address":"1868 N 510 W, Salem, UT 84653","precinct":"25SA01","hd":"65","v_score":"1.193887297","decile":"4","lat":40.083497803849816,"lng":-111.68373643259513},{"vid":"2851343","name":"Maribeth Jacobi","party":"Rep","address":"1868 N 510 W, Salem, UT 84653","precinct":"25SA01","hd":"65","v_score":"1.193887297","decile":"4","lat":40.083497803849816,"lng":-111.68373643259513},{"vid":"2858915","name":"Mr. Linton Heidenreich","party":"","address":"114 W Willet Dr, Salem, UT 84653","precinct":"25SA01","hd":"65","v_score":"1.193887297","decile":"4","lat":40.08282863120358,"lng":-111.67514736611761},{"vid":"2867304","name":"Gifford Conroy","party":"","address":"1794 N Sparrow Way, Salem, UT 84653","precinct":"25SA01","hd":"65","v_score":"1.193887297","decile":"4","lat":40.08222822388172,"lng":-111.66808683152523},{"vid":"2886494","name":"Adelbert Reinger","party":"Rep","address":"334 E 850 N, Salem, UT 84653","precinct":"25SA01","hd":"65","v_score":"1.193887297","decile":"4","lat":40.06742102537864,"lng":-111.66629983157554},{"vid":"2889884","name":"Consuela Runolfsson","party":"Dem","address":"1814 N 510 W, Salem, UT 84653","precinct":"25SA01","hd":"65","v_score":"1.193887297","decile":"4","lat":40.0825791535244,"lng":-111.68373397580264},{"vid":"2902729","name":"Dr. Lelah Runolfsson","party":"","address":"724 N 220 E, Salem, UT 84653","precinct":"25SA01","hd":"65","v_score":"0","decile":"2","lat":40.06571625121289,"lng":-111.66888437301651},{"vid":"2908443","name":"Dereck Goldner","party":"","address":"1759 N 290 E, Salem, UT 84653","precinct":"25SA01","hd":"65","v_score":"0","decile":"2","lat":40.08164105210624,"lng":-111.66735655346497},{"vid":"2915430","name":"Anie Carter MD","party":"Rep","address":"1758 N Killdeer Dr, Salem, UT 84653","precinct":"25SA01","hd":"65","v_score":"0","decile":"2","lat":40.08198539057963,"lng":-111.67596727303014},{"vid":"2915470","name":"Linton Sipes","party":"","address":"871 N 310 E, Salem, UT 84653","precinct":"25SA01","hd":"65","v_score":"0","decile":"2","lat":40.068211471696564,"lng":-111.66733238319055},{"vid":"2915923","name":"Cassie McKenzie","party":"Rep","address":"914 N 310 E, Salem, UT 84653","precinct":"25SA01","hd":"65","v_score":"0","decile":"2","lat":40.068625092932585,"lng":-111.66669568157168},{"vid":"2928054","name":"Alexandr Corkery","party":"Dem","address":"1653 N Westview Ln, Salem, UT 84653","precinct":"25SA01","hd":"65","v_score":"2.876042565","decile":"6","lat":40.08059514979383,"lng":-111.67951620766961},{"vid":"2929760","name":"Oswaldo Champlin","party":"","address":"441 N Main St, Salem, UT 84653","precinct":"25SA01","hd":"65","v_score":"0","decile":"2","lat":40.06137986258158,"lng":-111.6737037520312},{"vid":"2932773","name":"Tameka Turcotte MD","party":"","address":"1829 N 630 W, Salem, UT 84653","precinct":"25SA01","hd":"65","v_score":"0","decile":"2","lat":40.082823486520894,"lng":-111.6857289037406},{"vid":"2932781","name":"Eugene Cassin","party":"","address":"1829 N 630 W, Salem, UT 84653","precinct":"25SA01","hd":"65","v_score":"0","decile":"2","lat":40.082823486520894,"lng":-111.6857289037406},{"vid":"2935202","name":"Zaniyah Bins","party":"","address":"1217 N 500 E, Salem, UT 84653","precinct":"25SA01","hd":"65","v_score":"0","decile":"2","lat":40.07322677038832,"lng":-111.6638581388451},{"vid":"2938716","name":"Mrs. Pearly Corkery MD","party":"Dem","address":"558 W 1860 N, Salem, UT 84653","precinct":"25SA01","hd":"65","v_score":"0","decile":"2","lat":40.083450651488796,"lng":-111.68456356926885},{"vid":"2941623","name":"Nilda Ferry","party":"Dem","address":"1682 N Centerpoint Ln, Salem, UT 84653","precinct":"25SA01","hd":"65","v_score":"2.876042565","decile":"6","lat":40.080881152479556,"lng":-111.67846361502758},{"vid":"2944652","name":"Rocio Ondricka","party":"Rep","address":"734 N 150 E, Salem, UT 84653","precinct":"25SA01","hd":"65","v_score":"0","decile":"2","lat":40.06598927090254,"lng":-111.66994320245536},{"vid":"2944765","name":"Florencio Feil","party":"Dem","address":"589 W 1810 N, Salem, UT 84653","precinct":"25SA01","hd":"65","v_score":"0","decile":"2","lat":40.08234259965819,"lng":-111.68499210159197},{"vid":"2967757","name":"Casimir Mitchell","party":"Dem","address":"278 E 850 N, Salem, UT 84653","precinct":"25SA01","hd":"65","v_score":"0","decile":"2","lat":40.06743079761922,"lng":-111.6674449588043},{"vid":"2971285","name":"Lovey Lindgren","party":"Rep","address":"737 N 150 E, Salem, UT 84653","precinct":"25SA01","hd":"65","v_score":"0","decile":"2","lat":40.066048419779555,"lng":-111.67026952596265},{"vid":"2971426","name":"Elizabeth Prosacco","party":"Rep","address":"1689 N Centerpoint Ln, Salem, UT 84653","precinct":"25SA01","hd":"65","v_score":"0","decile":"2","lat":40.08086099485981,"lng":-111.67894892073848},{"vid":"2978328","name":"Dr. Gearld Little DDS","party":"Dem","address":"1866 N 510 W, Salem, UT 84653","precinct":"25SA01","hd":"65","v_score":"0","decile":"2","lat":40.083429818364834,"lng":-111.6837362506364},{"vid":"2981748","name":"Prince Doyle","party":"","address":"1226 N 290 E, Salem, UT 84653","precinct":"25SA01","hd":"65","v_score":"0","decile":"2","lat":40.07323195915522,"lng":-111.66719086513285},{"vid":"10a5a04bfa2e9fbd80940c366acb47d0b883ee37f14d89dc30a33e3ff3a930ad","name":"Linzy Stiedemann","party":"Dem","address":"1615 N Westview Ln, Salem, UT 84653","precinct":"25SA01","hd":"65","v_score":"11.2235539","decile":"9","lat":40.079830293286314,"lng":-111.67886559474026},{"vid":"3237873","name":"Cierra Lesch DDS","party":"Rep","address":"304 E Snowy Egret Dr, Salem, UT 84653","precinct":"25SA01","hd":"65","v_score":"11.2235539","decile":"9","lat":40.08252864404947,"lng":-111.66689676265183},{"vid":"3298129","name":"Jefferson Hegmann-Orn","party":"Dem","address":"118 E Salem Park Cir, Salem, UT 84653","precinct":"25SA01","hd":"65","v_score":"15.07605507","decile":"9","lat":40.08078195805758,"lng":-111.67066853188317},{"vid":"3326694","name":"Julianne Adams-Christiansen","party":"","address":"144 E Snowy Egret Dr, Salem, UT 84653","precinct":"25SA01","hd":"65","v_score":"0","decile":"2","lat":40.08258462140727,"lng":-111.67020831558781},{"vid":"c81e6b833e159de8043e9b9df3394093f0d618ed6b412c81e5176f9c04cece9d","name":"Journey Lind-Rutherford","party":"Dem","address":"256 E Salem Park Cir, Salem, UT 84653","precinct":"25SA01","hd":"65","v_score":"5.40460374","decile":"7","lat":40.08057993040639,"lng":-111.66780179927957},{"vid":"3335740","name":"Vanesa Streich","party":"Rep","address":"256 E Salem Park Cir, Salem, UT 84653","precinct":"25SA01","hd":"65","v_score":"5.40460374","decile":"7","lat":40.08057993040639,"lng":-111.66780179927957},{"vid":"3351792","name":"Elex Mohr Sr.","party":"","address":"1558 N 800 W, Salem, UT 84653","precinct":"25SA01","hd":"65","v_score":"34.16094866","decile":"10","lat":40.07868194182901,"lng":-111.68874319079498},{"vid":"3497206","name":"Dejah Bechtelar-Dare","party":"Rep","address":"373 E Snowy Egret Dr, Salem, UT 84653","precinct":"25SA01","hd":"65","v_score":"2.315214949","decile":"5","lat":40.08288521004109,"lng":-111.66546498819514},{"vid":"3513774","name":"Elvira Gutkowski","party":"","address":"559 W 1860 N, Salem, UT 84653","precinct":"25SA01","hd":"65","v_score":"8.290386083","decile":"8","lat":40.083060080627,"lng":-111.68458097089355},{"vid":"3579460","name":"Mr. Gustav Goyette","party":"","address":"1412 N 290 E, Salem, UT 84653","precinct":"25SA01","hd":"65","v_score":"15.09172736","decile":"9","lat":40.07626529071561,"lng":-111.66689317870217},{"vid":"4004870","name":"Lyman Barrows","party":"Dem","address":"86 N 460 W, Salem, UT 84653","precinct":"25SA01","hd":"65","v_score":"11.38334565","decile":"9","lat":40.055831925582766,"lng":-111.68186249275155},{"vid":"4437643","name":"Lukas Kemmer","party":"Dem","address":"143 E Salem Park Cir, Salem, UT 84653","precinct":"25SA01","hd":"65","v_score":"0","decile":"2","lat":40.08106108927837,"lng":-111.66999064657784},{"vid":"4441443","name":"Lynwood Daugherty IV","party":"","address":"1615 N Westview Ln, Salem, UT 84653","precinct":"25SA01","hd":"65","v_score":"3.93832808","decile":"6","lat":40.079830293286314,"lng":-111.67886559474026},{"vid":"4502541","name":"Sigurd Gulgowski","party":"Rep","address":"723 N 150 E, Salem, UT 84653","precinct":"25SA01","hd":"65","v_score":"5.40460374","decile":"7","lat":40.065661421887924,"lng":-111.67033730405046},{"vid":"4616061","name":"Orrin Hoppe","party":"Rep","address":"263 E 850 N, Salem, UT 84653","precinct":"25SA01","hd":"65","v_score":"1.193887297","decile":"4","lat":40.067854962877625,"lng":-111.66785937566077},{"vid":"5312942","name":"Stacey Gerlach","party":"Rep","address":"686 N 150 E, Salem, UT 84653","precinct":"25SA01","hd":"65","v_score":"0","decile":"3","lat":40.06515984795544,"lng":-111.66989982979716},{"vid":"5905996","name":"Mr. Harman Stamm","party":"Dem","address":"97 E Salem Park Cir, Salem, UT 84653","precinct":"25SA01","hd":"65","v_score":"3.93832808","decile":"6","lat":40.081435692938776,"lng":-111.6709428357165},{"vid":"5ca27403957087854b4b25f7ebba1e623fdc7fae962f6c8f9bc6b0424e936b80","name":"Dr. Amos Runolfsson II","party":"Dem","address":"686 N 220 E, Salem, UT 84653","precinct":"25SA01","hd":"65","v_score":"9.03120571","decile":"8","lat":40.065160609811514,"lng":-111.66886848370132},{"vid":"6028910","name":"Mr. Scot Schuster II","party":"","address":"1758 N Sparrow Way, Salem, UT 84653","precinct":"25SA01","hd":"65","v_score":"1.193887297","decile":"4","lat":40.081663741105004,"lng":-111.66792386511857},{"vid":"6082520","name":"Miss Artelia Cole","party":"","address":"1721 N Pintail Cv, Salem, UT 84653","precinct":"25SA01","hd":"65","v_score":"8.347511332","decile":"8","lat":40.08099525644608,"lng":-111.67683371357288},{"vid":"6086872","name":"Dr. Wilfred O'Connell Sr.","party":"Rep","address":"369 E Salem Park Cir, Salem, UT 84653","precinct":"25SA01","hd":"65","v_score":"8.280646305","decile":"8","lat":40.08101211808354,"lng":-111.66553773700078},{"vid":"6153669","name":"Mrs. Toni Douglas DDS","party":"","address":"1686 N Wood Thrush Cv, Salem, UT 84653","precinct":"25SA01","hd":"65","v_score":"2.315214949","decile":"5","lat":40.08057955625833,"lng":-111.66990121313299},{"vid":"d0e76c8329fe2bea1337243b7335b15b132b67b994db266c97799e72b074b1a9","name":"Leta Heidenreich","party":"Rep","address":"716 N 150 E, Salem, UT 84653","precinct":"25SA01","hd":"65","v_score":"2.660162957","decile":"5","lat":40.06555428467748,"lng":-111.66989515965564},{"vid":"6172354","name":"Lenna Dach","party":"Rep","address":"1509 N 1750 W, Salem, UT 84653","precinct":"25SA01","hd":"65","v_score":"1.193887297","decile":"4","lat":40.07823401022122,"lng":-111.70924533536169},{"vid":"6173250","name":"Devan Thompson PhD","party":"","address":"234 W 360 N, Salem, UT 84653","precinct":"25SA01","hd":"65","v_score":"5.530510904","decile":"7","lat":40.0603617647813,"lng":-111.67795940239121},{"vid":"6202603","name":"Doshia Raynor PhD","party":"Rep","address":"95 E 400 N, Salem, UT 84653","precinct":"25SA01","hd":"65","v_score":"9.616113056","decile":"8","lat":40.06088657961196,"lng":-111.6714396782989},{"vid":"6208224","name":"Jovany Corwin","party":"Dem","address":"721 N 220 E, Salem, UT 84653","precinct":"25SA01","hd":"65","v_score":"4.694582103","decile":"7","lat":40.06564225494705,"lng":-111.66932659829536},{"vid":"6209358","name":"Dr. Rahn Abernathy","party":"Rep","address":"348 E Salem Park Cir, Salem, UT 84653","precinct":"25SA01","hd":"65","v_score":"2.315214949","decile":"5","lat":40.080520895859145,"lng":-111.66608012413862},{"vid":"6211178","name":"Juan Walter","party":"Rep","address":"1711 N 460 W, Salem, UT 84653","precinct":"25SA01","hd":"65","v_score":"14.32268247","decile":"9","lat":40.08178885304466,"lng":-111.68402460233168},{"vid":"6214345","name":"Dr. Reed Trantow II","party":"Dem","address":"217 N 460 W, Salem, UT 84653","precinct":"25SA01","hd":"65","v_score":"1.121327652","decile":"3","lat":40.05804015304576,"lng":-111.68362067077683},{"vid":"6219205","name":"Jannette Will","party":"","address":"381 W 90 S, Salem, UT 84653","precinct":"25SA01","hd":"65","v_score":"5.40460374","decile":"7","lat":40.05379287239619,"lng":-111.68106055055792},{"vid":"6220146","name":"Luca Considine","party":"Rep","address":"338 E Snowy Egret Dr, Salem, UT 84653","precinct":"25SA01","hd":"65","v_score":"6.881235673","decile":"8","lat":40.08247789645702,"lng":-111.66624959994081},{"vid":"6235657","name":"Oneta Gutmann","party":"","address":"255 W 360 N, Salem, UT 84653","precinct":"25SA01","hd":"65","v_score":"25.56043125","decile":"10","lat":40.0601067719158,"lng":-111.67837474433719},{"vid":"6240671","name":"Mauro Kuhlman","party":"Dem","address":"1038 W 1500 N, Salem, UT 84653","precinct":"25SA01","hd":"65","v_score":"1.193887297","decile":"4","lat":40.07912309334342,"lng":-111.69386760661772},{"vid":"06cf646a89226c13a70a33787bd691c26b74d01df1fadf14217d744f038748fa","name":"Meyer Metz","party":"Rep","address":"91 E Salem Park Cir, Salem, UT 84653","precinct":"25SA01","hd":"65","v_score":"32.66968697","decile":"10","lat":40.081561234756734,"lng":-111.67112798901228},{"vid":"6248780","name":"Alijah Sawayn","party":"Rep","address":"430 N Main St, Salem, UT 84653","precinct":"25SA01","hd":"65","v_score":"3.93832808","decile":"6","lat":40.13439508593156,"lng":-111.57834899733501},{"vid":"0584a391e4252414da8fab47cc8ce6e292325da78f8d0fb7c9b951f932c54c40","name":"Vere Schneider Jr.","party":"Dem","address":"91 E Salem Park Cir, Salem, UT 84653","precinct":"25SA01","hd":"65","v_score":"30.75337554","decile":"10","lat":40.081561234756734,"lng":-111.67112798901228},{"vid":"6251902","name":"Mr. Steve Oberbrunner","party":"Rep","address":"1634 N Westview Ln, Salem, UT 84653","precinct":"25SA01","hd":"65","v_score":"26.55039637","decile":"10","lat":40.08032754006014,"lng":-111.67889533041861},{"vid":"6258268","name":"Aurelia Dare","party":"","address":"42 W 400 N, Salem, UT 84653","precinct":"25SA01","hd":"65","v_score":"5.659072284","decile":"7","lat":40.061007803115466,"lng":-111.6741092219809},{"vid":"6258269","name":"Warner Terry","party":"","address":"42 W 400 N, Salem, UT 84653","precinct":"25SA01","hd":"65","v_score":"18.29267428","decile":"10","lat":40.061007803115466,"lng":-111.6741092219809},{"vid":"6263864","name":"Gillie Kling-Watsica","party":"","address":"123 S 500 W, Salem, UT 84653","precinct":"25SA01","hd":"65","v_score":"8.280646305","decile":"8","lat":40.05278666987507,"lng":-111.68358230786329},{"vid":"6264736","name":"Derik Kulas DVM","party":"","address":"264 W Dunlin Dr, Salem, UT 84653","precinct":"25SA01","hd":"65","v_score":"10.52632313","decile":"9","lat":40.07958564579505,"lng":-111.67661450225395},{"vid":"cc785615370dc6045472f97ae6e11e7a4132794bec695c9462742a90f37de721","name":"Truman Schimmel MD","party":"Dem","address":"108 W 400 N, Salem, UT 84653","precinct":"25SA01","hd":"65","v_score":"25.23227905","decile":"10","lat":40.06107127887934,"lng":-111.67535540596613},{"vid":"6271277","name":"Chantelle Gleason DDS","party":"","address":"86 N 460 W, Salem, UT 84653","precinct":"25SA01","hd":"65","v_score":"5.40460374","decile":"7","lat":40.055831925582766,"lng":-111.68186249275155},{"vid":"6271324","name":"Dr. Ingram Spinka","party":"","address":"217 N 460 W, Salem, UT 84653","precinct":"25SA01","hd":"65","v_score":"3.93832808","decile":"6","lat":40.05804015304576,"lng":-111.68362067077683},{"vid":"6271605","name":"Mrs. Marybelle Trantow","party":"","address":"1692 N Sandpiper Dr, Salem, UT 84653","precinct":"25SA01","hd":"65","v_score":"24.74993694","decile":"10","lat":40.080622815232566,"lng":-111.67691266184195},{"vid":"6273507","name":"Governor Hettinger","party":"Dem","address":"722 N 150 E, Salem, UT 84653","precinct":"25SA01","hd":"65","v_score":"2.315214949","decile":"5","lat":40.06565973430531,"lng":-111.66988996958918},{"vid":"6279132","name":"Nelson Dare","party":"Dem","address":"335 E Snowy Egret Dr, Salem, UT 84653","precinct":"25SA01","hd":"65","v_score":"6.550708384","decile":"7","lat":40.08293727208644,"lng":-111.66631536578242},{"vid":"6285881","name":"Florie Feil","party":"Dem","address":"1736 N Warbler Rd, Salem, UT 84653","precinct":"25SA01","hd":"65","v_score":"7.493443096","decile":"8","lat":40.081333507427075,"lng":-111.664777964032},{"vid":"6296131","name":"Ezzard Kuvalis","party":"Rep","address":"497 N Main St, Salem, UT 84653","precinct":"25SA01","hd":"65","v_score":"20.7369877","decile":"10","lat":40.062364280047824,"lng":-111.67403636876111},{"vid":"6306098","name":"Candace Mayer DDS","party":"","address":"556 W 1760 N, Salem, UT 84653","precinct":"25SA01","hd":"65","v_score":"10.22509301","decile":"9","lat":40.08195812297928,"lng":-111.68457807490472},{"vid":"6307373","name":"Nat Boyle","party":"","address":"1013 N 350 E, Salem, UT 84653","precinct":"25SA01","hd":"65","v_score":"3.781490609","decile":"6","lat":40.069941992035865,"lng":-111.66633565207717},{"vid":"04d3c03aa8d201c1ec7302ff9d8369a21d4442423648b4bee4c810276c4634d2","name":"Fleta Ullrich","party":"","address":"1671 N Wood Thrush Cv, Salem, UT 84653","precinct":"25SA01","hd":"65","v_score":"5.40460374","decile":"7","lat":40.080323926044784,"lng":-111.67040728445802},{"vid":"2ae68d822a0e2c71381b8b95156da83587714183fc77c26884e0f98db2e3fbbd","name":"Levie Beier I","party":"","address":"290 S 500 W, Salem, UT 84653","precinct":"25SA01","hd":"65","v_score":"6.724398202","decile":"8","lat":40.05079447592168,"lng":-111.68385709657983},{"vid":"6314229","name":"Concha Price","party":"Rep","address":"87 W 400 N, Salem, UT 84653","precinct":"25SA01","hd":"65","v_score":"15.14191205","decile":"9","lat":40.060221455553986,"lng":-111.67499798652666},{"vid":"6324553","name":"Mrs. Louisiana Reichert","party":"Dem","address":"1707 N Sandpiper Dr, Salem, UT 84653","precinct":"25SA01","hd":"65","v_score":"8.363183621","decile":"8","lat":40.08046815753686,"lng":-111.67768886793301},{"vid":"6330125","name":"Fitzhugh Schneider","party":"","address":"328 E Salem Park Cir, Salem, UT 84653","precinct":"25SA01","hd":"65","v_score":"0","decile":"3","lat":40.08058527389888,"lng":-111.66635797431367},{"vid":"d83415160efa95703b7ca66f442196fd70dce1c8b5145c32dd8c29fd01f07805","name":"Ms. Theda Sanford","party":"Dem","address":"450 N Main St, Salem, UT 84653","precinct":"25SA01","hd":"65","v_score":"29.80562171","decile":"10","lat":40.11557430734189,"lng":-111.65412909704969},{"vid":"6333356","name":"Zigmund Legros-Rippin","party":"","address":"450 N Main St, Salem, UT 84653","precinct":"25SA01","hd":"65","v_score":"36.0608092","decile":"10","lat":40.11557430734189,"lng":-111.65412909704969},{"vid":"0c72fe887ea10e7827889b13f1b4570941b7d97eb5fe6f09913505bc8da7cb43","name":"Pearly Kling-Barrows","party":"Dem","address":"50 S 500 W, Salem, UT 84653","precinct":"25SA01","hd":"65","v_score":"22.20326336","decile":"10","lat":40.05347565974587,"lng":-111.68543206156352},{"vid":"6335360","name":"Jaxton Block","party":"","address":"485 N Main St, Salem, UT 84653","precinct":"25SA01","hd":"65","v_score":"18.91187591","decile":"10","lat":40.062039239738915,"lng":-111.6738159775865},{"vid":"6336579","name":"Mr. Stetson Schoen","party":"","address":"485 N Main St, Salem, UT 84653","precinct":"25SA01","hd":"65","v_score":"29.71097489","decile":"10","lat":40.062039239738915,"lng":-111.6738159775865},{"vid":"6337290","name":"Frona Champlin","party":"","address":"505 N Main St, Salem, UT 84653","precinct":"25SA01","hd":"65","v_score":"21.07046927","decile":"10","lat":40.06243172467722,"lng":-111.67359498082759},{"vid":"6342362","name":"Eithel Aufderhar-Heaney","party":"","address":"721 N 220 E, Salem, UT 84653","precinct":"25SA01","hd":"65","v_score":"8.347511332","decile":"8","lat":40.06564225494705,"lng":-111.66932659829536},{"vid":"6347829","name":"Cammie Schmidt","party":"","address":"595 S 1040 W, Salem, UT 84653","precinct":"25SA01","hd":"65","v_score":"5.40460374","decile":"7","lat":40.046586625838955,"lng":-111.69381298994678},{"vid":"6347830","name":"Kurtis Cummerata","party":"","address":"595 S 1040 W, Salem, UT 84653","precinct":"25SA01","hd":"65","v_score":"5.40460374","decile":"7","lat":40.046586625838955,"lng":-111.69381298994678},{"vid":"6352015","name":"Franz Dooley","party":"","address":"103 E 400 N, Salem, UT 84653","precinct":"25SA01","hd":"65","v_score":"30.7921053","decile":"10","lat":40.06088315362286,"lng":-111.67120784683958},{"vid":"6361448","name":"Leroy Hoppe","party":"","address":"87 W 400 N, Salem, UT 84653","precinct":"25SA01","hd":"65","v_score":"31.38374128","decile":"10","lat":40.060221455553986,"lng":-111.67499798652666},{"vid":"6366564","name":"Beda Leannon","party":"Dem","address":"95 E 400 N, Salem, UT 84653","precinct":"25SA01","hd":"65","v_score":"11.23922619","decile":"9","lat":40.06088657961196,"lng":-111.6714396782989},{"vid":"6369177","name":"Mr. Alfie Kirlin MD","party":"","address":"1721 N Pintail Cv, Salem, UT 84653","precinct":"25SA01","hd":"65","v_score":"5.40460374","decile":"7","lat":40.08099525644608,"lng":-111.67683371357288},{"vid":"6369185","name":"Hyman Gorczany","party":"Dem","address":"1736 N Warbler Rd, Salem, UT 84653","precinct":"25SA01","hd":"65","v_score":"9.116556227","decile":"8","lat":40.081333507427075,"lng":-111.664777964032},{"vid":"6381190","name":"Elena Koelpin","party":"Dem","address":"114 W Willet Dr, Salem, UT 84653","precinct":"25SA01","hd":"65","v_score":"23.66550015","decile":"10","lat":40.08282863120358,"lng":-111.67514736611761},{"vid":"1bb87348823159c1deffff12d4b9cfa5502f080847a4762fe73558d23ab731ab","name":"Manning Feest","party":"Rep","address":"239 N 460 W, Salem, UT 84653","precinct":"25SA01","hd":"65","v_score":"3.781490609","decile":"6","lat":40.05831377071295,"lng":-111.68401794190773},{"vid":"6389156","name":"Trinity Johnson","party":"Rep","address":"1711 N 460 W, Salem, UT 84653","precinct":"25SA01","hd":"65","v_score":"14.32268247","decile":"9","lat":40.08178885304466,"lng":-111.68402460233168},{"vid":"6391193","name":"Woodrow McClure-Durgan","party":"","address":"187 W Dunlin Dr, Salem, UT 84653","precinct":"25SA01","hd":"65","v_score":"12.46030499","decile":"9","lat":40.081121829498464,"lng":-111.67568394778547},{"vid":"6392496","name":"Hymen Hoppe","party":"","address":"1689 N Wood Thrush Cv, Salem, UT 84653","precinct":"25SA01","hd":"65","v_score":"8.363183621","decile":"8","lat":40.08065949791671,"lng":-111.67029281069503},{"vid":"6393620","name":"Ines Ryan","party":"Dem","address":"412 E Salem Park Cir, Salem, UT 84653","precinct":"25SA01","hd":"65","v_score":"5.40460374","decile":"7","lat":40.080529119436626,"lng":-111.66467284766904},{"vid":"6413176","name":"Prudence Lynch","party":"","address":"385 N 280 W, Salem, UT 84653","precinct":"25SA01","hd":"65","v_score":"9.248158009","decile":"8","lat":40.06060454224009,"lng":-111.6790006577407},{"vid":"6414035","name":"Donnie Lockman","party":"","address":"392 E 1480 N, Salem, UT 84653","precinct":"25SA01","hd":"65","v_score":"16.61838167","decile":"9","lat":40.07701144349506,"lng":-111.66497786721017},{"vid":"6415374","name":"Jeffry Roberts","party":"Rep","address":"735 N 150 E, # 67, Salem, UT 84653","precinct":"25SA01","hd":"65","v_score":"1.121327652","decile":"3","lat":40.06599326602435,"lng":-111.67027413531817},{"vid":"6416380","name":"Mr. Mark Runte","party":"","address":"124 W Willet Dr, Salem, UT 84653","precinct":"25SA01","hd":"65","v_score":"1.193887297","decile":"4","lat":40.08278862678614,"lng":-111.67538228640531},{"vid":"6416706","name":"Bell Kub","party":"Rep","address":"265 E Salem Park Cir, Salem, UT 84653","precinct":"25SA01","hd":"65","v_score":"1.121327652","decile":"3","lat":40.08095681723438,"lng":-111.66746362012151},{"vid":"6417837","name":"Jonnie Ruecker","party":"","address":"508 N Main St, Salem, UT 84653","precinct":"25SA01","hd":"65","v_score":"7.169296324","decile":"8","lat":40.0624071792521,"lng":-111.67301388294851},{"vid":"6432773","name":"Dr. Normand Bayer IV","party":"","address":"441 N Main St, Salem, UT 84653","precinct":"25SA01","hd":"65","v_score":"5.40460374","decile":"7","lat":40.06137986258158,"lng":-111.6737037520312},{"vid":"6434365","name":"Orvis Schaefer","party":"Dem","address":"252 W 360 N, Salem, UT 84653","precinct":"25SA01","hd":"65","v_score":"6.954919332","decile":"8","lat":40.06047387133251,"lng":-111.67832184740102},{"vid":"f5c2ab128c58e8a8110d3d992a43eb3e2fadd3fcca114f930bf490c4e5938af2","name":"Mrs. Cayla Schultz DVM","party":"Dem","address":"239 N 460 W, Salem, UT 84653","precinct":"25SA01","hd":"65","v_score":"5.40460374","decile":"7","lat":40.05831377071295,"lng":-111.68401794190773},{"vid":"6437828","name":"Refugio Murazik","party":"","address":"1652 N Westview Ln, Salem, UT 84653","precinct":"25SA01","hd":"65","v_score":"7.650280567","decile":"8","lat":40.0806955393506,"lng":-111.67920033230037},{"vid":"6438834","name":"Cherri Graham","party":"Rep","address":"1238 N 1750 W, Salem, UT 84653","precinct":"25SA01","hd":"65","v_score":"4.210716443","decile":"7","lat":40.076021850267345,"lng":-111.70565049259142},{"vid":"6439957","name":"Lennon Gorczany DDS","party":"Rep","address":"143 E Salem Park Cir, Salem, UT 84653","precinct":"25SA01","hd":"65","v_score":"1.46627566","decile":"4","lat":40.08106108927837,"lng":-111.66999064657784},{"vid":"6444428","name":"Jalissa Langworth","party":"Rep","address":"691 N 150 E, Salem, UT 84653","precinct":"25SA01","hd":"65","v_score":"4.283276088","decile":"7","lat":40.065221143871106,"lng":-111.6703396901555},{"vid":"6446209","name":"Mrs. Miriam Kshlerin","party":"Dem","address":"1226 N 290 E, Salem, UT 84653","precinct":"25SA01","hd":"65","v_score":"0","decile":"3","lat":40.07323195915522,"lng":-111.66719086513285},{"vid":"6453668","name":"Horton Satterfield","party":"Rep","address":"1749 N Curlew Way, Salem, UT 84653","precinct":"25SA01","hd":"65","v_score":"18.19442671","decile":"10","lat":40.08147090878947,"lng":-111.66637723760694},{"vid":"e00cfdc20e424937484a5be3fe7cdb2cd0e9b138f90d64b13e667505f2c3304d","name":"Mr. Michial Fahey II","party":"Rep","address":"88 S 500 W, Salem, UT 84653","precinct":"25SA01","hd":"65","v_score":"5.191257514","decile":"7","lat":40.052972061362134,"lng":-111.68507914265366},{"vid":"6458896","name":"Adonis Reichel","party":"","address":"178 E Salem Park Cir, Salem, UT 84653","precinct":"25SA01","hd":"65","v_score":"8.280646305","decile":"8","lat":40.08046865106117,"lng":-111.6693438018792},{"vid":"6463997","name":"Beecher Tillman IV","party":"Rep","address":"250 W Center St, Salem, UT 84653","precinct":"25SA01","hd":"65","v_score":"24.74649836","decile":"10","lat":40.054992987756265,"lng":-111.67827618064524},{"vid":"6464437","name":"Miss Shelva Boyer DDS","party":"Dem","address":"203 N 460 W, Salem, UT 84653","precinct":"25SA01","hd":"65","v_score":"6.657533174","decile":"7","lat":40.05776299111,"lng":-111.68361510086275},{"vid":"6468333","name":"Arvin Monahan","party":"Rep","address":"1765 N Warbler Rd, Salem, UT 84653","precinct":"25SA01","hd":"65","v_score":"3.781490609","decile":"6","lat":40.081772511632764,"lng":-111.66543114390413},{"vid":"6479963","name":"Theodora Maggio","party":"Dem","address":"722 N 150 E, Salem, UT 84653","precinct":"25SA01","hd":"65","v_score":"2.315214949","decile":"5","lat":40.06565973430531,"lng":-111.66988996958918},{"vid":"6481777","name":"Billy O'Connell DVM","party":"Dem","address":"1604 N Summer Springs Cv, Woodland Hills, UT 84653","precinct":"25SA01","hd":"65","v_score":"5.40460374","decile":"7","lat":40.07934336916945,"lng":-111.69061249309344},{"vid":"6483426","name":"Mr. Ovila Hagenes V","party":"","address":"103 E 400 N, Salem, UT 84653","precinct":"25SA01","hd":"65","v_score":"27.8491977","decile":"10","lat":40.06088315362286,"lng":-111.67120784683958},{"vid":"6484675","name":"Eino Jast III","party":"","address":"712 N 220 E, Salem, UT 84653","precinct":"25SA01","hd":"65","v_score":"6.550708384","decile":"7","lat":40.065509450462905,"lng":-111.6688624092335},{"vid":"6484895","name":"Dana Cormier","party":"","address":"1226 N 290 E, Salem, UT 84653","precinct":"25SA01","hd":"65","v_score":"0","decile":"3","lat":40.07323195915522,"lng":-111.66719086513285},{"vid":"985e1c237a321485a7cc8293fd6e154bc0caed9aec67a9b43c77140da47c75ad","name":"Christine Mayer","party":"Rep","address":"1781 N 290 E, Salem, UT 84653","precinct":"25SA01","hd":"65","v_score":"5.40460374","decile":"7","lat":40.081965189687836,"lng":-111.66738181936711},{"vid":"6488831","name":"Tawanda Welch","party":"Rep","address":"159 E Salem Park Cir, Salem, UT 84653","precinct":"25SA01","hd":"65","v_score":"2.315214949","decile":"5","lat":40.081009735627234,"lng":-111.66966318955964},{"vid":"6488869","name":"Orah Berge","party":"Rep","address":"329 E Salem Park Cir, Salem, UT 84653","precinct":"25SA01","hd":"65","v_score":"5.40460374","decile":"7","lat":40.08095531154977,"lng":-111.66628796127056},{"vid":"6489083","name":"Mr. Zion Roberts","party":"Rep","address":"387 E Snowy Egret Dr, Salem, UT 84653","precinct":"25SA01","hd":"65","v_score":"1.193887297","decile":"4","lat":40.082863830047366,"lng":-111.66521510975745},{"vid":"6489099","name":"Mrs. Noretta West DDS","party":"Rep","address":"387 E Snowy Egret Dr, Salem, UT 84653","precinct":"25SA01","hd":"65","v_score":"1.193887297","decile":"4","lat":40.082863830047366,"lng":-111.66521510975745},{"vid":"6490284","name":"Dr. Dan Hirthe DVM","party":"Rep","address":"172 E 660 N, Salem, UT 84653","precinct":"25SA01","hd":"65","v_score":"12.65668843","decile":"9","lat":40.06465512823787,"lng":-111.66980275812705},{"vid":"6491141","name":"Mr. Glen Kessler DVM","party":"Dem","address":"313 E 1100 N, Salem, UT 84653","precinct":"25SA01","hd":"65","v_score":"0","decile":"3","lat":40.07146918534314,"lng":-111.66691536493374},{"vid":"879d6bb74d5599f2b95c7e6b1c28a0fb537bd807e0287741c121f955b4be4549","name":"Hazle Gerlach","party":"Rep","address":"687 N 150 E, Salem, UT 84653","precinct":"25SA01","hd":"65","v_score":"10.67330764","decile":"9","lat":40.065155419359016,"lng":-111.67032686577659},{"vid":"6493271","name":"Levin Hagenes V","party":"","address":"211 E 730 N, Salem, UT 84653","precinct":"25SA01","hd":"65","v_score":"3.997370217","decile":"6","lat":40.065961959024115,"lng":-111.66922346945493},{"vid":"6493684","name":"Kody Heller","party":"Dem","address":"1811 N 290 E, Salem, UT 84653","precinct":"25SA01","hd":"65","v_score":"4.192796624","decile":"7","lat":40.08250450501204,"lng":-111.66732954496634},{"vid":"6499233","name":"Jaydin Morissette","party":"","address":"1604 N Summer Springs Cv, Woodland Hills, UT 84653","precinct":"25SA01","hd":"65","v_score":"5.40460374","decile":"7","lat":40.07934336916945,"lng":-111.69061249309344},{"vid":"fd2eb81e98ca3b1f3654633cf8170620f568f91e2f74e3868eafd9474a448064","name":"Ilene Schowalter","party":"Dem","address":"126 S Sheen Rd, Salem, UT 84653","precinct":"25SA01","hd":"65","v_score":"20.51100492","decile":"10","lat":40.05207274253492,"lng":-111.6837989996558},{"vid":"6518604","name":"Chantel Hills-Stroman","party":"Rep","address":"412 E Salem Park Cir, Salem, UT 84653","precinct":"25SA01","hd":"65","v_score":"5.40460374","decile":"7","lat":40.080529119436626,"lng":-111.66467284766904},{"vid":"6521186","name":"Curtis Collier","party":"Dem","address":"1638 N Westview Ln, Salem, UT 84653","precinct":"25SA01","hd":"65","v_score":"1.193887297","decile":"4","lat":40.08042085045394,"lng":-111.67896952116526},{"vid":"6523195","name":"Mima Blick","party":"Dem","address":"335 E Snowy Egret Dr, Salem, UT 84653","precinct":"25SA01","hd":"65","v_score":"6.550708384","decile":"7","lat":40.08293727208644,"lng":-111.66631536578242},{"vid":"6528223","name":"Shana Hills","party":"","address":"114 W Willet Dr, Salem, UT 84653","precinct":"25SA01","hd":"65","v_score":"6.954919332","decile":"8","lat":40.08282863120358,"lng":-111.67514736611761},{"vid":"6e65e81a83d086dc64b2cedc78c9c2e696d99f23bfa49e0b6a7734e1ff41dd4c","name":"Mena Rolfson DDS","party":"","address":"340 N 280 W, Salem, UT 84653","precinct":"25SA01","hd":"65","v_score":"27.8491977","decile":"10","lat":40.05983929957105,"lng":-111.67866231175903},{"vid":"6531887","name":"Mckinley Gleason","party":"","address":"1764 N Warbler Rd, Salem, UT 84653","precinct":"25SA01","hd":"65","v_score":"11.29723756","decile":"9","lat":40.08176023972119,"lng":-111.66496904841907},{"vid":"b1cbad3878e10e1559afa8bf492394acfb65d3a10f58f95470bd121486028f17","name":"Shellie Prosacco","party":"","address":"1782 N Warbler Rd, Salem, UT 84653","precinct":"25SA01","hd":"65","v_score":"3.93832808","decile":"6","lat":40.08202727389744,"lng":-111.66507506974914}]