[{"vid":"1235543","name":"Jaquez Beier","party":"Dem","address":"3346 W 5200 S, Spanish Fork, UT 84660","precinct":"25SE21","hd":"64","v_score":"0","decile":"1","lat":40.13881955761646,"lng":-111.73483335586484},{"vid":"1416764","name":"Dr. Roxann Upton PhD","party":"","address":"6181 S 4400 W, Lake Shore, UT 84660","precinct":"25SE21","hd":"64","v_score":"2.315214949","decile":"5","lat":40.119515748983694,"lng":-111.75757191129787},{"vid":"1481682","name":"Dr. Ashely Donnelly MD","party":"Rep","address":"6249 S 3200 W, Lake Shore, UT 84660","precinct":"25SE21","hd":"64","v_score":"0","decile":"1","lat":40.11754016345755,"lng":-111.72864802468271},{"vid":"1500890","name":"Heidi Hermiston-Fahey","party":"","address":"2434 W 5600 S, Lake Shore, UT 84660","precinct":"25SE21","hd":"64","v_score":"3.93832808","decile":"6","lat":40.12994221140325,"lng":-111.71151206195377},{"vid":"1579284","name":"Jaycie Adams","party":"Rep","address":"3726 W 6400 S, Lake Shore, UT 84660","precinct":"25SE21","hd":"64","v_score":"3.781490609","decile":"6","lat":40.115746055297016,"lng":-111.74340003207806},{"vid":"1655426","name":"Sina Kassulke","party":"Dem","address":"4345 S 3200 W, Lake Shore, UT 84660","precinct":"25SE21","hd":"64","v_score":"6.481563075","decile":"7","lat":40.15163728457627,"lng":-111.72892096434984},{"vid":"1664444","name":"Martez Murray","party":"","address":"3724 W 5600 S, Spanish Fork, UT 84660","precinct":"25SE21","hd":"64","v_score":"9.699007114","decile":"8","lat":40.13055101001273,"lng":-111.74289089163378},{"vid":"1696818","name":"Sincere Beahan II","party":"","address":"4495 S 3200 W, Lake Shore, UT 84660","precinct":"25SE21","hd":"64","v_score":"2.315214949","decile":"5","lat":40.148852070840455,"lng":-111.73116536436358},{"vid":"1704371","name":"Lucetta Bode","party":"Dem","address":"3374 W 6400 S, Lake Shore, UT 84660","precinct":"25SE21","hd":"64","v_score":"2.315214949","decile":"5","lat":40.11531387672139,"lng":-111.73461546853909},{"vid":"1786399","name":"Mrs. Lulu Waelchi","party":"Dem","address":"2686 W 6000 S, Lake Shore, UT 84660","precinct":"25SE21","hd":"64","v_score":"13.31675312","decile":"9","lat":40.12267683591157,"lng":-111.71723297480577},{"vid":"1867486","name":"Thurlow Sipes","party":"","address":"2686 W 6000 S, Lake Shore, UT 84660","precinct":"25SE21","hd":"64","v_score":"1.193887297","decile":"3","lat":40.12267683591157,"lng":-111.71723297480577},{"vid":"1881426","name":"Bobbie Bashirian IV","party":"","address":"3145 W 5600 S, Lake Shore, UT 84660","precinct":"25SE21","hd":"64","v_score":"9.03120571","decile":"8","lat":40.12863619580227,"lng":-111.72940055533098},{"vid":"ec18313d527505591a81d0d8b89decae4d0bdcabb28f76f35868a7ff3ed4ab8a","name":"Mrs. Villa Miller PhD","party":"","address":"3534 W 5600 S, Lake Shore, UT 84660","precinct":"25SE21","hd":"64","v_score":"1.46627566","decile":"4","lat":40.130481848820544,"lng":-111.73870774563818},{"vid":"1961052","name":"Devante Leuschke","party":"","address":"3064 W 6400 S, Lake Shore, UT 84660","precinct":"25SE21","hd":"64","v_score":"4.192796624","decile":"7","lat":40.115814240913465,"lng":-111.72710644493066},{"vid":"1968287","name":"Johnie Beahan","party":"","address":"2112 W 6400 S, Lake Shore, UT 84660","precinct":"25SE21","hd":"64","v_score":"15.88669964","decile":"9","lat":40.11543202404291,"lng":-111.7050229034229},{"vid":"1992464","name":"Vicky Powlowski","party":"Dem","address":"2845 W 5600 S, Lake Shore, UT 84660","precinct":"25SE21","hd":"64","v_score":"5.287675778","decile":"7","lat":40.128055049540976,"lng":-111.72194060842895},{"vid":"1993094","name":"Orlando Spinka","party":"Dem","address":"2992 W 5600 S, Lake Shore, UT 84660","precinct":"25SE21","hd":"64","v_score":"2.587603312","decile":"5","lat":40.129398594061115,"lng":-111.7254336786053},{"vid":"0a13ced1936acbf5c8cce71308d7eb136607abc791744b2b5979b1af2c053eeb","name":"Ms. Gracie Bogisich","party":"Dem","address":"2149 W River Dr, Lake Shore, UT 84660","precinct":"25SE21","hd":"64","v_score":"2.315214949","decile":"5","lat":40.12150745313119,"lng":-111.70529947430828},{"vid":"2006563","name":"Rube Donnelly","party":"","address":"2633 W 6000 S, Lake Shore, UT 84660","precinct":"25SE21","hd":"64","v_score":"0","decile":"1","lat":40.12012300972667,"lng":-111.71643693158136},{"vid":"1fdc680f9cf0ce9fbd2c4e6fcae199a1c308d060c4f1fa8d8e80ec496df67b76","name":"Bert Ebert-Crist","party":"","address":"4022 W 5600 S, Lake Shore, UT 84660","precinct":"25SE21","hd":"64","v_score":"7.385975436","decile":"8","lat":40.129859287350314,"lng":-111.75033652338338},{"vid":"2077886","name":"Sumner Gottlieb","party":"","address":"3795 W 5200 S, Spanish Fork, UT 84660","precinct":"25SE21","hd":"64","v_score":"0","decile":"1","lat":40.13532995970739,"lng":-111.74398701643754},{"vid":"2135302","name":"Alyssia Jast DVM","party":"","address":"1836 W 6400 S, Lake Shore, UT 84660","precinct":"25SE21","hd":"64","v_score":"1.46627566","decile":"4","lat":40.11647439639744,"lng":-111.6990755294614},{"vid":"51bcf5d87562699472432b3b4e2bdaf748b52787a71aadd1c3b9b667733793ba","name":"Coen Konopelski","party":"Dem","address":"4076 W 5600 S, Lake Shore, UT 84660","precinct":"25SE21","hd":"64","v_score":"0","decile":"1","lat":40.13079637663097,"lng":-111.75065482674894},{"vid":"8b902e120f9203946eb1b87fadf02a823ab49fa6012a0532cd04f38fb6310827","name":"Ami Huels","party":"Rep","address":"6101 S 2400 W, Lake Shore, UT 84660","precinct":"25SE21","hd":"64","v_score":"0","decile":"1","lat":40.12054101398126,"lng":-111.70923617688761},{"vid":"2216683","name":"Alwina Heidenreich","party":"Dem","address":"3064 W 6400 S, Spanish Fork, UT 84660","precinct":"25SE21","hd":"64","v_score":"6.881235673","decile":"8","lat":40.115814240913465,"lng":-111.72710644493066},{"vid":"2277824","name":"Adalynn Cartwright","party":"","address":"5963 S 3200 W, Lake Shore, UT 84660","precinct":"25SE21","hd":"64","v_score":"0","decile":"1","lat":40.12255345915403,"lng":-111.73019382773754},{"vid":"8b8527d6003f48bb055ea6ce233ae196c8a2676088836c2dc118481e41ddcefd","name":"Reggie Schmeler","party":"Rep","address":"3858 W 6400 S, Spanish Fork, UT 84660","precinct":"25SE21","hd":"64","v_score":"3.737122292","decile":"6","lat":40.11583818486356,"lng":-111.74565840451767},{"vid":"2279788","name":"Leopold Moore","party":"Rep","address":"3692 W 5600 S, Lake Shore, UT 84660","precinct":"25SE21","hd":"64","v_score":"0","decile":"1","lat":40.12972793291532,"lng":-111.74225124376537},{"vid":"2350716","name":"Bridger Beatty-Eichmann","party":"Rep","address":"3425 W 6050 S, Benjamin, UT 84660","precinct":"25SE21","hd":"64","v_score":"3.93832808","decile":"6","lat":40.1209677105562,"lng":-111.73568591659699},{"vid":"2436551","name":"Avah Baumbach","party":"","address":"2633 W 6000 S, Lake Shore, UT 84660","precinct":"25SE21","hd":"64","v_score":"1.121327652","decile":"3","lat":40.12012300972667,"lng":-111.71643693158136},{"vid":"2453635","name":"Dr. Jettie Jakubowski DDS","party":"Dem","address":"4302 W 6000 S, Lake Shore, UT 84660","precinct":"25SE21","hd":"64","v_score":"2.315214949","decile":"5","lat":40.122326134811026,"lng":-111.75804332073353},{"vid":"2459644","name":"Kasen Gulgowski","party":"Dem","address":"3852 W 5600 S, Lake Shore, UT 84660","precinct":"25SE21","hd":"64","v_score":"1.193887297","decile":"3","lat":40.13010003588305,"lng":-111.74593829354362},{"vid":"2503287","name":"Mozelle Stehr","party":"","address":"3022 W 6400 S, Lake Shore, UT 84660","precinct":"25SE21","hd":"64","v_score":"0","decile":"1","lat":40.11531555942466,"lng":-111.72548220290199},{"vid":"2527441","name":"Karel Boyle-Roob","party":"Rep","address":"5310 S 3200 W, Lake Shore, UT 84660","precinct":"25SE21","hd":"64","v_score":"0","decile":"1","lat":40.13488694722717,"lng":-111.73226707080445},{"vid":"2586686","name":"Miss Djuana Collins","party":"Rep","address":"2845 W 5600 S, Lake Shore, UT 84660","precinct":"25SE21","hd":"64","v_score":"1.623113131","decile":"5","lat":40.128055049540976,"lng":-111.72194060842895},{"vid":"2622361","name":"Regan Streich-Zieme","party":"Dem","address":"3534 W 5600 S, Lake Shore, UT 84660","precinct":"25SE21","hd":"64","v_score":"2.817000428","decile":"6","lat":40.130481848820544,"lng":-111.73870774563818},{"vid":"2642529","name":"Mr. Harrell Torp","party":"Rep","address":"3534 W 5600 S, Lake Shore, UT 84660","precinct":"25SE21","hd":"64","v_score":"2.817000428","decile":"6","lat":40.130481848820544,"lng":-111.73870774563818},{"vid":"2653481","name":"Texanna Schuppe","party":"Rep","address":"2523 W 6000 S, Spanish Fork, UT 84660","precinct":"25SE21","hd":"64","v_score":"1.193887297","decile":"4","lat":40.12055111143912,"lng":-111.71425678375545},{"vid":"2672096","name":"Dr. Kerry Gibson","party":"","address":"4072 W 6400 S, Spanish Fork, UT 84660","precinct":"25SE21","hd":"64","v_score":"0","decile":"2","lat":40.11539905860236,"lng":-111.75149809750737},{"vid":"2686866","name":"Adrianne West MD","party":"","address":"6111 S 3200 W, Spanish Fork, UT 84660","precinct":"25SE21","hd":"64","v_score":"0","decile":"2","lat":40.119932078286716,"lng":-111.72999816247402},{"vid":"2688092","name":"Nancie Christiansen","party":"Rep","address":"4022 W 6400 S, Lake Shore, UT 84660","precinct":"25SE21","hd":"64","v_score":"0","decile":"2","lat":40.11588245106634,"lng":-111.75028154145741},{"vid":"2715480","name":"Ean Volkman V","party":"Rep","address":"4022 W 6400 S, Spanish Fork, UT 84660","precinct":"25SE21","hd":"64","v_score":"0","decile":"2","lat":40.11588245106634,"lng":-111.75028154145741},{"vid":"2715630","name":"Yee Jerde","party":"","address":"3242 W 6050 S, Spanish Fork, UT 84660","precinct":"25SE21","hd":"64","v_score":"0","decile":"2","lat":40.12247999113219,"lng":-111.73133104204881},{"vid":"2790061","name":"Blair Heidenreich PhD","party":"Dem","address":"6155 S 2400 W, Spanish Fork, UT 84660","precinct":"25SE21","hd":"64","v_score":"0","decile":"2","lat":40.11940983428736,"lng":-111.70891116447149},{"vid":"2792571","name":"Whitney Schinner","party":"","address":"3795 W 5200 S, Spanish Fork, UT 84660","precinct":"25SE21","hd":"64","v_score":"0","decile":"2","lat":40.13532995970739,"lng":-111.74398701643754},{"vid":"2823616","name":"Lorrayne Hammes","party":"Rep","address":"3242 W 6050 S, Spanish Fork, UT 84660","precinct":"25SE21","hd":"64","v_score":"0","decile":"2","lat":40.12247999113219,"lng":-111.73133104204881},{"vid":"2844372","name":"Antwon Pagac","party":"Dem","address":"2686 W 6000 S, Lake Shore, UT 84660","precinct":"25SE21","hd":"64","v_score":"1.193887297","decile":"4","lat":40.12267683591157,"lng":-111.71723297480577},{"vid":"2885770","name":"Shandra Ondricka","party":"Rep","address":"3692 W 5600 S, Spanish Fork, UT 84660","precinct":"25SE21","hd":"64","v_score":"1.193887297","decile":"4","lat":40.12972793291532,"lng":-111.74225124376537},{"vid":"2894060","name":"Emerson Windler","party":"Rep","address":"6245 S 3200 W, Spanish Fork, UT 84660","precinct":"25SE21","hd":"64","v_score":"0","decile":"2","lat":40.117583506778956,"lng":-111.72795881292512},{"vid":"2898917","name":"Linna Nitzsche","party":"Rep","address":"5795 S 3600 W, Spanish Fork, UT 84660","precinct":"25SE21","hd":"64","v_score":"0","decile":"2","lat":40.125878230262984,"lng":-111.73971285010234},{"vid":"2932212","name":"Monty Spinka","party":"","address":"3338 W 6050 S, Spanish Fork, UT 84660","precinct":"25SE21","hd":"64","v_score":"0","decile":"2","lat":40.12152110147051,"lng":-111.7339375832967},{"vid":"2936394","name":"Miya Bartell","party":"","address":"2686 W 6000 S, Spanish Fork, UT 84660","precinct":"25SE21","hd":"64","v_score":"0","decile":"2","lat":40.12267683591157,"lng":-111.71723297480577},{"vid":"3359551","name":"Isom Tillman","party":"","address":"4308 S 3200 W, Lake Shore, UT 84660","precinct":"25SE21","hd":"64","v_score":"7.947838735","decile":"8","lat":40.152679640199274,"lng":-111.73129012364788},{"vid":"6050797","name":"Santina Corwin","party":"Rep","address":"6004 S 3200 W, Lake Shore, UT 84660","precinct":"25SE21","hd":"64","v_score":"3.781490609","decile":"6","lat":40.12189647785836,"lng":-111.73073496911422},{"vid":"6159542","name":"Miss Yoshiko Sanford DDS","party":"Rep","address":"3858 W 6400 S, Spanish Fork, UT 84660","precinct":"25SE21","hd":"64","v_score":"17.32816772","decile":"9","lat":40.11583818486356,"lng":-111.74565840451767},{"vid":"7c8774c27871ec5ac871442ee9d87204f5f2ba11da1bf477c447d1667b9d8b22","name":"Dr. Jordi Lebsack","party":"Rep","address":"6207 S 2400 W, Lake Shore, UT 84660","precinct":"25SE21","hd":"64","v_score":"5.40460374","decile":"7","lat":40.11797024114713,"lng":-111.7093546213231},{"vid":"6211961","name":"Pheobe Rempel PhD","party":"Dem","address":"6181 S 4400 W, Lake Shore, UT 84660","precinct":"25SE21","hd":"64","v_score":"3.781490609","decile":"6","lat":40.119515748983694,"lng":-111.75757191129787},{"vid":"6212661","name":"Dr. Demario Russel Sr.","party":"Dem","address":"3534 W 5600 S, Spanish Fork, UT 84660","precinct":"25SE21","hd":"64","v_score":"5.40460374","decile":"7","lat":40.130481848820544,"lng":-111.73870774563818},{"vid":"da52a6b256b84471ed05e9f73cc281c895b9b7cb4ca3e39f7e7f3249707f4096","name":"Cris Morar","party":"","address":"5893 S 3200 W, Lake Shore, UT 84660","precinct":"25SE21","hd":"64","v_score":"5.546183193","decile":"7","lat":40.12395241866799,"lng":-111.72993464421725},{"vid":"f5027ae5f2daac30e4d7fb029af917682fc777a3cefbd7cc9e7dc72eb36971f1","name":"Kieran Wuckert","party":"","address":"3102 W 5600 S, Lake Shore, UT 84660","precinct":"25SE21","hd":"64","v_score":"8.347511332","decile":"8","lat":40.12951033203209,"lng":-111.72956654565405},{"vid":"6221091","name":"Hall Kemmer","party":"Rep","address":"6245 S 3200 W, Spanish Fork, UT 84660","precinct":"25SE21","hd":"64","v_score":"5.815909755","decile":"7","lat":40.117583506778956,"lng":-111.72795881292512},{"vid":"6223335","name":"Jule Koch-Schoen","party":"Dem","address":"3085 W 5600 S, Lake Shore, UT 84660","precinct":"25SE21","hd":"64","v_score":"5.40460374","decile":"7","lat":40.12822182017652,"lng":-111.72693962593587},{"vid":"228f62ae5de17bfa4c14f34b8695c7ea04e2a21cea7d58e7b39d1508e9bf0466","name":"Ismael Gorczany-Moen","party":"Dem","address":"5877 S 3200 W, Spanish Fork, UT 84660","precinct":"25SE21","hd":"64","v_score":"0","decile":"3","lat":40.124314683782394,"lng":-111.7299358573022},{"vid":"6223793","name":"Dr. Irvine Davis V","party":"","address":"3984 W 5600 S, Lake Shore, UT 84660","precinct":"25SE21","hd":"64","v_score":"5.40460374","decile":"7","lat":40.12939842454811,"lng":-111.7491395191656},{"vid":"6223796","name":"Todd Gerhold-Blanda","party":"Dem","address":"3984 W 5600 S, Lake Shore, UT 84660","precinct":"25SE21","hd":"64","v_score":"5.40460374","decile":"7","lat":40.12939842454811,"lng":-111.7491395191656},{"vid":"6231872","name":"Mr. Chalmers Littel","party":"Dem","address":"2471 W 6000 S, Lake Shore, UT 84660","precinct":"25SE21","hd":"64","v_score":"5.40460374","decile":"7","lat":40.12157168881148,"lng":-111.71298057699549},{"vid":"6240888","name":"Deontae Mills","party":"","address":"6005 S 3200 W, Spanish Fork, UT 84660","precinct":"25SE21","hd":"64","v_score":"1.193887297","decile":"4","lat":40.12176711611135,"lng":-111.73023521508148},{"vid":"6249492","name":"Damian Adams III","party":"","address":"3461 W 6050 S, Lake Shore, UT 84660","precinct":"25SE21","hd":"64","v_score":"1.121327652","decile":"3","lat":40.12033816842532,"lng":-111.73599008028866},{"vid":"9a47898e25e2bef9cb37130364a32ea9252058c8ab233c64209468d5fd930373","name":"Tracee Upton","party":"Dem","address":"3102 W 5600 S, Lake Shore, UT 84660","precinct":"25SE21","hd":"64","v_score":"3.781490609","decile":"6","lat":40.12951033203209,"lng":-111.72956654565405},{"vid":"6252421","name":"Margaretta Harvey MD","party":"Rep","address":"3692 W 6400 S, Lake Shore, UT 84660","precinct":"25SE21","hd":"64","v_score":"1.121327652","decile":"3","lat":40.115343078012906,"lng":-111.74182853728632},{"vid":"6263519","name":"Miss Hayleigh Waelchi PhD","party":"Rep","address":"6226 S 4000 W, Lake Shore, UT 84660","precinct":"25SE21","hd":"64","v_score":"5.40460374","decile":"7","lat":40.1178682248132,"lng":-111.75056040026084},{"vid":"6263520","name":"Ms. Candy Durgan","party":"","address":"6226 S 4000 W, Lake Shore, UT 84660","precinct":"25SE21","hd":"64","v_score":"5.40460374","decile":"7","lat":40.1178682248132,"lng":-111.75056040026084},{"vid":"6276561","name":"Cristina Schneider","party":"Rep","address":"4345 S 3200 W, Lake Shore, UT 84660","precinct":"25SE21","hd":"64","v_score":"2.315214949","decile":"5","lat":40.15163728457627,"lng":-111.72892096434984},{"vid":"6283896","name":"Franc Reinger","party":"Rep","address":"3534 W 5600 S, Lake Shore, UT 84660","precinct":"25SE21","hd":"64","v_score":"7.947838735","decile":"8","lat":40.130481848820544,"lng":-111.73870774563818},{"vid":"6297696","name":"Tennille Lubowitz DVM","party":"Dem","address":"5520 S 3200 W, Lake Shore, UT 84660","precinct":"25SE21","hd":"64","v_score":"5.40460374","decile":"7","lat":40.130933772725506,"lng":-111.73230332447368},{"vid":"6299255","name":"Mr. Austin Greenfelder Sr.","party":"Dem","address":"5381 S 3200 W, Lake Shore, UT 84660","precinct":"25SE21","hd":"64","v_score":"5.40460374","decile":"7","lat":40.14270683015496,"lng":-111.74024657518373},{"vid":"6299265","name":"Victory Bins","party":"","address":"5381 S 3200 W, Lake Shore, UT 84660","precinct":"25SE21","hd":"64","v_score":"5.40460374","decile":"7","lat":40.14270683015496,"lng":-111.74024657518373},{"vid":"6314627","name":"Sallie Bernhard","party":"Rep","address":"5992 S 3200 W, Lake Shore, UT 84660","precinct":"25SE21","hd":"64","v_score":"7.947838735","decile":"8","lat":40.1221265682675,"lng":-111.73073091681397},{"vid":"115ca89279aae9b4b121709b9b49938571a58f0d0a164e8e27ef853b2b46ef02","name":"Alfonzo Schowalter","party":"Rep","address":"3534 W 5600 S, Lake Shore, UT 84660","precinct":"25SE21","hd":"64","v_score":"5.40460374","decile":"7","lat":40.130481848820544,"lng":-111.73870774563818},{"vid":"6316343","name":"Clarissa Swaniawski","party":"","address":"5495 S 3200 W, Lake Shore, UT 84660","precinct":"25SE21","hd":"64","v_score":"16.15945023","decile":"9","lat":40.13104419879523,"lng":-111.73001887978042},{"vid":"6324065","name":"Johan Smitham-Blick","party":"Dem","address":"5495 S 3200 W, Spanish Fork, UT 84660","precinct":"25SE21","hd":"64","v_score":"3.93832808","decile":"6","lat":40.13104419879523,"lng":-111.73001887978042},{"vid":"6329094","name":"Elsa Nolan","party":"Dem","address":"5520 S 3200 W, Lake Shore, UT 84660","precinct":"25SE21","hd":"64","v_score":"3.781490609","decile":"6","lat":40.130933772725506,"lng":-111.73230332447368},{"vid":"6335095","name":"Mr. Male McGlynn Sr.","party":"Rep","address":"2312 W 5600 S, Lake Shore, UT 84660","precinct":"25SE21","hd":"64","v_score":"7.947838735","decile":"8","lat":40.13064082095842,"lng":-111.70967579812158},{"vid":"6337371","name":"Mr. Ramsey Welch III","party":"Dem","address":"2845 W 5600 S, Lake Shore, UT 84660","precinct":"25SE21","hd":"64","v_score":"7.153624035","decile":"8","lat":40.128055049540976,"lng":-111.72194060842895},{"vid":"6348552","name":"Theresa Dach","party":"Dem","address":"6229 S 2400 W, Lake Shore, UT 84660","precinct":"25SE21","hd":"64","v_score":"5.40460374","decile":"7","lat":40.11787293942022,"lng":-111.71101513942082},{"vid":"6353469","name":"Elmer Friesen","party":"Rep","address":"2561 W 6000 S, Lake Shore, UT 84660","precinct":"25SE21","hd":"64","v_score":"7.947838735","decile":"8","lat":40.12049475655466,"lng":-111.71526025567702},{"vid":"6363113","name":"Mr. Zion Willms","party":"","address":"2523 W 6000 S, Lake Shore, UT 84660","precinct":"25SE21","hd":"64","v_score":"3.93832808","decile":"6","lat":40.12055111143912,"lng":-111.71425678375545},{"vid":"6367694","name":"Spring Konopelski","party":"","address":"3575 W 6050 S, Lake Shore, UT 84660","precinct":"25SE21","hd":"64","v_score":"5.40460374","decile":"7","lat":40.11988586621893,"lng":-111.73924016630164},{"vid":"6371385","name":"Eusebio Davis","party":"Dem","address":"6111 S 3200 W, Lake Shore, UT 84660","precinct":"25SE21","hd":"64","v_score":"0","decile":"3","lat":40.119932078286716,"lng":-111.72999816247402},{"vid":"6379939","name":"Dr. Sylvan Stracke","party":"Dem","address":"4022 W 6400 S, Lake Shore, UT 84660","precinct":"25SE21","hd":"64","v_score":"3.93832808","decile":"6","lat":40.11588245106634,"lng":-111.75028154145741},{"vid":"6398804","name":"Miss Beyonce Kertzmann","party":"Rep","address":"3795 W 5200 S, Spanish Fork, UT 84660","precinct":"25SE21","hd":"64","v_score":"1.46627566","decile":"4","lat":40.13532995970739,"lng":-111.74398701643754},{"vid":"6400584","name":"Collin Stiedemann II","party":"Dem","address":"3534 W 5600 S, Spanish Fork, UT 84660","precinct":"25SE21","hd":"64","v_score":"7.947838735","decile":"8","lat":40.130481848820544,"lng":-111.73870774563818},{"vid":"6402722","name":"Ivanna Schoen","party":"Rep","address":"3461 W 6050 S, Lake Shore, UT 84660","precinct":"25SE21","hd":"64","v_score":"1.121327652","decile":"3","lat":40.12033816842532,"lng":-111.73599008028866},{"vid":"6408194","name":"Plummer Barton","party":"","address":"2992 W 5600 S, Lake Shore, UT 84660","precinct":"25SE21","hd":"64","v_score":"5.40460374","decile":"7","lat":40.129398594061115,"lng":-111.7254336786053},{"vid":"6409387","name":"Alverta Roberts","party":"","address":"6085 S 2800 W, Lake Shore, UT 84660","precinct":"25SE21","hd":"64","v_score":"2.315214949","decile":"5","lat":40.12054640779611,"lng":-111.72000466049606},{"vid":"6429076","name":"Eileen Marvin","party":"Rep","address":"6005 S 3200 W, Lake Shore, UT 84660","precinct":"25SE21","hd":"64","v_score":"0","decile":"3","lat":40.12176711611135,"lng":-111.73023521508148},{"vid":"6434925","name":"Dr. Otis Mann Jr.","party":"Dem","address":"6195 S 3200 W, Lake Shore, UT 84660","precinct":"25SE21","hd":"64","v_score":"10.38488476","decile":"9","lat":40.1183477247087,"lng":-111.73014566602332},{"vid":"6443043","name":"Mr. Justin Littel DVM","party":"","address":"2288 W 6400 S, Lake Shore, UT 84660","precinct":"25SE21","hd":"64","v_score":"5.40460374","decile":"7","lat":40.11646548878865,"lng":-111.70872854559803},{"vid":"6446024","name":"Dr. Yolanda Fritsch PhD","party":"Rep","address":"2561 W 6000 S, Lake Shore, UT 84660","precinct":"25SE21","hd":"64","v_score":"2.315214949","decile":"5","lat":40.12049475655466,"lng":-111.71526025567702},{"vid":"391e8af702cf1f109d97fc880fbf01717adca720cedd22c30c02372524043448","name":"Dr. Mikal Bauch","party":"Rep","address":"6297 S 3200 W, Lake Shore, UT 84660","precinct":"25SE21","hd":"64","v_score":"13.61621523","decile":"9","lat":40.116391137402154,"lng":-111.72838052207952},{"vid":"6907c33e37e104f6e6b2933b632560386d6e7d8b516e01322c085135e62c2b71","name":"Miss Campbell Brekke DDS","party":"Rep","address":"2288 W 6400 S, Spanish Fork, UT 84660","precinct":"25SE21","hd":"64","v_score":"5.40460374","decile":"7","lat":40.11646548878865,"lng":-111.70872854559803},{"vid":"66e889ef91da164c25d8aecdc9dd400e4de32c5f911ae9195181b8766c3c80f0","name":"Ebbie Heathcote","party":"Dem","address":"2758 W 6000 S, Lake Shore, UT 84660","precinct":"25SE21","hd":"64","v_score":"2.315214949","decile":"5","lat":40.12263883198684,"lng":-111.71984932206325},{"vid":"6477080","name":"Virge Ritchie","party":"Rep","address":"3346 W 5200 S, Lake Shore, UT 84660","precinct":"25SE21","hd":"64","v_score":"6.481563075","decile":"7","lat":40.13881955761646,"lng":-111.73483335586484},{"vid":"6477775","name":"Loreen Kiehn","party":"Rep","address":"2633 W 6000 S, Lake Shore, UT 84660","precinct":"25SE21","hd":"64","v_score":"3.93832808","decile":"6","lat":40.12012300972667,"lng":-111.71643693158136},{"vid":"6504466","name":"Juliana Smith","party":"Rep","address":"3304 W 6050 S, Lake Shore, UT 84660","precinct":"25SE21","hd":"64","v_score":"7.947838735","decile":"8","lat":40.12169620717272,"lng":-111.7331121521045},{"vid":"6507413","name":"Janae Breitenberg","party":"Rep","address":"6195 S 3200 W, Lake Shore, UT 84660","precinct":"25SE21","hd":"64","v_score":"5.40460374","decile":"7","lat":40.1183477247087,"lng":-111.73014566602332},{"vid":"6508024","name":"Bryson Terry","party":"","address":"5381 S 3200 W, Spanish Fork, UT 84660","precinct":"25SE21","hd":"64","v_score":"1.193887297","decile":"4","lat":40.14270683015496,"lng":-111.74024657518373},{"vid":"6519909","name":"Tyson Mohr-Wiegand","party":"","address":"2471 W 6000 S, Lake Shore, UT 84660","precinct":"25SE21","hd":"64","v_score":"5.40460374","decile":"7","lat":40.12157168881148,"lng":-111.71298057699549},{"vid":"6523115","name":"Mrs. Carolyne McClure PhD","party":"","address":"2149 W River Dr, Lake Shore, UT 84660","precinct":"25SE21","hd":"64","v_score":"2.315214949","decile":"5","lat":40.12150745313119,"lng":-111.70529947430828},{"vid":"6524018","name":"Luanne Schmeler","party":"","address":"2162 W 6400 S, Lake Shore, UT 84660","precinct":"25SE21","hd":"64","v_score":"1.193887297","decile":"4","lat":40.11728123840561,"lng":-111.70591308482145},{"vid":"6524194","name":"Addison O'Reilly-Pacocha","party":"Dem","address":"6297 S 3200 W, Lake Shore, UT 84660","precinct":"25SE21","hd":"64","v_score":"13.61621523","decile":"9","lat":40.116391137402154,"lng":-111.72838052207952},{"vid":"6524248","name":"Dr. Konner Brekke V","party":"","address":"4345 S 3200 W, Lake Shore, UT 84660","precinct":"25SE21","hd":"64","v_score":"2.315214949","decile":"5","lat":40.15163728457627,"lng":-111.72892096434984},{"vid":"6524844","name":"Dorris O'Kon","party":"","address":"2244 W 6400 S, Lake Shore, UT 84660","precinct":"25SE21","hd":"64","v_score":"8.347511332","decile":"8","lat":40.11652991210633,"lng":-111.70765135004906},{"vid":"6531043","name":"Irena Hills-Vandervort","party":"Dem","address":"4934 S 3200 W, Lake Shore, UT 84660","precinct":"25SE21","hd":"64","v_score":"5.40460374","decile":"7","lat":40.141404770103584,"lng":-111.73280969761282}]