[{"id":"18046","name":"Latarsha Kilback","party":"Rep","address":"700 Hobble Creek Cyn, Springville, UT 84663","precinct":"25SE02","hd":"63","v_score":"0","decile":"1","lat":40.195802947648,"lng":-111.494373297421},{"id":"21084","name":"Charity Krajcik DDS","party":"Rep","address":"5935 E Grindstone Dr, Springville, UT 84663","precinct":"25SE02","hd":"63","v_score":"10.67330764","decile":"9","lat":40.160069804566,"lng":-111.510143883483},{"id":"25762","name":"Ezequiel Botsford","party":"","address":"700 Hobble Creek Cyn, Springville, UT 84663","precinct":"25SE02","hd":"63","v_score":"1.193887297","decile":"3","lat":40.195802947648,"lng":-111.494373297421},{"id":"29388","name":"Rosia Dooley DVM","party":"Rep","address":"5935 E Grindstone Dr, Springville, UT 84663","precinct":"25SE02","hd":"63","v_score":"8.347511332","decile":"8","lat":40.160069804566,"lng":-111.510143883483},{"id":"37754","name":"Kamryn Hand DVM","party":"","address":"272 Hobble Creek Cyn, Springville, UT 84663","precinct":"25SE02","hd":"63","v_score":"1.121327652","decile":"3","lat":40.229613881505,"lng":-111.470150871039},{"id":"72913","name":"Salma Frami PhD","party":"","address":"202 Hobble Creek Cyn, # 1433, Springville, UT 84663","precinct":"25SE02","hd":"63","v_score":"1.121327652","decile":"3","lat":40.204265160321,"lng":-111.499902583181},{"id":"90751","name":"Ethelene Koepp","party":"","address":"140 Hobble Creek Cyn, Springville, UT 84663","precinct":"25SE02","hd":"63","v_score":"1.193887297","decile":"4","lat":40.175456003556,"lng":-111.498832160226},{"id":"97019","name":"Stephanie Schuster-Ledner","party":"Dem","address":"136 Hobble Creek Cyn, Springville, UT 84663","precinct":"25SE02","hd":"63","v_score":"0","decile":"1","lat":40.175192721526,"lng":-111.498868612826},{"id":"121722","name":"Charlottie Wisozk-Feest","party":"Rep","address":"152 Hobble Creek Cyn, Springville, UT 84663","precinct":"25SE02","hd":"63","v_score":"1.193887297","decile":"4","lat":40.195802947648,"lng":-111.494373297421},{"id":"166077","name":"Shante Ziemann","party":"","address":"1632 Valley View Cir, Springville, UT 84663","precinct":"25SE02","hd":"63","v_score":"3.93832808","decile":"6","lat":40.203290190866,"lng":-111.50412875078}]