[{"id":"2990","name":"Pollie Lehner DVM","party":"Dem","address":"1589 S Hobble Creek Haven Rd, Springville, UT 84663","precinct":"25SE03","hd":"63","v_score":"26.65079034","decile":"10","lat":40.202417464725,"lng":-111.499536525125},{"id":"3525","name":"Tess Glover","party":"Rep","address":"1526 S Hobble Creek Haven Rd, Springville, UT 84663","precinct":"25SE03","hd":"63","v_score":"2.315214949","decile":"5","lat":40.203747079142,"lng":-111.499835424583},{"id":"3526","name":"Mr. Simpson Kovacek","party":"","address":"1526 S Hobble Creek Haven Rd, Springville, UT 84663","precinct":"25SE03","hd":"63","v_score":"2.315214949","decile":"5","lat":40.203747079142,"lng":-111.499835424583},{"id":"8709","name":"Donnell Ernser","party":"Rep","address":"1910 Holiday Hills Rd, Springville, UT 84663","precinct":"25SE03","hd":"63","v_score":"2.315214949","decile":"5","lat":40.197675842012,"lng":-111.490497852834},{"id":"11456","name":"Maranda Mraz DVM","party":"Rep","address":"1927 Holiday Hills Rd, Springville, UT 84663","precinct":"25SE03","hd":"63","v_score":"5.40460374","decile":"7","lat":40.197406994653,"lng":-111.491001569146},{"id":"15241","name":"Dayana Lemke","party":"Rep","address":"6706 Pine Tree Ln, Springville, UT 84663","precinct":"25SE03","hd":"63","v_score":"10.22509301","decile":"9","lat":40.196195072635,"lng":-111.492150165405},{"id":"15925","name":"Amiya Flatley","party":"","address":"6706 Pine Tree Ln, Springville, UT 84663","precinct":"25SE03","hd":"63","v_score":"3.93832808","decile":"6","lat":40.196195072635,"lng":-111.492150165405},{"id":"18237","name":"Dr. Harvy Howe","party":"","address":"1575 Valley View Cir, Springville, UT 84663","precinct":"25SE03","hd":"63","v_score":"1.193887297","decile":"3","lat":40.204150075317,"lng":-111.503922113638},{"id":"20241","name":"Mr. Laverne Roob","party":"Rep","address":"1651 S Hobble Creek View Rd, Springville, UT 84663","precinct":"25SE03","hd":"63","v_score":"5.258122542","decile":"7","lat":40.150134416188,"lng":-111.5832996762},{"id":"20698","name":"Tylor Tromp","party":"Dem","address":"183 Hobble Creek Cyn, Springville, UT 84663","precinct":"25SE03","hd":"63","v_score":"6.881235673","decile":"8","lat":40.178253369739,"lng":-111.496205007792},{"id":"25299","name":"Torrance Russel","party":"","address":"172 Hobble Creek Cyn, Springville, UT 84663","precinct":"25SE03","hd":"63","v_score":"5.659072284","decile":"7","lat":40.197918266326,"lng":-111.491867254351},{"id":"26134","name":"Luvinia Klein-Armstrong","party":"Rep","address":"4040 S Mountain Maple Ln, Springville, UT 84663","precinct":"25SE03","hd":"63","v_score":"5.40460374","decile":"7","lat":40.159457705476,"lng":-111.508285284402},{"id":"28266","name":"Mrs. Freida Predovic DDS","party":"Rep","address":"17 N Meadow Dr, Springville, UT 84663","precinct":"25SE03","hd":"63","v_score":"1.46627566","decile":"4","lat":40.229065828681,"lng":-111.475554189792},{"id":"30119","name":"Vollie Bruen","party":"","address":"172 Hobble Creek Cyn, Apt A, Springville, UT 84663","precinct":"25SE03","hd":"63","v_score":"6.884189957","decile":"8","lat":40.197918266326,"lng":-111.491867254351},{"id":"33435","name":"Ms. Nikita Vandervort PhD","party":"Rep","address":"1479 S Mountain View Rd, Springville, UT 84663","precinct":"25SE03","hd":"63","v_score":"5.40460374","decile":"7","lat":40.201309916132,"lng":-111.502508826269},{"id":"40390","name":"Della Ratke-Hills","party":"Dem","address":"6178 E Grindstone Dr, Springville, UT 84663","precinct":"25SE03","hd":"63","v_score":"3.781490609","decile":"6","lat":40.159425726105,"lng":-111.506851174432},{"id":"41419","name":"Starla Hoeger","party":"Dem","address":"3889 Grindstone Dr, Springville, UT 84663","precinct":"25SE03","hd":"63","v_score":"1.121327652","decile":"3","lat":40.159713631873,"lng":-111.504571162472},{"id":"52653","name":"Mr. Ronny Herman","party":"","address":"157 Hobble Creek Cyn, Springville, UT 84663","precinct":"25SE03","hd":"63","v_score":"5.40460374","decile":"7","lat":40.178370474368,"lng":-111.496218644894},{"id":"53517","name":"Parrish Farrell III","party":"Rep","address":"1154 E Hobble Creek Cyn, Springville, UT 84663","precinct":"25SE03","hd":"63","v_score":"3.781490609","decile":"6","lat":40.207042142278,"lng":-111.491405085334},{"id":"54175","name":"Maricela Hansen-Littel","party":"Dem","address":"1972 Holiday Hills Rd, Springville, UT 84663","precinct":"25SE03","hd":"63","v_score":"5.40460374","decile":"7","lat":40.19682474307,"lng":-111.491111707241},{"id":"66884","name":"Fleet Schneider III","party":"","address":"5966 E Grindstone Dr, Springville, UT 84663","precinct":"25SE03","hd":"63","v_score":"1.193887297","decile":"3","lat":40.160039522344,"lng":-111.509551634866},{"id":"74573","name":"Alannah Mayert","party":"","address":"178 N Oakwood Cir, Springville, UT 84663","precinct":"25SE03","hd":"63","v_score":"2.817000428","decile":"6","lat":40.23489800307,"lng":-111.478767374341},{"id":"76472","name":"Lyndia Runte","party":"","address":"6670 Holiday Hills Rd, Springville, UT 84663","precinct":"25SE03","hd":"63","v_score":"2.315214949","decile":"5","lat":40.195607454568,"lng":-111.492628756476},{"id":"80075","name":"Corene Mills-Jaskolski","party":"","address":"157 Hobble Creek Cyn, Springville, UT 84663","precinct":"25SE03","hd":"63","v_score":"3.93832808","decile":"6","lat":40.178370474368,"lng":-111.496218644894},{"id":"80807","name":"Dr. Gabriel Beahan","party":"Dem","address":"1730 S Hobble Creek Haven Rd, Springville, UT 84663","precinct":"25SE03","hd":"63","v_score":"1.193887297","decile":"3","lat":40.199561507852,"lng":-111.499910047408},{"id":"85008","name":"Council Klein","party":"Dem","address":"1615 S Hobble Creek View Rd, Springville, UT 84663","precinct":"25SE03","hd":"63","v_score":"2.817000428","decile":"6","lat":40.150325255614,"lng":-111.583302567682},{"id":"85132","name":"Miss Hilma Davis PhD","party":"","address":"1615 S Hobble Creek View Rd, Springville, UT 84663","precinct":"25SE03","hd":"63","v_score":"2.817000428","decile":"6","lat":40.150325255614,"lng":-111.583302567682},{"id":"89237","name":"Deb Auer","party":"Rep","address":"5966 E Grindstone Dr, Springville, UT 84663","precinct":"25SE03","hd":"63","v_score":"0","decile":"1","lat":40.160039522344,"lng":-111.509551634866},{"id":"96638","name":"Dr. Wendy Hermann","party":"Dem","address":"243 Hobble Creek Cyn, Springville, UT 84663","precinct":"25SE03","hd":"63","v_score":"1.193887297","decile":"4","lat":40.227633476805,"lng":-111.47028507261},{"id":"99049","name":"Coralie Stamm","party":"","address":"1672 S Hobble Creek Haven Rd, Springville, UT 84663","precinct":"25SE03","hd":"63","v_score":"0","decile":"1","lat":40.200639771102,"lng":-111.499474847761},{"id":"100964","name":"Bertina Howell","party":"Dem","address":"1556 S Hobble Creek Haven Rd, Springville, UT 84663","precinct":"25SE03","hd":"63","v_score":"1.193887297","decile":"4","lat":40.203099595684,"lng":-111.499762072987},{"id":"105138","name":"Kameron Reynolds","party":"Dem","address":"1972 Holiday Hills Rd, Springville, UT 84663","precinct":"25SE03","hd":"63","v_score":"1.193887297","decile":"4","lat":40.19682474307,"lng":-111.491111707241},{"id":"112321","name":"Kathaleen Gulgowski MD","party":"Rep","address":"831 Hobble Creek Canyon Rd, Springville, UT 84663","precinct":"25SE03","hd":"63","v_score":"1.193887297","decile":"4","lat":40.224546140878,"lng":-111.473391033607},{"id":"112433","name":"Daisy Mertz PhD","party":"Dem","address":"1481 Valley View Cir, Springville, UT 84663","precinct":"25SE03","hd":"63","v_score":"1.193887297","decile":"4","lat":40.20198970356,"lng":-111.503010640216},{"id":"114277","name":"Dr. Deonte Borer","party":"Rep","address":"1725 S Hobble Creek Haven Rd, Springville, UT 84663","precinct":"25SE03","hd":"63","v_score":"1.193887297","decile":"4","lat":40.199633678926,"lng":-111.499714014352},{"id":"114321","name":"Terence Mosciski","party":"Dem","address":"6196 E Grindstone Dr, Springville, UT 84663","precinct":"25SE03","hd":"63","v_score":"0","decile":"2","lat":40.159550096122,"lng":-111.507068166034},{"id":"115016","name":"Mrs. Velda Hettinger","party":"Rep","address":"167 Hobble Creek Cyn, Springville, UT 84663","precinct":"25SE03","hd":"63","v_score":"5.815909755","decile":"7","lat":40.178332880058,"lng":-111.496205218361},{"id":"125759","name":"Alford Sawayn","party":"","address":"111 S Meadow Dr, Springville, UT 84663","precinct":"25SE03","hd":"63","v_score":"0","decile":"2","lat":40.230105208115,"lng":-111.476683137907},{"id":"130375","name":"Miss Dasia Treutel","party":"Rep","address":"1725 S Hobble Creek Haven Rd, Springville, UT 84663","precinct":"25SE03","hd":"63","v_score":"0","decile":"2","lat":40.199633678926,"lng":-111.499714014352},{"id":"134976","name":"Dr. Arvilla Bernhard DDS","party":"Rep","address":"1677 S Hobble Creek Haven Rd, Springville, UT 84663","precinct":"25SE03","hd":"63","v_score":"2.315214949","decile":"5","lat":40.200568028185,"lng":-111.499317588817},{"id":"135499","name":"Columbus Jacobson-Roob","party":"Dem","address":"1589 S Mountain View Rd, Springville, UT 84663","precinct":"25SE03","hd":"63","v_score":"5.40460374","decile":"7","lat":40.20021242037,"lng":-111.502285112321},{"id":"136081","name":"Johannah Kub","party":"Dem","address":"167 Hobble Creek Cyn, Springville, UT 84663","precinct":"25SE03","hd":"63","v_score":"3.93832808","decile":"6","lat":40.178332880058,"lng":-111.496205218361},{"id":"138363","name":"Robbin Streich","party":"","address":"1575 Valley View Cir, Springville, UT 84663","precinct":"25SE03","hd":"63","v_score":"1.193887297","decile":"4","lat":40.204150075317,"lng":-111.503922113638},{"id":"139788","name":"Kathie Jacobson DDS","party":"","address":"6909 Spring Mountain Dr, Springville, UT 84663","precinct":"25SE03","hd":"63","v_score":"0","decile":"2","lat":40.244809459192,"lng":-111.487846342177},{"id":"142942","name":"Virgil Robel-Sporer","party":"Rep","address":"4040 S Mountain Maple Ln, Springville, UT 84663","precinct":"25SE03","hd":"63","v_score":"8.347511332","decile":"8","lat":40.159457705476,"lng":-111.508285284402},{"id":"145671","name":"Valerie Osinski","party":"Rep","address":"3876 Grindstone Dr, Springville, UT 84663","precinct":"25SE03","hd":"63","v_score":"5.815909755","decile":"7","lat":40.160247326976,"lng":-111.502561410602},{"id":"147591","name":"Pamala Koepp","party":"Rep","address":"6787 Holiday Hills Rd, Springville, UT 84663","precinct":"25SE03","hd":"63","v_score":"3.93832808","decile":"6","lat":40.195719426672,"lng":-111.492762160366},{"id":"147804","name":"Dayne Gibson","party":"Rep","address":"3889 Grindstone Dr, Springville, UT 84663","precinct":"25SE03","hd":"63","v_score":"8.347511332","decile":"8","lat":40.159713631873,"lng":-111.504571162472},{"id":"148645","name":"Valarie Treutel","party":"Rep","address":"1735 S Mountain View Rd, Springville, UT 84663","precinct":"25SE03","hd":"63","v_score":"13.61621523","decile":"9","lat":40.199975466316,"lng":-111.50255340103},{"id":"149477","name":"Mrs. Franc Skiles PhD","party":"Dem","address":"252 E Hobble Creek Cyn, Springville, UT 84663","precinct":"25SE03","hd":"63","v_score":"1.193887297","decile":"4","lat":40.230352240638,"lng":-111.469966971477},{"id":"149746","name":"Tennessee Bayer-Mraz","party":"","address":"1612 S Hobble Creek Haven Rd, Springville, UT 84663","precinct":"25SE03","hd":"63","v_score":"5.40460374","decile":"7","lat":40.201836548624,"lng":-111.499622857823},{"id":"151333","name":"Latifah Hilll","party":"Rep","address":"1556 S Hobble Creek Haven Rd, Springville, UT 84663","precinct":"25SE03","hd":"63","v_score":"1.193887297","decile":"4","lat":40.203099595684,"lng":-111.499762072987},{"id":"152129","name":"Sophronia Harvey","party":"","address":"1735 S Mountain View Rd, Springville, UT 84663","precinct":"25SE03","hd":"63","v_score":"13.61621523","decile":"9","lat":40.199975466316,"lng":-111.50255340103},{"id":"159026","name":"Ransom Bernhard","party":"","address":"1945 Holiday Hills Rd, Springville, UT 84663","precinct":"25SE03","hd":"63","v_score":"13.32779236","decile":"9","lat":40.196965387866,"lng":-111.491215525851},{"id":"159142","name":"Vander Von","party":"Rep","address":"164 N Oakwood Cir, Springville, UT 84663","precinct":"25SE03","hd":"63","v_score":"3.93832808","decile":"6","lat":40.234730725389,"lng":-111.478683081398},{"id":"159359","name":"Kem Metz","party":"Rep","address":"3878 S Kelly Dr, Springville, UT 84663","precinct":"25SE03","hd":"63","v_score":"11.05053808","decile":"9","lat":40.160055213882,"lng":-111.504405755805},{"id":"160977","name":"Lon Schmitt","party":"Dem","address":"3983 Mountain Maple Ln, Springville, UT 84663","precinct":"25SE03","hd":"63","v_score":"7.282185415","decile":"8","lat":40.159812393426,"lng":-111.508648264987},{"id":"161031","name":"Shawnte Keeling","party":"","address":"3983 Mountain Maple Ln, Springville, UT 84663","precinct":"25SE03","hd":"63","v_score":"7.282185415","decile":"8","lat":40.159812393426,"lng":-111.508648264987},{"id":"164456","name":"Dr. Coleman Stiedemann","party":"","address":"157 Hobble Creek Cyn, Springville, UT 84663","precinct":"25SE03","hd":"63","v_score":"3.781490609","decile":"6","lat":40.178370474368,"lng":-111.496218644894},{"id":"166805","name":"Nathaniel Schinner-Lubowitz","party":"","address":"1730 S Hobble Creek Haven Rd, Springville, UT 84663","precinct":"25SE03","hd":"63","v_score":"3.781490609","decile":"6","lat":40.199561507852,"lng":-111.499910047408},{"id":"167386","name":"Bart Kovacek DVM","party":"Dem","address":"3941 S Hobble Creek Ln, Springville, UT 84663","precinct":"25SE03","hd":"63","v_score":"1.193887297","decile":"4","lat":40.16043334892,"lng":-111.508585436474},{"id":"167755","name":"Alyssia Rosenbaum-Gottlieb","party":"","address":"1910 Holiday Hills Rd, Springville, UT 84663","precinct":"25SE03","hd":"63","v_score":"6.550708384","decile":"7","lat":40.197675842012,"lng":-111.490497852834},{"id":"168533","name":"Makaila Mayert","party":"","address":"1977 Holiday Hills Rd, Springville, UT 84663","precinct":"25SE03","hd":"63","v_score":"10.22509301","decile":"9","lat":40.197203528274,"lng":-111.491124675246},{"id":"168993","name":"Miriam Mitchell","party":"Dem","address":"1672 S Hobble Creek Haven Rd, Springville, UT 84663","precinct":"25SE03","hd":"63","v_score":"8.347511332","decile":"8","lat":40.200639771102,"lng":-111.499474847761},{"id":"169057","name":"Verlin Ebert","party":"","address":"5966 E Grindstone Dr, Springville, UT 84663","precinct":"25SE03","hd":"63","v_score":"8.347511332","decile":"8","lat":40.160039522344,"lng":-111.509551634866},{"id":"170365","name":"Adelia Barrows","party":"Dem","address":"6715 Holiday Hills Dr, Springville, UT 84663","precinct":"25SE03","hd":"63","v_score":"5.40460374","decile":"7","lat":40.195680520416,"lng":-111.492176746078},{"id":"170656","name":"Mrs. Yazmin Bruen DVM","party":"Rep","address":"122 S Left Fork Hobble Creek Cyn, Springville, UT 84663","precinct":"25SE03","hd":"63","v_score":"3.93832808","decile":"6","lat":40.197627361665,"lng":-111.492117927548},{"id":"171207","name":"Fuller Reichel-Kuvalis","party":"","address":"6178 E Grindstone Dr, Springville, UT 84663","precinct":"25SE03","hd":"63","v_score":"3.781490609","decile":"6","lat":40.159425726105,"lng":-111.506851174432},{"id":"171479","name":"Mr. Gerrit Heller","party":"Rep","address":"1728 S Mountain View Rd, Springville, UT 84663","precinct":"25SE03","hd":"63","v_score":"4.210716443","decile":"7","lat":40.199835156804,"lng":-111.504010778494},{"id":"172345","name":"Minor Roob","party":"","address":"17 N Meadow Dr, Springville, UT 84663","precinct":"25SE03","hd":"63","v_score":"1.193887297","decile":"4","lat":40.229065828681,"lng":-111.475554189792},{"id":"173760","name":"Ms. Cherelle Ziemann PhD","party":"Dem","address":"1959 Holiday Hills Rd, Springville, UT 84663","precinct":"25SE03","hd":"63","v_score":"1.121327652","decile":"3","lat":40.196603273494,"lng":-111.491307291851},{"id":"175467","name":"Evander Reinger","party":"","address":"1511 S Valley View Cir, Springville, UT 84663","precinct":"25SE03","hd":"63","v_score":"9.506986419","decile":"8","lat":40.202288985226,"lng":-111.503977005243},{"id":"175567","name":"Mrs. Riya Carter DDS","party":"","address":"1481 Valley View Cir, Springville, UT 84663","precinct":"25SE03","hd":"63","v_score":"2.315214949","decile":"5","lat":40.20198970356,"lng":-111.503010640216},{"id":"175568","name":"Dr. Layne Berge V","party":"","address":"1481 Valley View Cir, Springville, UT 84663","precinct":"25SE03","hd":"63","v_score":"2.315214949","decile":"5","lat":40.20198970356,"lng":-111.503010640216},{"id":"176049","name":"Toni Metz","party":"","address":"1977 Holiday Hills Rd, Springville, UT 84663","precinct":"25SE03","hd":"63","v_score":"9.03120571","decile":"8","lat":40.197203528274,"lng":-111.491124675246},{"id":"176284","name":"Brown Bode","party":"Dem","address":"6771 Holiday Hills Rd, Springville, UT 84663","precinct":"25SE03","hd":"63","v_score":"1.121327652","decile":"3","lat":40.195721906363,"lng":-111.492621354164},{"id":"176285","name":"Evon Bergstrom","party":"","address":"6771 Holiday Hills Rd, Springville, UT 84663","precinct":"25SE03","hd":"63","v_score":"1.121327652","decile":"3","lat":40.195721906363,"lng":-111.492621354164},{"id":"176535","name":"Mrs. Kristan Batz PhD","party":"Dem","address":"5965 E Grindstone Dr, Springville, UT 84663","precinct":"25SE03","hd":"63","v_score":"2.315214949","decile":"5","lat":40.160151002342,"lng":-111.509586337968},{"id":"176560","name":"Cathie Miller","party":"Rep","address":"1672 S Hobble Creek Haven Rd, Springville, UT 84663","precinct":"25SE03","hd":"63","v_score":"11.30609121","decile":"9","lat":40.200639771102,"lng":-111.499474847761},{"id":"177276","name":"Dr. Elex Nienow","party":"Dem","address":"1687 S Hobble Creek Haven Rd, Springville, UT 84663","precinct":"25SE03","hd":"63","v_score":"3.93832808","decile":"6","lat":40.200352449349,"lng":-111.499369943081},{"id":"177817","name":"Ethie Skiles","party":"","address":"1647 S Hobble Creek Haven Rd, Springville, UT 84663","precinct":"25SE03","hd":"63","v_score":"7.947838735","decile":"8","lat":40.201169923859,"lng":-111.499380565838},{"id":"177861","name":"Lavelle Steuber","party":"","address":"1927 Holiday Hills Rd, Springville, UT 84663","precinct":"25SE03","hd":"63","v_score":"3.93832808","decile":"6","lat":40.197406994653,"lng":-111.491001569146},{"id":"178191","name":"Kennth Hermiston","party":"Dem","address":"1612 S Hobble Creek Haven Rd, Springville, UT 84663","precinct":"25SE03","hd":"63","v_score":"5.40460374","decile":"7","lat":40.201836548624,"lng":-111.499622857823},{"id":"179837","name":"Ellis Crona","party":"Dem","address":"57 N Meadow Dr, Springville, UT 84663","precinct":"25SE03","hd":"63","v_score":"6.74007049","decile":"8","lat":40.231411896036,"lng":-111.476819026827},{"id":"180043","name":"Hakim Nicolas","party":"","address":"1589 S Hobble Creek Haven Rd, Springville, UT 84663","precinct":"25SE03","hd":"63","v_score":"8.347511332","decile":"8","lat":40.202417464725,"lng":-111.499536525125},{"id":"180533","name":"Ryne Kirlin-Dooley","party":"Dem","address":"5966 Grindstone Dr, Springville, UT 84663","precinct":"25SE03","hd":"63","v_score":"5.40460374","decile":"7","lat":40.160039522344,"lng":-111.509551634866},{"id":"181308","name":"Karsyn Schulist","party":"Rep","address":"1995 Holiday Hills Rd, Springville, UT 84663","precinct":"25SE03","hd":"63","v_score":"5.687348376","decile":"7","lat":40.195846910775,"lng":-111.491623559385}]