[{"vid":"1297031","name":"Pollie Lehner DVM","party":"Dem","address":"1589 S Hobble Creek Haven Rd, Springville, UT 84663","precinct":"25SE03","hd":"63","v_score":"26.65079034","decile":"10","lat":40.202537114078126,"lng":-111.49927231979389,"phone":"(214) 678-2282","sd":"26","ssbd":"13","lsbd":"School Board Nebo 2"},{"vid":"b0f3d5bb53e6f9d5f1e400c18d229906ffab50141e40a387a5dd94948d0b068f","name":"Tess Glover","party":"Rep","address":"1526 S Hobble Creek Haven Rd, Springville, UT 84663","precinct":"25SE03","hd":"63","v_score":"2.315214949","decile":"5","lat":40.2036905143375,"lng":-111.50093586486295,"phone":"(998) 142-2629","sd":"26","ssbd":"13","lsbd":"School Board Nebo 2"},{"vid":"1317800","name":"Mr. Simpson Kovacek","party":"","address":"1526 S Hobble Creek Haven Rd, Springville, UT 84663","precinct":"25SE03","hd":"63","v_score":"2.315214949","decile":"5","lat":40.2036905143375,"lng":-111.50093586486295,"phone":"(787) 575-1386","sd":"26","ssbd":"13","lsbd":"School Board Nebo 2"},{"vid":"1771756","name":"Luvinia Klein-Armstrong","party":"Rep","address":"4040 S Mountain Maple Ln, Springville, UT 84663","precinct":"25SE03","hd":"63","v_score":"5.40460374","decile":"7","lat":40.1590226182381,"lng":-111.507887734495,"phone":"(789) 527-1245","sd":"26","ssbd":"13","lsbd":"School Board Nebo 2"},{"vid":"1809890","name":"Mrs. Freida Predovic DDS","party":"Rep","address":"17 N Meadow Dr, Springville, UT 84663","precinct":"25SE03","hd":"63","v_score":"1.46627566","decile":"4","lat":40.23265894290741,"lng":-111.47707380798057,"phone":"(569) 307-5412","sd":"26","ssbd":"13","lsbd":"School Board Nebo 2"},{"vid":"1873927","name":"Kasie Labadie-Bode","party":"Rep","address":"266 S Meadow Dr, Springville, UT 84663","precinct":"25SE03","hd":"63","v_score":"2.315214949","decile":"5","lat":40.22727790326324,"lng":-111.47393949275872,"phone":"(445) 045-5413","sd":"26","ssbd":"13","lsbd":"School Board Nebo 2"},{"vid":"1886937","name":"Ms. Nikita Vandervort PhD","party":"Rep","address":"1479 S Mountain View Rd, Springville, UT 84663","precinct":"25SE03","hd":"63","v_score":"5.40460374","decile":"7","lat":40.204505931071274,"lng":-111.50026850163894,"phone":"(971) 425-0248","sd":"26","ssbd":"13","lsbd":"School Board Nebo 2"},{"vid":"1978487","name":"Della Ratke-Hills","party":"Dem","address":"6178 E Grindstone Dr, Springville, UT 84663","precinct":"25SE03","hd":"63","v_score":"3.781490609","decile":"6","lat":40.1594390104372,"lng":-111.50455640163624,"phone":"(232) 943-4792","sd":"26","ssbd":"13","lsbd":"School Board Nebo 2"},{"vid":"ef5ed4965ded25ad8977ebc6d947de1c8dbbe2ed451ea0cfe0dc541cf7b679f1","name":"Fleet Schneider III","party":"","address":"5966 E Grindstone Dr, Springville, UT 84663","precinct":"25SE03","hd":"63","v_score":"1.193887297","decile":"3","lat":40.1598580728292,"lng":-111.50937873945125,"phone":"(845) 465-9786","sd":"26","ssbd":"13","lsbd":"School Board Nebo 2"},{"vid":"2398260","name":"Alannah Mayert","party":"","address":"178 N Oakwood Cir, Springville, UT 84663","precinct":"25SE03","hd":"63","v_score":"2.817000428","decile":"6","lat":40.2354250151447,"lng":-111.47922528884988,"phone":"(190) 183-4101","sd":"26","ssbd":"13","lsbd":"School Board Nebo 2"},{"vid":"2458746","name":"Dr. Gabriel Beahan","party":"Dem","address":"1730 S Hobble Creek Haven Rd, Springville, UT 84663","precinct":"25SE03","hd":"63","v_score":"1.193887297","decile":"3","lat":40.19992991318116,"lng":-111.50055439644538,"phone":"(849) 951-0639","sd":"26","ssbd":"13","lsbd":"School Board Nebo 2"},{"vid":"2514498","name":"Erby Predovic","party":"Dem","address":"285 S Meadow Dr, Springville, UT 84663","precinct":"25SE03","hd":"63","v_score":"2.817000428","decile":"6","lat":40.22676728690131,"lng":-111.47263710798653,"phone":"(123) 809-2334","sd":"26","ssbd":"13","lsbd":"School Board Nebo 2"},{"vid":"2540446","name":"Deb Auer","party":"Rep","address":"5966 E Grindstone Dr, Springville, UT 84663","precinct":"25SE03","hd":"63","v_score":"0","decile":"1","lat":40.1598580728292,"lng":-111.50937873945125,"phone":"(496) 434-1688","sd":"26","ssbd":"13","lsbd":"School Board Nebo 2"},{"vid":"2654197","name":"Coralie Stamm","party":"","address":"1672 S Hobble Creek Haven Rd, Springville, UT 84663","precinct":"25SE03","hd":"63","v_score":"0","decile":"1","lat":40.20097273437956,"lng":-111.50050346766665,"phone":"(231) 048-3280","sd":"26","ssbd":"13","lsbd":"School Board Nebo 2"},{"vid":"2671012","name":"Bertina Howell","party":"Dem","address":"1556 S Hobble Creek Haven Rd, Springville, UT 84663","precinct":"25SE03","hd":"63","v_score":"1.193887297","decile":"4","lat":40.2029812185796,"lng":-111.50117992116522,"phone":"(194) 783-9498","sd":"26","ssbd":"13","lsbd":"School Board Nebo 2"},{"vid":"2683361","name":"Theodis Goodwin DDS","party":"Rep","address":"1730 S Hobble Creek Haven Rd, Springville, UT 84663","precinct":"25SE03","hd":"63","v_score":"0","decile":"2","lat":40.19992991318116,"lng":-111.50055439644538,"phone":"(858) 557-9636","sd":"26","ssbd":"13","lsbd":"School Board Nebo 2"},{"vid":"2725216","name":"Giselle Romaguera","party":"Rep","address":"259 S Meadow Dr, Springville, UT 84663","precinct":"25SE03","hd":"63","v_score":"0","decile":"2","lat":40.227425596535944,"lng":-111.47349800709893,"phone":"(101) 381-0249","sd":"26","ssbd":"13","lsbd":"School Board Nebo 2"},{"vid":"2794395","name":"Dr. Deonte Borer","party":"Rep","address":"1725 S Hobble Creek Haven Rd, Springville, UT 84663","precinct":"25SE03","hd":"63","v_score":"1.193887297","decile":"4","lat":40.19981346660505,"lng":-111.49891732427857,"phone":"(305) 908-2537","sd":"26","ssbd":"13","lsbd":"School Board Nebo 2"},{"vid":"2794529","name":"Terence Mosciski","party":"Dem","address":"6196 E Grindstone Dr, Springville, UT 84663","precinct":"25SE03","hd":"63","v_score":"0","decile":"2","lat":40.15945687035961,"lng":-111.50389867740354,"phone":"(534) 808-0280","sd":"26","ssbd":"13","lsbd":"School Board Nebo 2"},{"vid":"2805862","name":"Leighton Harber","party":"Rep","address":"7478 E Meadow Dr, Springville, UT 84663","precinct":"25SE03","hd":"63","v_score":"1.193887297","decile":"4","lat":40.225948079800624,"lng":-111.47417882367662,"phone":"(155) 507-4025","sd":"26","ssbd":"13","lsbd":"School Board Nebo 2"},{"vid":"2805941","name":"Mrs. Berenice Waters DVM","party":"","address":"7478 E Meadow Dr, Springville, UT 84663","precinct":"25SE03","hd":"63","v_score":"1.193887297","decile":"4","lat":40.225948079800624,"lng":-111.47417882367662,"phone":"(931) 296-9045","sd":"26","ssbd":"13","lsbd":"School Board Nebo 2"},{"vid":"2848588","name":"Adalynn Bruen-Parisian","party":"","address":"285 S Meadow Dr, Springville, UT 84663","precinct":"25SE03","hd":"63","v_score":"1.193887297","decile":"4","lat":40.22676728690131,"lng":-111.47263710798653,"phone":"(374) 282-6940","sd":"26","ssbd":"13","lsbd":"School Board Nebo 2"},{"vid":"2902049","name":"Alford Sawayn","party":"","address":"111 S Meadow Dr, Springville, UT 84663","precinct":"25SE03","hd":"63","v_score":"0","decile":"2","lat":40.23037496387208,"lng":-111.47590226557271,"phone":"(151) 320-6999","sd":"26","ssbd":"13","lsbd":"School Board Nebo 2"},{"vid":"2947042","name":"Miss Dasia Treutel","party":"Rep","address":"1725 S Hobble Creek Haven Rd, Springville, UT 84663","precinct":"25SE03","hd":"63","v_score":"0","decile":"2","lat":40.19981346660505,"lng":-111.49891732427857,"phone":"(144) 615-1781","sd":"26","ssbd":"13","lsbd":"School Board Nebo 2"},{"vid":"2980701","name":"Alize Russel-Doyle","party":"","address":"285 S Meadow Dr, Springville, UT 84663","precinct":"25SE03","hd":"63","v_score":"0","decile":"2","lat":40.22676728690131,"lng":-111.47263710798653,"phone":"(698) 170-1204","sd":"26","ssbd":"13","lsbd":"School Board Nebo 2"},{"vid":"3037274","name":"Dr. Arvilla Bernhard DDS","party":"Rep","address":"1677 S Hobble Creek Haven Rd, Springville, UT 84663","precinct":"25SE03","hd":"63","v_score":"2.315214949","decile":"5","lat":40.20081830688694,"lng":-111.49874583625015,"phone":"(522) 440-3899","sd":"26","ssbd":"13","lsbd":"School Board Nebo 2"},{"vid":"3082389","name":"Columbus Jacobson-Roob","party":"Dem","address":"1589 S Mountain View Rd, Springville, UT 84663","precinct":"25SE03","hd":"63","v_score":"5.40460374","decile":"7","lat":40.2023224420506,"lng":-111.50144272058682,"phone":"(860) 511-1315","sd":"26","ssbd":"13","lsbd":"School Board Nebo 2"},{"vid":"3e4d72c7d7bfbc6f18f8a6c2eccfb309034f8d4db863652feef29bedf1c329bb","name":"Mr. Jaydin Miller II","party":"Rep","address":"7452 E Meadow Dr, Springville, UT 84663","precinct":"25SE03","hd":"63","v_score":"15.49379691","decile":"9","lat":40.22579663245066,"lng":-111.47483064492985,"phone":"(929) 767-7541","sd":"26","ssbd":"13","lsbd":"School Board Nebo 2"},{"vid":"5004875","name":"Martell Rohan","party":"Dem","address":"7452 E Meadow Dr, Springville, UT 84663","precinct":"25SE03","hd":"63","v_score":"3.93832808","decile":"6","lat":40.22579663245066,"lng":-111.47483064492985,"phone":"(753) 665-5592","sd":"26","ssbd":"13","lsbd":"School Board Nebo 2"},{"vid":"5021840","name":"Neppie Lehner-Glover","party":"","address":"7452 E Meadow Dr, Springville, UT 84663","precinct":"25SE03","hd":"63","v_score":"15.49379691","decile":"9","lat":40.22579663245066,"lng":-111.47483064492985,"phone":"(932) 986-9806","sd":"26","ssbd":"13","lsbd":"School Board Nebo 2"},{"vid":"5523171","name":"Virgil Robel-Sporer","party":"Rep","address":"4040 S Mountain Maple Ln, Springville, UT 84663","precinct":"25SE03","hd":"63","v_score":"8.347511332","decile":"8","lat":40.1590226182381,"lng":-111.507887734495,"phone":"(810) 168-8445","sd":"26","ssbd":"13","lsbd":"School Board Nebo 2"},{"vid":"6212725","name":"Valarie Treutel","party":"Rep","address":"1735 S Mountain View Rd, Springville, UT 84663","precinct":"25SE03","hd":"63","v_score":"13.61621523","decile":"9","lat":40.19982980784537,"lng":-111.5023509276196,"phone":"(455) 332-8718","sd":"26","ssbd":"13","lsbd":"School Board Nebo 2"},{"vid":"6224533","name":"Tennessee Bayer-Mraz","party":"","address":"1612 S Hobble Creek Haven Rd, Springville, UT 84663","precinct":"25SE03","hd":"63","v_score":"5.40460374","decile":"7","lat":40.20203180718664,"lng":-111.50054759871395,"phone":"(163) 651-6597","sd":"26","ssbd":"13","lsbd":"School Board Nebo 2"},{"vid":"6242776","name":"Latifah Hilll","party":"Rep","address":"1556 S Hobble Creek Haven Rd, Springville, UT 84663","precinct":"25SE03","hd":"63","v_score":"1.193887297","decile":"4","lat":40.2029812185796,"lng":-111.50117992116522,"phone":"(346) 756-2914","sd":"26","ssbd":"13","lsbd":"School Board Nebo 2"},{"vid":"6252551","name":"Sophronia Harvey","party":"","address":"1735 S Mountain View Rd, Springville, UT 84663","precinct":"25SE03","hd":"63","v_score":"13.61621523","decile":"9","lat":40.19982980784537,"lng":-111.5023509276196,"phone":"(669) 241-3205","sd":"26","ssbd":"13","lsbd":"School Board Nebo 2"},{"vid":"6333782","name":"Vander Von","party":"Rep","address":"164 N Oakwood Cir, Springville, UT 84663","precinct":"25SE03","hd":"63","v_score":"3.93832808","decile":"6","lat":40.235308641862765,"lng":-111.4787944610811,"phone":"(533) 427-6285","sd":"26","ssbd":"13","lsbd":"School Board Nebo 2"},{"vid":"07d336ba2b189684ff62a14fc6fb5b81014f40bbf2dc985c31f01565c061ec43","name":"Nathaniel Schinner-Lubowitz","party":"","address":"1730 S Hobble Creek Haven Rd, Springville, UT 84663","precinct":"25SE03","hd":"63","v_score":"3.781490609","decile":"6","lat":40.19992991318116,"lng":-111.50055439644538,"phone":"(355) 718-8011","sd":"26","ssbd":"13","lsbd":"School Board Nebo 2"},{"vid":"6416971","name":"Bart Kovacek DVM","party":"Dem","address":"3941 S Hobble Creek Ln, Springville, UT 84663","precinct":"25SE03","hd":"63","v_score":"1.193887297","decile":"4","lat":40.16082950054233,"lng":-111.50916697833168,"phone":"(729) 358-9007","sd":"26","ssbd":"13","lsbd":"School Board Nebo 2"},{"vid":"6430885","name":"Miriam Mitchell","party":"Dem","address":"1672 S Hobble Creek Haven Rd, Springville, UT 84663","precinct":"25SE03","hd":"63","v_score":"8.347511332","decile":"8","lat":40.20097273437956,"lng":-111.50050346766665,"phone":"(605) 569-3548","sd":"26","ssbd":"13","lsbd":"School Board Nebo 2"},{"vid":"6431421","name":"Verlin Ebert","party":"","address":"5966 E Grindstone Dr, Springville, UT 84663","precinct":"25SE03","hd":"63","v_score":"8.347511332","decile":"8","lat":40.1598580728292,"lng":-111.50937873945125,"phone":"(552) 045-3895","sd":"26","ssbd":"13","lsbd":"School Board Nebo 2"},{"vid":"6449068","name":"Fuller Reichel-Kuvalis","party":"","address":"6178 E Grindstone Dr, Springville, UT 84663","precinct":"25SE03","hd":"63","v_score":"3.781490609","decile":"6","lat":40.1594390104372,"lng":-111.50455640163624,"phone":"(776) 134-8987","sd":"26","ssbd":"13","lsbd":"School Board Nebo 2"},{"vid":"a7791f6c280d1dfa49a1533e61d4a042a1385ef9231950fe43d9cbce24392125","name":"Minor Roob","party":"","address":"17 N Meadow Dr, Springville, UT 84663","precinct":"25SE03","hd":"63","v_score":"1.193887297","decile":"4","lat":40.23265894290741,"lng":-111.47707380798057,"phone":"(671) 410-6645","sd":"26","ssbd":"13","lsbd":"School Board Nebo 2"},{"vid":"249a8d0b261021d85992fd8001a2cdf29412e3d24681a3a46ff687585e7b8178","name":"Evander Reinger","party":"","address":"1511 S Valley View Cir, Springville, UT 84663","precinct":"25SE03","hd":"63","v_score":"9.506986419","decile":"8","lat":40.203931687563546,"lng":-111.50307803195608,"phone":"(248) 066-9688","sd":"26","ssbd":"13","lsbd":"School Board Nebo 2"},{"vid":"6493258","name":"Mrs. Kristan Batz PhD","party":"Dem","address":"5965 E Grindstone Dr, Springville, UT 84663","precinct":"25SE03","hd":"63","v_score":"2.315214949","decile":"5","lat":40.16045330629055,"lng":-111.50929456700969,"phone":"(367) 843-7963","sd":"26","ssbd":"13","lsbd":"School Board Nebo 2"},{"vid":"6493429","name":"Cathie Miller","party":"Rep","address":"1672 S Hobble Creek Haven Rd, Springville, UT 84663","precinct":"25SE03","hd":"63","v_score":"11.30609121","decile":"9","lat":40.20097273437956,"lng":-111.50050346766665,"phone":"(562) 475-6433","sd":"26","ssbd":"13","lsbd":"School Board Nebo 2"},{"vid":"6502114","name":"Ethie Skiles","party":"","address":"1647 S Hobble Creek Haven Rd, Springville, UT 84663","precinct":"25SE03","hd":"63","v_score":"7.947838735","decile":"8","lat":40.20144847349848,"lng":-111.49908836171204,"phone":"(708) 328-9304","sd":"26","ssbd":"13","lsbd":"School Board Nebo 2"},{"vid":"6505351","name":"Kennth Hermiston","party":"Dem","address":"1612 S Hobble Creek Haven Rd, Springville, UT 84663","precinct":"25SE03","hd":"63","v_score":"5.40460374","decile":"7","lat":40.20203180718664,"lng":-111.50054759871395,"phone":"(289) 988-4813","sd":"26","ssbd":"13","lsbd":"School Board Nebo 2"},{"vid":"6521939","name":"Ellis Crona","party":"Dem","address":"57 N Meadow Dr, Springville, UT 84663","precinct":"25SE03","hd":"63","v_score":"6.74007049","decile":"8","lat":40.23340665217233,"lng":-111.47748657611102,"phone":"(197) 485-1803","sd":"26","ssbd":"13","lsbd":"School Board Nebo 2"},{"vid":"6523682","name":"Hakim Nicolas","party":"","address":"1589 S Hobble Creek Haven Rd, Springville, UT 84663","precinct":"25SE03","hd":"63","v_score":"8.347511332","decile":"8","lat":40.202537114078126,"lng":-111.49927231979389,"phone":"(646) 493-6102","sd":"26","ssbd":"13","lsbd":"School Board Nebo 2"}]