[{"id":"885","name":"Jaquez Beier","party":"Dem","address":"3346 W 5200 S, Spanish Fork, UT 84660","precinct":"25SE21","hd":"64","v_score":"0","decile":"1","lat":40.136496316935,"lng":-111.733989667034},{"id":"3767","name":"Grover Blanda","party":"Dem","address":"5991 S River Ln, Lake Shore, UT 84660","precinct":"25SE21","hd":"64","v_score":"1.193887297","decile":"3","lat":40.122224901056,"lng":-111.706785980113},{"id":"8227","name":"Dr. Roxann Upton PhD","party":"","address":"6181 S 4400 W, Lake Shore, UT 84660","precinct":"25SE21","hd":"64","v_score":"2.315214949","decile":"5","lat":40.118555972176,"lng":-111.759280923182},{"id":"10857","name":"Dr. Ashely Donnelly MD","party":"Rep","address":"6249 S 3200 W, Lake Shore, UT 84660","precinct":"25SE21","hd":"64","v_score":"0","decile":"1","lat":40.117299270044,"lng":-111.730368394959},{"id":"11963","name":"Heidi Hermiston-Fahey","party":"","address":"2434 W 5600 S, Lake Shore, UT 84660","precinct":"25SE21","hd":"64","v_score":"3.93832808","decile":"6","lat":40.12936896284,"lng":-111.711275575515},{"id":"15968","name":"Jaycie Adams","party":"Rep","address":"3726 W 6400 S, Lake Shore, UT 84660","precinct":"25SE21","hd":"64","v_score":"3.781490609","decile":"6","lat":40.114659444911,"lng":-111.743089656193},{"id":"20004","name":"Sina Kassulke","party":"Dem","address":"4345 S 3200 W, Lake Shore, UT 84660","precinct":"25SE21","hd":"64","v_score":"6.481563075","decile":"7","lat":40.151993765697,"lng":-111.730386290141},{"id":"20688","name":"Martez Murray","party":"","address":"3724 W 5600 S, Spanish Fork, UT 84660","precinct":"25SE21","hd":"64","v_score":"9.699007114","decile":"8","lat":40.129206318451,"lng":-111.742962923436},{"id":"22596","name":"Lucetta Bode","party":"Dem","address":"3374 W 6400 S, Lake Shore, UT 84660","precinct":"25SE21","hd":"64","v_score":"2.315214949","decile":"5","lat":40.114678095408,"lng":-111.734598110917},{"id":"27057","name":"Mrs. Lulu Waelchi","party":"Dem","address":"2686 W 6000 S, Lake Shore, UT 84660","precinct":"25SE21","hd":"64","v_score":"13.31675312","decile":"9","lat":40.122022408948,"lng":-111.718212126343},{"id":"31909","name":"Thurlow Sipes","party":"","address":"2686 W 6000 S, Lake Shore, UT 84660","precinct":"25SE21","hd":"64","v_score":"1.193887297","decile":"3","lat":40.122022408948,"lng":-111.718212126343},{"id":"33236","name":"Bobbie Bashirian IV","party":"","address":"3145 W 5600 S, Lake Shore, UT 84660","precinct":"25SE21","hd":"64","v_score":"9.03120571","decile":"8","lat":40.129119778959,"lng":-111.729096292377},{"id":"34291","name":"Jedediah Johnston MD","party":"Rep","address":"4914 S River Ln, Spanish Fork, UT 84660","precinct":"25SE21","hd":"64","v_score":"2.817000428","decile":"6","lat":40.141191069581,"lng":-111.717168974746},{"id":"38139","name":"Mrs. Villa Miller PhD","party":"","address":"3534 W 5600 S, Lake Shore, UT 84660","precinct":"25SE21","hd":"64","v_score":"1.46627566","decile":"4","lat":40.129209308013,"lng":-111.738416091296},{"id":"38544","name":"Devante Leuschke","party":"","address":"3064 W 6400 S, Lake Shore, UT 84660","precinct":"25SE21","hd":"64","v_score":"4.192796624","decile":"7","lat":40.114706919469,"lng":-111.727341662055},{"id":"38647","name":"Lindy Mitchell","party":"Dem","address":"5649 S River Ln, Lake Shore, UT 84660","precinct":"25SE21","hd":"64","v_score":"0","decile":"1","lat":40.128375129236,"lng":-111.707437042406},{"id":"39016","name":"Johnie Beahan","party":"","address":"2112 W 6400 S, Lake Shore, UT 84660","precinct":"25SE21","hd":"64","v_score":"15.88669964","decile":"9","lat":40.114836769158,"lng":-111.704813761547},{"id":"39841","name":"Dr. Javion Larson DDS","party":"","address":"5451 S River Ln, Lake Shore, UT 84660","precinct":"25SE21","hd":"64","v_score":"2.315214949","decile":"5","lat":40.132518587778,"lng":-111.708194036692},{"id":"41180","name":"Vicky Powlowski","party":"Dem","address":"2845 W 5600 S, Lake Shore, UT 84660","precinct":"25SE21","hd":"64","v_score":"5.287675778","decile":"7","lat":40.129172484624,"lng":-111.722082854916},{"id":"41266","name":"Orlando Spinka","party":"Dem","address":"2992 W 5600 S, Lake Shore, UT 84660","precinct":"25SE21","hd":"64","v_score":"2.587603312","decile":"5","lat":40.129264387519,"lng":-111.725102718459},{"id":"41973","name":"Ms. Gracie Bogisich","party":"Dem","address":"2149 W River Dr, Lake Shore, UT 84660","precinct":"25SE21","hd":"64","v_score":"2.315214949","decile":"5","lat":40.121482269461,"lng":-111.705118634654},{"id":"42257","name":"Rube Donnelly","party":"","address":"2633 W 6000 S, Lake Shore, UT 84660","precinct":"25SE21","hd":"64","v_score":"0","decile":"1","lat":40.12191432179,"lng":-111.717083597424},{"id":"42681","name":"Bert Ebert-Crist","party":"","address":"4022 W 5600 S, Lake Shore, UT 84660","precinct":"25SE21","hd":"64","v_score":"7.385975436","decile":"8","lat":40.129205251918,"lng":-111.750215421881},{"id":"47427","name":"Sumner Gottlieb","party":"","address":"3795 W 5200 S, Spanish Fork, UT 84660","precinct":"25SE21","hd":"64","v_score":"0","decile":"1","lat":40.13638172635,"lng":-111.744505215747},{"id":"51747","name":"Alyssia Jast DVM","party":"","address":"1836 W 6400 S, Lake Shore, UT 84660","precinct":"25SE21","hd":"64","v_score":"1.46627566","decile":"4","lat":40.114908549424,"lng":-111.698296101856},{"id":"55756","name":"Coen Konopelski","party":"Dem","address":"4076 W 5600 S, Lake Shore, UT 84660","precinct":"25SE21","hd":"64","v_score":"0","decile":"1","lat":40.129178233866,"lng":-111.751605322002},{"id":"56071","name":"Ami Huels","party":"Rep","address":"6101 S 2400 W, Lake Shore, UT 84660","precinct":"25SE21","hd":"64","v_score":"0","decile":"1","lat":40.120523928245,"lng":-111.711463700944},{"id":"57830","name":"Nya Wuckert","party":"Dem","address":"5045 S River Ln, Lake Shore, UT 84660","precinct":"25SE21","hd":"64","v_score":"4.858449944","decile":"7","lat":40.139582139529,"lng":-111.713471902149},{"id":"58346","name":"Veronica Murphy-Hickle","party":"","address":"4698 S 3500 W, Lake Shore, UT 84660","precinct":"25SE21","hd":"64","v_score":"1.121327652","decile":"3","lat":40.144198112876,"lng":-111.737600183982},{"id":"58605","name":"Alwina Heidenreich","party":"Dem","address":"3064 W 6400 S, Spanish Fork, UT 84660","precinct":"25SE21","hd":"64","v_score":"6.881235673","decile":"8","lat":40.114706919469,"lng":-111.727341662055},{"id":"64029","name":"Adalynn Cartwright","party":"","address":"5963 S 3200 W, Lake Shore, UT 84660","precinct":"25SE21","hd":"64","v_score":"0","decile":"1","lat":40.122600178309,"lng":-111.730366763088},{"id":"64181","name":"Reggie Schmeler","party":"Rep","address":"3858 W 6400 S, Spanish Fork, UT 84660","precinct":"25SE21","hd":"64","v_score":"3.737122292","decile":"6","lat":40.114656507106,"lng":-111.746203979943},{"id":"64227","name":"Leopold Moore","party":"Rep","address":"3692 W 5600 S, Lake Shore, UT 84660","precinct":"25SE21","hd":"64","v_score":"0","decile":"1","lat":40.129206318394,"lng":-111.742219153367},{"id":"68197","name":"Dylon Ryan","party":"Dem","address":"4360 S 3200 W, Lake Shore, UT 84660","precinct":"25SE21","hd":"64","v_score":"1.121327652","decile":"3","lat":40.15176246468,"lng":-111.730534076425},{"id":"70665","name":"Bridger Beatty-Eichmann","party":"Rep","address":"3425 W 6050 S, Benjamin, UT 84660","precinct":"25SE21","hd":"64","v_score":"3.93832808","decile":"6","lat":40.121175166823,"lng":-111.735823120763},{"id":"78056","name":"Avah Baumbach","party":"","address":"2633 W 6000 S, Lake Shore, UT 84660","precinct":"25SE21","hd":"64","v_score":"1.121327652","decile":"3","lat":40.12191432179,"lng":-111.717083597424},{"id":"80124","name":"Dr. Jettie Jakubowski DDS","party":"Dem","address":"4302 W 6000 S, Lake Shore, UT 84660","precinct":"25SE21","hd":"64","v_score":"2.315214949","decile":"5","lat":40.121829830438,"lng":-111.756762143814},{"id":"80963","name":"Kasen Gulgowski","party":"Dem","address":"3852 W 5600 S, Lake Shore, UT 84660","precinct":"25SE21","hd":"64","v_score":"1.193887297","decile":"3","lat":40.129208680451,"lng":-111.745937812356},{"id":"85375","name":"Mozelle Stehr","party":"","address":"3022 W 6400 S, Lake Shore, UT 84660","precinct":"25SE21","hd":"64","v_score":"0","decile":"1","lat":40.11471230344,"lng":-111.726391378529},{"id":"87986","name":"Karel Boyle-Roob","party":"Rep","address":"5310 S 3200 W, Lake Shore, UT 84660","precinct":"25SE21","hd":"64","v_score":"0","decile":"1","lat":40.134403574365,"lng":-111.730506083292},{"id":"88209","name":"Theola Emmerich DDS","party":"","address":"3812 W 5600 S, Lake Shore, UT 84660","precinct":"25SE21","hd":"64","v_score":"0","decile":"1","lat":40.129206901031,"lng":-111.74500810262},{"id":"89448","name":"Shelba Schneider","party":"Rep","address":"4373 S 3200 W, Lake Shore, UT 84660","precinct":"25SE21","hd":"64","v_score":"0","decile":"1","lat":40.151527593831,"lng":-111.730381963781},{"id":"92918","name":"Miss Djuana Collins","party":"Rep","address":"2845 W 5600 S, Lake Shore, UT 84660","precinct":"25SE21","hd":"64","v_score":"1.623113131","decile":"5","lat":40.129172484624,"lng":-111.722082854916},{"id":"95807","name":"Regan Streich-Zieme","party":"Dem","address":"3534 W 5600 S, Lake Shore, UT 84660","precinct":"25SE21","hd":"64","v_score":"2.817000428","decile":"6","lat":40.129209308013,"lng":-111.738416091296},{"id":"97948","name":"Mr. Harrell Torp","party":"Rep","address":"3534 W 5600 S, Lake Shore, UT 84660","precinct":"25SE21","hd":"64","v_score":"2.817000428","decile":"6","lat":40.129209308013,"lng":-111.738416091296},{"id":"98962","name":"Texanna Schuppe","party":"Rep","address":"2523 W 6000 S, Spanish Fork, UT 84660","precinct":"25SE21","hd":"64","v_score":"1.193887297","decile":"4","lat":40.121929007392,"lng":-111.714536835993},{"id":"101098","name":"Dr. Kerry Gibson","party":"","address":"4072 W 6400 S, Spanish Fork, UT 84660","precinct":"25SE21","hd":"64","v_score":"0","decile":"2","lat":40.114635287099,"lng":-111.751390805618},{"id":"106338","name":"Ean Volkman V","party":"Rep","address":"4022 W 6400 S, Spanish Fork, UT 84660","precinct":"25SE21","hd":"64","v_score":"0","decile":"2","lat":40.114653320664,"lng":-111.750186098716},{"id":"106348","name":"Yee Jerde","party":"","address":"3242 W 6050 S, Spanish Fork, UT 84660","precinct":"25SE21","hd":"64","v_score":"0","decile":"2","lat":40.121330261698,"lng":-111.731510392551},{"id":"107816","name":"Delmus Conn","party":"Dem","address":"4898 S 3500 W, Spanish Fork, UT 84660","precinct":"25SE21","hd":"64","v_score":"0","decile":"2","lat":40.141959790659,"lng":-111.737546703832},{"id":"113540","name":"Blair Heidenreich PhD","party":"Dem","address":"6155 S 2400 W, Spanish Fork, UT 84660","precinct":"25SE21","hd":"64","v_score":"0","decile":"2","lat":40.119484626004,"lng":-111.711458904299},{"id":"113950","name":"Whitney Schinner","party":"","address":"3795 W 5200 S, Spanish Fork, UT 84660","precinct":"25SE21","hd":"64","v_score":"0","decile":"2","lat":40.13638172635,"lng":-111.744505215747},{"id":"117472","name":"Lorrayne Hammes","party":"Rep","address":"3242 W 6050 S, Spanish Fork, UT 84660","precinct":"25SE21","hd":"64","v_score":"0","decile":"2","lat":40.121330261698,"lng":-111.731510392551},{"id":"119542","name":"Antwon Pagac","party":"Dem","address":"2686 W 6000 S, Lake Shore, UT 84660","precinct":"25SE21","hd":"64","v_score":"1.193887297","decile":"4","lat":40.122022408948,"lng":-111.718212126343},{"id":"123083","name":"Shandra Ondricka","party":"Rep","address":"3692 W 5600 S, Spanish Fork, UT 84660","precinct":"25SE21","hd":"64","v_score":"1.193887297","decile":"4","lat":40.129206318394,"lng":-111.742219153367},{"id":"124751","name":"Emerson Windler","party":"Rep","address":"6245 S 3200 W, Spanish Fork, UT 84660","precinct":"25SE21","hd":"64","v_score":"0","decile":"2","lat":40.117380226914,"lng":-111.730368304796},{"id":"125295","name":"Linna Nitzsche","party":"Rep","address":"5795 S 3600 W, Spanish Fork, UT 84660","precinct":"25SE21","hd":"64","v_score":"0","decile":"2","lat":40.125679975863,"lng":-111.739939420578},{"id":"128815","name":"Monty Spinka","party":"","address":"3338 W 6050 S, Spanish Fork, UT 84660","precinct":"25SE21","hd":"64","v_score":"0","decile":"2","lat":40.121308892703,"lng":-111.733786208719},{"id":"129242","name":"Miya Bartell","party":"","address":"2686 W 6000 S, Spanish Fork, UT 84660","precinct":"25SE21","hd":"64","v_score":"0","decile":"2","lat":40.122022408948,"lng":-111.718212126343},{"id":"138670","name":"Isom Tillman","party":"","address":"4308 S 3200 W, Lake Shore, UT 84660","precinct":"25SE21","hd":"64","v_score":"7.947838735","decile":"8","lat":40.15267733287,"lng":-111.730542566963},{"id":"144565","name":"Santina Corwin","party":"Rep","address":"6004 S 3200 W, Lake Shore, UT 84660","precinct":"25SE21","hd":"64","v_score":"3.781490609","decile":"6","lat":40.121795769319,"lng":-111.730517525345},{"id":"146025","name":"Miss Yoshiko Sanford DDS","party":"Rep","address":"3858 W 6400 S, Spanish Fork, UT 84660","precinct":"25SE21","hd":"64","v_score":"17.32816772","decile":"9","lat":40.114656507106,"lng":-111.746203979943},{"id":"147359","name":"Dr. Jordi Lebsack","party":"Rep","address":"6207 S 2400 W, Lake Shore, UT 84660","precinct":"25SE21","hd":"64","v_score":"5.40460374","decile":"7","lat":40.118483816439,"lng":-111.711454285307},{"id":"148564","name":"Pheobe Rempel PhD","party":"Dem","address":"6181 S 4400 W, Lake Shore, UT 84660","precinct":"25SE21","hd":"64","v_score":"3.781490609","decile":"6","lat":40.118555972176,"lng":-111.759280923182},{"id":"148634","name":"Dr. Demario Russel Sr.","party":"Dem","address":"3534 W 5600 S, Spanish Fork, UT 84660","precinct":"25SE21","hd":"64","v_score":"5.40460374","decile":"7","lat":40.129209308013,"lng":-111.738416091296},{"id":"148978","name":"Cris Morar","party":"","address":"5893 S 3200 W, Lake Shore, UT 84660","precinct":"25SE21","hd":"64","v_score":"5.546183193","decile":"7","lat":40.12392188047,"lng":-111.730363814366},{"id":"148991","name":"Kieran Wuckert","party":"","address":"3102 W 5600 S, Lake Shore, UT 84660","precinct":"25SE21","hd":"64","v_score":"8.347511332","decile":"8","lat":40.129243290151,"lng":-111.727910103024},{"id":"149407","name":"Hall Kemmer","party":"Rep","address":"6245 S 3200 W, Spanish Fork, UT 84660","precinct":"25SE21","hd":"64","v_score":"5.815909755","decile":"7","lat":40.117380226914,"lng":-111.730368304796},{"id":"149626","name":"Jule Koch-Schoen","party":"Dem","address":"3085 W 5600 S, Lake Shore, UT 84660","precinct":"25SE21","hd":"64","v_score":"5.40460374","decile":"7","lat":40.129130320092,"lng":-111.727693604885},{"id":"149627","name":"Ismael Gorczany-Moen","party":"Dem","address":"5877 S 3200 W, Spanish Fork, UT 84660","precinct":"25SE21","hd":"64","v_score":"0","decile":"3","lat":40.124206143988,"lng":-111.730363577838},{"id":"149670","name":"Dr. Irvine Davis V","party":"","address":"3984 W 5600 S, Lake Shore, UT 84660","precinct":"25SE21","hd":"64","v_score":"5.40460374","decile":"7","lat":40.129214552535,"lng":-111.749005854483},{"id":"149671","name":"Todd Gerhold-Blanda","party":"Dem","address":"3984 W 5600 S, Lake Shore, UT 84660","precinct":"25SE21","hd":"64","v_score":"5.40460374","decile":"7","lat":40.129214552535,"lng":-111.749005854483},{"id":"150450","name":"Mr. Chalmers Littel","party":"Dem","address":"2471 W 6000 S, Lake Shore, UT 84660","precinct":"25SE21","hd":"64","v_score":"5.40460374","decile":"7","lat":40.121935949677,"lng":-111.713332912407},{"id":"151192","name":"Deontae Mills","party":"","address":"6005 S 3200 W, Spanish Fork, UT 84660","precinct":"25SE21","hd":"64","v_score":"1.193887297","decile":"4","lat":40.121808090661,"lng":-111.730367757392},{"id":"151880","name":"Damian Adams III","party":"","address":"3461 W 6050 S, Lake Shore, UT 84660","precinct":"25SE21","hd":"64","v_score":"1.121327652","decile":"3","lat":40.12116715345,"lng":-111.736676551826},{"id":"151926","name":"Tracee Upton","party":"Dem","address":"3102 W 5600 S, Lake Shore, UT 84660","precinct":"25SE21","hd":"64","v_score":"3.781490609","decile":"6","lat":40.129243290151,"lng":-111.727910103024},{"id":"152121","name":"Margaretta Harvey MD","party":"Rep","address":"3692 W 6400 S, Lake Shore, UT 84660","precinct":"25SE21","hd":"64","v_score":"1.121327652","decile":"3","lat":40.114660201619,"lng":-111.742287481893},{"id":"152992","name":"Miss Hayleigh Waelchi PhD","party":"Rep","address":"6226 S 4000 W, Lake Shore, UT 84660","precinct":"25SE21","hd":"64","v_score":"5.40460374","decile":"7","lat":40.117750388254,"lng":-111.749654848378},{"id":"152993","name":"Ms. Candy Durgan","party":"","address":"6226 S 4000 W, Lake Shore, UT 84660","precinct":"25SE21","hd":"64","v_score":"5.40460374","decile":"7","lat":40.117750388254,"lng":-111.749654848378},{"id":"154244","name":"Cristina Schneider","party":"Rep","address":"4345 S 3200 W, Lake Shore, UT 84660","precinct":"25SE21","hd":"64","v_score":"2.315214949","decile":"5","lat":40.151993765697,"lng":-111.730386290141},{"id":"154808","name":"Franc Reinger","party":"Rep","address":"3534 W 5600 S, Lake Shore, UT 84660","precinct":"25SE21","hd":"64","v_score":"7.947838735","decile":"8","lat":40.129209308013,"lng":-111.738416091296},{"id":"155913","name":"Brantley Simonis","party":"Rep","address":"5649 S River Ln, Lake Shore, UT 84660","precinct":"25SE21","hd":"64","v_score":"2.315214949","decile":"5","lat":40.128375129236,"lng":-111.707437042406},{"id":"155973","name":"Tennille Lubowitz DVM","party":"Dem","address":"5520 S 3200 W, Lake Shore, UT 84660","precinct":"25SE21","hd":"64","v_score":"5.40460374","decile":"7","lat":40.130627052663,"lng":-111.730508420735},{"id":"156134","name":"Mr. Austin Greenfelder Sr.","party":"Dem","address":"5381 S 3200 W, Lake Shore, UT 84660","precinct":"25SE21","hd":"64","v_score":"5.40460374","decile":"7","lat":40.133144679574,"lng":-111.730356974104},{"id":"156136","name":"Victory Bins","party":"","address":"5381 S 3200 W, Lake Shore, UT 84660","precinct":"25SE21","hd":"64","v_score":"5.40460374","decile":"7","lat":40.133144679574,"lng":-111.730356974104},{"id":"156339","name":"Merry Konopelski","party":"Rep","address":"4994 S River Ln, Lake Shore, UT 84660","precinct":"25SE21","hd":"64","v_score":"0","decile":"3","lat":40.140172062953,"lng":-111.71508735175},{"id":"157478","name":"Sallie Bernhard","party":"Rep","address":"5992 S 3200 W, Lake Shore, UT 84660","precinct":"25SE21","hd":"64","v_score":"7.947838735","decile":"8","lat":40.122067918981,"lng":-111.73051791161},{"id":"157600","name":"Alfonzo Schowalter","party":"Rep","address":"3534 W 5600 S, Lake Shore, UT 84660","precinct":"25SE21","hd":"64","v_score":"5.40460374","decile":"7","lat":40.129209308013,"lng":-111.738416091296},{"id":"157639","name":"Clarissa Swaniawski","party":"","address":"5495 S 3200 W, Lake Shore, UT 84660","precinct":"25SE21","hd":"64","v_score":"16.15945023","decile":"9","lat":40.131094567794,"lng":-111.730358243001},{"id":"157847","name":"Pearla Treutel","party":"Rep","address":"4360 S 3200 W, Lake Shore, UT 84660","precinct":"25SE21","hd":"64","v_score":"5.360235423","decile":"7","lat":40.15176246468,"lng":-111.730534076425},{"id":"158346","name":"Johan Smitham-Blick","party":"Dem","address":"5495 S 3200 W, Spanish Fork, UT 84660","precinct":"25SE21","hd":"64","v_score":"3.93832808","decile":"6","lat":40.131094567794,"lng":-111.730358243001},{"id":"158801","name":"Elsa Nolan","party":"Dem","address":"5520 S 3200 W, Lake Shore, UT 84660","precinct":"25SE21","hd":"64","v_score":"3.781490609","decile":"6","lat":40.130627052663,"lng":-111.730508420735},{"id":"158995","name":"Dr. Burt Kertzmann DVM","party":"Rep","address":"4951 S River Ln, Spanish Fork, UT 84660","precinct":"25SE21","hd":"64","v_score":"12.6510998","decile":"9","lat":40.140297936749,"lng":-111.716225410563},{"id":"159247","name":"Mr. Male McGlynn Sr.","party":"Rep","address":"2312 W 5600 S, Lake Shore, UT 84660","precinct":"25SE21","hd":"64","v_score":"7.947838735","decile":"8","lat":40.129373718383,"lng":-111.709140263897},{"id":"159412","name":"Mr. Ramsey Welch III","party":"Dem","address":"2845 W 5600 S, Lake Shore, UT 84660","precinct":"25SE21","hd":"64","v_score":"7.153624035","decile":"8","lat":40.129172484624,"lng":-111.722082854916},{"id":"159523","name":"Sunday Pfeffer PhD","party":"Dem","address":"5792 S 3200 W, Lake Shore, UT 84660","precinct":"25SE21","hd":"64","v_score":"7.947838735","decile":"8","lat":40.125698600365,"lng":-111.730512196422},{"id":"160089","name":"Theresa Dach","party":"Dem","address":"6229 S 2400 W, Lake Shore, UT 84660","precinct":"25SE21","hd":"64","v_score":"5.40460374","decile":"7","lat":40.118060397008,"lng":-111.711452331118},{"id":"160599","name":"Elmer Friesen","party":"Rep","address":"2561 W 6000 S, Lake Shore, UT 84660","precinct":"25SE21","hd":"64","v_score":"7.947838735","decile":"8","lat":40.121923934184,"lng":-111.715416626305},{"id":"161627","name":"Mr. Zion Willms","party":"","address":"2523 W 6000 S, Lake Shore, UT 84660","precinct":"25SE21","hd":"64","v_score":"3.93832808","decile":"6","lat":40.121929007392,"lng":-111.714536835993},{"id":"162058","name":"Spring Konopelski","party":"","address":"3575 W 6050 S, Lake Shore, UT 84660","precinct":"25SE21","hd":"64","v_score":"5.40460374","decile":"7","lat":40.121141777769,"lng":-111.739379083526},{"id":"162368","name":"Mr. Rowland Medhurst","party":"Rep","address":"5991 S River Ln, Lake Shore, UT 84660","precinct":"25SE21","hd":"64","v_score":"5.40460374","decile":"7","lat":40.122224901056,"lng":-111.706785980113},{"id":"162369","name":"Eusebio Davis","party":"Dem","address":"6111 S 3200 W, Lake Shore, UT 84660","precinct":"25SE21","hd":"64","v_score":"0","decile":"3","lat":40.120092282059,"lng":-111.730365284341},{"id":"163272","name":"Dr. Sylvan Stracke","party":"Dem","address":"4022 W 6400 S, Lake Shore, UT 84660","precinct":"25SE21","hd":"64","v_score":"3.93832808","decile":"6","lat":40.114653320664,"lng":-111.750186098716},{"id":"165323","name":"Miss Beyonce Kertzmann","party":"Rep","address":"3795 W 5200 S, Spanish Fork, UT 84660","precinct":"25SE21","hd":"64","v_score":"1.46627566","decile":"4","lat":40.13638172635,"lng":-111.744505215747},{"id":"165510","name":"Collin Stiedemann II","party":"Dem","address":"3534 W 5600 S, Spanish Fork, UT 84660","precinct":"25SE21","hd":"64","v_score":"7.947838735","decile":"8","lat":40.129209308013,"lng":-111.738416091296},{"id":"165743","name":"Ivanna Schoen","party":"Rep","address":"3461 W 6050 S, Lake Shore, UT 84660","precinct":"25SE21","hd":"64","v_score":"1.121327652","decile":"3","lat":40.12116715345,"lng":-111.736676551826},{"id":"166347","name":"Plummer Barton","party":"","address":"2992 W 5600 S, Lake Shore, UT 84660","precinct":"25SE21","hd":"64","v_score":"5.40460374","decile":"7","lat":40.129264387519,"lng":-111.725102718459},{"id":"166510","name":"Alverta Roberts","party":"","address":"6085 S 2800 W, Lake Shore, UT 84660","precinct":"25SE21","hd":"64","v_score":"2.315214949","decile":"5","lat":40.120383098515,"lng":-111.720924552353},{"id":"168774","name":"Eileen Marvin","party":"Rep","address":"6005 S 3200 W, Lake Shore, UT 84660","precinct":"25SE21","hd":"64","v_score":"0","decile":"3","lat":40.121808090661,"lng":-111.730367757392},{"id":"169471","name":"Dr. Otis Mann Jr.","party":"Dem","address":"6195 S 3200 W, Lake Shore, UT 84660","precinct":"25SE21","hd":"64","v_score":"10.38488476","decile":"9","lat":40.118392187789,"lng":-111.730367177761},{"id":"170454","name":"Mr. Justin Littel DVM","party":"","address":"2288 W 6400 S, Lake Shore, UT 84660","precinct":"25SE21","hd":"64","v_score":"5.40460374","decile":"7","lat":40.114807284792,"lng":-111.70889001756},{"id":"170848","name":"Dr. Yolanda Fritsch PhD","party":"Rep","address":"2561 W 6000 S, Lake Shore, UT 84660","precinct":"25SE21","hd":"64","v_score":"2.315214949","decile":"5","lat":40.121923934184,"lng":-111.715416626305},{"id":"170913","name":"Dr. Mikal Bauch","party":"Rep","address":"6297 S 3200 W, Lake Shore, UT 84660","precinct":"25SE21","hd":"64","v_score":"13.61621523","decile":"9","lat":40.116409052063,"lng":-111.730369897817},{"id":"171725","name":"Miss Campbell Brekke DDS","party":"Rep","address":"2288 W 6400 S, Spanish Fork, UT 84660","precinct":"25SE21","hd":"64","v_score":"5.40460374","decile":"7","lat":40.114807284792,"lng":-111.70889001756},{"id":"172183","name":"Ebbie Heathcote","party":"Dem","address":"2758 W 6000 S, Lake Shore, UT 84660","precinct":"25SE21","hd":"64","v_score":"2.315214949","decile":"5","lat":40.12201234123,"lng":-111.719958059251},{"id":"174646","name":"Virge Ritchie","party":"Rep","address":"3346 W 5200 S, Lake Shore, UT 84660","precinct":"25SE21","hd":"64","v_score":"6.481563075","decile":"7","lat":40.136496316935,"lng":-111.733989667034},{"id":"174720","name":"Loreen Kiehn","party":"Rep","address":"2633 W 6000 S, Lake Shore, UT 84660","precinct":"25SE21","hd":"64","v_score":"3.93832808","decile":"6","lat":40.12191432179,"lng":-111.717083597424},{"id":"178102","name":"Juliana Smith","party":"Rep","address":"3304 W 6050 S, Lake Shore, UT 84660","precinct":"25SE21","hd":"64","v_score":"7.947838735","decile":"8","lat":40.121316460889,"lng":-111.732980190493},{"id":"178399","name":"Janae Breitenberg","party":"Rep","address":"6195 S 3200 W, Lake Shore, UT 84660","precinct":"25SE21","hd":"64","v_score":"5.40460374","decile":"7","lat":40.118392187789,"lng":-111.730367177761},{"id":"178463","name":"Bryson Terry","party":"","address":"5381 S 3200 W, Spanish Fork, UT 84660","precinct":"25SE21","hd":"64","v_score":"1.193887297","decile":"4","lat":40.133144679574,"lng":-111.730356974104},{"id":"179620","name":"Tyson Mohr-Wiegand","party":"","address":"2471 W 6000 S, Lake Shore, UT 84660","precinct":"25SE21","hd":"64","v_score":"5.40460374","decile":"7","lat":40.121935949677,"lng":-111.713332912407},{"id":"179983","name":"Mrs. Carolyne McClure PhD","party":"","address":"2149 W River Dr, Lake Shore, UT 84660","precinct":"25SE21","hd":"64","v_score":"2.315214949","decile":"5","lat":40.121482269461,"lng":-111.705118634654},{"id":"180093","name":"Luanne Schmeler","party":"","address":"2162 W 6400 S, Lake Shore, UT 84660","precinct":"25SE21","hd":"64","v_score":"1.193887297","decile":"4","lat":40.114828392917,"lng":-111.705971788823},{"id":"180113","name":"Addison O'Reilly-Pacocha","party":"Dem","address":"6297 S 3200 W, Lake Shore, UT 84660","precinct":"25SE21","hd":"64","v_score":"13.61621523","decile":"9","lat":40.116409052063,"lng":-111.730369897817},{"id":"180121","name":"Dr. Konner Brekke V","party":"","address":"4345 S 3200 W, Lake Shore, UT 84660","precinct":"25SE21","hd":"64","v_score":"2.315214949","decile":"5","lat":40.151993765697,"lng":-111.730386290141},{"id":"180214","name":"Dorris O'Kon","party":"","address":"2244 W 6400 S, Lake Shore, UT 84660","precinct":"25SE21","hd":"64","v_score":"8.347511332","decile":"8","lat":40.114814655883,"lng":-111.707870953557},{"id":"181069","name":"Irena Hills-Vandervort","party":"Dem","address":"4934 S 3200 W, Lake Shore, UT 84660","precinct":"25SE21","hd":"64","v_score":"5.40460374","decile":"7","lat":40.141310232524,"lng":-111.730510796462}]