[{"vid":"1244117","name":"Ms. Haruko Predovic DVM","party":"Dem","address":"9544 S Orton Rd, Salem, UT 84653","precinct":"25SE13","hd":"64","v_score":"0","decile":"1","lat":40.057600021184456,"lng":-111.65303038853645},{"vid":"1278715","name":"Bobbi Hills","party":"","address":"6424 S 4000 W, Spanish Fork, UT 84660","precinct":"25SE13","hd":"64","v_score":"3.93832808","decile":"6","lat":40.114350151036625,"lng":-111.75047368375299},{"vid":"1317164","name":"Steward Crona","party":"Rep","address":"579 E 10000 S, Salem, UT 84653","precinct":"25SE13","hd":"64","v_score":"8.507303088","decile":"8","lat":40.04990831135327,"lng":-111.64017358067751},{"vid":"377dab0f56b97d5f6388598fce6705bc351fadb0acd84a9f35b277f5497b6ecc","name":"Saint O'Keefe","party":"","address":"6832 S 1050 W, Spanish Fork, UT 84660","precinct":"25SE13","hd":"64","v_score":"2.315214949","decile":"5","lat":40.10760497157306,"lng":-111.68092485402063},{"vid":"1335747","name":"Cannie Marvin","party":"","address":"3382 W 7300 S, Benjamin, UT 84660","precinct":"25SE13","hd":"64","v_score":"10.89074633","decile":"9","lat":40.0986896913341,"lng":-111.7347493142055},{"vid":"1339825","name":"Arba Cassin-Hartmann","party":"Dem","address":"7707 S 2200 W, Spanish Fork, UT 84660","precinct":"25SE13","hd":"64","v_score":"1.193887297","decile":"3","lat":40.09076011148152,"lng":-111.70802282677523},{"vid":"1384800","name":"Meadow Zulauf","party":"","address":"1991 W 6400 S, Benjamin, UT 84660","precinct":"25SE13","hd":"64","v_score":"2.315214949","decile":"5","lat":40.11387887511335,"lng":-111.7014065386953},{"vid":"16a059c2b9415aa96de3fe16462392a4c36ad54d4a928d2fa417d6af313abcdc","name":"Hugh Becker","party":"Dem","address":"4291 W 6400 S, Spanish Fork, UT 84660","precinct":"25SE13","hd":"64","v_score":"1.121327652","decile":"3","lat":40.11154898659273,"lng":-111.7556598063316},{"vid":"1441580","name":"Hillery Haag","party":"","address":"242 E 9800 S, Salem, UT 84653","precinct":"25SE13","hd":"64","v_score":"2.315214949","decile":"5","lat":40.05260202268978,"lng":-111.64852443693532},{"vid":"1087b100650774934fe47644ed4d0438c8708fdbcf4ad52e168065fe4ca1cf3e","name":"Tammy Ferry","party":"Dem","address":"7096 S 2124 W, Benjamin, UT 84660","precinct":"25SE13","hd":"64","v_score":"2.315214949","decile":"5","lat":40.10285970962982,"lng":-111.70664330414135},{"vid":"25a925cde035ce1ac84a0652fa4d939cb2116916cf056de0026a1d02a111e9f1","name":"Gonzalo Spinka","party":"","address":"6495 S 3200 W, Benjamin, UT 84660","precinct":"25SE13","hd":"64","v_score":"3.781490609","decile":"6","lat":40.11307769716446,"lng":-111.73024199132321},{"vid":"1794102","name":"Ritchie Denesik","party":"","address":"7104 S 4000 W, Benjamin, UT 84660","precinct":"25SE13","hd":"64","v_score":"5.40460374","decile":"7","lat":40.101785962532496,"lng":-111.75003801644839},{"vid":"1795701","name":"Payton Funk-Boyer","party":"Rep","address":"7183 S 3200 W, Benjamin, UT 84660","precinct":"25SE13","hd":"64","v_score":"2.315214949","decile":"5","lat":40.10030718772778,"lng":-111.72945282008422},{"vid":"eb65e2c67ce054667c35deb2f48e3af94b3df14d4f09caf4720df218230869a1","name":"Fabian Wiegand","party":"","address":"7055 S 4000 W, Benjamin, UT 84660","precinct":"25SE13","hd":"64","v_score":"7.947838735","decile":"8","lat":40.102699685248226,"lng":-111.74863735691785},{"vid":"1814917","name":"Dylan O'Conner","party":"Dem","address":"7348 S 1600 W, Spanish Fork, UT 84660","precinct":"25SE13","hd":"64","v_score":"0","decile":"1","lat":40.09691695873716,"lng":-111.69357638792425},{"vid":"1834400","name":"Hans Fritsch","party":"","address":"176 E 9800 S, Salem, UT 84653","precinct":"25SE13","hd":"64","v_score":"5.40460374","decile":"7","lat":40.05252903153816,"lng":-111.65005105487272},{"vid":"1835488","name":"Maxwell Crona","party":"Rep","address":"242 E 9800 S, Salem, UT 84653","precinct":"25SE13","hd":"64","v_score":"0","decile":"1","lat":40.05260202268978,"lng":-111.64852443693532},{"vid":"1854590","name":"Sharon Zemlak-Kerluke","party":"Rep","address":"6415 S 1050 W, Benjamin, UT 84660","precinct":"25SE13","hd":"64","v_score":"2.587603312","decile":"5","lat":40.114967882160755,"lng":-111.67893033447676},{"vid":"1860118","name":"Lillianna Dooley","party":"","address":"112 E 8800 S, Salem, UT 84660","precinct":"25SE13","hd":"64","v_score":"5.40460374","decile":"7","lat":40.06958790326183,"lng":-111.65128920955335},{"vid":"1860847","name":"Bena Rowe","party":"Dem","address":"3405 W 6400 S, Benjamin, UT 84660","precinct":"25SE13","hd":"64","v_score":"13.32779236","decile":"9","lat":40.114114007190224,"lng":-111.73542246288805},{"vid":"1867415","name":"Aydan Lubowitz-Gorczany","party":"Dem","address":"7183 S 3200 W, Benjamin, UT 84660","precinct":"25SE13","hd":"64","v_score":"1.193887297","decile":"3","lat":40.10030718772778,"lng":-111.72945282008422},{"vid":"1880753","name":"Jevon Crist-Mitchell","party":"","address":"9933 S 400 E, Salem, UT 84653","precinct":"25SE13","hd":"64","v_score":"3.93832808","decile":"6","lat":40.05056804883733,"lng":-111.6434174040523},{"vid":"1889934","name":"Emanuel Gottlieb","party":"","address":"2022 W 6800 S, Spanish Fork, UT 84660","precinct":"25SE13","hd":"64","v_score":"15.1568338","decile":"9","lat":40.109651595220164,"lng":-111.70243403207658},{"vid":"1941709","name":"Margarett Braun","party":"Rep","address":"6981 S 3200 W, Benjamin, UT 84660","precinct":"25SE13","hd":"64","v_score":"3.93832808","decile":"6","lat":40.104058204478,"lng":-111.7300241967289},{"vid":"1945511","name":"Karim Johnston-Mayert","party":"","address":"1991 W 6400 S, Spanish Fork, UT 84660","precinct":"25SE13","hd":"64","v_score":"1.193887297","decile":"3","lat":40.11387887511335,"lng":-111.7014065386953},{"vid":"2034465","name":"Roslyn Von","party":"","address":"125 E 10000 S, Salem, UT 84653","precinct":"25SE13","hd":"64","v_score":"3.93832808","decile":"6","lat":40.0507334390897,"lng":-111.65097335260832},{"vid":"2041657","name":"Cristi Pouros","party":"Rep","address":"6759 S 2400 W, Spanish Fork, UT 84660","precinct":"25SE13","hd":"64","v_score":"13.13914226","decile":"9","lat":40.10792281025226,"lng":-111.71069444104835},{"vid":"2059652","name":"Odus Sipes","party":"Dem","address":"9933 S 400 E, Salem, UT 84653","precinct":"25SE13","hd":"64","v_score":"6.881235673","decile":"8","lat":40.05056804883733,"lng":-111.6434174040523},{"vid":"2069379","name":"Mr. Stan Brown","party":"","address":"3312 W 7300 S, Benjamin, UT 84660","precinct":"25SE13","hd":"64","v_score":"6.462591196","decile":"7","lat":40.09852519642583,"lng":-111.73414984403355},{"vid":"2071092","name":"Savanna Heidenreich","party":"Rep","address":"112 E 8800 S, Salem, UT 84660","precinct":"25SE13","hd":"64","v_score":"1.193887297","decile":"3","lat":40.06958790326183,"lng":-111.65128920955335},{"vid":"2083692","name":"Sudie Schimmel-Ullrich","party":"","address":"3841 W 6800 S, Benjamin, UT 84660","precinct":"25SE13","hd":"64","v_score":"1.121327652","decile":"3","lat":40.10595439813876,"lng":-111.74559647499886},{"vid":"962c00459b4ff5de544351f344b44c4126a627e004cabaa98d8d2670e4652b13","name":"Israel Brown I","party":"Dem","address":"3443 W 6400 S, Benjamin, UT 84660","precinct":"25SE13","hd":"64","v_score":"2.315214949","decile":"5","lat":40.11365211248822,"lng":-111.73585885870384},{"vid":"eab950e18cf03948c7b8dfdab796f3c3ddb4bce4e7600b80ee45182454d20a5a","name":"Jeff Farrell DDS","party":"Dem","address":"9415 S Orton Rd, Salem, UT 84653","precinct":"25SE13","hd":"64","v_score":"0","decile":"1","lat":40.06023581498797,"lng":-111.65140778795367},{"vid":"2108655","name":"Clemente Altenwerth","party":"Rep","address":"6608 S 2400 W, Benjamin, UT 84660","precinct":"25SE13","hd":"64","v_score":"10.45526114","decile":"9","lat":40.1108579764491,"lng":-111.71378935228445},{"vid":"ef5bdacab867cdc17c3bcbb37746d8d3d99ac4303b3f3aad0d9d52142235bc49","name":"Lesa Keeling","party":"Dem","address":"7256 S 2650 W, Benjamin, UT 84660","precinct":"25SE13","hd":"64","v_score":"1.121327652","decile":"3","lat":40.09894922477875,"lng":-111.71778147768406},{"vid":"813b92c60c09136821808309f8e799e1e26789ba8a7872133e6d11159d1d84ce","name":"Barron Pacocha","party":"Rep","address":"2363 W 6400 S, Benjamin, UT 84660","precinct":"25SE13","hd":"64","v_score":"6.324725604","decile":"7","lat":40.11407549640564,"lng":-111.71097152266542},{"vid":"2164978","name":"Adin Botsford","party":"Rep","address":"9349 S Orton Rd, Salem, UT 84653","precinct":"25SE13","hd":"64","v_score":"3.781490609","decile":"6","lat":40.061141741064134,"lng":-111.6521522383843},{"vid":"3c922b6c8864be948a2b45309c955812cd60b3467ccdfa0114b975c45c142020","name":"Emmie Koss","party":"Rep","address":"173 E 10000 S, Salem, UT 84653","precinct":"25SE13","hd":"64","v_score":"5.40460374","decile":"7","lat":40.05101155626243,"lng":-111.64998342198224},{"vid":"2173658","name":"Cleola Kertzmann-Stiedemann","party":"Rep","address":"7204 S 3200 W, Benjamin, UT 84660","precinct":"25SE13","hd":"64","v_score":"2.315214949","decile":"5","lat":40.100107286869914,"lng":-111.73114094746316},{"vid":"c46d8e1d0e81df646e4344813d83b129685c1c6f6138b9ad8de756480049dfe4","name":"Reese O'Conner","party":"","address":"6690 S 4000 W, Benjamin, UT 84660","precinct":"25SE13","hd":"64","v_score":"3.93832808","decile":"6","lat":40.1100399758686,"lng":-111.75099998509593},{"vid":"88fffdacb5b18e1e0499dfc19af7e8aa838f0e1f13a1438de75bd17fdf04272f","name":"Ira Leannon","party":"","address":"7092 S 2650 W, Benjamin, UT 84660","precinct":"25SE13","hd":"64","v_score":"8.085704327","decile":"8","lat":40.10197191368828,"lng":-111.71691217104662},{"vid":"a9b514b472e2209a29dde3bae6b4b178ee24e56154b80fbd50921e1a77037f72","name":"Nettie Rice","party":"Rep","address":"6696 S 2400 W, Benjamin, UT 84660","precinct":"25SE13","hd":"64","v_score":"1.193887297","decile":"3","lat":40.10941506510507,"lng":-111.71357959060511},{"vid":"4f9695abf89123a50a83294f01cd80b579bff0b44ca862dc70d0fe38838ce240","name":"Hali O'Kon","party":"","address":"7183 S 3200 W, Benjamin, UT 84660","precinct":"25SE13","hd":"64","v_score":"1.121327652","decile":"3","lat":40.10030718772778,"lng":-111.72945282008422},{"vid":"2240557","name":"Mr. Shaun Keeling","party":"","address":"2243 W 6400 S, Spanish Fork, UT 84660","precinct":"25SE13","hd":"64","v_score":"3.93832808","decile":"6","lat":40.11374346637459,"lng":-111.70768067501251},{"vid":"a84aef57a99200b53d28e2869d2802a4015d6519110734f32b83f7ba7501213a","name":"Dr. Shon Wuckert","party":"Rep","address":"9349 S Orton Rd, Salem, UT 84653","precinct":"25SE13","hd":"64","v_score":"2.315214949","decile":"5","lat":40.061141741064134,"lng":-111.6521522383843},{"vid":"2274607","name":"Dr. Dewitt Mayer","party":"","address":"392 E 10000 S, Salem, UT 84653","precinct":"25SE13","hd":"64","v_score":"1.121327652","decile":"3","lat":40.04892129030458,"lng":-111.64508612420956},{"vid":"ed4b544136e282b12a0c2e848a127276dc3c0ed3b051b7f3ede8270927891d9a","name":"Teressa Leuschke","party":"Dem","address":"7423 S 2200 W, Benjamin, UT 84660","precinct":"25SE13","hd":"64","v_score":"0","decile":"1","lat":40.09601617681833,"lng":-111.70704056662274},{"vid":"7c6d17d31816ea8ef298167c45258323952875b1bcf45ea361cec8a2c786d599","name":"Terance Wiegand","party":"Rep","address":"221 E 10000 S, Salem, UT 84653","precinct":"25SE13","hd":"64","v_score":"2.315214949","decile":"5","lat":40.05042877473278,"lng":-111.6488199081036},{"vid":"fd11e2e66b1f8005c81cbf84068a34c2c71a321356f5c5d7d69c08a94ce81359","name":"Damarcus Bayer IV","party":"","address":"3193 W 6400 S, Benjamin, UT 84660","precinct":"25SE13","hd":"64","v_score":"0","decile":"1","lat":40.114544006827714,"lng":-111.73009753249377},{"vid":"2314109","name":"Evelin Armstrong PhD","party":"","address":"2022 W 6800 S, Benjamin, UT 84660","precinct":"25SE13","hd":"64","v_score":"0","decile":"1","lat":40.109651595220164,"lng":-111.70243403207658},{"vid":"2326835","name":"Arleth Maggio","party":"","address":"372 E 9800 S, Salem, UT 84653","precinct":"25SE13","hd":"64","v_score":"3.93832808","decile":"6","lat":40.05188488357613,"lng":-111.64514602514669},{"vid":"2346071","name":"Eudora Lemke","party":"Rep","address":"3774 W 7300 S, Benjamin, UT 84660","precinct":"25SE13","hd":"64","v_score":"3.93832808","decile":"6","lat":40.098974514610354,"lng":-111.74379705986533},{"vid":"2346685","name":"Dr. Geraldo Schaden DDS","party":"","address":"548 E 9650 S, Salem, UT 84653","precinct":"25SE13","hd":"64","v_score":"3.93832808","decile":"6","lat":40.05575339646304,"lng":-111.64123826104444},{"vid":"2359395","name":"Dr. Ernestina Funk","party":"","address":"3774 W 7300 S, Benjamin, UT 84660","precinct":"25SE13","hd":"64","v_score":"3.93832808","decile":"6","lat":40.098974514610354,"lng":-111.74379705986533},{"vid":"2364404","name":"Lindell O'Hara","party":"","address":"3508 W 7300 S, Benjamin, UT 84660","precinct":"25SE13","hd":"64","v_score":"3.93832808","decile":"6","lat":40.09889150952228,"lng":-111.73847972330196},{"vid":"2389248","name":"Nakita Batz MD","party":"Dem","address":"6464 S 4000 W, Spanish Fork, UT 84660","precinct":"25SE13","hd":"64","v_score":"1.121327652","decile":"3","lat":40.11351580095736,"lng":-111.75078273865361},{"vid":"2418615","name":"Jazlynn DuBuque","party":"Rep","address":"9349 S Orton Rd, Salem, UT 84653","precinct":"25SE13","hd":"64","v_score":"1.193887297","decile":"3","lat":40.061141741064134,"lng":-111.6521522383843},{"vid":"2426183","name":"Leann Bergstrom","party":"Dem","address":"2865 W 6400 S, Benjamin, UT 84660","precinct":"25SE13","hd":"64","v_score":"1.121327652","decile":"3","lat":40.113229946000466,"lng":-111.7221225125429},{"vid":"2445429","name":"Miss Traci Hermiston PhD","party":"Dem","address":"310 E 9800 S, Salem, UT 84653","precinct":"25SE13","hd":"64","v_score":"2.315214949","decile":"5","lat":40.051998689133164,"lng":-111.64664833205457},{"vid":"2460481","name":"Haven Greenholt","party":"","address":"2243 W 6400 S, Benjamin, UT 84660","precinct":"25SE13","hd":"64","v_score":"1.193887297","decile":"3","lat":40.11374346637459,"lng":-111.70768067501251},{"vid":"2491242","name":"Myrtis Berge DDS","party":"Dem","address":"6658 S 2400 W, Benjamin, UT 84660","precinct":"25SE13","hd":"64","v_score":"0","decile":"1","lat":40.11011614002781,"lng":-111.71357730277575},{"vid":"2512230","name":"Martin Lesch","party":"","address":"9447 S Orton Rd, Salem, UT 84653","precinct":"25SE13","hd":"64","v_score":"0","decile":"1","lat":40.05945209361759,"lng":-111.65086189220163},{"vid":"2541112","name":"Kathlyn Bernhard","party":"Rep","address":"6435 S 3600 W, Benjamin, UT 84660","precinct":"25SE13","hd":"64","v_score":"0","decile":"1","lat":40.1142993379836,"lng":-111.73965209308707},{"vid":"2541300","name":"Arne Klein","party":"","address":"6435 S 3600 W, Benjamin, UT 84660","precinct":"25SE13","hd":"64","v_score":"0","decile":"1","lat":40.1142993379836,"lng":-111.73965209308707},{"vid":"2556884","name":"Mr. Blain Heller","party":"Rep","address":"6608 S 2400 W, Benjamin, UT 84660","precinct":"25SE13","hd":"64","v_score":"0","decile":"1","lat":40.1108579764491,"lng":-111.71378935228445},{"vid":"2598031","name":"Katherine Mitchell","party":"","address":"9521 S Orton Rd, Salem, UT 84653","precinct":"25SE13","hd":"64","v_score":"0","decile":"1","lat":40.05759427116267,"lng":-111.65229610155583},{"vid":"2603693","name":"Add Howell-Simonis","party":"","address":"25 E 9550 S, Salem, UT 84653","precinct":"25SE13","hd":"64","v_score":"0","decile":"1","lat":40.057476546129735,"lng":-111.6539330779173},{"vid":"2605222","name":"Dr. Darcy Metz Sr.","party":"Rep","address":"7227 S 3600 W, Benjamin, UT 84660","precinct":"25SE13","hd":"64","v_score":"0","decile":"1","lat":40.09951479107775,"lng":-111.73975291173005},{"vid":"2623476","name":"Hamza Legros","party":"","address":"2022 W 6800 S, Spanish Fork, UT 84660","precinct":"25SE13","hd":"64","v_score":"19.73852681","decile":"10","lat":40.109651595220164,"lng":-111.70243403207658},{"vid":"2630354","name":"Dr. Franz Anderson DVM","party":"","address":"7448 S 1800 W, Spanish Fork, UT 84660","precinct":"25SE13","hd":"64","v_score":"2.817000428","decile":"6","lat":40.096140844439944,"lng":-111.69978519525519},{"vid":"2654267","name":"Tyreek Lebsack-Cole","party":"","address":"6696 S 2400 W, Benjamin, UT 84660","precinct":"25SE13","hd":"64","v_score":"0","decile":"1","lat":40.10941506510507,"lng":-111.71357959060511},{"vid":"2677841","name":"Rian Osinski","party":"","address":"2022 W 6800 S, Spanish Fork, UT 84660","precinct":"25SE13","hd":"64","v_score":"1.193887297","decile":"4","lat":40.109651595220164,"lng":-111.70243403207658},{"vid":"2690937","name":"Anders Cole","party":"Dem","address":"6676 S 3600 W, Benjamin, UT 84660","precinct":"25SE13","hd":"64","v_score":"0","decile":"2","lat":40.10969263655215,"lng":-111.74059077668379},{"vid":"2708095","name":"Alex Hickle I","party":"","address":"221 E 10000 S, Salem, UT 84653","precinct":"25SE13","hd":"64","v_score":"1.193887297","decile":"4","lat":40.05042877473278,"lng":-111.6488199081036},{"vid":"2724154","name":"Susann Hartmann","party":"","address":"6975 S 2700 W, Benjamin, UT 84660","precinct":"25SE13","hd":"64","v_score":"1.193887297","decile":"4","lat":40.104252146410545,"lng":-111.719183619555},{"vid":"2784055","name":"Keaton Kuphal","party":"Rep","address":"2363 W 6400 S, Spanish Fork, UT 84660","precinct":"25SE13","hd":"64","v_score":"1.193887297","decile":"4","lat":40.11407549640564,"lng":-111.71097152266542},{"vid":"2785046","name":"Mr. Hattie Witting PhD","party":"Dem","address":"2091 W 6400 S, Spanish Fork, UT 84660","precinct":"25SE13","hd":"64","v_score":"1.193887297","decile":"4","lat":40.114243658983355,"lng":-111.7042301545577},{"vid":"2796968","name":"Laci Larson MD","party":"","address":"6731 S 3200 W, Benjamin, UT 84660","precinct":"25SE13","hd":"64","v_score":"0","decile":"2","lat":40.10870560998328,"lng":-111.72905428541722},{"vid":"2796969","name":"Katie Eichmann","party":"Rep","address":"6731 S 3200 W, Benjamin, UT 84660","precinct":"25SE13","hd":"64","v_score":"0","decile":"2","lat":40.10870560998328,"lng":-111.72905428541722},{"vid":"2840097","name":"Iver Dickens II","party":"Rep","address":"6935 S 4000 W, Benjamin, UT 84660","precinct":"25SE13","hd":"64","v_score":"1.193887297","decile":"4","lat":40.10478885803223,"lng":-111.74811262711657},{"vid":"2867159","name":"Leesa Berge-Gerhold","party":"","address":"6696 S 2400 W, Benjamin, UT 84660","precinct":"25SE13","hd":"64","v_score":"1.193887297","decile":"4","lat":40.10941506510507,"lng":-111.71357959060511},{"vid":"2896993","name":"Berta Lind","party":"Rep","address":"1675 W 7300 S, Spanish Fork, UT 84660","precinct":"25SE13","hd":"64","v_score":"0","decile":"2","lat":40.09733519476141,"lng":-111.69486443205423},{"vid":"2909508","name":"Dr. Rubie Hettinger","party":"Rep","address":"315 E 9800 S, Salem, UT 84653","precinct":"25SE13","hd":"64","v_score":"0","decile":"2","lat":40.05529984829089,"lng":-111.64657735748149},{"vid":"2935117","name":"Ms. Lisbeth Hilpert","party":"Rep","address":"7423 S 2200 W, Spanish Fork, UT 84660","precinct":"25SE13","hd":"64","v_score":"0","decile":"2","lat":40.09601617681833,"lng":-111.70704056662274},{"vid":"2984704","name":"Izabelle Larson","party":"","address":"7227 S 3600 W, Benjamin, UT 84660","precinct":"25SE13","hd":"64","v_score":"0","decile":"2","lat":40.09951479107775,"lng":-111.73975291173005},{"vid":"3086212","name":"Patrice Rippin","party":"Rep","address":"6981 S 3200 W, Benjamin, UT 84660","precinct":"25SE13","hd":"64","v_score":"3.93832808","decile":"6","lat":40.104058204478,"lng":-111.7300241967289},{"vid":"5310472","name":"Lidia Bradtke","party":"","address":"7812 S 1400 W, Spanish Fork, UT 84660","precinct":"25SE13","hd":"64","v_score":"10.89074633","decile":"9","lat":40.08915831907933,"lng":-111.68947794541359},{"vid":"5826153","name":"Sommer Ward","party":"Rep","address":"6690 S 4000 W, Benjamin, UT 84660","precinct":"25SE13","hd":"64","v_score":"7.947838735","decile":"8","lat":40.1100399758686,"lng":-111.75099998509593},{"vid":"6096561","name":"Ms. Estefany Corwin","party":"","address":"2079 W 6400 S, Benjamin, UT 84660","precinct":"25SE13","hd":"64","v_score":"0","decile":"3","lat":40.113345185534065,"lng":-111.70395095463405},{"vid":"6202541","name":"Nicolas Casper-Walker","party":"","address":"3276 W 7300 S, Benjamin, UT 84660","precinct":"25SE13","hd":"64","v_score":"5.40460374","decile":"7","lat":40.09837243526949,"lng":-111.73289654691415},{"vid":"6202542","name":"Mr. Dennis Conroy","party":"Rep","address":"3276 W 7300 S, Benjamin, UT 84660","precinct":"25SE13","hd":"64","v_score":"5.40460374","decile":"7","lat":40.09837243526949,"lng":-111.73289654691415},{"vid":"834bcc6a260eba0e28bfdeda00c11b0517e953359f2a4a8d4f5bf9ffba01c7a6","name":"Joseph Haag","party":"Dem","address":"578 E 9650 S, Salem, UT 84653","precinct":"25SE13","hd":"64","v_score":"6.481563075","decile":"7","lat":40.0560381810023,"lng":-111.64025810643071},{"vid":"6206589","name":"Holly Schowalter","party":"","address":"7205 S River Ln, Benjamin, UT 84660","precinct":"25SE13","hd":"64","v_score":"12.768328","decile":"9","lat":40.10021032645235,"lng":-111.69165276379691},{"vid":"6206969","name":"Jacqueline Reynolds","party":"Dem","address":"3612 W 7300 S, Benjamin, UT 84660","precinct":"25SE13","hd":"64","v_score":"13.21654263","decile":"9","lat":40.099191373996085,"lng":-111.74070098582067},{"vid":"6207293","name":"Martell McClure","party":"Rep","address":"3382 W 7300 S, Benjamin, UT 84660","precinct":"25SE13","hd":"64","v_score":"10.89074633","decile":"9","lat":40.0986896913341,"lng":-111.7347493142055},{"vid":"6213621","name":"Mortimer Roob","party":"Dem","address":"6436 S 2400 W, Spanish Fork, UT 84660","precinct":"25SE13","hd":"64","v_score":"5.40460374","decile":"7","lat":40.11416393817714,"lng":-111.71265345274493},{"vid":"6220372","name":"Shreya Blanda","party":"Dem","address":"6969 S 3600 W, Benjamin, UT 84660","precinct":"25SE13","hd":"64","v_score":"5.40460374","decile":"7","lat":40.104690249233606,"lng":-111.73864025328594},{"vid":"6220810","name":"Icey Funk","party":"","address":"9933 S 400 E, Salem, UT 84653","precinct":"25SE13","hd":"64","v_score":"2.587603312","decile":"5","lat":40.05056804883733,"lng":-111.6434174040523},{"vid":"6222770","name":"Taylor Koss","party":"Dem","address":"7183 S 3200 W, Benjamin, UT 84660","precinct":"25SE13","hd":"64","v_score":"5.40460374","decile":"7","lat":40.10030718772778,"lng":-111.72945282008422},{"vid":"0d5658f3c8475a637f00a27573f0b8586169631d3b0971e53de33775a5dd11d6","name":"Ilda Mohr-Huels","party":"Dem","address":"450 E 8800 S, Salem, UT 84660","precinct":"25SE13","hd":"64","v_score":"16.31924198","decile":"9","lat":40.07102662715995,"lng":-111.64379385259429},{"vid":"6225632","name":"Julio Hoeger","party":"Rep","address":"146 E 8800 S, Salem, UT 84660","precinct":"25SE13","hd":"64","v_score":"5.40460374","decile":"7","lat":40.06974408395367,"lng":-111.65052636144605},{"vid":"6246639","name":"Dr. Kyla Boyer","party":"","address":"492 E 9650 S, Salem, UT 84653","precinct":"25SE13","hd":"64","v_score":"8.601979876","decile":"8","lat":40.05548889795615,"lng":-111.64254391766364},{"vid":"a0a98ca46ebe23494431aef3632fc46bd52de9de1e534fb59c06607efd54e0de","name":"Gaige Cartwright-Marvin","party":"","address":"6668 S 3200 W, Benjamin, UT 84660","precinct":"25SE13","hd":"64","v_score":"2.315214949","decile":"5","lat":40.10964935153367,"lng":-111.73307500594616},{"vid":"6262902","name":"Winfield Mann III","party":"Dem","address":"1797 W 6400 S, Spanish Fork, UT 84660","precinct":"25SE13","hd":"64","v_score":"4.210716443","decile":"7","lat":40.11312867098689,"lng":-111.69682506610107},{"vid":"618e0e04325d56a02ff8409865cdecb6edc0b07548f0e11090f837eed43eca5b","name":"Herb Marvin","party":"Dem","address":"7656 S 1200 W, Benjamin, UT 84660","precinct":"25SE13","hd":"64","v_score":"15.09412431","decile":"9","lat":40.08913269931996,"lng":-111.68446351060057},{"vid":"6270404","name":"Gilbert Crooks-Oberbrunner","party":"","address":"6832 S 1050 W, Benjamin, UT 84660","precinct":"25SE13","hd":"64","v_score":"1.121327652","decile":"3","lat":40.10760497157306,"lng":-111.68092485402063},{"vid":"6282762","name":"Lenord Bergnaum","party":"Rep","address":"9349 S Orton Rd, Salem, UT 84653","precinct":"25SE13","hd":"64","v_score":"3.781490609","decile":"6","lat":40.061141741064134,"lng":-111.6521522383843},{"vid":"6282763","name":"Joseluis Abernathy","party":"Dem","address":"9349 S Orton Rd, Salem, UT 84653","precinct":"25SE13","hd":"64","v_score":"3.781490609","decile":"6","lat":40.061141741064134,"lng":-111.6521522383843},{"vid":"6287577","name":"Brandon McDermott","party":"","address":"2657 W 6400 S, Benjamin, UT 84660","precinct":"25SE13","hd":"64","v_score":"5.40460374","decile":"7","lat":40.11400371492592,"lng":-111.71766328355734},{"vid":"6290941","name":"Hildred Gaylord","party":"Rep","address":"6696 S 2400 W, Benjamin, UT 84660","precinct":"25SE13","hd":"64","v_score":"1.121327652","decile":"3","lat":40.10941506510507,"lng":-111.71357959060511},{"vid":"4788f8eb998217cae56bb563579590d7fa825cc222c2bbe8de8811a8a3860c10","name":"Sada Schumm","party":"Rep","address":"2865 W 6400 S, Benjamin, UT 84660","precinct":"25SE13","hd":"64","v_score":"2.315214949","decile":"5","lat":40.113229946000466,"lng":-111.7221225125429},{"vid":"6292904","name":"Verlie Sawayn","party":"Rep","address":"7215 S 4400 W, Benjamin, UT 84660","precinct":"25SE13","hd":"64","v_score":"7.947838735","decile":"8","lat":40.099106694043115,"lng":-111.75842367140736},{"vid":"6297457","name":"Mr. Erasmus Kuhn","party":"Dem","address":"2061 W 6400 S, Spanish Fork, UT 84660","precinct":"25SE13","hd":"64","v_score":"13.47654488","decile":"9","lat":40.114495319842675,"lng":-111.70330539269197},{"vid":"6b5a7132199582c4c860a0e050f927e1a1f3233985a3af5c9a559b2040843b85","name":"Carin Towne","party":"Dem","address":"2445 W 6400 S, Spanish Fork, UT 84660","precinct":"25SE13","hd":"64","v_score":"11.05053808","decile":"9","lat":40.11445343269566,"lng":-111.71300838802821},{"vid":"6297543","name":"Waylon Blanda","party":"","address":"3281 W 6400 S, Benjamin, UT 84660","precinct":"25SE13","hd":"64","v_score":"7.947838735","decile":"8","lat":40.11414986829465,"lng":-111.73232827676773},{"vid":"6308479","name":"Douglas Strosin PhD","party":"Rep","address":"372 E 9800 S, Salem, UT 84653","precinct":"25SE13","hd":"64","v_score":"5.40460374","decile":"7","lat":40.05188488357613,"lng":-111.64514602514669},{"vid":"6308562","name":"Alexande Grady","party":"Rep","address":"1713 W 6400 S, Benjamin, UT 84660","precinct":"25SE13","hd":"64","v_score":"5.40460374","decile":"7","lat":40.11413334947956,"lng":-111.69428063842082},{"vid":"6311013","name":"Shyann Hickle","party":"Dem","address":"2022 W 6800 S, Benjamin, UT 84660","precinct":"25SE13","hd":"64","v_score":"2.315214949","decile":"5","lat":40.109651595220164,"lng":-111.70243403207658},{"vid":"fbc9d857f21ade5413b05812c6f5d25bba58b1a6a31ceea362fe0ffe25217cee","name":"Darion Turner","party":"","address":"7947 S Mill Rd, Spanish Fork, UT 84660","precinct":"25SE13","hd":"64","v_score":"5.40460374","decile":"7","lat":40.08599031359684,"lng":-111.6646531586513},{"vid":"6316776","name":"Mackenzie Muller","party":"Dem","address":"7256 S 2650 W, Benjamin, UT 84660","precinct":"25SE13","hd":"64","v_score":"1.121327652","decile":"3","lat":40.09894922477875,"lng":-111.71778147768406},{"vid":"370ad1d5f56be8ea1cb8766929230142590a92cc62c2ed31b9b08f5a3cb5780e","name":"Madisen Ryan","party":"","address":"6696 S 2400 W, Benjamin, UT 84660","precinct":"25SE13","hd":"64","v_score":"5.40460374","decile":"7","lat":40.10941506510507,"lng":-111.71357959060511},{"vid":"6333410","name":"Damarcus Kunze","party":"Rep","address":"518 E 9650 S, Salem, UT 84653","precinct":"25SE13","hd":"64","v_score":"10.89074633","decile":"9","lat":40.05530349527771,"lng":-111.64185517538273},{"vid":"6333422","name":"Damaris Strosin","party":"Rep","address":"7087 S 2650 W, Benjamin, UT 84660","precinct":"25SE13","hd":"64","v_score":"5.40460374","decile":"7","lat":40.10220429739541,"lng":-111.71645609603752},{"vid":"6333423","name":"Edmon King","party":"","address":"7087 S 2650 W, Benjamin, UT 84660","precinct":"25SE13","hd":"64","v_score":"5.40460374","decile":"7","lat":40.10220429739541,"lng":-111.71645609603752},{"vid":"c6abc52b328cfbe227fee75d5494e5bb0ef65d53cb87d5d8c73842da0de67c50","name":"Mae Hand","party":"Rep","address":"1637 W 6400 S, Benjamin, UT 84660","precinct":"25SE13","hd":"64","v_score":"16.15945023","decile":"9","lat":40.11428412751227,"lng":-111.69265877869252},{"vid":"6334230","name":"Avon Powlowski-Ferry","party":"Rep","address":"1637 W 6400 S, Benjamin, UT 84660","precinct":"25SE13","hd":"64","v_score":"16.15945023","decile":"9","lat":40.11428412751227,"lng":-111.69265877869252},{"vid":"6334745","name":"Miss Bulah Kemmer","party":"","address":"3612 W 7300 S, Benjamin, UT 84660","precinct":"25SE13","hd":"64","v_score":"7.947838735","decile":"8","lat":40.099191373996085,"lng":-111.74070098582067},{"vid":"6338894","name":"Dr. Ephriam Okuneva DVM","party":"Dem","address":"7736 S 1400 W, Benjamin, UT 84660","precinct":"25SE13","hd":"64","v_score":"5.40460374","decile":"7","lat":40.090155250567534,"lng":-111.68905028903768},{"vid":"6347743","name":"Gibson Towne","party":"Dem","address":"7710 S 2000 W, Benjamin, UT 84660","precinct":"25SE13","hd":"64","v_score":"9.82542041","decile":"8","lat":40.09022476733176,"lng":-111.70362984115575},{"vid":"6361255","name":"Gregory Krajcik","party":"","address":"6864 S 3200 W, Benjamin, UT 84660","precinct":"25SE13","hd":"64","v_score":"6.481563075","decile":"7","lat":40.10626787708108,"lng":-111.73149050832303},{"vid":"6364648","name":"Brenden Maggio","party":"Rep","address":"146 E 8800 S, Salem, UT 84660","precinct":"25SE13","hd":"64","v_score":"5.40460374","decile":"7","lat":40.06974408395367,"lng":-111.65052636144605},{"vid":"6365893","name":"Volney Rosenbaum","party":"Rep","address":"6529 S 3600 W, Spanish Fork, UT 84660","precinct":"25SE13","hd":"64","v_score":"18.29703414","decile":"10","lat":40.11245932537904,"lng":-111.7390519455341},{"vid":"6372985","name":"Millard Bechtelar","party":"","address":"3150 W 7300 S, Benjamin, UT 84660","precinct":"25SE13","hd":"64","v_score":"2.315214949","decile":"5","lat":40.098710361349724,"lng":-111.73020339778219},{"vid":"6408065","name":"Duane Stracke","party":"","address":"3141 W 6400 S, Benjamin, UT 84660","precinct":"25SE13","hd":"64","v_score":"6.481563075","decile":"7","lat":40.11391374284809,"lng":-111.72820807218002},{"vid":"6409044","name":"Marrion Senger","party":"Dem","address":"176 E 9800 S, Salem, UT 84653","precinct":"25SE13","hd":"64","v_score":"2.315214949","decile":"5","lat":40.05252903153816,"lng":-111.65005105487272},{"vid":"6409132","name":"Pernell Mertz","party":"Dem","address":"4158 W 7300 S, Benjamin, UT 84660","precinct":"25SE13","hd":"64","v_score":"3.781490609","decile":"6","lat":40.099511449489164,"lng":-111.75342423948766},{"vid":"6411116","name":"Mark Miller","party":"Rep","address":"7094 S 3600 W, Spanish Fork, UT 84660","precinct":"25SE13","hd":"64","v_score":"1.193887297","decile":"4","lat":40.10290944177523,"lng":-111.74129013435642},{"vid":"6429162","name":"Bjorn O'Conner","party":"Rep","address":"9415 S Orton Rd, Salem, UT 84653","precinct":"25SE13","hd":"64","v_score":"1.121327652","decile":"3","lat":40.06023581498797,"lng":-111.65140778795367},{"vid":"6441212","name":"Monna Schulist","party":"","address":"392 E 10000 S, Salem, UT 84653","precinct":"25SE13","hd":"64","v_score":"2.315214949","decile":"5","lat":40.04892129030458,"lng":-111.64508612420956},{"vid":"6448990","name":"Landon Kihn","party":"Dem","address":"463 E 9650 S, Salem, UT 84653","precinct":"25SE13","hd":"64","v_score":"9.913499214","decile":"9","lat":40.05601554506277,"lng":-111.6425941399559},{"vid":"6450447","name":"Mrs. Carmen Jaskolski DDS","party":"Rep","address":"310 E 9800 S, Salem, UT 84653","precinct":"25SE13","hd":"64","v_score":"2.315214949","decile":"5","lat":40.051998689133164,"lng":-111.64664833205457},{"vid":"6453359","name":"Dayse Lesch","party":"Dem","address":"315 E 9800 S, Salem, UT 84653","precinct":"25SE13","hd":"64","v_score":"3.781490609","decile":"6","lat":40.05529984829089,"lng":-111.64657735748149},{"vid":"6463500","name":"Emilio Bartoletti Jr.","party":"Dem","address":"6864 S 3200 W, Benjamin, UT 84660","precinct":"25SE13","hd":"64","v_score":"7.947838735","decile":"8","lat":40.10626787708108,"lng":-111.73149050832303},{"vid":"b11745d3caa8c10277a39d5ca68b19c8a80d63f80322b761af1535c758769deb","name":"Max West","party":"","address":"6994 S 3600 W, Benjamin, UT 84660","precinct":"25SE13","hd":"64","v_score":"3.93832808","decile":"6","lat":40.104719810897514,"lng":-111.74385741262873},{"vid":"98faa605740318f37f74552db6dde4cbaca1098f88d2de6977105d555aee2e1f","name":"Ms. Ronnie Leuschke","party":"Rep","address":"7055 S 4000 W, Spanish Fork, UT 84660","precinct":"25SE13","hd":"64","v_score":"12.2514272","decile":"9","lat":40.102699685248226,"lng":-111.74863735691785},{"vid":"6481631","name":"Malachi Heaney","party":"","address":"9503 S Orton Rd, Salem, UT 84653","precinct":"25SE13","hd":"64","v_score":"2.315214949","decile":"5","lat":40.057673613392524,"lng":-111.65071216017712},{"vid":"0a1c91ae450ae79df6772f44ea0489b390ad7cde25ea73f9d971b136379ff187","name":"Elaina Kling","party":"Rep","address":"3841 W 6800 S, Benjamin, UT 84660","precinct":"25SE13","hd":"64","v_score":"2.315214949","decile":"5","lat":40.10595439813876,"lng":-111.74559647499886},{"vid":"6495358","name":"Gilman Steuber","party":"Dem","address":"3193 W 6400 S, Benjamin, UT 84660","precinct":"25SE13","hd":"64","v_score":"7.947838735","decile":"8","lat":40.114544006827714,"lng":-111.73009753249377},{"vid":"6501091","name":"Mozelle Gleichner","party":"Dem","address":"2738 W 6970 S, Benjamin, UT 84660","precinct":"25SE13","hd":"64","v_score":"5.40460374","decile":"7","lat":40.10504673271685,"lng":-111.71983200070423},{"vid":"6503642","name":"Kinley Lemke-Kshlerin","party":"Rep","address":"25 E 9550 S, Salem, UT 84653","precinct":"25SE13","hd":"64","v_score":"2.315214949","decile":"5","lat":40.057476546129735,"lng":-111.6539330779173},{"vid":"6506028","name":"Ellar Mueller","party":"Dem","address":"9415 S Orton Rd, Salem, UT 84653","precinct":"25SE13","hd":"64","v_score":"1.121327652","decile":"3","lat":40.06023581498797,"lng":-111.65140778795367},{"vid":"6517772","name":"Hollis Hayes DDS","party":"Dem","address":"3622 W 7300 S, Benjamin, UT 84660","precinct":"25SE13","hd":"64","v_score":"7.947838735","decile":"8","lat":40.09906977399516,"lng":-111.7416284671242},{"vid":"6519588","name":"Mordechai Hettinger","party":"Rep","address":"763 W 6400 S, Benjamin, UT 84660","precinct":"25SE13","hd":"64","v_score":"7.947838735","decile":"8","lat":40.11377802009699,"lng":-111.67360124979068},{"vid":"6521502","name":"Mrs. Pearlene Jakubowski PhD","party":"Rep","address":"6897 S 4000 W, Benjamin, UT 84660","precinct":"25SE13","hd":"64","v_score":"2.817000428","decile":"6","lat":40.10546337956291,"lng":-111.7468844026473},{"vid":"6529983","name":"Mackenzie Rice","party":"Rep","address":"7812 S 1400 W, Spanish Fork, UT 84660","precinct":"25SE13","hd":"64","v_score":"3.781490609","decile":"6","lat":40.08915831907933,"lng":-111.68947794541359},{"vid":"6530417","name":"Torrey Parker","party":"Dem","address":"7012 S 3400 W, Benjamin, UT 84660","precinct":"25SE13","hd":"64","v_score":"1.121327652","decile":"3","lat":40.10330105653688,"lng":-111.73628136769469}]