[{"id":"499","name":"Eden Roberts III","party":"","address":"9838 S High Oak, Salem, UT 84653","precinct":"25SE13","hd":"64","v_score":"0","decile":"1","lat":40.052241040556,"lng":-111.63774931524},{"id":"1184","name":"Ms. Haruko Predovic DVM","party":"Dem","address":"9544 S Orton Rd, Salem, UT 84653","precinct":"25SE13","hd":"64","v_score":"0","decile":"1","lat":40.057841072412,"lng":-111.6527741479},{"id":"2230","name":"Bobbi Hills","party":"","address":"6424 S 4000 W, Spanish Fork, UT 84660","precinct":"25SE13","hd":"64","v_score":"3.93832808","decile":"6","lat":40.114102946841,"lng":-111.749657193841},{"id":"3175","name":"Dr. Joseph Stamm","party":"","address":"2595 W 6400 S, Benjamin, UT 84660","precinct":"25SE13","hd":"64","v_score":"0","decile":"1","lat":40.114642920938,"lng":-111.716070801488},{"id":"3469","name":"Steward Crona","party":"Rep","address":"579 E 10000 S, Salem, UT 84653","precinct":"25SE13","hd":"64","v_score":"8.507303088","decile":"8","lat":40.049271450229,"lng":-111.640842843287},{"id":"4248","name":"Saint O'Keefe","party":"","address":"6832 S 1050 W, Spanish Fork, UT 84660","precinct":"25SE13","hd":"64","v_score":"2.315214949","decile":"5","lat":40.107942212794,"lng":-111.679754997817},{"id":"4382","name":"Cannie Marvin","party":"","address":"3382 W 7300 S, Benjamin, UT 84660","precinct":"25SE13","hd":"64","v_score":"10.89074633","decile":"9","lat":40.098119871467,"lng":-111.734832497784},{"id":"4537","name":"Arba Cassin-Hartmann","party":"Dem","address":"7707 S 2200 W, Spanish Fork, UT 84660","precinct":"25SE13","hd":"64","v_score":"1.193887297","decile":"3","lat":40.090787472834,"lng":-111.708187450161},{"id":"6354","name":"Meadow Zulauf","party":"","address":"1991 W 6400 S, Benjamin, UT 84660","precinct":"25SE13","hd":"64","v_score":"2.315214949","decile":"5","lat":40.114747796758,"lng":-111.701835843695},{"id":"8047","name":"Hugh Becker","party":"Dem","address":"4291 W 6400 S, Spanish Fork, UT 84660","precinct":"25SE13","hd":"64","v_score":"1.121327652","decile":"3","lat":40.114409426737,"lng":-111.756629507894},{"id":"9237","name":"Hillery Haag","party":"","address":"242 E 9800 S, Salem, UT 84653","precinct":"25SE13","hd":"64","v_score":"2.315214949","decile":"5","lat":40.052934621199,"lng":-111.648462906096},{"id":"13751","name":"Gonzalo Spinka","party":"","address":"6495 S 3200 W, Benjamin, UT 84660","precinct":"25SE13","hd":"64","v_score":"3.781490609","decile":"6","lat":40.112898242705,"lng":-111.730390087813},{"id":"21752","name":"Mr. Maynard Feil V","party":"","address":"9838 S High Oak, Salem, UT 84653","precinct":"25SE13","hd":"64","v_score":"3.93832808","decile":"6","lat":40.052241040556,"lng":-111.63774931524},{"id":"27347","name":"Ritchie Denesik","party":"","address":"7104 S 4000 W, Benjamin, UT 84660","precinct":"25SE13","hd":"64","v_score":"5.40460374","decile":"7","lat":40.101477017456,"lng":-111.749668415042},{"id":"27443","name":"Payton Funk-Boyer","party":"Rep","address":"7183 S 3200 W, Benjamin, UT 84660","precinct":"25SE13","hd":"64","v_score":"2.315214949","decile":"5","lat":40.100514884001,"lng":-111.730508900307},{"id":"27835","name":"Fabian Wiegand","party":"","address":"7055 S 4000 W, Benjamin, UT 84660","precinct":"25SE13","hd":"64","v_score":"7.947838735","decile":"8","lat":40.102406968438,"lng":-111.74951744586},{"id":"28556","name":"Dylan O'Conner","party":"Dem","address":"7348 S 1600 W, Spanish Fork, UT 84660","precinct":"25SE13","hd":"64","v_score":"0","decile":"1","lat":40.097710174051,"lng":-111.69355508824},{"id":"29721","name":"Hans Fritsch","party":"","address":"176 E 9800 S, Salem, UT 84653","precinct":"25SE13","hd":"64","v_score":"5.40460374","decile":"7","lat":40.05292524552,"lng":-111.65009531357},{"id":"29839","name":"Maxwell Crona","party":"Rep","address":"242 E 9800 S, Salem, UT 84653","precinct":"25SE13","hd":"64","v_score":"0","decile":"1","lat":40.052934621199,"lng":-111.648462906096},{"id":"31331","name":"Sharon Zemlak-Kerluke","party":"Rep","address":"6415 S 1050 W, Benjamin, UT 84660","precinct":"25SE13","hd":"64","v_score":"2.587603312","decile":"5","lat":40.115225614251,"lng":-111.679552901632},{"id":"31680","name":"Lillianna Dooley","party":"","address":"112 E 8800 S, Salem, UT 84660","precinct":"25SE13","hd":"64","v_score":"5.40460374","decile":"7","lat":40.071102344308,"lng":-111.651624611248},{"id":"31714","name":"Bena Rowe","party":"Dem","address":"3405 W 6400 S, Benjamin, UT 84660","precinct":"25SE13","hd":"64","v_score":"13.32779236","decile":"9","lat":40.114561431187,"lng":-111.735364304233},{"id":"31904","name":"Aydan Lubowitz-Gorczany","party":"Dem","address":"7183 S 3200 W, Benjamin, UT 84660","precinct":"25SE13","hd":"64","v_score":"1.193887297","decile":"3","lat":40.100514884001,"lng":-111.730508900307},{"id":"33153","name":"Jevon Crist-Mitchell","party":"","address":"9933 S 400 E, Salem, UT 84653","precinct":"25SE13","hd":"64","v_score":"3.93832808","decile":"6","lat":40.050586681804,"lng":-111.64452249831},{"id":"33715","name":"Emanuel Gottlieb","party":"","address":"2022 W 6800 S, Spanish Fork, UT 84660","precinct":"25SE13","hd":"64","v_score":"15.1568338","decile":"9","lat":40.107406338662,"lng":-111.70288191751},{"id":"35318","name":"Bev Rodriguez MD","party":"Rep","address":"3266 W 7300 S, Benjamin, UT 84660","precinct":"25SE13","hd":"64","v_score":"2.315214949","decile":"5","lat":40.098170784031,"lng":-111.732370866476},{"id":"37367","name":"Margarett Braun","party":"Rep","address":"6981 S 3200 W, Benjamin, UT 84660","precinct":"25SE13","hd":"64","v_score":"3.93832808","decile":"6","lat":40.104390704281,"lng":-111.73047079131},{"id":"37625","name":"Karim Johnston-Mayert","party":"","address":"1991 W 6400 S, Spanish Fork, UT 84660","precinct":"25SE13","hd":"64","v_score":"1.193887297","decile":"3","lat":40.114747796758,"lng":-111.701835843695},{"id":"44316","name":"Roslyn Von","party":"","address":"125 E 10000 S, Salem, UT 84653","precinct":"25SE13","hd":"64","v_score":"3.93832808","decile":"6","lat":40.049309634403,"lng":-111.651136889609},{"id":"44759","name":"Cristi Pouros","party":"Rep","address":"6759 S 2400 W, Spanish Fork, UT 84660","precinct":"25SE13","hd":"64","v_score":"13.13914226","decile":"9","lat":40.108154648399,"lng":-111.71144053033},{"id":"46129","name":"Odus Sipes","party":"Dem","address":"9933 S 400 E, Salem, UT 84653","precinct":"25SE13","hd":"64","v_score":"6.881235673","decile":"8","lat":40.050586681804,"lng":-111.64452249831},{"id":"46713","name":"Mr. Stan Brown","party":"","address":"3312 W 7300 S, Benjamin, UT 84660","precinct":"25SE13","hd":"64","v_score":"6.462591196","decile":"7","lat":40.098150594566,"lng":-111.733347030616},{"id":"46851","name":"Savanna Heidenreich","party":"Rep","address":"112 E 8800 S, Salem, UT 84660","precinct":"25SE13","hd":"64","v_score":"1.193887297","decile":"3","lat":40.071102344308,"lng":-111.651624611248},{"id":"47781","name":"Sudie Schimmel-Ullrich","party":"","address":"3841 W 6800 S, Benjamin, UT 84660","precinct":"25SE13","hd":"64","v_score":"1.121327652","decile":"3","lat":40.107180910545,"lng":-111.743204771458},{"id":"48552","name":"Israel Brown I","party":"Dem","address":"3443 W 6400 S, Benjamin, UT 84660","precinct":"25SE13","hd":"64","v_score":"2.315214949","decile":"5","lat":40.114558992046,"lng":-111.736266202086},{"id":"49236","name":"Jeff Farrell DDS","party":"Dem","address":"9415 S Orton Rd, Salem, UT 84653","precinct":"25SE13","hd":"64","v_score":"0","decile":"1","lat":40.059827673338,"lng":-111.652443698642},{"id":"49730","name":"Clemente Altenwerth","party":"Rep","address":"6608 S 2400 W, Benjamin, UT 84660","precinct":"25SE13","hd":"64","v_score":"10.45526114","decile":"9","lat":40.110886188283,"lng":-111.71158707122},{"id":"49994","name":"Lesa Keeling","party":"Dem","address":"7256 S 2650 W, Benjamin, UT 84660","precinct":"25SE13","hd":"64","v_score":"1.121327652","decile":"3","lat":40.098951294998,"lng":-111.717124403637},{"id":"51546","name":"Caylee McCullough","party":"Dem","address":"7076 S River Ln, Benjamin, UT 84660","precinct":"25SE13","hd":"64","v_score":"2.587603312","decile":"5","lat":40.102359995735,"lng":-111.692985275481},{"id":"52263","name":"Barron Pacocha","party":"Rep","address":"2363 W 6400 S, Benjamin, UT 84660","precinct":"25SE13","hd":"64","v_score":"6.324725604","decile":"7","lat":40.114680331957,"lng":-111.710598290926},{"id":"53615","name":"Adin Botsford","party":"Rep","address":"9349 S Orton Rd, Salem, UT 84653","precinct":"25SE13","hd":"64","v_score":"3.781490609","decile":"6","lat":40.061091396024,"lng":-111.652455543959},{"id":"53742","name":"Emmie Koss","party":"Rep","address":"173 E 10000 S, Salem, UT 84653","precinct":"25SE13","hd":"64","v_score":"5.40460374","decile":"7","lat":40.049318985944,"lng":-111.650045866966},{"id":"54172","name":"Mr. Jonatan Purdy","party":"Dem","address":"6538 S River Ln, Spanish Fork, UT 84660","precinct":"25SE13","hd":"64","v_score":"9.116556227","decile":"8","lat":40.112551338341,"lng":-111.698922501933},{"id":"54615","name":"Cleola Kertzmann-Stiedemann","party":"Rep","address":"7204 S 3200 W, Benjamin, UT 84660","precinct":"25SE13","hd":"64","v_score":"2.315214949","decile":"5","lat":40.100023114707,"lng":-111.730666061117},{"id":"56595","name":"Reese O'Conner","party":"","address":"6690 S 4000 W, Benjamin, UT 84660","precinct":"25SE13","hd":"64","v_score":"3.93832808","decile":"6","lat":40.109272629628,"lng":-111.749661127946},{"id":"56708","name":"Ira Leannon","party":"","address":"7092 S 2650 W, Benjamin, UT 84660","precinct":"25SE13","hd":"64","v_score":"8.085704327","decile":"8","lat":40.101449750232,"lng":-111.71663651853},{"id":"57739","name":"Nettie Rice","party":"Rep","address":"6696 S 2400 W, Benjamin, UT 84660","precinct":"25SE13","hd":"64","v_score":"1.193887297","decile":"3","lat":40.109283746691,"lng":-111.711588997438},{"id":"59809","name":"Hali O'Kon","party":"","address":"7183 S 3200 W, Benjamin, UT 84660","precinct":"25SE13","hd":"64","v_score":"1.121327652","decile":"3","lat":40.100514884001,"lng":-111.730508900307},{"id":"60855","name":"Mr. Shaun Keeling","party":"","address":"2243 W 6400 S, Spanish Fork, UT 84660","precinct":"25SE13","hd":"64","v_score":"3.93832808","decile":"6","lat":40.114700535954,"lng":-111.707805059304},{"id":"61395","name":"Renee Ryan","party":"Rep","address":"1236 W 6930 S, Benjamin, UT 84660","precinct":"25SE13","hd":"64","v_score":"2.817000428","decile":"6","lat":40.105383316622,"lng":-111.682913108487},{"id":"61592","name":"Dr. Shon Wuckert","party":"Rep","address":"9349 S Orton Rd, Salem, UT 84653","precinct":"25SE13","hd":"64","v_score":"2.315214949","decile":"5","lat":40.061091396024,"lng":-111.652455543959},{"id":"63782","name":"Dr. Dewitt Mayer","party":"","address":"392 E 10000 S, Salem, UT 84653","precinct":"25SE13","hd":"64","v_score":"1.121327652","decile":"3","lat":40.049287684083,"lng":-111.644795880111},{"id":"64322","name":"Teressa Leuschke","party":"Dem","address":"7423 S 2200 W, Benjamin, UT 84660","precinct":"25SE13","hd":"64","v_score":"0","decile":"1","lat":40.096041135121,"lng":-111.708247546724},{"id":"66375","name":"Terance Wiegand","party":"Rep","address":"221 E 10000 S, Salem, UT 84653","precinct":"25SE13","hd":"64","v_score":"2.315214949","decile":"5","lat":40.049328337485,"lng":-111.648954844322},{"id":"67233","name":"Damarcus Bayer IV","party":"","address":"3193 W 6400 S, Benjamin, UT 84660","precinct":"25SE13","hd":"64","v_score":"0","decile":"1","lat":40.114575946267,"lng":-111.730232540398},{"id":"67384","name":"Evelin Armstrong PhD","party":"","address":"2022 W 6800 S, Benjamin, UT 84660","precinct":"25SE13","hd":"64","v_score":"0","decile":"1","lat":40.107406338662,"lng":-111.70288191751},{"id":"68420","name":"Arleth Maggio","party":"","address":"372 E 9800 S, Salem, UT 84653","precinct":"25SE13","hd":"64","v_score":"3.93832808","decile":"6","lat":40.052964689031,"lng":-111.645309971612},{"id":"70228","name":"Eudora Lemke","party":"Rep","address":"3774 W 7300 S, Benjamin, UT 84660","precinct":"25SE13","hd":"64","v_score":"3.93832808","decile":"6","lat":40.097992428742,"lng":-111.744788437209},{"id":"70254","name":"Dr. Geraldo Schaden DDS","party":"","address":"548 E 9650 S, Salem, UT 84653","precinct":"25SE13","hd":"64","v_score":"3.93832808","decile":"6","lat":40.055862189602,"lng":-111.640995895891},{"id":"71358","name":"Dr. Ernestina Funk","party":"","address":"3774 W 7300 S, Benjamin, UT 84660","precinct":"25SE13","hd":"64","v_score":"3.93832808","decile":"6","lat":40.097992428742,"lng":-111.744788437209},{"id":"71514","name":"Kadijah Buckridge","party":"","address":"9803 S High Oak, Salem, UT 84653","precinct":"25SE13","hd":"64","v_score":"2.817000428","decile":"6","lat":40.05276393262,"lng":-111.63699163044},{"id":"71769","name":"Lindell O'Hara","party":"","address":"3508 W 7300 S, Benjamin, UT 84660","precinct":"25SE13","hd":"64","v_score":"3.93832808","decile":"6","lat":40.098072139343,"lng":-111.737880621409},{"id":"73739","name":"Nakita Batz MD","party":"Dem","address":"6464 S 4000 W, Spanish Fork, UT 84660","precinct":"25SE13","hd":"64","v_score":"1.121327652","decile":"3","lat":40.113376583351,"lng":-111.749657785436},{"id":"76311","name":"Jazlynn DuBuque","party":"Rep","address":"9349 S Orton Rd, Salem, UT 84653","precinct":"25SE13","hd":"64","v_score":"1.193887297","decile":"3","lat":40.061091396024,"lng":-111.652455543959},{"id":"77078","name":"Leann Bergstrom","party":"Dem","address":"2865 W 6400 S, Benjamin, UT 84660","precinct":"25SE13","hd":"64","v_score":"1.121327652","decile":"3","lat":40.114619849143,"lng":-111.722531897249},{"id":"79264","name":"Miss Traci Hermiston PhD","party":"Dem","address":"310 E 9800 S, Salem, UT 84653","precinct":"25SE13","hd":"64","v_score":"2.315214949","decile":"5","lat":40.052954020219,"lng":-111.646715601544},{"id":"81171","name":"Haven Greenholt","party":"","address":"2243 W 6400 S, Benjamin, UT 84660","precinct":"25SE13","hd":"64","v_score":"1.193887297","decile":"3","lat":40.114700535954,"lng":-111.707805059304},{"id":"84112","name":"Myrtis Berge DDS","party":"Dem","address":"6658 S 2400 W, Benjamin, UT 84660","precinct":"25SE13","hd":"64","v_score":"0","decile":"1","lat":40.109975710106,"lng":-111.711588165662},{"id":"85444","name":"Devaughn Rutherford","party":"","address":"6538 S River Ln, Spanish Fork, UT 84660","precinct":"25SE13","hd":"64","v_score":"0","decile":"1","lat":40.112551338341,"lng":-111.698922501933},{"id":"86404","name":"Martin Lesch","party":"","address":"9447 S Orton Rd, Salem, UT 84653","precinct":"25SE13","hd":"64","v_score":"0","decile":"1","lat":40.06064732369,"lng":-111.652454774892},{"id":"88026","name":"Gary Funk-Mitchell","party":"","address":"9881 S High Oak, Salem, UT 84653","precinct":"25SE13","hd":"64","v_score":"0","decile":"1","lat":40.051464616596,"lng":-111.638360233775},{"id":"89288","name":"Kathlyn Bernhard","party":"Rep","address":"6435 S 3600 W, Benjamin, UT 84660","precinct":"25SE13","hd":"64","v_score":"0","decile":"1","lat":40.113965210687,"lng":-111.739967752267},{"id":"89308","name":"Arne Klein","party":"","address":"6435 S 3600 W, Benjamin, UT 84660","precinct":"25SE13","hd":"64","v_score":"0","decile":"1","lat":40.113965210687,"lng":-111.739967752267},{"id":"90886","name":"Mr. Blain Heller","party":"Rep","address":"6608 S 2400 W, Benjamin, UT 84660","precinct":"25SE13","hd":"64","v_score":"0","decile":"1","lat":40.110886188283,"lng":-111.71158707122},{"id":"93782","name":"Katherine Mitchell","party":"","address":"9521 S Orton Rd, Salem, UT 84653","precinct":"25SE13","hd":"64","v_score":"0","decile":"1","lat":40.060121600432,"lng":-111.652447670592},{"id":"94144","name":"Add Howell-Simonis","party":"","address":"25 E 9550 S, Salem, UT 84653","precinct":"25SE13","hd":"64","v_score":"0","decile":"1","lat":40.05719082188,"lng":-111.653350309537},{"id":"94326","name":"Dr. Darcy Metz Sr.","party":"Rep","address":"7227 S 3600 W, Benjamin, UT 84660","precinct":"25SE13","hd":"64","v_score":"0","decile":"1","lat":40.099414806417,"lng":-111.740006355696},{"id":"95895","name":"Hamza Legros","party":"","address":"2022 W 6800 S, Spanish Fork, UT 84660","precinct":"25SE13","hd":"64","v_score":"19.73852681","decile":"10","lat":40.107406338662,"lng":-111.70288191751},{"id":"96578","name":"Dr. Franz Anderson DVM","party":"","address":"7448 S 1800 W, Spanish Fork, UT 84660","precinct":"25SE13","hd":"64","v_score":"2.817000428","decile":"6","lat":40.095838243325,"lng":-111.698448346061},{"id":"99055","name":"Tyreek Lebsack-Cole","party":"","address":"6696 S 2400 W, Benjamin, UT 84660","precinct":"25SE13","hd":"64","v_score":"0","decile":"1","lat":40.109283746691,"lng":-111.711588997438},{"id":"99125","name":"Terell Schmitt","party":"Dem","address":"7092 S 2610 W, Benjamin, UT 84660","precinct":"25SE13","hd":"64","v_score":"0","decile":"1","lat":40.101449750232,"lng":-111.71663651853},{"id":"101721","name":"Rian Osinski","party":"","address":"2022 W 6800 S, Spanish Fork, UT 84660","precinct":"25SE13","hd":"64","v_score":"1.193887297","decile":"4","lat":40.107406338662,"lng":-111.70288191751},{"id":"103228","name":"Anders Cole","party":"Dem","address":"6676 S 3600 W, Benjamin, UT 84660","precinct":"25SE13","hd":"64","v_score":"0","decile":"2","lat":40.109534424053,"lng":-111.740123006828},{"id":"105330","name":"Alex Hickle I","party":"","address":"221 E 10000 S, Salem, UT 84653","precinct":"25SE13","hd":"64","v_score":"1.193887297","decile":"4","lat":40.049328337485,"lng":-111.648954844322},{"id":"111464","name":"Cosmo Murazik","party":"Dem","address":"1041 E 9600 S, Salem, UT 84653","precinct":"25SE13","hd":"64","v_score":"0","decile":"2","lat":40.056812414247,"lng":-111.63039923489},{"id":"113015","name":"Keaton Kuphal","party":"Rep","address":"2363 W 6400 S, Spanish Fork, UT 84660","precinct":"25SE13","hd":"64","v_score":"1.193887297","decile":"4","lat":40.114680331957,"lng":-111.710598290926},{"id":"113089","name":"Mr. Hattie Witting PhD","party":"Dem","address":"2091 W 6400 S, Spanish Fork, UT 84660","precinct":"25SE13","hd":"64","v_score":"1.193887297","decile":"4","lat":40.114726127684,"lng":-111.704266965917},{"id":"114699","name":"Laci Larson MD","party":"","address":"6731 S 3200 W, Benjamin, UT 84660","precinct":"25SE13","hd":"64","v_score":"0","decile":"2","lat":40.108611210906,"lng":-111.730429002667},{"id":"114700","name":"Katie Eichmann","party":"Rep","address":"6731 S 3200 W, Benjamin, UT 84660","precinct":"25SE13","hd":"64","v_score":"0","decile":"2","lat":40.108611210906,"lng":-111.730429002667},{"id":"119113","name":"Iver Dickens II","party":"Rep","address":"6935 S 4000 W, Benjamin, UT 84660","precinct":"25SE13","hd":"64","v_score":"1.193887297","decile":"4","lat":40.104639113453,"lng":-111.749514658875},{"id":"120696","name":"Signe Durgan DVM","party":"Dem","address":"6538 S River Ln, Spanish Fork, UT 84660","precinct":"25SE13","hd":"64","v_score":"0","decile":"2","lat":40.112551338341,"lng":-111.698922501933},{"id":"121331","name":"Leesa Berge-Gerhold","party":"","address":"6696 S 2400 W, Benjamin, UT 84660","precinct":"25SE13","hd":"64","v_score":"1.193887297","decile":"4","lat":40.109283746691,"lng":-111.711588997438},{"id":"125082","name":"Berta Lind","party":"Rep","address":"1675 W 7300 S, Spanish Fork, UT 84660","precinct":"25SE13","hd":"64","v_score":"0","decile":"2","lat":40.098217275792,"lng":-111.697164787049},{"id":"126397","name":"Dr. Rubie Hettinger","party":"Rep","address":"315 E 9800 S, Salem, UT 84653","precinct":"25SE13","hd":"64","v_score":"0","decile":"2","lat":40.05305443389,"lng":-111.648022861334},{"id":"129108","name":"Ms. Lisbeth Hilpert","party":"Rep","address":"7423 S 2200 W, Spanish Fork, UT 84660","precinct":"25SE13","hd":"64","v_score":"0","decile":"2","lat":40.096041135121,"lng":-111.708247546724},{"id":"133437","name":"Mrs. Lakesha Bins","party":"Rep","address":"7092 S 2610 W, Benjamin, UT 84660","precinct":"25SE13","hd":"64","v_score":"0","decile":"2","lat":40.101449750232,"lng":-111.71663651853},{"id":"134360","name":"Izabelle Larson","party":"","address":"7227 S 3600 W, Benjamin, UT 84660","precinct":"25SE13","hd":"64","v_score":"0","decile":"2","lat":40.099414806417,"lng":-111.740006355696},{"id":"135550","name":"Patrice Rippin","party":"Rep","address":"6981 S 3200 W, Benjamin, UT 84660","precinct":"25SE13","hd":"64","v_score":"3.93832808","decile":"6","lat":40.104390704281,"lng":-111.73047079131},{"id":"135792","name":"Bobby Marquardt","party":"Dem","address":"6464 S River Ln, Benjamin, UT 84660","precinct":"25SE13","hd":"64","v_score":"7.226183681","decile":"8","lat":40.113758649238,"lng":-111.699005598571},{"id":"137854","name":"Mr. Wayman Botsford V","party":"","address":"428 E 10000 S, Salem, UT 84653","precinct":"25SE13","hd":"64","v_score":"5.919699776","decile":"7","lat":40.049128095435,"lng":-111.644038742672},{"id":"139815","name":"Kandy Greenholt","party":"","address":"428 E 10000 S, Salem, UT 84653","precinct":"25SE13","hd":"64","v_score":"5.919699776","decile":"7","lat":40.049128095435,"lng":-111.644038742672},{"id":"142706","name":"Lidia Bradtke","party":"","address":"7812 S 1400 W, Spanish Fork, UT 84660","precinct":"25SE13","hd":"64","v_score":"10.89074633","decile":"9","lat":40.089573750101,"lng":-111.688457848573},{"id":"143511","name":"Sommer Ward","party":"Rep","address":"6690 S 4000 W, Benjamin, UT 84660","precinct":"25SE13","hd":"64","v_score":"7.947838735","decile":"8","lat":40.109272629628,"lng":-111.749661127946},{"id":"145196","name":"Ms. Estefany Corwin","party":"","address":"2079 W 6400 S, Benjamin, UT 84660","precinct":"25SE13","hd":"64","v_score":"0","decile":"3","lat":40.11472826604,"lng":-111.703987448012},{"id":"147511","name":"Nicolas Casper-Walker","party":"","address":"3276 W 7300 S, Benjamin, UT 84660","precinct":"25SE13","hd":"64","v_score":"5.40460374","decile":"7","lat":40.098166395017,"lng":-111.732583076072},{"id":"147512","name":"Mr. Dennis Conroy","party":"Rep","address":"3276 W 7300 S, Benjamin, UT 84660","precinct":"25SE13","hd":"64","v_score":"5.40460374","decile":"7","lat":40.098166395017,"lng":-111.732583076072},{"id":"147589","name":"Joseph Haag","party":"Dem","address":"578 E 9650 S, Salem, UT 84653","precinct":"25SE13","hd":"64","v_score":"6.481563075","decile":"7","lat":40.056258413805,"lng":-111.640354999724},{"id":"147993","name":"Holly Schowalter","party":"","address":"7205 S River Ln, Benjamin, UT 84660","precinct":"25SE13","hd":"64","v_score":"12.768328","decile":"9","lat":40.100179142174,"lng":-111.692548437685},{"id":"148032","name":"Jacqueline Reynolds","party":"Dem","address":"3612 W 7300 S, Benjamin, UT 84660","precinct":"25SE13","hd":"64","v_score":"13.21654263","decile":"9","lat":40.098035387724,"lng":-111.740481766948},{"id":"148074","name":"Martell McClure","party":"Rep","address":"3382 W 7300 S, Benjamin, UT 84660","precinct":"25SE13","hd":"64","v_score":"10.89074633","decile":"9","lat":40.098119871467,"lng":-111.734832497784},{"id":"148239","name":"Beecher Satterfield","party":"","address":"611 W Arrowhead Trl, Spanish Fork, UT 84660","precinct":"25SE13","hd":"64","v_score":"9.82542041","decile":"8","lat":40.07924004118,"lng":-111.682685028082},{"id":"148714","name":"Mortimer Roob","party":"Dem","address":"6436 S 2400 W, Spanish Fork, UT 84660","precinct":"25SE13","hd":"64","v_score":"5.40460374","decile":"7","lat":40.114018181771,"lng":-111.711586802272},{"id":"149329","name":"Shreya Blanda","party":"Dem","address":"6969 S 3600 W, Benjamin, UT 84660","precinct":"25SE13","hd":"64","v_score":"5.40460374","decile":"7","lat":40.104344243726,"lng":-111.739987004967},{"id":"149379","name":"Icey Funk","party":"","address":"9933 S 400 E, Salem, UT 84653","precinct":"25SE13","hd":"64","v_score":"2.587603312","decile":"5","lat":40.050586681804,"lng":-111.64452249831},{"id":"149576","name":"Taylor Koss","party":"Dem","address":"7183 S 3200 W, Benjamin, UT 84660","precinct":"25SE13","hd":"64","v_score":"5.40460374","decile":"7","lat":40.100514884001,"lng":-111.730508900307},{"id":"149598","name":"Ilda Mohr-Huels","party":"Dem","address":"450 E 8800 S, Salem, UT 84660","precinct":"25SE13","hd":"64","v_score":"16.31924198","decile":"9","lat":40.071199307905,"lng":-111.643701358547},{"id":"149848","name":"Julio Hoeger","party":"Rep","address":"146 E 8800 S, Salem, UT 84660","precinct":"25SE13","hd":"64","v_score":"5.40460374","decile":"7","lat":40.071112442781,"lng":-111.65081874828},{"id":"151645","name":"Dr. Kyla Boyer","party":"","address":"492 E 9650 S, Salem, UT 84653","precinct":"25SE13","hd":"64","v_score":"8.601979876","decile":"8","lat":40.055732600157,"lng":-111.642360981895},{"id":"152480","name":"Dr. Chris Ziemann","party":"","address":"3038 W 7300 S, Benjamin, UT 84660","precinct":"25SE13","hd":"64","v_score":"7.947838735","decile":"8","lat":40.098211050916,"lng":-111.727449075098},{"id":"152878","name":"Gaige Cartwright-Marvin","party":"","address":"6668 S 3200 W, Benjamin, UT 84660","precinct":"25SE13","hd":"64","v_score":"2.315214949","decile":"5","lat":40.112045348629,"lng":-111.73054834809},{"id":"152916","name":"Winfield Mann III","party":"Dem","address":"1797 W 6400 S, Spanish Fork, UT 84660","precinct":"25SE13","hd":"64","v_score":"4.210716443","decile":"7","lat":40.114923103083,"lng":-111.697369666447},{"id":"152989","name":"Alexandr Will","party":"Rep","address":"2625 W 6400 S, Benjamin, UT 84660","precinct":"25SE13","hd":"64","v_score":"5.40460374","decile":"7","lat":40.114638235151,"lng":-111.716764305637},{"id":"153665","name":"Herb Marvin","party":"Dem","address":"7656 S 1200 W, Benjamin, UT 84660","precinct":"25SE13","hd":"64","v_score":"15.09412431","decile":"9","lat":40.090566669406,"lng":-111.683536881912},{"id":"153683","name":"Gilbert Crooks-Oberbrunner","party":"","address":"6832 S 1050 W, Benjamin, UT 84660","precinct":"25SE13","hd":"64","v_score":"1.121327652","decile":"3","lat":40.107942212794,"lng":-111.679754997817},{"id":"154717","name":"Lenord Bergnaum","party":"Rep","address":"9349 S Orton Rd, Salem, UT 84653","precinct":"25SE13","hd":"64","v_score":"3.781490609","decile":"6","lat":40.061091396024,"lng":-111.652455543959},{"id":"154718","name":"Joseluis Abernathy","party":"Dem","address":"9349 S Orton Rd, Salem, UT 84653","precinct":"25SE13","hd":"64","v_score":"3.781490609","decile":"6","lat":40.061091396024,"lng":-111.652455543959},{"id":"155098","name":"Brandon McDermott","party":"","address":"2657 W 6400 S, Benjamin, UT 84660","precinct":"25SE13","hd":"64","v_score":"5.40460374","decile":"7","lat":40.114635998361,"lng":-111.717369483652},{"id":"155164","name":"Sabastian Weimann","party":"Rep","address":"7867 S 2200 W, Benjamin, UT 84660","precinct":"25SE13","hd":"64","v_score":"5.40460374","decile":"7","lat":40.087827663095,"lng":-111.708153592942},{"id":"155185","name":"Shawnte Kuhic","party":"","address":"7867 S 2200 W, Benjamin, UT 84660","precinct":"25SE13","hd":"64","v_score":"5.40460374","decile":"7","lat":40.087827663095,"lng":-111.708153592942},{"id":"155370","name":"Hildred Gaylord","party":"Rep","address":"6696 S 2400 W, Benjamin, UT 84660","precinct":"25SE13","hd":"64","v_score":"1.121327652","decile":"3","lat":40.109283746691,"lng":-111.711588997438},{"id":"155404","name":"Sada Schumm","party":"Rep","address":"2865 W 6400 S, Benjamin, UT 84660","precinct":"25SE13","hd":"64","v_score":"2.315214949","decile":"5","lat":40.114619849143,"lng":-111.722531897249},{"id":"155566","name":"Verlie Sawayn","party":"Rep","address":"7215 S 4400 W, Benjamin, UT 84660","precinct":"25SE13","hd":"64","v_score":"7.947838735","decile":"8","lat":40.099391210124,"lng":-111.759145526445},{"id":"155945","name":"Mr. Erasmus Kuhn","party":"Dem","address":"2061 W 6400 S, Spanish Fork, UT 84660","precinct":"25SE13","hd":"64","v_score":"13.47654488","decile":"9","lat":40.11473213643,"lng":-111.703568474872},{"id":"155951","name":"Carin Towne","party":"Dem","address":"2445 W 6400 S, Spanish Fork, UT 84660","precinct":"25SE13","hd":"64","v_score":"11.05053808","decile":"9","lat":40.114666349871,"lng":-111.71260328074},{"id":"155955","name":"Waylon Blanda","party":"","address":"3281 W 6400 S, Benjamin, UT 84660","precinct":"25SE13","hd":"64","v_score":"7.947838735","decile":"8","lat":40.114569390492,"lng":-111.732421269133},{"id":"156946","name":"Douglas Strosin PhD","party":"Rep","address":"372 E 9800 S, Salem, UT 84653","precinct":"25SE13","hd":"64","v_score":"5.40460374","decile":"7","lat":40.052964689031,"lng":-111.645309971612},{"id":"156958","name":"Alexande Grady","party":"Rep","address":"1713 W 6400 S, Benjamin, UT 84660","precinct":"25SE13","hd":"64","v_score":"5.40460374","decile":"7","lat":40.115224024499,"lng":-111.695357253595},{"id":"157127","name":"Shyann Hickle","party":"Dem","address":"2022 W 6800 S, Benjamin, UT 84660","precinct":"25SE13","hd":"64","v_score":"2.315214949","decile":"5","lat":40.107406338662,"lng":-111.70288191751},{"id":"157351","name":"Darion Turner","party":"","address":"7947 S Mill Rd, Spanish Fork, UT 84660","precinct":"25SE13","hd":"64","v_score":"5.40460374","decile":"7","lat":40.084958337624,"lng":-111.665337295645},{"id":"157683","name":"Mackenzie Muller","party":"Dem","address":"7256 S 2650 W, Benjamin, UT 84660","precinct":"25SE13","hd":"64","v_score":"1.121327652","decile":"3","lat":40.098951294998,"lng":-111.717124403637},{"id":"158194","name":"Aedan Wolff Sr.","party":"Rep","address":"6807 S 3200 W, Benjamin, UT 84660","precinct":"25SE13","hd":"64","v_score":"10.89074633","decile":"9","lat":40.107225499994,"lng":-111.73044564074},{"id":"158984","name":"Madisen Ryan","party":"","address":"6696 S 2400 W, Benjamin, UT 84660","precinct":"25SE13","hd":"64","v_score":"5.40460374","decile":"7","lat":40.109283746691,"lng":-111.711588997438},{"id":"159111","name":"Damarcus Kunze","party":"Rep","address":"518 E 9650 S, Salem, UT 84653","precinct":"25SE13","hd":"64","v_score":"10.89074633","decile":"9","lat":40.055716814329,"lng":-111.641725604304},{"id":"159113","name":"Damaris Strosin","party":"Rep","address":"7087 S 2650 W, Benjamin, UT 84660","precinct":"25SE13","hd":"64","v_score":"5.40460374","decile":"7","lat":40.101550991324,"lng":-111.716487515794},{"id":"159114","name":"Edmon King","party":"","address":"7087 S 2650 W, Benjamin, UT 84660","precinct":"25SE13","hd":"64","v_score":"5.40460374","decile":"7","lat":40.101550991324,"lng":-111.716487515794},{"id":"159181","name":"Mae Hand","party":"Rep","address":"1637 W 6400 S, Benjamin, UT 84660","precinct":"25SE13","hd":"64","v_score":"16.15945023","decile":"9","lat":40.115496286732,"lng":-111.693536499111},{"id":"159182","name":"Avon Powlowski-Ferry","party":"Rep","address":"1637 W 6400 S, Benjamin, UT 84660","precinct":"25SE13","hd":"64","v_score":"16.15945023","decile":"9","lat":40.115496286732,"lng":-111.693536499111},{"id":"159223","name":"Miss Bulah Kemmer","party":"","address":"3612 W 7300 S, Benjamin, UT 84660","precinct":"25SE13","hd":"64","v_score":"7.947838735","decile":"8","lat":40.098035387724,"lng":-111.740481766948},{"id":"159244","name":"Taylor Hansen","party":"","address":"7625 S 1800 W, Benjamin, UT 84660","precinct":"25SE13","hd":"64","v_score":"5.40460374","decile":"7","lat":40.09406005134,"lng":-111.698273360387},{"id":"159496","name":"Dr. Ephriam Okuneva DVM","party":"Dem","address":"7736 S 1400 W, Benjamin, UT 84660","precinct":"25SE13","hd":"64","v_score":"5.40460374","decile":"7","lat":40.090705948438,"lng":-111.688451135789},{"id":"160025","name":"Gibson Towne","party":"Dem","address":"7710 S 2000 W, Benjamin, UT 84660","precinct":"25SE13","hd":"64","v_score":"9.82542041","decile":"8","lat":40.090624580128,"lng":-111.703385102919},{"id":"160048","name":"Ronald Crooks","party":"","address":"6464 S River Ln, Benjamin, UT 84660","precinct":"25SE13","hd":"64","v_score":"10.32888303","decile":"9","lat":40.113758649238,"lng":-111.699005598571},{"id":"160797","name":"Jammie Thiel","party":"Dem","address":"672 E 9600 S, Salem, UT 84653","precinct":"25SE13","hd":"64","v_score":"5.40460374","decile":"7","lat":40.056726931262,"lng":-111.637324597178},{"id":"161424","name":"Gregory Krajcik","party":"","address":"6864 S 3200 W, Benjamin, UT 84660","precinct":"25SE13","hd":"64","v_score":"6.481563075","decile":"7","lat":40.106502161181,"lng":-111.730599852009},{"id":"161487","name":"Mathilda Gislason","party":"Rep","address":"8956 S Woodland Hills Dr, Salem, UT 84653","precinct":"25SE13","hd":"64","v_score":"3.781490609","decile":"6","lat":40.068162806581,"lng":-111.654357155935},{"id":"161748","name":"Domenica O'Hara-Wiegand","party":"","address":"8956 S Woodland Hills Dr, Salem, UT 84653","precinct":"25SE13","hd":"64","v_score":"3.781490609","decile":"6","lat":40.068162806581,"lng":-111.654357155935},{"id":"161778","name":"Brenden Maggio","party":"Rep","address":"146 E 8800 S, Salem, UT 84660","precinct":"25SE13","hd":"64","v_score":"5.40460374","decile":"7","lat":40.071112442781,"lng":-111.65081874828},{"id":"161895","name":"Volney Rosenbaum","party":"Rep","address":"6529 S 3600 W, Spanish Fork, UT 84660","precinct":"25SE13","hd":"64","v_score":"18.29703414","decile":"10","lat":40.11235486866,"lng":-111.739969725932},{"id":"162545","name":"Millard Bechtelar","party":"","address":"3150 W 7300 S, Benjamin, UT 84660","precinct":"25SE13","hd":"64","v_score":"2.315214949","decile":"5","lat":40.098204387877,"lng":-111.72980785399},{"id":"166329","name":"Duane Stracke","party":"","address":"3141 W 6400 S, Benjamin, UT 84660","precinct":"25SE13","hd":"64","v_score":"6.481563075","decile":"7","lat":40.114582814132,"lng":-111.729020346116},{"id":"166459","name":"Marrion Senger","party":"Dem","address":"176 E 9800 S, Salem, UT 84653","precinct":"25SE13","hd":"64","v_score":"2.315214949","decile":"5","lat":40.05292524552,"lng":-111.65009531357},{"id":"166473","name":"Pernell Mertz","party":"Dem","address":"4158 W 7300 S, Benjamin, UT 84660","precinct":"25SE13","hd":"64","v_score":"3.781490609","decile":"6","lat":40.097922383099,"lng":-111.754044415984},{"id":"166720","name":"Mark Miller","party":"Rep","address":"7094 S 3600 W, Spanish Fork, UT 84660","precinct":"25SE13","hd":"64","v_score":"1.193887297","decile":"4","lat":40.101904571514,"lng":-111.740146386294},{"id":"168785","name":"Bjorn O'Conner","party":"Rep","address":"9415 S Orton Rd, Salem, UT 84653","precinct":"25SE13","hd":"64","v_score":"1.121327652","decile":"3","lat":40.059827673338,"lng":-111.652443698642},{"id":"168983","name":"Rylee Lesch III","party":"","address":"7625 S 1800 W, Benjamin, UT 84660","precinct":"25SE13","hd":"64","v_score":"5.40460374","decile":"7","lat":40.09406005134,"lng":-111.698273360387},{"id":"169907","name":"Mrs. Shanna Kling PhD","party":"Dem","address":"9675 S High Oak, Salem, UT 84653","precinct":"25SE13","hd":"64","v_score":"10.9941379","decile":"9","lat":40.055137291878,"lng":-111.635235568913},{"id":"170204","name":"Monna Schulist","party":"","address":"392 E 10000 S, Salem, UT 84653","precinct":"25SE13","hd":"64","v_score":"2.315214949","decile":"5","lat":40.049287684083,"lng":-111.644795880111},{"id":"171201","name":"Landon Kihn","party":"Dem","address":"463 E 9650 S, Salem, UT 84653","precinct":"25SE13","hd":"64","v_score":"9.913499214","decile":"9","lat":40.055895671062,"lng":-111.643084857488},{"id":"171358","name":"Mrs. Carmen Jaskolski DDS","party":"Rep","address":"310 E 9800 S, Salem, UT 84653","precinct":"25SE13","hd":"64","v_score":"2.315214949","decile":"5","lat":40.052954020219,"lng":-111.646715601544},{"id":"171715","name":"Dayse Lesch","party":"Dem","address":"315 E 9800 S, Salem, UT 84653","precinct":"25SE13","hd":"64","v_score":"3.781490609","decile":"6","lat":40.05305443389,"lng":-111.648022861334},{"id":"173001","name":"Emilio Bartoletti Jr.","party":"Dem","address":"6864 S 3200 W, Benjamin, UT 84660","precinct":"25SE13","hd":"64","v_score":"7.947838735","decile":"8","lat":40.106502161181,"lng":-111.730599852009},{"id":"173246","name":"Max West","party":"","address":"6994 S 3600 W, Benjamin, UT 84660","precinct":"25SE13","hd":"64","v_score":"3.93832808","decile":"6","lat":40.103799217556,"lng":-111.740138948775},{"id":"174363","name":"Ms. Ronnie Leuschke","party":"Rep","address":"7055 S 4000 W, Spanish Fork, UT 84660","precinct":"25SE13","hd":"64","v_score":"12.2514272","decile":"9","lat":40.102406968438,"lng":-111.74951744586},{"id":"175066","name":"Malachi Heaney","party":"","address":"9503 S Orton Rd, Salem, UT 84653","precinct":"25SE13","hd":"64","v_score":"2.315214949","decile":"5","lat":40.060594751364,"lng":-111.652454064462},{"id":"176850","name":"Elaina Kling","party":"Rep","address":"3841 W 6800 S, Benjamin, UT 84660","precinct":"25SE13","hd":"64","v_score":"2.315214949","decile":"5","lat":40.107180910545,"lng":-111.743204771458},{"id":"176851","name":"Gilman Steuber","party":"Dem","address":"3193 W 6400 S, Benjamin, UT 84660","precinct":"25SE13","hd":"64","v_score":"7.947838735","decile":"8","lat":40.114575946267,"lng":-111.730232540398},{"id":"177698","name":"Mozelle Gleichner","party":"Dem","address":"2738 W 6970 S, Benjamin, UT 84660","precinct":"25SE13","hd":"64","v_score":"5.40460374","decile":"7","lat":40.103106319499,"lng":-111.717411079412},{"id":"178004","name":"Kinley Lemke-Kshlerin","party":"Rep","address":"25 E 9550 S, Salem, UT 84653","precinct":"25SE13","hd":"64","v_score":"2.315214949","decile":"5","lat":40.05719082188,"lng":-111.653350309537},{"id":"178257","name":"Ellar Mueller","party":"Dem","address":"9415 S Orton Rd, Salem, UT 84653","precinct":"25SE13","hd":"64","v_score":"1.121327652","decile":"3","lat":40.059827673338,"lng":-111.652443698642},{"id":"179413","name":"Hollis Hayes DDS","party":"Dem","address":"3622 W 7300 S, Benjamin, UT 84660","precinct":"25SE13","hd":"64","v_score":"7.947838735","decile":"8","lat":40.098032735935,"lng":-111.740747610791},{"id":"179594","name":"Mordechai Hettinger","party":"Rep","address":"763 W 6400 S, Benjamin, UT 84660","precinct":"25SE13","hd":"64","v_score":"7.947838735","decile":"8","lat":40.115454867478,"lng":-111.673266151045},{"id":"179785","name":"Mrs. Pearlene Jakubowski PhD","party":"Rep","address":"6897 S 4000 W, Benjamin, UT 84660","precinct":"25SE13","hd":"64","v_score":"2.817000428","decile":"6","lat":40.105345959375,"lng":-111.74951377633},{"id":"179812","name":"Dino Pollich","party":"","address":"2156 W 6800 S, Benjamin, UT 84660","precinct":"25SE13","hd":"64","v_score":"5.40460374","decile":"7","lat":40.107413397282,"lng":-111.705932317362},{"id":"179906","name":"Chet Hartmann","party":"","address":"8956 S Woodland Hills Dr, Salem, UT 84653","precinct":"25SE13","hd":"64","v_score":"2.587603312","decile":"5","lat":40.068162806581,"lng":-111.654357155935},{"id":"180938","name":"Mackenzie Rice","party":"Rep","address":"7812 S 1400 W, Spanish Fork, UT 84660","precinct":"25SE13","hd":"64","v_score":"3.781490609","decile":"6","lat":40.089573750101,"lng":-111.688457848573},{"id":"181000","name":"Torrey Parker","party":"Dem","address":"7012 S 3400 W, Benjamin, UT 84660","precinct":"25SE13","hd":"64","v_score":"1.121327652","decile":"3","lat":40.10334843454,"lng":-111.735268467533}]