[{"id":"107","name":"Torrance Weissnat DDS","party":"","address":"921 S 770 E, Spanish Fork, UT 84660","precinct":"25SF25","hd":"64","v_score":"11.63485991","decile":"9","lat":40.098117965111,"lng":-111.641270270018},{"id":"813","name":"Edmon Predovic I","party":"","address":"937 S 690 E, Spanish Fork, UT 84660","precinct":"25SF25","hd":"64","v_score":"1.193887297","decile":"3","lat":40.097433302581,"lng":-111.642524000682},{"id":"2630","name":"Mr. Skyler Corwin DDS","party":"Dem","address":"726 E 920 S, Spanish Fork, UT 84660","precinct":"25SF25","hd":"64","v_score":"2.315214949","decile":"5","lat":40.097591723017,"lng":-111.641983350946},{"id":"3429","name":"Renata Osinski","party":"Rep","address":"832 S 690 E, Spanish Fork, UT 84660","precinct":"25SF25","hd":"64","v_score":"2.315214949","decile":"5","lat":40.098577809674,"lng":-111.642675317327},{"id":"3678","name":"Shanell Bechtelar","party":"Dem","address":"248 E 300 S, Spanish Fork, UT 84660","precinct":"25SF25","hd":"64","v_score":"4.079907534","decile":"7","lat":40.105786308028,"lng":-111.650481870381},{"id":"4532","name":"Newman Bergnaum","party":"","address":"788 E 820 S, Spanish Fork, UT 84660","precinct":"25SF25","hd":"64","v_score":"1.121327652","decile":"3","lat":40.098775648981,"lng":-111.640923499758},{"id":"5032","name":"Etter Rodriguez","party":"Dem","address":"835 E 1240 S, Spanish Fork, UT 84660","precinct":"25SF25","hd":"64","v_score":"21.77235251","decile":"10","lat":40.093829817174,"lng":-111.640556598694},{"id":"5165","name":"Ethel Bernhard-Roob","party":"","address":"390 Scenic Dr, Spanish Fork, UT 84660","precinct":"25SF25","hd":"64","v_score":"1.193887297","decile":"3","lat":40.100757918406,"lng":-111.647946431254},{"id":"5589","name":"Dr. Johathan Goodwin II","party":"Rep","address":"515 E Scenic Dr, Spanish Fork, UT 84660","precinct":"25SF25","hd":"64","v_score":"3.781490609","decile":"6","lat":40.098556327501,"lng":-111.645970191626},{"id":"6127","name":"Mrs. Bailee King DDS","party":"","address":"740 S 820 E, Spanish Fork, UT 84660","precinct":"25SF25","hd":"64","v_score":"19.22326505","decile":"10","lat":40.099964591109,"lng":-111.640487739474},{"id":"6192","name":"Conner Anderson-Muller","party":"","address":"863 S 770 E, Spanish Fork, UT 84660","precinct":"25SF25","hd":"64","v_score":"31.07626238","decile":"10","lat":40.09843816218,"lng":-111.641275490581},{"id":"6803","name":"Mr. Lambert Hilpert IV","party":"Rep","address":"1201 S 1000 E, Spanish Fork, UT 84660","precinct":"25SF25","hd":"64","v_score":"5.40460374","decile":"7","lat":40.093876304861,"lng":-111.63723475306},{"id":"7640","name":"Mr. Darcy Kilback DDS","party":"Rep","address":"750 S Fox Hill Dr, Spanish Fork, UT 84660","precinct":"25SF25","hd":"64","v_score":"8.363183621","decile":"8","lat":40.099749188787,"lng":-111.64463811808},{"id":"8232","name":"Sanai Ebert DVM","party":"","address":"937 S 690 E, Spanish Fork, UT 84660","precinct":"25SF25","hd":"64","v_score":"3.93832808","decile":"6","lat":40.097433302581,"lng":-111.642524000682},{"id":"8418","name":"Tollie Witting","party":"","address":"485 E 720 S, Spanish Fork, UT 84660","precinct":"25SF25","hd":"64","v_score":"3.93832808","decile":"6","lat":40.100064900294,"lng":-111.646525102434},{"id":"9323","name":"Christal Gerlach","party":"Dem","address":"957 S 690 E, Spanish Fork, UT 84660","precinct":"25SF25","hd":"64","v_score":"15.87102735","decile":"9","lat":40.097345291205,"lng":-111.642524000694},{"id":"10456","name":"Missie Wilderman MD","party":"Rep","address":"800 E Canyon Rd, Spanish Fork, UT 84660","precinct":"25SF25","hd":"64","v_score":"0","decile":"1","lat":40.104273424633,"lng":-111.640706936826},{"id":"10753","name":"Debra Hodkiewicz DDS","party":"Dem","address":"798 S 820 E, Spanish Fork, UT 84660","precinct":"25SF25","hd":"64","v_score":"31.14994604","decile":"10","lat":40.098884763714,"lng":-111.640474017855},{"id":"11088","name":"Britny Mills","party":"","address":"672 E Quail Dr, Spanish Fork, UT 84660","precinct":"25SF25","hd":"64","v_score":"2.587603312","decile":"5","lat":40.098284723007,"lng":-111.642894325439},{"id":"12774","name":"Somer Nolan PhD","party":"","address":"330 E Scenic Dr, Spanish Fork, UT 84660","precinct":"25SF25","hd":"64","v_score":"3.93832808","decile":"6","lat":40.101162792438,"lng":-111.648250086681},{"id":"13649","name":"Juliette Torphy","party":"","address":"360 E Scenic Dr, Spanish Fork, UT 84660","precinct":"25SF25","hd":"64","v_score":"1.193887297","decile":"3","lat":40.100960355422,"lng":-111.648098258967},{"id":"13931","name":"Keenan Ullrich-Pacocha","party":"","address":"1045 E 1240 S, Spanish Fork, UT 84660","precinct":"25SF25","hd":"64","v_score":"41.90479252","decile":"10","lat":40.093602314463,"lng":-111.636584495982},{"id":"15063","name":"Lon McCullough","party":"Dem","address":"782 S 820 E, Spanish Fork, UT 84660","precinct":"25SF25","hd":"64","v_score":"1.46627566","decile":"4","lat":40.099160596209,"lng":-111.640477465725},{"id":"15064","name":"Epsie Cormier","party":"","address":"782 S 820 E, Spanish Fork, UT 84660","precinct":"25SF25","hd":"64","v_score":"4.409183253","decile":"7","lat":40.099160596209,"lng":-111.640477465725},{"id":"16194","name":"Rayan Hermann","party":"","address":"932 S 770 E, Spanish Fork, UT 84660","precinct":"25SF25","hd":"64","v_score":"12.64191471","decile":"9","lat":40.098780441805,"lng":-111.641281071182},{"id":"16457","name":"Orville Brakus","party":"","address":"1046 E 1100 S, Spanish Fork, UT 84660","precinct":"25SF25","hd":"64","v_score":"0","decile":"1","lat":40.095219973379,"lng":-111.636819925725},{"id":"16459","name":"Leopold Johns-Wisoky","party":"Dem","address":"1046 E 1100 S, Spanish Fork, UT 84660","precinct":"25SF25","hd":"64","v_score":"0","decile":"1","lat":40.095219973379,"lng":-111.636819925725},{"id":"16813","name":"Edie Krajcik","party":"Rep","address":"788 E 820 S, Spanish Fork, UT 84660","precinct":"25SF25","hd":"64","v_score":"2.315214949","decile":"5","lat":40.098775648981,"lng":-111.640923499758},{"id":"17175","name":"Dessie Wiegand-Luettgen","party":"","address":"836 S Wolf Hollow Dr, Spanish Fork, UT 84660","precinct":"25SF25","hd":"64","v_score":"31.14994604","decile":"10","lat":40.098610006823,"lng":-111.643659064517},{"id":"17537","name":"Raoul Hamill","party":"","address":"695 Scenic Dr, Spanish Fork, UT 84660","precinct":"25SF25","hd":"64","v_score":"23.89786135","decile":"10","lat":40.095297912626,"lng":-111.642481679426},{"id":"18590","name":"Herman Will","party":"","address":"922 S 820 E, Spanish Fork, UT 84660","precinct":"25SF25","hd":"64","v_score":"1.193887297","decile":"3","lat":40.097834665878,"lng":-111.640456321646},{"id":"18641","name":"Jasmine Hansen","party":"Dem","address":"1063 E 1100 S, Spanish Fork, UT 84660","precinct":"25SF25","hd":"64","v_score":"16.80774378","decile":"9","lat":40.095335900192,"lng":-111.636571391058},{"id":"18677","name":"Miss Catharine Stehr PhD","party":"Dem","address":"817 S Fox Hill Dr, Spanish Fork, UT 84660","precinct":"25SF25","hd":"64","v_score":"26.93587103","decile":"10","lat":40.099029362457,"lng":-111.644507552397},{"id":"19458","name":"Krish Larson III","party":"Dem","address":"708 E 700 S, Spanish Fork, UT 84660","precinct":"25SF25","hd":"64","v_score":"8.280646305","decile":"8","lat":40.100408076001,"lng":-111.642446773104},{"id":"20225","name":"Margarite Walsh DDS","party":"","address":"371 S 200 E, Spanish Fork, UT 84660","precinct":"25SF25","hd":"64","v_score":"2.315214949","decile":"5","lat":40.105066234284,"lng":-111.651296400635},{"id":"21447","name":"Sandy Bogan","party":"Rep","address":"810 S 530 E, Spanish Fork, UT 84660","precinct":"25SF25","hd":"64","v_score":"1.193887297","decile":"3","lat":40.099625103033,"lng":-111.645664156895},{"id":"21467","name":"Tobias Heathcote","party":"","address":"420 Scenic Dr, Spanish Fork, UT 84660","precinct":"25SF25","hd":"64","v_score":"4.137918904","decile":"7","lat":40.100003258775,"lng":-111.647379594832},{"id":"21888","name":"Alabama Huel","party":"Rep","address":"957 S 690 E, Spanish Fork, UT 84660","precinct":"25SF25","hd":"64","v_score":"10.67330764","decile":"9","lat":40.097345291205,"lng":-111.642524000694},{"id":"22819","name":"Mariam Boyle","party":"Dem","address":"1225 S 850 E, Spanish Fork, UT 84660","precinct":"25SF25","hd":"64","v_score":"1.193887297","decile":"3","lat":40.094328744782,"lng":-111.639772382651},{"id":"24714","name":"Emile Stamm","party":"Rep","address":"398 S 300 E, Spanish Fork, UT 84660","precinct":"25SF25","hd":"64","v_score":"32.35304373","decile":"10","lat":40.104441032262,"lng":-111.649685210469},{"id":"25046","name":"Andon Hahn PhD","party":"Rep","address":"943 S 770 E, Spanish Fork, UT 84660","precinct":"25SF25","hd":"64","v_score":"29.95605874","decile":"10","lat":40.097978439559,"lng":-111.641277743662},{"id":"26860","name":"Ellsworth Hoppe","party":"Rep","address":"500 Scenic Dr, Spanish Fork, UT 84660","precinct":"25SF25","hd":"64","v_score":"0","decile":"1","lat":40.098493625481,"lng":-111.64609558098},{"id":"27752","name":"Alisson Ferry DVM","party":"","address":"812 S 690 E, Spanish Fork, UT 84660","precinct":"25SF25","hd":"64","v_score":"2.315214949","decile":"5","lat":40.098833205289,"lng":-111.642676954445},{"id":"27800","name":"Monique Pagac","party":"Rep","address":"480 E 720 S, Spanish Fork, UT 84660","precinct":"25SF25","hd":"64","v_score":"2.660162957","decile":"5","lat":40.099950740377,"lng":-111.646497455135},{"id":"28155","name":"Rexford Kuphal","party":"","address":"636 E 700 S, Spanish Fork, UT 84660","precinct":"25SF25","hd":"64","v_score":"3.781490609","decile":"6","lat":40.100386426914,"lng":-111.643577729057},{"id":"30238","name":"Dr. Lilian Parisian MD","party":"","address":"360 E Scenic Dr, Spanish Fork, UT 84660","precinct":"25SF25","hd":"64","v_score":"1.46627566","decile":"4","lat":40.100960355422,"lng":-111.648098258967},{"id":"30556","name":"Dora Kling","party":"","address":"390 Scenic Dr, # 2, Spanish Fork, UT 84660","precinct":"25SF25","hd":"64","v_score":"5.530510904","decile":"7","lat":40.100757918406,"lng":-111.647946431254},{"id":"30580","name":"Yoshio Hauck","party":"","address":"963 Crosswinds Dr, Spanish Fork, UT 84660","precinct":"25SF25","hd":"64","v_score":"2.315214949","decile":"5","lat":40.094565314465,"lng":-111.638061745657},{"id":"30581","name":"Tianna O'Connell","party":"Rep","address":"786 S 820 E, Spanish Fork, UT 84660","precinct":"25SF25","hd":"64","v_score":"26.41733837","decile":"10","lat":40.099091638085,"lng":-111.640476603758},{"id":"31492","name":"Tamera Kozey","party":"Dem","address":"967 S 690 E, Spanish Fork, UT 84660","precinct":"25SF25","hd":"64","v_score":"5.40460374","decile":"7","lat":40.097334137573,"lng":-111.642525280849},{"id":"32978","name":"Dr. Hymen Bradtke V","party":"","address":"420 S 820 E, Spanish Fork, UT 84660","precinct":"25SF25","hd":"64","v_score":"1.193887297","decile":"3","lat":40.103941363119,"lng":-111.640529581819},{"id":"34341","name":"Dakota Jakubowski","party":"Rep","address":"960 E 1100 S, Spanish Fork, UT 84660","precinct":"25SF25","hd":"64","v_score":"15.06970978","decile":"9","lat":40.095213246322,"lng":-111.638073300434},{"id":"35190","name":"Melva Huel","party":"Rep","address":"782 E 1050 S, Spanish Fork, UT 84660","precinct":"25SF25","hd":"64","v_score":"4.905839784","decile":"7","lat":40.096344334189,"lng":-111.641133535736},{"id":"35555","name":"Melba Streich","party":"Rep","address":"805 E 1050 S, Spanish Fork, UT 84660","precinct":"25SF25","hd":"64","v_score":"1.121327652","decile":"3","lat":40.096487480373,"lng":-111.640697675136},{"id":"35826","name":"Daja Barton","party":"Dem","address":"743 E 1050 S, Spanish Fork, UT 84660","precinct":"25SF25","hd":"64","v_score":"2.587603312","decile":"5","lat":40.096446314532,"lng":-111.641804002342},{"id":"36718","name":"Autry Leannon","party":"Dem","address":"946 S 770 E, Spanish Fork, UT 84660","precinct":"25SF25","hd":"64","v_score":"8.561650431","decile":"8","lat":40.098548574962,"lng":-111.641277290775},{"id":"37387","name":"Manning Lehner","party":"Rep","address":"895 Crosswinds Dr, Spanish Fork, UT 84660","precinct":"25SF25","hd":"64","v_score":"2.315214949","decile":"5","lat":40.094565314491,"lng":-111.638410459558},{"id":"38388","name":"Loni Rice","party":"Rep","address":"420 Scenic Dr, Spanish Fork, UT 84660","precinct":"25SF25","hd":"64","v_score":"1.193887297","decile":"3","lat":40.100003258775,"lng":-111.647379594832},{"id":"39755","name":"Maria Bins DVM","party":"Dem","address":"826 S Fox Hill Dr, Spanish Fork, UT 84660","precinct":"25SF25","hd":"64","v_score":"2.315214949","decile":"5","lat":40.099018470013,"lng":-111.644657320824},{"id":"39879","name":"Melbourne Fahey","party":"Dem","address":"1205 Crosswinds Dr, Spanish Fork, UT 84660","precinct":"25SF25","hd":"64","v_score":"14.97046029","decile":"9","lat":40.094565314504,"lng":-111.638577673735},{"id":"40086","name":"Virginia Smitham","party":"Dem","address":"480 E 720 S, Spanish Fork, UT 84660","precinct":"25SF25","hd":"64","v_score":"3.93832808","decile":"6","lat":40.099950740377,"lng":-111.646497455135},{"id":"40569","name":"Andra Dibbert II","party":"","address":"835 S 530 E, Spanish Fork, UT 84660","precinct":"25SF25","hd":"64","v_score":"10.51003435","decile":"9","lat":40.098947990216,"lng":-111.645511998068},{"id":"40571","name":"Dann Parisian","party":"","address":"769 S Wolf Hollow Dr, Spanish Fork, UT 84660","precinct":"25SF25","hd":"64","v_score":"3.781490609","decile":"6","lat":40.099276892049,"lng":-111.643519831972},{"id":"40594","name":"Kaya Quigley DVM","party":"Dem","address":"895 Crosswinds Dr, Spanish Fork, UT 84660","precinct":"25SF25","hd":"64","v_score":"2.315214949","decile":"5","lat":40.094565314491,"lng":-111.638410459558},{"id":"41146","name":"Deante Walter","party":"","address":"805 E 1240 S, Spanish Fork, UT 84660","precinct":"25SF25","hd":"64","v_score":"6.896907962","decile":"8","lat":40.09381209164,"lng":-111.640850336449},{"id":"41679","name":"Mr. Felix Windler","party":"","address":"867 S 530 E, Spanish Fork, UT 84660","precinct":"25SF25","hd":"64","v_score":"3.93832808","decile":"6","lat":40.098652209226,"lng":-111.645600421258},{"id":"43071","name":"Zion Funk","party":"Dem","address":"795 E Skylark Dr, Spanish Fork, UT 84660","precinct":"25SF25","hd":"64","v_score":"15.16895836","decile":"9","lat":40.095847268986,"lng":-111.641593429185},{"id":"43221","name":"Marylyn VonRueden-Mertz","party":"","address":"420 S 300 E, Apt 2, Spanish Fork, UT 84660","precinct":"25SF25","hd":"64","v_score":"0","decile":"1","lat":40.104257297506,"lng":-111.649686504399},{"id":"43968","name":"Nikia Gleason-Reilly","party":"Rep","address":"818 S 770 E, Spanish Fork, UT 84660","precinct":"25SF25","hd":"64","v_score":"1.193887297","decile":"3","lat":40.098893653092,"lng":-111.641432660369},{"id":"44491","name":"Malorie Waelchi","party":"Dem","address":"932 S 770 E, Spanish Fork, UT 84660","precinct":"25SF25","hd":"64","v_score":"1.121327652","decile":"3","lat":40.098780441805,"lng":-111.641281071182},{"id":"44615","name":"Mattye Eichmann DDS","party":"Dem","address":"867 S 530 E, Spanish Fork, UT 84660","precinct":"25SF25","hd":"64","v_score":"3.781490609","decile":"6","lat":40.098652209226,"lng":-111.645600421258},{"id":"45792","name":"Marlena Harris MD","party":"Rep","address":"760 Skylark Dr, Spanish Fork, UT 84660","precinct":"25SF25","hd":"64","v_score":"5.191257514","decile":"7","lat":40.095996948152,"lng":-111.641806831872},{"id":"46961","name":"Margaretha Abbott","party":"Rep","address":"835 S Fox Hill Dr, Spanish Fork, UT 84660","precinct":"25SF25","hd":"64","v_score":"10.82723987","decile":"9","lat":40.098884312789,"lng":-111.644507038055},{"id":"47059","name":"Dr. Collin Morar I","party":"","address":"1185 Crosswinds Dr, Spanish Fork, UT 84660","precinct":"25SF25","hd":"64","v_score":"0","decile":"1","lat":40.094095645434,"lng":-111.638882768379},{"id":"47473","name":"Krysten O'Reilly-Renner","party":"Dem","address":"915 E 1240 S, Spanish Fork, UT 84660","precinct":"25SF25","hd":"64","v_score":"4.210478549","decile":"7","lat":40.093606867317,"lng":-111.638675032893},{"id":"48062","name":"Dr. Frank Windler DVM","party":"Dem","address":"786 S 820 E, Spanish Fork, UT 84660","precinct":"25SF25","hd":"64","v_score":"16.73021475","decile":"9","lat":40.099091638085,"lng":-111.640476603758},{"id":"48735","name":"Ivana Spencer-Mueller","party":"Rep","address":"410 Scenic Dr, Spanish Fork, UT 84660","precinct":"25SF25","hd":"64","v_score":"2.660162957","decile":"5","lat":40.100246394786,"lng":-111.647582026213},{"id":"48968","name":"Kaydence Hauck-Hand","party":"Dem","address":"1002 Crosswinds Dr, Spanish Fork, UT 84660","precinct":"25SF25","hd":"64","v_score":"1.121327652","decile":"3","lat":40.094576291879,"lng":-111.637763899046},{"id":"49671","name":"Delina Christiansen PhD","party":"","address":"729 E 810 S, Spanish Fork, UT 84660","precinct":"25SF25","hd":"64","v_score":"0","decile":"1","lat":40.099101314267,"lng":-111.642322797786},{"id":"49807","name":"Clabe Emmerich","party":"Rep","address":"472 E 720 S, Spanish Fork, UT 84660","precinct":"25SF25","hd":"64","v_score":"2.315214949","decile":"5","lat":40.099930755405,"lng":-111.646547417573},{"id":"50588","name":"Garfield Cruickshank","party":"","address":"703 E 1050 S, Spanish Fork, UT 84660","precinct":"25SF25","hd":"64","v_score":"19.74179771","decile":"10","lat":40.09644714027,"lng":-111.642349260153},{"id":"50662","name":"Clarke Jones I","party":"Rep","address":"1188 S 1100 E, Spanish Fork, UT 84660","precinct":"25SF25","hd":"64","v_score":"11.37977487","decile":"9","lat":40.093767184701,"lng":-111.635666922634},{"id":"51284","name":"Janay Kunze-Gerlach","party":"","address":"784 E 700 S, Spanish Fork, UT 84660","precinct":"25SF25","hd":"64","v_score":"3.781490609","decile":"6","lat":40.100404858517,"lng":-111.641666547637},{"id":"52098","name":"Alexandro Will","party":"","address":"398 S 300 E, Spanish Fork, UT 84660","precinct":"25SF25","hd":"64","v_score":"11.30609121","decile":"9","lat":40.104441032262,"lng":-111.649685210469},{"id":"52839","name":"Hosie Donnelly","party":"Dem","address":"868 S Fox Hill Dr, Spanish Fork, UT 84660","precinct":"25SF25","hd":"64","v_score":"5.40460374","decile":"7","lat":40.098662927392,"lng":-111.64465606008},{"id":"53205","name":"Rubin Grady","party":"","address":"766 E 700 S, Spanish Fork, UT 84660","precinct":"25SF25","hd":"64","v_score":"2.315214949","decile":"5","lat":40.100405620553,"lng":-111.641851337879},{"id":"53466","name":"Dr. Brielle Rau","party":"Dem","address":"745 S Wolf Hollow Dr, Spanish Fork, UT 84660","precinct":"25SF25","hd":"64","v_score":"0","decile":"1","lat":40.099625655479,"lng":-111.643582582026},{"id":"54011","name":"Dr. Jedidiah Feeney","party":"","address":"804 E 700 S, Spanish Fork, UT 84660","precinct":"25SF25","hd":"64","v_score":"1.46627566","decile":"4","lat":40.100404011811,"lng":-111.641461225145},{"id":"54232","name":"Orelia Heidenreich","party":"Dem","address":"480 E 720 S, Spanish Fork, UT 84660","precinct":"25SF25","hd":"64","v_score":"3.781490609","decile":"6","lat":40.099950740377,"lng":-111.646497455135},{"id":"54868","name":"Herbert Crist","party":"","address":"624 Scenic Dr, Spanish Fork, UT 84660","precinct":"25SF25","hd":"64","v_score":"1.193887297","decile":"3","lat":40.096612459171,"lng":-111.643964380637},{"id":"56063","name":"Zeno Stracke","party":"","address":"966 S 690 E, Spanish Fork, UT 84660","precinct":"25SF25","hd":"64","v_score":"1.121327652","decile":"3","lat":40.097332969624,"lng":-111.64267380357},{"id":"56096","name":"Aleta Ward","party":"","address":"1005 E 1100 S, Spanish Fork, UT 84660","precinct":"25SF25","hd":"64","v_score":"1.193887297","decile":"3","lat":40.095331049085,"lng":-111.637476135239},{"id":"56292","name":"Mr. Marcus Bergnaum","party":"Rep","address":"890 E 1100 S, Spanish Fork, UT 84660","precinct":"25SF25","hd":"64","v_score":"0","decile":"1","lat":40.09520942325,"lng":-111.638784401763},{"id":"56701","name":"Amado Koepp","party":"","address":"420 S 300 E, Spanish Fork, UT 84660","precinct":"25SF25","hd":"64","v_score":"7.947445922","decile":"8","lat":40.104257297506,"lng":-111.649686504399},{"id":"57902","name":"Racquel Murazik MD","party":"Rep","address":"730 E Scenic Dr, Spanish Fork, UT 84660","precinct":"25SF25","hd":"64","v_score":"6.390031551","decile":"7","lat":40.093627234509,"lng":-111.642005931195},{"id":"61779","name":"Mrs. Pearline Dietrich DVM","party":"","address":"656 E 700 S, Spanish Fork, UT 84660","precinct":"25SF25","hd":"64","v_score":"0","decile":"1","lat":40.100393075324,"lng":-111.643286860183},{"id":"61833","name":"Kristine Aufderhar-Nikolaus","party":"","address":"656 E 700 S, Spanish Fork, UT 84660","precinct":"25SF25","hd":"64","v_score":"2.315214949","decile":"5","lat":40.100393075324,"lng":-111.643286860183},{"id":"62973","name":"Hoy Koss","party":"Dem","address":"560 Scenic Dr, Spanish Fork, UT 84660","precinct":"25SF25","hd":"64","v_score":"0","decile":"1","lat":40.097872440141,"lng":-111.645493255583},{"id":"63711","name":"Citlalli Murazik","party":"Rep","address":"611 Scenic Dr, Spanish Fork, UT 84660","precinct":"25SF25","hd":"64","v_score":"6.364334873","decile":"7","lat":40.097233545713,"lng":-111.644444425648},{"id":"64582","name":"Dr. Margarito Leuschke MD","party":"Rep","address":"784 E 700 S, Spanish Fork, UT 84660","precinct":"25SF25","hd":"64","v_score":"1.193887297","decile":"3","lat":40.100404858517,"lng":-111.641666547637},{"id":"64705","name":"Orvin Dare","party":"Dem","address":"298 E 300 S, Spanish Fork, UT 84660","precinct":"25SF25","hd":"64","v_score":"0","decile":"1","lat":40.105782106117,"lng":-111.649658308108},{"id":"66860","name":"Annis Daugherty DVM","party":"","address":"624 Scenic Dr, Spanish Fork, UT 84660","precinct":"25SF25","hd":"64","v_score":"0","decile":"1","lat":40.096612459171,"lng":-111.643964380637},{"id":"67108","name":"Ms. Leitha Feest MD","party":"Dem","address":"636 E 700 S, Spanish Fork, UT 84660","precinct":"25SF25","hd":"64","v_score":"1.121327652","decile":"3","lat":40.100386426914,"lng":-111.643577729057},{"id":"69062","name":"Miss Cyndi Wolf PhD","party":"Rep","address":"472 E 720 S, Spanish Fork, UT 84660","precinct":"25SF25","hd":"64","v_score":"11.885774","decile":"9","lat":40.099930755405,"lng":-111.646547417573},{"id":"69097","name":"Rosey Cormier","party":"","address":"810 S 530 E, Spanish Fork, UT 84660","precinct":"25SF25","hd":"64","v_score":"5.429380732","decile":"7","lat":40.099625103033,"lng":-111.645664156895},{"id":"71042","name":"Mr. Hoyt Schaden V","party":"","address":"788 E 820 S, Spanish Fork, UT 84660","precinct":"25SF25","hd":"64","v_score":"25.10197737","decile":"10","lat":40.098775648981,"lng":-111.640923499758},{"id":"71385","name":"Ester O'Kon DVM","party":"Rep","address":"1182 S Crosswinds Dr, Spanish Fork, UT 84660","precinct":"25SF25","hd":"64","v_score":"3.93832808","decile":"6","lat":40.094565314528,"lng":-111.638892505245},{"id":"71722","name":"Jeremy Borer DVM","party":"Rep","address":"1063 E 1100 S, Spanish Fork, UT 84660","precinct":"25SF25","hd":"64","v_score":"1.121327652","decile":"3","lat":40.095335900192,"lng":-111.636571391058},{"id":"72233","name":"Shakira Jenkins","party":"","address":"389 S 200 E, Spanish Fork, UT 84660","precinct":"25SF25","hd":"64","v_score":"3.93832808","decile":"6","lat":40.104880285095,"lng":-111.651302211571},{"id":"72362","name":"Dr. Toriano Gerhold V","party":"Dem","address":"891 S Wolf Hollow Dr, Spanish Fork, UT 84660","precinct":"25SF25","hd":"64","v_score":"2.315214949","decile":"5","lat":40.097923059122,"lng":-111.643500916804},{"id":"75679","name":"Cara Hansen-Mayert","party":"","address":"729 E 810 S, Spanish Fork, UT 84660","precinct":"25SF25","hd":"64","v_score":"0","decile":"1","lat":40.099101314267,"lng":-111.642322797786},{"id":"76242","name":"Andy Borer","party":"","address":"867 S 530 E, Spanish Fork, UT 84660","precinct":"25SF25","hd":"64","v_score":"1.623113131","decile":"5","lat":40.098652209226,"lng":-111.645600421258},{"id":"78717","name":"Dudley Casper","party":"Rep","address":"400 Scenic Dr, Spanish Fork, UT 84660","precinct":"25SF25","hd":"64","v_score":"2.315214949","decile":"5","lat":40.100496347466,"lng":-111.647759075971},{"id":"80187","name":"Chrissy Leffler","party":"","address":"1002 Crosswinds Dr, Spanish Fork, UT 84660","precinct":"25SF25","hd":"64","v_score":"2.315214949","decile":"5","lat":40.094576291879,"lng":-111.637763899046},{"id":"81462","name":"Mrs. Assunta Block","party":"","address":"726 E 920 S, Spanish Fork, UT 84660","precinct":"25SF25","hd":"64","v_score":"0","decile":"1","lat":40.097591723017,"lng":-111.641983350946},{"id":"84331","name":"Jory Kuphal","party":"","address":"420 S 820 E, Spanish Fork, UT 84660","precinct":"25SF25","hd":"64","v_score":"0","decile":"1","lat":40.103941363119,"lng":-111.640529581819},{"id":"85003","name":"Mrs. Lula Davis DVM","party":"Dem","address":"890 E 1100 S, Spanish Fork, UT 84660","precinct":"25SF25","hd":"64","v_score":"0","decile":"1","lat":40.09520942325,"lng":-111.638784401763},{"id":"85350","name":"Tristan Weimann","party":"Dem","address":"565 Scenic Dr, Spanish Fork, UT 84660","precinct":"25SF25","hd":"64","v_score":"0","decile":"1","lat":40.097879538553,"lng":-111.645265508167},{"id":"85962","name":"Dr. Pearlie Parisian","party":"Rep","address":"967 S 690 E, Spanish Fork, UT 84660","precinct":"25SF25","hd":"64","v_score":"1.193887297","decile":"3","lat":40.097334137573,"lng":-111.642525280849},{"id":"86219","name":"Salina Collier PhD","party":"","address":"1150 S 850 E, Spanish Fork, UT 84660","precinct":"25SF25","hd":"64","v_score":"0","decile":"1","lat":40.09478571854,"lng":-111.639920289455},{"id":"87522","name":"Dr. Steward Harris II","party":"Dem","address":"723 E 1050 S, Spanish Fork, UT 84660","precinct":"25SF25","hd":"64","v_score":"26.63697331","decile":"10","lat":40.096455241035,"lng":-111.642131590219},{"id":"87651","name":"Lee Hagenes-Kihn","party":"","address":"936 S 690 E, Spanish Fork, UT 84660","precinct":"25SF25","hd":"64","v_score":"0","decile":"1","lat":40.097494690527,"lng":-111.642673803549},{"id":"88154","name":"Meyer Murazik-Stanton","party":"Dem","address":"776 S 690 E, Spanish Fork, UT 84660","precinct":"25SF25","hd":"64","v_score":"1.193887297","decile":"4","lat":40.099415340291,"lng":-111.642678305561},{"id":"88943","name":"Deliah Luettgen-Kunze","party":"Rep","address":"890 S Wolf Hollow Dr, Spanish Fork, UT 84660","precinct":"25SF25","hd":"64","v_score":"0","decile":"1","lat":40.098044470337,"lng":-111.643651907923},{"id":"93591","name":"Philomena Bernier","party":"Dem","address":"818 S 770 E, Spanish Fork, UT 84660","precinct":"25SF25","hd":"64","v_score":"1.193887297","decile":"4","lat":40.098893653092,"lng":-111.641432660369},{"id":"94209","name":"Eldon Klein DVM","party":"Rep","address":"420 S 300 E, # 1, Spanish Fork, UT 84660","precinct":"25SF25","hd":"64","v_score":"1.193887297","decile":"4","lat":40.104257297506,"lng":-111.649686504399},{"id":"94468","name":"Sallie Williamson","party":"Rep","address":"683 Scenic Dr, Spanish Fork, UT 84660","precinct":"25SF25","hd":"64","v_score":"2.817000428","decile":"6","lat":40.095506524984,"lng":-111.642702285455},{"id":"95383","name":"Dr. Marleen Heidenreich","party":"Dem","address":"714 E 810 S, Spanish Fork, UT 84660","precinct":"25SF25","hd":"64","v_score":"0","decile":"1","lat":40.098986722884,"lng":-111.642345296364},{"id":"98963","name":"Perla Fritsch","party":"Rep","address":"727 E 760 S, Spanish Fork, UT 84660","precinct":"25SF25","hd":"64","v_score":"0","decile":"1","lat":40.099768849317,"lng":-111.642244003119},{"id":"100249","name":"Ezzard Stanton","party":"","address":"745 S Wolf Hollow Dr, Spanish Fork, UT 84660","precinct":"25SF25","hd":"64","v_score":"0","decile":"1","lat":40.099625655479,"lng":-111.643582582026},{"id":"100900","name":"Montrell Leffler DVM","party":"","address":"1185 Crosswinds Dr, Spanish Fork, UT 84660","precinct":"25SF25","hd":"64","v_score":"0","decile":"2","lat":40.094095645434,"lng":-111.638882768379},{"id":"101684","name":"Ms. Lissette Nitzsche DVM","party":"Dem","address":"946 S 770 E, Spanish Fork, UT 84660","precinct":"25SF25","hd":"64","v_score":"0","decile":"2","lat":40.098548574962,"lng":-111.641277290775},{"id":"104921","name":"Metta Barrows","party":"","address":"683 Scenic Dr, Spanish Fork, UT 84660","precinct":"25SF25","hd":"64","v_score":"1.193887297","decile":"4","lat":40.095506524984,"lng":-111.642702285455},{"id":"105392","name":"Ms. Montana Hansen","party":"","address":"550 Scenic Dr, Spanish Fork, UT 84660","precinct":"25SF25","hd":"64","v_score":"1.193887297","decile":"4","lat":40.097952888605,"lng":-111.645613148158},{"id":"105592","name":"Tavian Kerluke","party":"Rep","address":"1150 S 850 E, Spanish Fork, UT 84660","precinct":"25SF25","hd":"64","v_score":"0","decile":"2","lat":40.09478571854,"lng":-111.639920289455},{"id":"108663","name":"Keaton Mitchell","party":"Rep","address":"904 S 770 E, Spanish Fork, UT 84660","precinct":"25SF25","hd":"64","v_score":"0","decile":"2","lat":40.097966280578,"lng":-111.641440831692},{"id":"109356","name":"Marta Jakubowski","party":"","address":"727 E 860 S, Spanish Fork, UT 84660","precinct":"25SF25","hd":"64","v_score":"0","decile":"2","lat":40.098402288657,"lng":-111.64242574236},{"id":"111175","name":"Tanisha Hamill","party":"","address":"884 S 820 E, Spanish Fork, UT 84660","precinct":"25SF25","hd":"64","v_score":"0","decile":"2","lat":40.098227862406,"lng":-111.640462465342},{"id":"111362","name":"Gerhardt Parker-Shanahan","party":"Rep","address":"495 Scenic Dr, Spanish Fork, UT 84660","precinct":"25SF25","hd":"64","v_score":"1.193887297","decile":"4","lat":40.098873377444,"lng":-111.646241145574},{"id":"116259","name":"Mr. Benjamine Cummings V","party":"Rep","address":"776 S 690 E, Spanish Fork, UT 84660","precinct":"25SF25","hd":"64","v_score":"1.193887297","decile":"4","lat":40.099415340291,"lng":-111.642678305561},{"id":"116260","name":"Amon Adams","party":"","address":"776 S 690 E, Spanish Fork, UT 84660","precinct":"25SF25","hd":"64","v_score":"1.193887297","decile":"4","lat":40.099415340291,"lng":-111.642678305561},{"id":"116558","name":"Walker Hoppe","party":"","address":"835 S Fox Hill Dr, Spanish Fork, UT 84660","precinct":"25SF25","hd":"64","v_score":"4.069929862","decile":"7","lat":40.098884312789,"lng":-111.644507038055},{"id":"116981","name":"Markel Smith MD","party":"Rep","address":"748 E 760 S, Spanish Fork, UT 84660","precinct":"25SF25","hd":"64","v_score":"1.193887297","decile":"4","lat":40.09966144171,"lng":-111.641995099068},{"id":"118668","name":"Alvie Crooks","party":"Dem","address":"833 S Wolf Hollow Dr, Spanish Fork, UT 84660","precinct":"25SF25","hd":"64","v_score":"1.193887297","decile":"4","lat":40.09840000583,"lng":-111.643505913257},{"id":"119377","name":"Hilario Bahringer","party":"Dem","address":"765 E 760 S, Spanish Fork, UT 84660","precinct":"25SF25","hd":"64","v_score":"1.193887297","decile":"4","lat":40.099781113684,"lng":-111.6418239475},{"id":"120931","name":"Marcelo Armstrong","party":"Dem","address":"727 E 760 S, Spanish Fork, UT 84660","precinct":"25SF25","hd":"64","v_score":"1.193887297","decile":"4","lat":40.099768849317,"lng":-111.642244003119},{"id":"121406","name":"Mr. Durward McDermott DDS","party":"","address":"410 S 300 E, Spanish Fork, UT 84660","precinct":"25SF25","hd":"64","v_score":"1.193887297","decile":"4","lat":40.104340813304,"lng":-111.649685916249},{"id":"122220","name":"Nicole Abbott","party":"Dem","address":"455 E 720 S, Spanish Fork, UT 84660","precinct":"25SF25","hd":"64","v_score":"1.193887297","decile":"4","lat":40.099979007244,"lng":-111.646729565591},{"id":"123219","name":"Matthew Rolfson","party":"","address":"1005 E 1100 S, Spanish Fork, UT 84660","precinct":"25SF25","hd":"64","v_score":"1.193887297","decile":"4","lat":40.095331049085,"lng":-111.637476135239},{"id":"124590","name":"Dr. Ashlee Schmitt","party":"Dem","address":"1075 S 900 E, Spanish Fork, UT 84660","precinct":"25SF25","hd":"64","v_score":"0","decile":"2","lat":40.096082696052,"lng":-111.638528445752},{"id":"124877","name":"Jermaine Auer","party":"Dem","address":"390 Scenic Dr, Spanish Fork, UT 84660","precinct":"25SF25","hd":"64","v_score":"0","decile":"2","lat":40.100757918406,"lng":-111.647946431254},{"id":"125338","name":"Demario Beier","party":"Dem","address":"1028 E 1100 S, Spanish Fork, UT 84660","precinct":"25SF25","hd":"64","v_score":"0","decile":"2","lat":40.095218467863,"lng":-111.637100708401},{"id":"125361","name":"Eleonora O'Kon","party":"Rep","address":"890 S Wolf Hollow Dr, Spanish Fork, UT 84660","precinct":"25SF25","hd":"64","v_score":"0","decile":"2","lat":40.098044470337,"lng":-111.643651907923},{"id":"125479","name":"Dr. Rutha Lebsack PhD","party":"","address":"789 E 1170 S, Spanish Fork, UT 84660","precinct":"25SF25","hd":"64","v_score":"0","decile":"2","lat":40.094589646535,"lng":-111.640988519332},{"id":"127829","name":"Queen Goldner","party":"Rep","address":"936 E 1100 S, Spanish Fork, UT 84660","precinct":"25SF25","hd":"64","v_score":"0","decile":"2","lat":40.095211935554,"lng":-111.638317106604},{"id":"128238","name":"Dr. Davy Prosacco I","party":"","address":"740 S 530 E, Spanish Fork, UT 84660","precinct":"25SF25","hd":"64","v_score":"0","decile":"2","lat":40.099841548156,"lng":-111.645665702904},{"id":"129446","name":"Eston Hauck","party":"","address":"786 S 820 E, Spanish Fork, UT 84660","precinct":"25SF25","hd":"64","v_score":"4.214075011","decile":"7","lat":40.099091638085,"lng":-111.640476603758},{"id":"129688","name":"Mr. Pryor Maggio DDS","party":"Rep","address":"903 S 770 E, Spanish Fork, UT 84660","precinct":"25SF25","hd":"64","v_score":"0","decile":"2","lat":40.098217336615,"lng":-111.641271890193},{"id":"130187","name":"Hardin D'Amore","party":"Rep","address":"814 Skylark Dr, Spanish Fork, UT 84660","precinct":"25SF25","hd":"64","v_score":"0","decile":"2","lat":40.095708065985,"lng":-111.641696223885},{"id":"130281","name":"Yetta Carroll-Rogahn","party":"Rep","address":"904 S 770 E, Spanish Fork, UT 84660","precinct":"25SF25","hd":"64","v_score":"0","decile":"2","lat":40.097966280578,"lng":-111.641440831692},{"id":"131688","name":"Mr. Jermey Carroll","party":"Dem","address":"495 Scenic Dr, Spanish Fork, UT 84660","precinct":"25SF25","hd":"64","v_score":"0","decile":"2","lat":40.098873377444,"lng":-111.646241145574},{"id":"136588","name":"Shaina Greenholt","party":"Rep","address":"740 S 530 E, Spanish Fork, UT 84660","precinct":"25SF25","hd":"64","v_score":"5.40460374","decile":"7","lat":40.099841548156,"lng":-111.645665702904},{"id":"137658","name":"Ms. Katrina Langworth DVM","party":"Rep","address":"759 S 770 E, Spanish Fork, UT 84660","precinct":"25SF25","hd":"64","v_score":"15.20821291","decile":"9","lat":40.099215545782,"lng":-111.641287671385},{"id":"137793","name":"Elijah Hessel","party":"Dem","address":"1045 E 1240 S, Spanish Fork, UT 84660","precinct":"25SF25","hd":"64","v_score":"3.781490609","decile":"6","lat":40.093602314463,"lng":-111.636584495982},{"id":"138084","name":"Lamar Buckridge","party":"","address":"903 S 770 E, Spanish Fork, UT 84660","precinct":"25SF25","hd":"64","v_score":"0","decile":"2","lat":40.098217336615,"lng":-111.641271890193},{"id":"138541","name":"Dr. Bird Connelly II","party":"Dem","address":"799 S 770 E, Spanish Fork, UT 84660","precinct":"25SF25","hd":"64","v_score":"22.45367812","decile":"10","lat":40.0988949678,"lng":-111.641282862757},{"id":"138542","name":"Virdie Kuhn","party":"","address":"799 S 770 E, Spanish Fork, UT 84660","precinct":"25SF25","hd":"64","v_score":"12.14993957","decile":"9","lat":40.0988949678,"lng":-111.641282862757},{"id":"138689","name":"Alanna Johns PhD","party":"","address":"1225 S 850 E, Spanish Fork, UT 84660","precinct":"25SF25","hd":"64","v_score":"3.102699348","decile":"6","lat":40.094328744782,"lng":-111.639772382651},{"id":"139604","name":"Keshaun Streich","party":"","address":"785 E 1050 S, Spanish Fork, UT 84660","precinct":"25SF25","hd":"64","v_score":"18.97275282","decile":"10","lat":40.096460652647,"lng":-111.641045170194},{"id":"139605","name":"Octavius Graham","party":"Rep","address":"785 E 1050 S, Spanish Fork, UT 84660","precinct":"25SF25","hd":"64","v_score":"16.02984522","decile":"9","lat":40.096460652647,"lng":-111.641045170194},{"id":"140748","name":"Jamarcus Bashirian","party":"Dem","address":"890 S Wolf Hollow Dr, Spanish Fork, UT 84660","precinct":"25SF25","hd":"64","v_score":"2.998909327","decile":"6","lat":40.098044470337,"lng":-111.643651907923},{"id":"141572","name":"Seamus Witting DVM","party":"Rep","address":"1070 E 1050 S, Spanish Fork, UT 84660","precinct":"25SF25","hd":"64","v_score":"15.09172736","decile":"9","lat":40.096056682427,"lng":-111.637379355998},{"id":"141754","name":"Lyn Cole","party":"Dem","address":"890 S Wolf Hollow Dr, Spanish Fork, UT 84660","precinct":"25SF25","hd":"64","v_score":"2.587603312","decile":"5","lat":40.098044470337,"lng":-111.643651907923},{"id":"142202","name":"Alessandro Spencer","party":"","address":"350 Scenic Dr, Spanish Fork, UT 84660","precinct":"25SF25","hd":"64","v_score":"1.193887297","decile":"4","lat":40.101027834428,"lng":-111.648148868205},{"id":"142588","name":"Cristy Raynor","party":"Rep","address":"771 Skylark Dr, Spanish Fork, UT 84660","precinct":"25SF25","hd":"64","v_score":"2.315214949","decile":"5","lat":40.09597566106,"lng":-111.64164258829},{"id":"142705","name":"Mr. Jaydan Walter","party":"Dem","address":"309 S 200 E, Spanish Fork, UT 84660","precinct":"25SF25","hd":"64","v_score":"23.84904793","decile":"10","lat":40.105706725936,"lng":-111.65127638519},{"id":"143047","name":"Wing Rosenbaum","party":"Dem","address":"895 Crosswinds Dr, Spanish Fork, UT 84660","precinct":"25SF25","hd":"64","v_score":"8.016984044","decile":"8","lat":40.094565314491,"lng":-111.638410459558},{"id":"143155","name":"Mrs. Roena Wisoky","party":"","address":"727 E 760 S, Spanish Fork, UT 84660","precinct":"25SF25","hd":"64","v_score":"13.15380266","decile":"9","lat":40.099768849317,"lng":-111.642244003119},{"id":"143339","name":"Theadore Marquardt","party":"Rep","address":"520 Scenic Dr, Spanish Fork, UT 84660","precinct":"25SF25","hd":"64","v_score":"1.193887297","decile":"4","lat":40.098230380999,"lng":-111.645869729762},{"id":"143905","name":"Cinda Collier MD","party":"Dem","address":"951 E 1100 S, Spanish Fork, UT 84660","precinct":"25SF25","hd":"64","v_score":"2.315214949","decile":"5","lat":40.09532728873,"lng":-111.638175939095},{"id":"144265","name":"Beatrice Weimann-Gottlieb","party":"","address":"798 E Skylark Dr, Spanish Fork, UT 84660","precinct":"25SF25","hd":"64","v_score":"3.93832808","decile":"6","lat":40.095793660701,"lng":-111.641728996622},{"id":"147091","name":"Welton McLaughlin","party":"","address":"495 Scenic Dr, Spanish Fork, UT 84660","precinct":"25SF25","hd":"64","v_score":"19.61640125","decile":"10","lat":40.098873377444,"lng":-111.646241145574},{"id":"147297","name":"Donie Klein","party":"Rep","address":"729 E Scenic Dr, Spanish Fork, UT 84660","precinct":"25SF25","hd":"64","v_score":"20.93928147","decile":"10","lat":40.094627396595,"lng":-111.642055096038},{"id":"147516","name":"Willard O'Hara-Williamson","party":"Rep","address":"750 S Fox Hill Dr, Spanish Fork, UT 84660","precinct":"25SF25","hd":"64","v_score":"14.25581744","decile":"9","lat":40.099749188787,"lng":-111.64463811808},{"id":"148183","name":"Jaylen Hegmann","party":"Dem","address":"882 S Fox Hill Dr, Spanish Fork, UT 84660","precinct":"25SF25","hd":"64","v_score":"22.20326336","decile":"10","lat":40.098544413184,"lng":-111.644655639833},{"id":"148375","name":"Amie Schmidt","party":"Rep","address":"748 E 1050 S, Spanish Fork, UT 84660","precinct":"25SF25","hd":"64","v_score":"5.40460374","decile":"7","lat":40.096331723148,"lng":-111.641804002357},{"id":"148405","name":"Dr. Dione Hyatt DVM","party":"","address":"390 S 300 E, Spanish Fork, UT 84660","precinct":"25SF25","hd":"64","v_score":"4.210716443","decile":"7","lat":40.104632841037,"lng":-111.649682103084},{"id":"148633","name":"Tyquan Heaney","party":"","address":"671 E 860 S, Spanish Fork, UT 84660","precinct":"25SF25","hd":"64","v_score":"16.72520646","decile":"9","lat":40.098399314392,"lng":-111.642911288596},{"id":"148760","name":"Donovan Erdman II","party":"","address":"370 Scenic Dr, Spanish Fork, UT 84660","precinct":"25SF25","hd":"64","v_score":"33.84955952","decile":"10","lat":40.100892876417,"lng":-111.648047649729},{"id":"149102","name":"Ura Armstrong","party":"Rep","address":"1188 S 1100 E, Spanish Fork, UT 84660","precinct":"25SF25","hd":"64","v_score":"22.20326336","decile":"10","lat":40.093767184701,"lng":-111.635666922634},{"id":"149242","name":"Guy Swaniawski","party":"Dem","address":"1188 S 1100 E, Spanish Fork, UT 84660","precinct":"25SF25","hd":"64","v_score":"31.14994604","decile":"10","lat":40.093767184701,"lng":-111.635666922634},{"id":"149628","name":"Dr. Lenard Fay","party":"Dem","address":"896 S 690 E, Spanish Fork, UT 84660","precinct":"25SF25","hd":"64","v_score":"2.315214949","decile":"5","lat":40.097876434611,"lng":-111.642673804263},{"id":"149891","name":"Dr. Arsenio Corwin","party":"","address":"747 E 760 S, Spanish Fork, UT 84660","precinct":"25SF25","hd":"64","v_score":"31.14994604","decile":"10","lat":40.099775304247,"lng":-111.642022921214},{"id":"150012","name":"Miss Dione Hagenes","party":"Dem","address":"788 E 820 S, Spanish Fork, UT 84660","precinct":"25SF25","hd":"64","v_score":"28.19136616","decile":"10","lat":40.098775648981,"lng":-111.640923499758},{"id":"150416","name":"Aurelia Schroeder MD","party":"","address":"677 E 1050 S, Spanish Fork, UT 84660","precinct":"25SF25","hd":"64","v_score":"17.19872503","decile":"9","lat":40.096397384342,"lng":-111.64261305206},{"id":"150508","name":"Wenzel Padberg","party":"Rep","address":"624 Scenic Dr, Spanish Fork, UT 84660","precinct":"25SF25","hd":"64","v_score":"2.315214949","decile":"5","lat":40.096612459171,"lng":-111.643964380637},{"id":"150864","name":"Mr. Verl Nicolas V","party":"","address":"805 E 1050 S, Spanish Fork, UT 84660","precinct":"25SF25","hd":"64","v_score":"18.27552205","decile":"10","lat":40.096487480373,"lng":-111.640697675136},{"id":"151253","name":"Kaia Cronin","party":"Rep","address":"420 S 300 E, Spanish Fork, UT 84660","precinct":"25SF25","hd":"64","v_score":"4.064235245","decile":"6","lat":40.104257297506,"lng":-111.649686504399},{"id":"151422","name":"Dr. Torrie Zieme","party":"","address":"907 E 1100 S, Spanish Fork, UT 84660","precinct":"25SF25","hd":"64","v_score":"39.36155753","decile":"10","lat":40.095324885657,"lng":-111.638622917074},{"id":"151491","name":"Jaylan Schmeler","party":"Rep","address":"662 E Scenic Dr, Spanish Fork, UT 84660","precinct":"25SF25","hd":"64","v_score":"13.35204966","decile":"9","lat":40.096089502948,"lng":-111.643455098616},{"id":"151680","name":"Alec Witting","party":"Rep","address":"867 S 530 E, Spanish Fork, UT 84660","precinct":"25SF25","hd":"64","v_score":"10.89074633","decile":"9","lat":40.098652209226,"lng":-111.645600421258},{"id":"151919","name":"Dudley Konopelski DDS","party":"","address":"1185 Crosswinds Dr, Spanish Fork, UT 84660","precinct":"25SF25","hd":"64","v_score":"21.43421847","decile":"10","lat":40.094095645434,"lng":-111.638882768379},{"id":"152271","name":"Marleen Roberts","party":"","address":"967 S 690 E, Spanish Fork, UT 84660","precinct":"25SF25","hd":"64","v_score":"13.080119","decile":"9","lat":40.097334137573,"lng":-111.642525280849},{"id":"152344","name":"Ms. Irva Mills MD","party":"Dem","address":"967 S 690 E, Spanish Fork, UT 84660","precinct":"25SF25","hd":"64","v_score":"10.13721141","decile":"9","lat":40.097334137573,"lng":-111.642525280849},{"id":"152917","name":"Mrs. Joni Blick","party":"Rep","address":"455 E Scenic Dr, Spanish Fork, UT 84660","precinct":"25SF25","hd":"64","v_score":"5.40460374","decile":"7","lat":40.09950747733,"lng":-111.646783053468},{"id":"153306","name":"Shaquita Hauck","party":"","address":"350 E Scenic Dr, Spanish Fork, UT 84660","precinct":"25SF25","hd":"64","v_score":"9.116556227","decile":"8","lat":40.101027834428,"lng":-111.648148868205},{"id":"153385","name":"Mervin Kling-Barton","party":"Dem","address":"420 S 820 E, Spanish Fork, UT 84660","precinct":"25SF25","hd":"64","v_score":"1.193887297","decile":"4","lat":40.103941363119,"lng":-111.640529581819},{"id":"153600","name":"Craig McClure","party":"Rep","address":"490 E Scenic Dr, Spanish Fork, UT 84660","precinct":"25SF25","hd":"64","v_score":"31.14994604","decile":"10","lat":40.09866613795,"lng":-111.646243011804},{"id":"153857","name":"Lakesha Osinski MD","party":"Rep","address":"490 E Scenic Dr, Spanish Fork, UT 84660","precinct":"25SF25","hd":"64","v_score":"31.14994604","decile":"10","lat":40.09866613795,"lng":-111.646243011804},{"id":"155097","name":"Darryll O'Conner III","party":"Dem","address":"743 E Scenic Dr, Spanish Fork, UT 84660","precinct":"25SF25","hd":"64","v_score":"26.93587103","decile":"10","lat":40.093512510755,"lng":-111.641843342909},{"id":"155418","name":"Kassandra Casper","party":"Rep","address":"636 E 700 S, Spanish Fork, UT 84660","precinct":"25SF25","hd":"64","v_score":"6.657533174","decile":"7","lat":40.100386426914,"lng":-111.643577729057},{"id":"155465","name":"Orah Feest","party":"Rep","address":"798 S 820 E, Spanish Fork, UT 84660","precinct":"25SF25","hd":"64","v_score":"31.14994604","decile":"10","lat":40.098884763714,"lng":-111.640474017855},{"id":"155778","name":"Kandice Lubowitz","party":"","address":"520 Scenic Dr, Spanish Fork, UT 84660","precinct":"25SF25","hd":"64","v_score":"4.210716443","decile":"7","lat":40.098230380999,"lng":-111.645869729762},{"id":"156263","name":"Miss Chana Mohr PhD","party":"Dem","address":"804 E 700 S, Spanish Fork, UT 84660","precinct":"25SF25","hd":"64","v_score":"5.40460374","decile":"7","lat":40.100404011811,"lng":-111.641461225145},{"id":"156319","name":"Javier Emard","party":"","address":"737 E Scenic Dr, Spanish Fork, UT 84660","precinct":"25SF25","hd":"64","v_score":"3.93832808","decile":"6","lat":40.093636595413,"lng":-111.641856637677},{"id":"156529","name":"Lou Mills MD","party":"Dem","address":"902 S 820 E, Spanish Fork, UT 84660","precinct":"25SF25","hd":"64","v_score":"18.0632389","decile":"10","lat":40.098005975107,"lng":-111.640458745811},{"id":"156694","name":"Elgie Daniel","party":"","address":"768 S Wolf Hollow Dr, Spanish Fork, UT 84660","precinct":"25SF25","hd":"64","v_score":"2.587603312","decile":"5","lat":40.09940859963,"lng":-111.64367174049},{"id":"157052","name":"Norine Lemke","party":"Dem","address":"946 S 770 E, Spanish Fork, UT 84660","precinct":"25SF25","hd":"64","v_score":"13.080119","decile":"9","lat":40.098548574962,"lng":-111.641277290775},{"id":"157229","name":"Ellamae Thiel DDS","party":"Rep","address":"826 S Fox Hill Dr, Spanish Fork, UT 84660","precinct":"25SF25","hd":"64","v_score":"1.121327652","decile":"3","lat":40.099018470013,"lng":-111.644657320824},{"id":"158533","name":"Keanu Bahringer-Ryan","party":"","address":"860 E 1050 S, Spanish Fork, UT 84660","precinct":"25SF25","hd":"64","v_score":"8.280646305","decile":"8","lat":40.096391437474,"lng":-111.639447073488},{"id":"159052","name":"Wellington Kemmer","party":"Dem","address":"854 S Wolf Hollow Dr, Spanish Fork, UT 84660","precinct":"25SF25","hd":"64","v_score":"31.14994604","decile":"10","lat":40.098398614609,"lng":-111.643655709113},{"id":"159053","name":"Toivo Moen","party":"Rep","address":"854 S Wolf Hollow Dr, Spanish Fork, UT 84660","precinct":"25SF25","hd":"64","v_score":"31.14994604","decile":"10","lat":40.098398614609,"lng":-111.643655709113},{"id":"159125","name":"Alani Mayer","party":"","address":"748 E 1050 S, Spanish Fork, UT 84660","precinct":"25SF25","hd":"64","v_score":"5.40460374","decile":"7","lat":40.096331723148,"lng":-111.641804002357},{"id":"159189","name":"Leora Rippin","party":"Dem","address":"563 E Meadow Lark Ln, Spanish Fork, UT 84660","precinct":"25SF25","hd":"64","v_score":"31.14994604","decile":"10","lat":40.099353314438,"lng":-111.64497190634},{"id":"159190","name":"Alyvia Hintz","party":"","address":"563 E Meadow Lark Ln, Spanish Fork, UT 84660","precinct":"25SF25","hd":"64","v_score":"31.14994604","decile":"10","lat":40.099353314438,"lng":-111.64497190634},{"id":"159375","name":"Rafael Towne","party":"","address":"686 Scenic Dr, Spanish Fork, UT 84660","precinct":"25SF25","hd":"64","v_score":"40.939677090000004","decile":"10","lat":40.095505609234,"lng":-111.642914074864},{"id":"159638","name":"Florie Hodkiewicz DDS","party":"","address":"624 E Scenic Dr, Spanish Fork, UT 84660","precinct":"25SF25","hd":"64","v_score":"9.141333219","decile":"8","lat":40.096612459171,"lng":-111.643964380637},{"id":"159685","name":"Josiah Reilly","party":"Dem","address":"836 S Wolf Hollow Dr, Spanish Fork, UT 84660","precinct":"25SF25","hd":"64","v_score":"31.14994604","decile":"10","lat":40.098610006823,"lng":-111.643659064517},{"id":"160233","name":"Ms. Candi Carter","party":"","address":"730 E Scenic Dr, Spanish Fork, UT 84660","precinct":"25SF25","hd":"64","v_score":"25.07736664","decile":"10","lat":40.093627234509,"lng":-111.642005931195},{"id":"160410","name":"Marni Bode-Reilly","party":"Dem","address":"591 Scenic Dr, Spanish Fork, UT 84660","precinct":"25SF25","hd":"64","v_score":"1.121327652","decile":"3","lat":40.097521883048,"lng":-111.644757715162},{"id":"160838","name":"Elenore Klein","party":"Dem","address":"856 S 770 E, Spanish Fork, UT 84660","precinct":"25SF25","hd":"64","v_score":"19.47300581","decile":"10","lat":40.098421275357,"lng":-111.641425032394},{"id":"160947","name":"Worley Bosco","party":"Dem","address":"868 S Fox Hill Dr, Spanish Fork, UT 84660","precinct":"25SF25","hd":"64","v_score":"5.40460374","decile":"7","lat":40.098662927392,"lng":-111.64465606008},{"id":"161071","name":"Elias McCullough I","party":"","address":"725 S 530 E, Spanish Fork, UT 84660","precinct":"25SF25","hd":"64","v_score":"25.25731222","decile":"10","lat":40.099815923161,"lng":-111.645515709748},{"id":"161633","name":"Jasmine Mills-Schuster","party":"","address":"760 E Skylark Dr, Spanish Fork, UT 84660","precinct":"25SF25","hd":"64","v_score":"3.93832808","decile":"6","lat":40.095996948152,"lng":-111.641806831872},{"id":"162045","name":"Evalyn Wuckert","party":"","address":"636 E 700 S, Spanish Fork, UT 84660","precinct":"25SF25","hd":"64","v_score":"6.657533174","decile":"7","lat":40.100386426914,"lng":-111.643577729057},{"id":"162427","name":"Mrs. Kia Emard","party":"","address":"860 E 1050 S, Spanish Fork, UT 84660","precinct":"25SF25","hd":"64","v_score":"11.2235539","decile":"9","lat":40.096391437474,"lng":-111.639447073488},{"id":"163715","name":"Rowan Jakubowski","party":"Rep","address":"1224 S Crosswinds Dr, Spanish Fork, UT 84660","precinct":"25SF25","hd":"64","v_score":"19.66811405","decile":"10","lat":40.094565314474,"lng":-111.638183229658},{"id":"164040","name":"Kristi Abernathy","party":"Dem","address":"1021 E 1100 S, Spanish Fork, UT 84660","precinct":"25SF25","hd":"64","v_score":"2.315214949","decile":"5","lat":40.095332387321,"lng":-111.637226550638},{"id":"164285","name":"Darry Bailey","party":"Rep","address":"951 E 1100 S, Spanish Fork, UT 84660","precinct":"25SF25","hd":"64","v_score":"2.315214949","decile":"5","lat":40.09532728873,"lng":-111.638175939095},{"id":"165396","name":"Lavera O'Hara","party":"","address":"811 E 820 S, Spanish Fork, UT 84660","precinct":"25SF25","hd":"64","v_score":"2.315214949","decile":"5","lat":40.098889387998,"lng":-111.640831804821},{"id":"167140","name":"Ana Eichmann","party":"Dem","address":"954 S 690 E, Spanish Fork, UT 84660","precinct":"25SF25","hd":"64","v_score":"3.93832808","decile":"6","lat":40.097397657985,"lng":-111.642673803562},{"id":"169952","name":"Mr. Marques Quitzon IV","party":"Dem","address":"836 S Wolf Hollow Dr, Spanish Fork, UT 84660","precinct":"25SF25","hd":"64","v_score":"29.95605874","decile":"10","lat":40.098610006823,"lng":-111.643659064517},{"id":"171006","name":"Ollie Lubowitz-Quitzon","party":"","address":"430 Scenic Dr, Spanish Fork, UT 84660","precinct":"25SF25","hd":"64","v_score":"1.193887297","decile":"4","lat":40.099763535998,"lng":-111.647179825912},{"id":"171205","name":"Dr. Ova Tillman III","party":"","address":"748 E 760 S, Spanish Fork, UT 84660","precinct":"25SF25","hd":"64","v_score":"20.93928147","decile":"10","lat":40.09966144171,"lng":-111.641995099068},{"id":"171379","name":"Sherrie Ryan","party":"","address":"856 S 770 E, Spanish Fork, UT 84660","precinct":"25SF25","hd":"64","v_score":"1.193887297","decile":"4","lat":40.098421275357,"lng":-111.641425032394},{"id":"171427","name":"Cinda Brekke","party":"Dem","address":"748 E 760 S, Spanish Fork, UT 84660","precinct":"25SF25","hd":"64","v_score":"16.72520646","decile":"9","lat":40.09966144171,"lng":-111.641995099068},{"id":"171742","name":"Mr. Less Keeling","party":"Dem","address":"672 E Quail Dr, Spanish Fork, UT 84660","precinct":"25SF25","hd":"64","v_score":"6.814370645","decile":"8","lat":40.098284723007,"lng":-111.642894325439},{"id":"171931","name":"Lular Grady","party":"Dem","address":"789 S Wolf Hollow Dr, Spanish Fork, UT 84660","precinct":"25SF25","hd":"64","v_score":"34.82660198","decile":"10","lat":40.099002865106,"lng":-111.643515482374},{"id":"172746","name":"Miss Shaniece Ortiz DVM","party":"","address":"972 Crosswinds Dr, Spanish Fork, UT 84660","precinct":"25SF25","hd":"64","v_score":"0","decile":"3","lat":40.094477631437,"lng":-111.63791143103},{"id":"172776","name":"Princess Pacocha-Huel","party":"","address":"495 Scenic Dr, Spanish Fork, UT 84660","precinct":"25SF25","hd":"64","v_score":"5.693042993","decile":"7","lat":40.098873377444,"lng":-111.646241145574},{"id":"172873","name":"Shaneka Ernser","party":"Rep","address":"727 E 760 S, Spanish Fork, UT 84660","precinct":"25SF25","hd":"64","v_score":"10.13721141","decile":"9","lat":40.099768849317,"lng":-111.642244003119},{"id":"173233","name":"Jaqueline Bahringer","party":"Rep","address":"380 Scenic Dr, Spanish Fork, UT 84660","precinct":"25SF25","hd":"64","v_score":"33.02752771","decile":"10","lat":40.100825397412,"lng":-111.647997040492},{"id":"174771","name":"Yvonne Leuschke","party":"Dem","address":"963 Crosswinds Dr, Spanish Fork, UT 84660","precinct":"25SF25","hd":"64","v_score":"2.315214949","decile":"5","lat":40.094565314465,"lng":-111.638061745657},{"id":"174787","name":"Mr. Chuck Beier DVM","party":"","address":"677 E 1050 S, Spanish Fork, UT 84660","precinct":"25SF25","hd":"64","v_score":"14.18213378","decile":"9","lat":40.096397384342,"lng":-111.64261305206},{"id":"176037","name":"Mrs. Bebe Ruecker","party":"","address":"814 S 630 E, Spanish Fork, UT 84660","precinct":"25SF25","hd":"64","v_score":"12.59867706","decile":"9","lat":40.098868375084,"lng":-111.643663165567},{"id":"177033","name":"Huston Sanford","party":"Rep","address":"1078 S 900 E, Spanish Fork, UT 84660","precinct":"25SF25","hd":"64","v_score":"1.121327652","decile":"3","lat":40.096089375963,"lng":-111.63867838307},{"id":"178016","name":"Zachary Schroeder","party":"Dem","address":"789 E 1170 S, Spanish Fork, UT 84660","precinct":"25SF25","hd":"64","v_score":"5.659072284","decile":"7","lat":40.094589646535,"lng":-111.640988519332},{"id":"178165","name":"Leopoldo Lakin","party":"Dem","address":"790 E Canyon Rd, Spanish Fork, UT 84660","precinct":"25SF25","hd":"64","v_score":"18.96489872","decile":"10","lat":40.104343140128,"lng":-111.640830219056},{"id":"178713","name":"Tamia Hilll","party":"","address":"860 E 1050 S, Spanish Fork, UT 84660","precinct":"25SF25","hd":"64","v_score":"6.814370645","decile":"8","lat":40.096391437474,"lng":-111.639447073488},{"id":"178805","name":"Dejah Rippin","party":"Rep","address":"656 E 700 S, Spanish Fork, UT 84660","precinct":"25SF25","hd":"64","v_score":"2.315214949","decile":"5","lat":40.100393075324,"lng":-111.643286860183},{"id":"179082","name":"Caleb Quitzon","party":"","address":"565 Scenic Dr, Spanish Fork, UT 84660","precinct":"25SF25","hd":"64","v_score":"9.913499214","decile":"9","lat":40.097879538553,"lng":-111.645265508167},{"id":"179084","name":"Winnie Stiedemann","party":"","address":"1018 E 1050 S, Spanish Fork, UT 84660","precinct":"25SF25","hd":"64","v_score":"22.18184494","decile":"10","lat":40.096110154423,"lng":-111.637724695769},{"id":"179601","name":"Tianna Roberts","party":"","address":"966 S 690 E, Spanish Fork, UT 84660","precinct":"25SF25","hd":"64","v_score":"8.280646305","decile":"8","lat":40.097332969624,"lng":-111.64267380357},{"id":"180300","name":"Miss Orelia Kirlin","party":"","address":"723 E 1050 S, Spanish Fork, UT 84660","precinct":"25SF25","hd":"64","v_score":"36.20706943","decile":"10","lat":40.096455241035,"lng":-111.642131590219},{"id":"180301","name":"Joanne Leuschke","party":"Dem","address":"520 Scenic Dr, Spanish Fork, UT 84660","precinct":"25SF25","hd":"64","v_score":"2.315214949","decile":"5","lat":40.098230380999,"lng":-111.645869729762}]