[{"vid":"620169","name":"Torrance Weissnat DDS","party":"","address":"921 S 770 E, Spanish Fork, UT 84660","precinct":"25SF25","hd":"64","v_score":"11.63485991","decile":"9","lat":40.0977141579528,"lng":-111.64139522444853,"phone":"(877) 911-7609","sd":"25","ssbd":"13","lsbd":"School Board Nebo 3"},{"vid":"1230683","name":"Edmon Predovic I","party":"","address":"937 S 690 E, Spanish Fork, UT 84660","precinct":"25SF25","hd":"64","v_score":"1.193887297","decile":"3","lat":40.09742645043875,"lng":-111.64239600330698,"phone":"(787) 815-3004","sd":"25","ssbd":"13","lsbd":"School Board Nebo 3"},{"vid":"1289516","name":"Mr. Skyler Corwin DDS","party":"Dem","address":"726 E 920 S, Spanish Fork, UT 84660","precinct":"25SF25","hd":"64","v_score":"2.315214949","decile":"5","lat":40.097488884660585,"lng":-111.64197088177497,"phone":"(890) 350-5612","sd":"25","ssbd":"13","lsbd":"School Board Nebo 3"},{"vid":"1316698","name":"Renata Osinski","party":"Rep","address":"832 S 690 E, Spanish Fork, UT 84660","precinct":"25SF25","hd":"64","v_score":"2.315214949","decile":"5","lat":40.09882125507086,"lng":-111.64286127304993,"phone":"(991) 056-1907","sd":"25","ssbd":"13","lsbd":"School Board Nebo 3"},{"vid":"1319069","name":"Shanell Bechtelar","party":"Dem","address":"248 E 300 S, Spanish Fork, UT 84660","precinct":"25SF25","hd":"64","v_score":"4.079907534","decile":"7","lat":40.105545006102076,"lng":-111.6506539998565,"phone":"(169) 747-5563","sd":"25","ssbd":"13","lsbd":"School Board Nebo 3"},{"vid":"1339704","name":"Newman Bergnaum","party":"","address":"788 E 820 S, Spanish Fork, UT 84660","precinct":"25SF25","hd":"64","v_score":"1.121327652","decile":"3","lat":40.098722775913245,"lng":-111.64117896154997,"phone":"(398) 501-0301","sd":"25","ssbd":"13","lsbd":"School Board Nebo 3"},{"vid":"1350660","name":"Etter Rodriguez","party":"Dem","address":"835 E 1240 S, Spanish Fork, UT 84660","precinct":"25SF25","hd":"64","v_score":"21.77235251","decile":"10","lat":40.09395527023857,"lng":-111.64014189311602,"phone":"(919) 780-2801","sd":"25","ssbd":"13","lsbd":"School Board Nebo 3"},{"vid":"1362930","name":"Dr. Johathan Goodwin II","party":"Rep","address":"515 E Scenic Dr, Spanish Fork, UT 84660","precinct":"25SF25","hd":"64","v_score":"3.781490609","decile":"6","lat":40.09874335278592,"lng":-111.64586701320505,"phone":"(829) 642-8824","sd":"25","ssbd":"13","lsbd":"School Board Nebo 3"},{"vid":"b096d44857ed0e29fb94a1849e354d77d6f1d8b4da9e581189dbab91fcc3c7e4","name":"Mrs. Bailee King DDS","party":"","address":"740 S 820 E, Spanish Fork, UT 84660","precinct":"25SF25","hd":"64","v_score":"19.22326505","decile":"10","lat":40.10001584957031,"lng":-111.64069424756104,"phone":"(655) 759-7365","sd":"25","ssbd":"13","lsbd":"School Board Nebo 3"},{"vid":"0077ef938e757d837e4477b842dff470a89c0327520749bce50766c08cb3cd9a","name":"Conner Anderson-Muller","party":"","address":"863 S 770 E, Spanish Fork, UT 84660","precinct":"25SF25","hd":"64","v_score":"31.07626238","decile":"10","lat":40.098428155984976,"lng":-111.64110121810712,"phone":"(483) 948-0015","sd":"25","ssbd":"13","lsbd":"School Board Nebo 3"},{"vid":"1392262","name":"Mr. Lambert Hilpert IV","party":"Rep","address":"1201 S 1000 E, Spanish Fork, UT 84660","precinct":"25SF25","hd":"64","v_score":"5.40460374","decile":"7","lat":40.09440562196048,"lng":-111.63671398564516,"phone":"(640) 185-3770","sd":"25","ssbd":"13","lsbd":"School Board Nebo 3"},{"vid":"1407821","name":"Mr. Darcy Kilback DDS","party":"Rep","address":"750 S Fox Hill Dr, Spanish Fork, UT 84660","precinct":"25SF25","hd":"64","v_score":"8.363183621","decile":"8","lat":40.09981920209107,"lng":-111.64476191537003,"phone":"(689) 098-4777","sd":"25","ssbd":"13","lsbd":"School Board Nebo 3"},{"vid":"1416834","name":"Sanai Ebert DVM","party":"","address":"937 S 690 E, Spanish Fork, UT 84660","precinct":"25SF25","hd":"64","v_score":"3.93832808","decile":"6","lat":40.09742645043875,"lng":-111.64239600330698,"phone":"(708) 809-0717","sd":"25","ssbd":"13","lsbd":"School Board Nebo 3"},{"vid":"1422816","name":"Tollie Witting","party":"","address":"485 E 720 S, Spanish Fork, UT 84660","precinct":"25SF25","hd":"64","v_score":"3.93832808","decile":"6","lat":40.10027175962651,"lng":-111.64634559028167,"phone":"(799) 849-8031","sd":"25","ssbd":"13","lsbd":"School Board Nebo 3"},{"vid":"1444936","name":"Christal Gerlach","party":"Dem","address":"957 S 690 E, Spanish Fork, UT 84660","precinct":"25SF25","hd":"64","v_score":"15.87102735","decile":"9","lat":40.09710262031441,"lng":-111.64214308472013,"phone":"(704) 391-9705","sd":"25","ssbd":"13","lsbd":"School Board Nebo 3"},{"vid":"1469840","name":"Missie Wilderman MD","party":"Rep","address":"800 E Canyon Rd, Spanish Fork, UT 84660","precinct":"25SF25","hd":"64","v_score":"0","decile":"1","lat":40.10395419080291,"lng":-111.64083546650224,"phone":"(409) 754-6206","sd":"25","ssbd":"13","lsbd":"School Board Nebo 3"},{"vid":"1477625","name":"Debra Hodkiewicz DDS","party":"Dem","address":"798 S 820 E, Spanish Fork, UT 84660","precinct":"25SF25","hd":"64","v_score":"31.14994604","decile":"10","lat":40.099310192545175,"lng":-111.64073084271548,"phone":"(920) 684-7914","sd":"25","ssbd":"13","lsbd":"School Board Nebo 3"},{"vid":"1517504","name":"Somer Nolan PhD","party":"","address":"330 E Scenic Dr, Spanish Fork, UT 84660","precinct":"25SF25","hd":"64","v_score":"3.93832808","decile":"6","lat":40.101831180128485,"lng":-111.64905597565847,"phone":"(203) 016-2399","sd":"25","ssbd":"13","lsbd":"School Board Nebo 3"},{"vid":"1537955","name":"Juliette Torphy","party":"","address":"360 E Scenic Dr, Spanish Fork, UT 84660","precinct":"25SF25","hd":"64","v_score":"1.193887297","decile":"3","lat":40.101214427536995,"lng":-111.64862475647433,"phone":"(748) 445-6976","sd":"25","ssbd":"13","lsbd":"School Board Nebo 3"},{"vid":"1543331","name":"Keenan Ullrich-Pacocha","party":"","address":"1045 E 1240 S, Spanish Fork, UT 84660","precinct":"25SF25","hd":"64","v_score":"41.90479252","decile":"10","lat":40.0939336269972,"lng":-111.63645281110928,"phone":"(469) 492-9368","sd":"25","ssbd":"13","lsbd":"School Board Nebo 3"},{"vid":"1563682","name":"Lon McCullough","party":"Dem","address":"782 S 820 E, Spanish Fork, UT 84660","precinct":"25SF25","hd":"64","v_score":"1.46627566","decile":"4","lat":40.09977498509582,"lng":-111.64068980764964,"phone":"(967) 913-3809","sd":"25","ssbd":"13","lsbd":"School Board Nebo 3"},{"vid":"1563687","name":"Epsie Cormier","party":"","address":"782 S 820 E, Spanish Fork, UT 84660","precinct":"25SF25","hd":"64","v_score":"4.409183253","decile":"7","lat":40.09977498509582,"lng":-111.64068980764964,"phone":"(969) 297-2605","sd":"25","ssbd":"13","lsbd":"School Board Nebo 3"},{"vid":"1585329","name":"Rayan Hermann","party":"","address":"932 S 770 E, Spanish Fork, UT 84660","precinct":"25SF25","hd":"64","v_score":"12.64191471","decile":"9","lat":40.09745179499071,"lng":-111.64168356432735,"phone":"(503) 381-5197","sd":"25","ssbd":"13","lsbd":"School Board Nebo 3"},{"vid":"1590488","name":"Orville Brakus","party":"","address":"1046 E 1100 S, Spanish Fork, UT 84660","precinct":"25SF25","hd":"64","v_score":"0","decile":"1","lat":40.09509055782331,"lng":-111.63636184321203,"phone":"(623) 561-7485","sd":"25","ssbd":"13","lsbd":"School Board Nebo 3"},{"vid":"1590501","name":"Leopold Johns-Wisoky","party":"Dem","address":"1046 E 1100 S, Spanish Fork, UT 84660","precinct":"25SF25","hd":"64","v_score":"0","decile":"1","lat":40.09509055782331,"lng":-111.63636184321203,"phone":"(363) 211-3378","sd":"25","ssbd":"13","lsbd":"School Board Nebo 3"},{"vid":"1596191","name":"Edie Krajcik","party":"Rep","address":"788 E 820 S, Spanish Fork, UT 84660","precinct":"25SF25","hd":"64","v_score":"2.315214949","decile":"5","lat":40.098722775913245,"lng":-111.64117896154997,"phone":"(276) 540-2185","sd":"25","ssbd":"13","lsbd":"School Board Nebo 3"},{"vid":"1605017","name":"Dessie Wiegand-Luettgen","party":"","address":"836 S Wolf Hollow Dr, Spanish Fork, UT 84660","precinct":"25SF25","hd":"64","v_score":"31.14994604","decile":"10","lat":40.09875403352076,"lng":-111.64393874689702,"phone":"(361) 958-5857","sd":"25","ssbd":"13","lsbd":"School Board Nebo 3"},{"vid":"df8debb26f53e96d142f739c9bdf04bdced67de2915427a41883bb0748995498","name":"Herman Will","party":"","address":"922 S 820 E, Spanish Fork, UT 84660","precinct":"25SF25","hd":"64","v_score":"1.193887297","decile":"3","lat":40.09770219308623,"lng":-111.64066155437432,"phone":"(625) 216-8829","sd":"25","ssbd":"13","lsbd":"School Board Nebo 3"},{"vid":"1632512","name":"Jasmine Hansen","party":"Dem","address":"1063 E 1100 S, Spanish Fork, UT 84660","precinct":"25SF25","hd":"64","v_score":"16.80774378","decile":"9","lat":40.09555560984078,"lng":-111.63637390875411,"phone":"(850) 607-5205","sd":"25","ssbd":"13","lsbd":"School Board Nebo 3"},{"vid":"1648654","name":"Krish Larson III","party":"Dem","address":"708 E 700 S, Spanish Fork, UT 84660","precinct":"25SF25","hd":"64","v_score":"8.280646305","decile":"8","lat":40.100316258488235,"lng":-111.6424619483578,"phone":"(401) 264-7223","sd":"25","ssbd":"13","lsbd":"School Board Nebo 3"},{"vid":"1657213","name":"Margarite Walsh DDS","party":"","address":"371 S 200 E, Spanish Fork, UT 84660","precinct":"25SF25","hd":"64","v_score":"2.315214949","decile":"5","lat":40.10497719957994,"lng":-111.6506384238296,"phone":"(680) 914-5933","sd":"25","ssbd":"13","lsbd":"School Board Nebo 3"},{"vid":"1682256","name":"Sandy Bogan","party":"Rep","address":"810 S 530 E, Spanish Fork, UT 84660","precinct":"25SF25","hd":"64","v_score":"1.193887297","decile":"3","lat":40.099256077867366,"lng":-111.64584505647422,"phone":"(690) 930-4240","sd":"25","ssbd":"13","lsbd":"School Board Nebo 3"},{"vid":"1691819","name":"Alabama Huel","party":"Rep","address":"957 S 690 E, Spanish Fork, UT 84660","precinct":"25SF25","hd":"64","v_score":"10.67330764","decile":"9","lat":40.09710262031441,"lng":-111.64214308472013,"phone":"(520) 704-7580","sd":"25","ssbd":"13","lsbd":"School Board Nebo 3"},{"vid":"1707692","name":"Mariam Boyle","party":"Dem","address":"1225 S 850 E, Spanish Fork, UT 84660","precinct":"25SF25","hd":"64","v_score":"1.193887297","decile":"3","lat":40.09386918167825,"lng":-111.63971473998342,"phone":"(538) 597-2239","sd":"25","ssbd":"13","lsbd":"School Board Nebo 3"},{"vid":"1746579","name":"Emile Stamm","party":"Rep","address":"398 S 300 E, Spanish Fork, UT 84660","precinct":"25SF25","hd":"64","v_score":"32.35304373","decile":"10","lat":40.10452907511327,"lng":-111.65015395139596,"phone":"(818) 201-3647","sd":"25","ssbd":"13","lsbd":"School Board Nebo 3"},{"vid":"1755540","name":"Andon Hahn PhD","party":"Rep","address":"943 S 770 E, Spanish Fork, UT 84660","precinct":"25SF25","hd":"64","v_score":"29.95605874","decile":"10","lat":40.097342093723086,"lng":-111.64080385378662,"phone":"(612) 632-4473","sd":"25","ssbd":"13","lsbd":"School Board Nebo 3"},{"vid":"1800429","name":"Alisson Ferry DVM","party":"","address":"812 S 690 E, Spanish Fork, UT 84660","precinct":"25SF25","hd":"64","v_score":"2.315214949","decile":"5","lat":40.09901422989229,"lng":-111.64286350015317,"phone":"(520) 850-4121","sd":"25","ssbd":"13","lsbd":"School Board Nebo 3"},{"vid":"1801577","name":"Monique Pagac","party":"Rep","address":"480 E 720 S, Spanish Fork, UT 84660","precinct":"25SF25","hd":"64","v_score":"2.660162957","decile":"5","lat":40.099914566097475,"lng":-111.64638688608999,"phone":"(423) 087-8528","sd":"25","ssbd":"13","lsbd":"School Board Nebo 3"},{"vid":"1839742","name":"Dr. Lilian Parisian MD","party":"","address":"360 E Scenic Dr, Spanish Fork, UT 84660","precinct":"25SF25","hd":"64","v_score":"1.46627566","decile":"4","lat":40.101214427536995,"lng":-111.64862475647433,"phone":"(392) 989-4463","sd":"25","ssbd":"13","lsbd":"School Board Nebo 3"},{"vid":"1843805","name":"Tianna O'Connell","party":"Rep","address":"786 S 820 E, Spanish Fork, UT 84660","precinct":"25SF25","hd":"64","v_score":"26.41733837","decile":"10","lat":40.099558802922715,"lng":-111.64075845932283,"phone":"(900) 601-2822","sd":"25","ssbd":"13","lsbd":"School Board Nebo 3"},{"vid":"1856490","name":"Tamera Kozey","party":"Dem","address":"967 S 690 E, Spanish Fork, UT 84660","precinct":"25SF25","hd":"64","v_score":"5.40460374","decile":"7","lat":40.09701824374414,"lng":-111.64238267204917,"phone":"(581) 041-3576","sd":"25","ssbd":"13","lsbd":"School Board Nebo 3"},{"vid":"1878018","name":"Dr. Hymen Bradtke V","party":"","address":"420 S 820 E, Spanish Fork, UT 84660","precinct":"25SF25","hd":"64","v_score":"1.193887297","decile":"3","lat":40.10371948114444,"lng":-111.64096575036567,"phone":"(856) 051-8873","sd":"25","ssbd":"13","lsbd":"School Board Nebo 3"},{"vid":"1897252","name":"Dakota Jakubowski","party":"Rep","address":"960 E 1100 S, Spanish Fork, UT 84660","precinct":"25SF25","hd":"64","v_score":"15.06970978","decile":"9","lat":40.09504226398272,"lng":-111.63830634141678,"phone":"(846) 927-9640","sd":"25","ssbd":"13","lsbd":"School Board Nebo 3"},{"vid":"287dbd70f722b7fef50c7079bf8dbb3e4e37105f5312ff9c85c4a99e91ef4fd7","name":"Melva Huel","party":"Rep","address":"782 E 1050 S, Spanish Fork, UT 84660","precinct":"25SF25","hd":"64","v_score":"4.905839784","decile":"7","lat":40.09620063852731,"lng":-111.64103465897611,"phone":"(653) 466-2094","sd":"25","ssbd":"13","lsbd":"School Board Nebo 3"},{"vid":"1913998","name":"Melba Streich","party":"Rep","address":"805 E 1050 S, Spanish Fork, UT 84660","precinct":"25SF25","hd":"64","v_score":"1.121327652","decile":"3","lat":40.09659264866704,"lng":-111.6406227038062,"phone":"(971) 288-4039","sd":"25","ssbd":"13","lsbd":"School Board Nebo 3"},{"vid":"1917154","name":"Daja Barton","party":"Dem","address":"743 E 1050 S, Spanish Fork, UT 84660","precinct":"25SF25","hd":"64","v_score":"2.587603312","decile":"5","lat":40.09648175496837,"lng":-111.6418735300909,"phone":"(944) 896-5644","sd":"25","ssbd":"13","lsbd":"School Board Nebo 3"},{"vid":"1930170","name":"Autry Leannon","party":"Dem","address":"946 S 770 E, Spanish Fork, UT 84660","precinct":"25SF25","hd":"64","v_score":"8.561650431","decile":"8","lat":40.097163244857576,"lng":-111.6414704954099,"phone":"(333) 100-6875","sd":"25","ssbd":"13","lsbd":"School Board Nebo 3"},{"vid":"1971908","name":"Maria Bins DVM","party":"Dem","address":"826 S Fox Hill Dr, Spanish Fork, UT 84660","precinct":"25SF25","hd":"64","v_score":"2.315214949","decile":"5","lat":40.09885593977106,"lng":-111.64492740862384,"phone":"(860) 829-7786","sd":"25","ssbd":"13","lsbd":"School Board Nebo 3"},{"vid":"1973386","name":"Virginia Smitham","party":"Dem","address":"480 E 720 S, Spanish Fork, UT 84660","precinct":"25SF25","hd":"64","v_score":"3.93832808","decile":"6","lat":40.099914566097475,"lng":-111.64638688608999,"phone":"(481) 607-1241","sd":"25","ssbd":"13","lsbd":"School Board Nebo 3"},{"vid":"1987064","name":"Andra Dibbert II","party":"","address":"835 S 530 E, Spanish Fork, UT 84660","precinct":"25SF25","hd":"64","v_score":"10.51003435","decile":"9","lat":40.09886374541936,"lng":-111.6453630337901,"phone":"(545) 823-0475","sd":"25","ssbd":"13","lsbd":"School Board Nebo 3"},{"vid":"7410f26d410eb0fcfba9ae0e38fba6f7aeaeebfca4d64ca67944f71dfa99d4b9","name":"Deante Walter","party":"","address":"805 E 1240 S, Spanish Fork, UT 84660","precinct":"25SF25","hd":"64","v_score":"6.896907962","decile":"8","lat":40.094504313095406,"lng":-111.64239849224867,"phone":"(696) 129-7545","sd":"25","ssbd":"13","lsbd":"School Board Nebo 3"},{"vid":"1998016","name":"Mr. Felix Windler","party":"","address":"867 S 530 E, Spanish Fork, UT 84660","precinct":"25SF25","hd":"64","v_score":"3.93832808","decile":"6","lat":40.09845713305307,"lng":-111.64571379297918,"phone":"(382) 479-6148","sd":"25","ssbd":"13","lsbd":"School Board Nebo 3"},{"vid":"2017697","name":"Zion Funk","party":"Dem","address":"795 E Skylark Dr, Spanish Fork, UT 84660","precinct":"25SF25","hd":"64","v_score":"15.16895836","decile":"9","lat":40.09549777321639,"lng":-111.64077220623336,"phone":"(397) 968-7606","sd":"25","ssbd":"13","lsbd":"School Board Nebo 3"},{"vid":"2020020","name":"Marylyn VonRueden-Mertz","party":"","address":"420 S 300 E, Apt 2, Spanish Fork, UT 84660","precinct":"25SF25","hd":"64","v_score":"0","decile":"1","lat":40.103960346193794,"lng":-111.65012207937927,"phone":"(810) 576-0652","sd":"25","ssbd":"13","lsbd":"School Board Nebo 3"},{"vid":"2029116","name":"Nikia Gleason-Reilly","party":"Rep","address":"818 S 770 E, Spanish Fork, UT 84660","precinct":"25SF25","hd":"64","v_score":"1.193887297","decile":"3","lat":40.0990458913081,"lng":-111.64162853876093,"phone":"(792) 937-9889","sd":"25","ssbd":"13","lsbd":"School Board Nebo 3"},{"vid":"2037112","name":"Malorie Waelchi","party":"Dem","address":"932 S 770 E, Spanish Fork, UT 84660","precinct":"25SF25","hd":"64","v_score":"1.121327652","decile":"3","lat":40.09745179499071,"lng":-111.64168356432735,"phone":"(221) 926-2455","sd":"25","ssbd":"13","lsbd":"School Board Nebo 3"},{"vid":"2038688","name":"Mattye Eichmann DDS","party":"Dem","address":"867 S 530 E, Spanish Fork, UT 84660","precinct":"25SF25","hd":"64","v_score":"3.781490609","decile":"6","lat":40.09845713305307,"lng":-111.64571379297918,"phone":"(581) 373-1281","sd":"25","ssbd":"13","lsbd":"School Board Nebo 3"},{"vid":"9f4ab48e353d6baa805fef059af4f782639340fa30d2b7f510aa6e9daa7323e9","name":"Krysten O'Reilly-Renner","party":"Dem","address":"915 E 1240 S, Spanish Fork, UT 84660","precinct":"25SF25","hd":"64","v_score":"4.210478549","decile":"7","lat":40.093748430964354,"lng":-111.63880569401552,"phone":"(510) 093-0012","sd":"25","ssbd":"13","lsbd":"School Board Nebo 3"},{"vid":"b4addcf6f2bdbe09bc9c59e46ace260316f9b56934fe26c454f2adee833d0a61","name":"Dr. Frank Windler DVM","party":"Dem","address":"786 S 820 E, Spanish Fork, UT 84660","precinct":"25SF25","hd":"64","v_score":"16.73021475","decile":"9","lat":40.099558802922715,"lng":-111.64075845932283,"phone":"(898) 877-5179","sd":"25","ssbd":"13","lsbd":"School Board Nebo 3"},{"vid":"5dd8dca4bb61e7a7684fca6ec517d4862be4687b22732c76f8312411bcea0ddb","name":"Delina Christiansen PhD","party":"","address":"729 E 810 S, Spanish Fork, UT 84660","precinct":"25SF25","hd":"64","v_score":"0","decile":"1","lat":40.09918737057067,"lng":-111.64200199069796,"phone":"(593) 870-2491","sd":"25","ssbd":"13","lsbd":"School Board Nebo 3"},{"vid":"970d2192f44e652424ffc25bd5dab2495cf2b6bbadde61389536a5705f51485b","name":"Garfield Cruickshank","party":"","address":"703 E 1050 S, Spanish Fork, UT 84660","precinct":"25SF25","hd":"64","v_score":"19.74179771","decile":"10","lat":40.09653166151189,"lng":-111.6428852547888,"phone":"(726) 104-6934","sd":"25","ssbd":"13","lsbd":"School Board Nebo 3"},{"vid":"fc128d401698d5ae13633aff0a6c60546c8a6502a8b11e254a075e62bac086e6","name":"Clarke Jones I","party":"Rep","address":"1188 S 1100 E, Spanish Fork, UT 84660","precinct":"25SF25","hd":"64","v_score":"11.37977487","decile":"9","lat":40.09419374373751,"lng":-111.63598560721148,"phone":"(538) 901-8746","sd":"25","ssbd":"13","lsbd":"School Board Nebo 3"},{"vid":"c2cd36c316eb107876a7281e41cf3b7782fdd66ef24fe0e48e9186dae4faf9e4","name":"Janay Kunze-Gerlach","party":"","address":"784 E 700 S, Spanish Fork, UT 84660","precinct":"25SF25","hd":"64","v_score":"3.781490609","decile":"6","lat":40.1002409725918,"lng":-111.64107024913687,"phone":"(803) 088-5899","sd":"25","ssbd":"13","lsbd":"School Board Nebo 3"},{"vid":"2139535","name":"Alexandro Will","party":"","address":"398 S 300 E, Spanish Fork, UT 84660","precinct":"25SF25","hd":"64","v_score":"11.30609121","decile":"9","lat":40.10452907511327,"lng":-111.65015395139596,"phone":"(449) 525-7278","sd":"25","ssbd":"13","lsbd":"School Board Nebo 3"},{"vid":"7ec92b99cec20d629324bac947ebc3e68bd493885fcb26850e5b0deae4e855d8","name":"Rubin Grady","party":"","address":"766 E 700 S, Spanish Fork, UT 84660","precinct":"25SF25","hd":"64","v_score":"2.315214949","decile":"5","lat":40.100266202811255,"lng":-111.64141823428955,"phone":"(622) 973-1216","sd":"25","ssbd":"13","lsbd":"School Board Nebo 3"},{"vid":"2167195","name":"Dr. Jedidiah Feeney","party":"","address":"804 E 700 S, Spanish Fork, UT 84660","precinct":"25SF25","hd":"64","v_score":"1.46627566","decile":"4","lat":40.100299047846164,"lng":-111.64062682163754,"phone":"(191) 081-4676","sd":"25","ssbd":"13","lsbd":"School Board Nebo 3"},{"vid":"2168933","name":"Orelia Heidenreich","party":"Dem","address":"480 E 720 S, Spanish Fork, UT 84660","precinct":"25SF25","hd":"64","v_score":"3.781490609","decile":"6","lat":40.099914566097475,"lng":-111.64638688608999,"phone":"(978) 661-6094","sd":"25","ssbd":"13","lsbd":"School Board Nebo 3"},{"vid":"2189223","name":"Zeno Stracke","party":"","address":"966 S 690 E, Spanish Fork, UT 84660","precinct":"25SF25","hd":"64","v_score":"1.121327652","decile":"3","lat":40.09702506410242,"lng":-111.64266966587083,"phone":"(935) 014-9452","sd":"25","ssbd":"13","lsbd":"School Board Nebo 3"},{"vid":"684f7f2daa182792eb6c99dde81d6abba2e2d181f9cf0b5e3154b9bd1666fe65","name":"Aleta Ward","party":"","address":"1005 E 1100 S, Spanish Fork, UT 84660","precinct":"25SF25","hd":"64","v_score":"1.193887297","decile":"3","lat":40.09551668407144,"lng":-111.63743841263528,"phone":"(507) 882-1839","sd":"25","ssbd":"13","lsbd":"School Board Nebo 3"},{"vid":"51c4180084755dafe81d3264b76c84470c796f0155134a3114b142a7aca74abf","name":"Mr. Marcus Bergnaum","party":"Rep","address":"890 E 1100 S, Spanish Fork, UT 84660","precinct":"25SF25","hd":"64","v_score":"0","decile":"1","lat":40.09505914539163,"lng":-111.63926441452006,"phone":"(242) 065-9462","sd":"25","ssbd":"13","lsbd":"School Board Nebo 3"},{"vid":"876c077c2504e464c9c4083c55ae7ee5647175f03cef2e86022c083ac42fb5bb","name":"Amado Koepp","party":"","address":"420 S 300 E, Spanish Fork, UT 84660","precinct":"25SF25","hd":"64","v_score":"7.947445922","decile":"8","lat":40.103960346193794,"lng":-111.65012207937927,"phone":"(669) 359-3565","sd":"25","ssbd":"13","lsbd":"School Board Nebo 3"},{"vid":"2210189","name":"Racquel Murazik MD","party":"Rep","address":"730 E Scenic Dr, Spanish Fork, UT 84660","precinct":"25SF25","hd":"64","v_score":"6.390031551","decile":"7","lat":40.09350378662838,"lng":-111.6423527394112,"phone":"(575) 446-4148","sd":"25","ssbd":"13","lsbd":"School Board Nebo 3"},{"vid":"edbed2af9176cbde09c186ad53e9f5eff314d1abe47dc847dca9eba5000e94e0","name":"Mrs. Pearline Dietrich DVM","party":"","address":"656 E 700 S, Spanish Fork, UT 84660","precinct":"25SF25","hd":"64","v_score":"0","decile":"1","lat":40.10025478958727,"lng":-111.64322546605611,"phone":"(325) 383-5522","sd":"25","ssbd":"13","lsbd":"School Board Nebo 3"},{"vid":"2252189","name":"Kristine Aufderhar-Nikolaus","party":"","address":"656 E 700 S, Spanish Fork, UT 84660","precinct":"25SF25","hd":"64","v_score":"2.315214949","decile":"5","lat":40.10025478958727,"lng":-111.64322546605611,"phone":"(415) 541-5468","sd":"25","ssbd":"13","lsbd":"School Board Nebo 3"},{"vid":"b34df92114f51cc07f364aa2810c807df015b28e0f250180bfb42b8f3833fb72","name":"Dr. Margarito Leuschke MD","party":"Rep","address":"784 E 700 S, Spanish Fork, UT 84660","precinct":"25SF25","hd":"64","v_score":"1.193887297","decile":"3","lat":40.1002409725918,"lng":-111.64107024913687,"phone":"(691) 045-3761","sd":"25","ssbd":"13","lsbd":"School Board Nebo 3"},{"vid":"9033d33e957026fd9fe111c90b1cbc7bc1ce2c856fc57fc2a233eae7b35873b3","name":"Orvin Dare","party":"Dem","address":"298 E 300 S, Spanish Fork, UT 84660","precinct":"25SF25","hd":"64","v_score":"0","decile":"1","lat":40.10560019752306,"lng":-111.6499936330198,"phone":"(154) 547-4669","sd":"25","ssbd":"13","lsbd":"School Board Nebo 3"},{"vid":"2332888","name":"Rosey Cormier","party":"","address":"810 S 530 E, Spanish Fork, UT 84660","precinct":"25SF25","hd":"64","v_score":"5.429380732","decile":"7","lat":40.099256077867366,"lng":-111.64584505647422,"phone":"(395) 919-5189","sd":"25","ssbd":"13","lsbd":"School Board Nebo 3"},{"vid":"2355304","name":"Mr. Hoyt Schaden V","party":"","address":"788 E 820 S, Spanish Fork, UT 84660","precinct":"25SF25","hd":"64","v_score":"25.10197737","decile":"10","lat":40.098722775913245,"lng":-111.64117896154997,"phone":"(199) 336-6102","sd":"25","ssbd":"13","lsbd":"School Board Nebo 3"},{"vid":"2364012","name":"Jeremy Borer DVM","party":"Rep","address":"1063 E 1100 S, Spanish Fork, UT 84660","precinct":"25SF25","hd":"64","v_score":"1.121327652","decile":"3","lat":40.09555560984078,"lng":-111.63637390875411,"phone":"(256) 065-6598","sd":"25","ssbd":"13","lsbd":"School Board Nebo 3"},{"vid":"2369245","name":"Shakira Jenkins","party":"","address":"389 S 200 E, Spanish Fork, UT 84660","precinct":"25SF25","hd":"64","v_score":"3.93832808","decile":"6","lat":40.10469325622829,"lng":-111.65098237146276,"phone":"(348) 432-9823","sd":"25","ssbd":"13","lsbd":"School Board Nebo 3"},{"vid":"2410404","name":"Cara Hansen-Mayert","party":"","address":"729 E 810 S, Spanish Fork, UT 84660","precinct":"25SF25","hd":"64","v_score":"0","decile":"1","lat":40.09918737057067,"lng":-111.64200199069796,"phone":"(239) 691-7682","sd":"25","ssbd":"13","lsbd":"School Board Nebo 3"},{"vid":"2417924","name":"Andy Borer","party":"","address":"867 S 530 E, Spanish Fork, UT 84660","precinct":"25SF25","hd":"64","v_score":"1.623113131","decile":"5","lat":40.09845713305307,"lng":-111.64571379297918,"phone":"(237) 719-6369","sd":"25","ssbd":"13","lsbd":"School Board Nebo 3"},{"vid":"2464638","name":"Mrs. Assunta Block","party":"","address":"726 E 920 S, Spanish Fork, UT 84660","precinct":"25SF25","hd":"64","v_score":"0","decile":"1","lat":40.097488884660585,"lng":-111.64197088177497,"phone":"(544) 526-9526","sd":"25","ssbd":"13","lsbd":"School Board Nebo 3"},{"vid":"2493529","name":"Jory Kuphal","party":"","address":"420 S 820 E, Spanish Fork, UT 84660","precinct":"25SF25","hd":"64","v_score":"0","decile":"1","lat":40.10371948114444,"lng":-111.64096575036567,"phone":"(705) 292-9428","sd":"25","ssbd":"13","lsbd":"School Board Nebo 3"},{"vid":"2499978","name":"Mrs. Lula Davis DVM","party":"Dem","address":"890 E 1100 S, Spanish Fork, UT 84660","precinct":"25SF25","hd":"64","v_score":"0","decile":"1","lat":40.09505914539163,"lng":-111.63926441452006,"phone":"(161) 204-6630","sd":"25","ssbd":"13","lsbd":"School Board Nebo 3"},{"vid":"2508909","name":"Dr. Pearlie Parisian","party":"Rep","address":"967 S 690 E, Spanish Fork, UT 84660","precinct":"25SF25","hd":"64","v_score":"1.193887297","decile":"3","lat":40.09701824374414,"lng":-111.64238267204917,"phone":"(663) 110-5705","sd":"25","ssbd":"13","lsbd":"School Board Nebo 3"},{"vid":"2510430","name":"Salina Collier PhD","party":"","address":"1150 S 850 E, Spanish Fork, UT 84660","precinct":"25SF25","hd":"64","v_score":"0","decile":"1","lat":40.0949164594672,"lng":-111.64016368942504,"phone":"(372) 955-9711","sd":"25","ssbd":"13","lsbd":"School Board Nebo 3"},{"vid":"2524237","name":"Dr. Steward Harris II","party":"Dem","address":"723 E 1050 S, Spanish Fork, UT 84660","precinct":"25SF25","hd":"64","v_score":"26.63697331","decile":"10","lat":40.09648939092008,"lng":-111.64214500374877,"phone":"(588) 868-6845","sd":"25","ssbd":"13","lsbd":"School Board Nebo 3"},{"vid":"2525566","name":"Lee Hagenes-Kihn","party":"","address":"936 S 690 E, Spanish Fork, UT 84660","precinct":"25SF25","hd":"64","v_score":"0","decile":"1","lat":40.09744951446135,"lng":-111.64291894704711,"phone":"(743) 646-5886","sd":"25","ssbd":"13","lsbd":"School Board Nebo 3"},{"vid":"2528748","name":"Meyer Murazik-Stanton","party":"Dem","address":"776 S 690 E, Spanish Fork, UT 84660","precinct":"25SF25","hd":"64","v_score":"1.193887297","decile":"4","lat":40.09954530778218,"lng":-111.64286941843392,"phone":"(882) 208-3910","sd":"25","ssbd":"13","lsbd":"School Board Nebo 3"},{"vid":"2595217","name":"Philomena Bernier","party":"Dem","address":"818 S 770 E, Spanish Fork, UT 84660","precinct":"25SF25","hd":"64","v_score":"1.193887297","decile":"4","lat":40.0990458913081,"lng":-111.64162853876093,"phone":"(448) 922-6133","sd":"25","ssbd":"13","lsbd":"School Board Nebo 3"},{"vid":"2604292","name":"Eldon Klein DVM","party":"Rep","address":"420 S 300 E, # 1, Spanish Fork, UT 84660","precinct":"25SF25","hd":"64","v_score":"1.193887297","decile":"4","lat":40.103960346193794,"lng":-111.65012207937927,"phone":"(854) 987-1632","sd":"25","ssbd":"13","lsbd":"School Board Nebo 3"},{"vid":"2615891","name":"Dr. Marleen Heidenreich","party":"Dem","address":"714 E 810 S, Spanish Fork, UT 84660","precinct":"25SF25","hd":"64","v_score":"0","decile":"1","lat":40.09893112327985,"lng":-111.64237005385573,"phone":"(287) 925-7731","sd":"25","ssbd":"13","lsbd":"School Board Nebo 3"},{"vid":"2653483","name":"Perla Fritsch","party":"Rep","address":"727 E 760 S, Spanish Fork, UT 84660","precinct":"25SF25","hd":"64","v_score":"0","decile":"1","lat":40.099986962452455,"lng":-111.64200151237982,"phone":"(776) 165-8501","sd":"25","ssbd":"13","lsbd":"School Board Nebo 3"},{"vid":"2677508","name":"Ms. Lissette Nitzsche DVM","party":"Dem","address":"946 S 770 E, Spanish Fork, UT 84660","precinct":"25SF25","hd":"64","v_score":"0","decile":"2","lat":40.097163244857576,"lng":-111.6414704954099,"phone":"(605) 582-2954","sd":"25","ssbd":"13","lsbd":"School Board Nebo 3"},{"vid":"2686047","name":"Mrs. Nataly Abshire","party":"","address":"776 S 690 E, Spanish Fork, UT 84660","precinct":"25SF25","hd":"64","v_score":"0","decile":"2","lat":40.09954530778218,"lng":-111.64286941843392,"phone":"(631) 372-8885","sd":"25","ssbd":"13","lsbd":"School Board Nebo 3"},{"vid":"2708529","name":"Ms. Montana Hansen","party":"","address":"550 Scenic Dr, Spanish Fork, UT 84660","precinct":"25SF25","hd":"64","v_score":"1.193887297","decile":"4","lat":40.097922014662664,"lng":-111.64581925095455,"phone":"(635) 160-3556","sd":"25","ssbd":"13","lsbd":"School Board Nebo 3"},{"vid":"2710737","name":"Tavian Kerluke","party":"Rep","address":"1150 S 850 E, Spanish Fork, UT 84660","precinct":"25SF25","hd":"64","v_score":"0","decile":"2","lat":40.0949164594672,"lng":-111.64016368942504,"phone":"(259) 505-1557","sd":"25","ssbd":"13","lsbd":"School Board Nebo 3"},{"vid":"2741272","name":"Keaton Mitchell","party":"Rep","address":"904 S 770 E, Spanish Fork, UT 84660","precinct":"25SF25","hd":"64","v_score":"0","decile":"2","lat":40.09790487897779,"lng":-111.64161169200571,"phone":"(677) 915-5672","sd":"25","ssbd":"13","lsbd":"School Board Nebo 3"},{"vid":"2747316","name":"Marta Jakubowski","party":"","address":"727 E 860 S, Spanish Fork, UT 84660","precinct":"25SF25","hd":"64","v_score":"0","decile":"2","lat":40.09850514716856,"lng":-111.64201521868594,"phone":"(739) 029-2285","sd":"25","ssbd":"13","lsbd":"School Board Nebo 3"},{"vid":"2765177","name":"Tanisha Hamill","party":"","address":"884 S 820 E, Spanish Fork, UT 84660","precinct":"25SF25","hd":"64","v_score":"0","decile":"2","lat":40.09818433539493,"lng":-111.64072008449166,"phone":"(928) 536-3888","sd":"25","ssbd":"13","lsbd":"School Board Nebo 3"},{"vid":"2812345","name":"Mr. Benjamine Cummings V","party":"Rep","address":"776 S 690 E, Spanish Fork, UT 84660","precinct":"25SF25","hd":"64","v_score":"1.193887297","decile":"4","lat":40.09954530778218,"lng":-111.64286941843392,"phone":"(462) 071-5036","sd":"25","ssbd":"13","lsbd":"School Board Nebo 3"},{"vid":"2812346","name":"Amon Adams","party":"","address":"776 S 690 E, Spanish Fork, UT 84660","precinct":"25SF25","hd":"64","v_score":"1.193887297","decile":"4","lat":40.09954530778218,"lng":-111.64286941843392,"phone":"(244) 424-8661","sd":"25","ssbd":"13","lsbd":"School Board Nebo 3"},{"vid":"2819376","name":"Markel Smith MD","party":"Rep","address":"748 E 760 S, Spanish Fork, UT 84660","precinct":"25SF25","hd":"64","v_score":"1.193887297","decile":"4","lat":40.09959890289977,"lng":-111.64153246816014,"phone":"(139) 819-2871","sd":"25","ssbd":"13","lsbd":"School Board Nebo 3"},{"vid":"2842174","name":"Hilario Bahringer","party":"Dem","address":"765 E 760 S, Spanish Fork, UT 84660","precinct":"25SF25","hd":"64","v_score":"1.193887297","decile":"4","lat":40.09990793134749,"lng":-111.6413523155943,"phone":"(272) 158-1489","sd":"25","ssbd":"13","lsbd":"School Board Nebo 3"},{"vid":"2860664","name":"Marcelo Armstrong","party":"Dem","address":"727 E 760 S, Spanish Fork, UT 84660","precinct":"25SF25","hd":"64","v_score":"1.193887297","decile":"4","lat":40.099986962452455,"lng":-111.64200151237982,"phone":"(955) 323-4645","sd":"25","ssbd":"13","lsbd":"School Board Nebo 3"},{"vid":"2868887","name":"Mr. Durward McDermott DDS","party":"","address":"410 S 300 E, Spanish Fork, UT 84660","precinct":"25SF25","hd":"64","v_score":"1.193887297","decile":"4","lat":40.104266732176434,"lng":-111.65012938750351,"phone":"(788) 183-2876","sd":"25","ssbd":"13","lsbd":"School Board Nebo 3"},{"vid":"2878123","name":"Nicole Abbott","party":"Dem","address":"455 E 720 S, Spanish Fork, UT 84660","precinct":"25SF25","hd":"64","v_score":"1.193887297","decile":"4","lat":40.099955863317064,"lng":-111.647032858685,"phone":"(959) 813-9110","sd":"25","ssbd":"13","lsbd":"School Board Nebo 3"},{"vid":"2886657","name":"Matthew Rolfson","party":"","address":"1005 E 1100 S, Spanish Fork, UT 84660","precinct":"25SF25","hd":"64","v_score":"1.193887297","decile":"4","lat":40.09551668407144,"lng":-111.63743841263528,"phone":"(890) 434-5311","sd":"25","ssbd":"13","lsbd":"School Board Nebo 3"},{"vid":"2891827","name":"Dr. Ashlee Schmitt","party":"Dem","address":"1075 S 900 E, Spanish Fork, UT 84660","precinct":"25SF25","hd":"64","v_score":"0","decile":"2","lat":40.09583429717634,"lng":-111.63838646134353,"phone":"(496) 396-2907","sd":"25","ssbd":"13","lsbd":"School Board Nebo 3"},{"vid":"2899461","name":"Demario Beier","party":"Dem","address":"1028 E 1100 S, Spanish Fork, UT 84660","precinct":"25SF25","hd":"64","v_score":"0","decile":"2","lat":40.09498842776059,"lng":-111.63701602104143,"phone":"(191) 392-4002","sd":"25","ssbd":"13","lsbd":"School Board Nebo 3"},{"vid":"2900305","name":"Dr. Rutha Lebsack PhD","party":"","address":"789 E 1170 S, Spanish Fork, UT 84660","precinct":"25SF25","hd":"64","v_score":"0","decile":"2","lat":40.09467872236768,"lng":-111.64058186581066,"phone":"(681) 769-8395","sd":"25","ssbd":"13","lsbd":"School Board Nebo 3"},{"vid":"2922853","name":"Queen Goldner","party":"Rep","address":"936 E 1100 S, Spanish Fork, UT 84660","precinct":"25SF25","hd":"64","v_score":"0","decile":"2","lat":40.09501018566362,"lng":-111.63855569658182,"phone":"(167) 640-3514","sd":"25","ssbd":"13","lsbd":"School Board Nebo 3"},{"vid":"2927034","name":"Dr. Davy Prosacco I","party":"","address":"740 S 530 E, Spanish Fork, UT 84660","precinct":"25SF25","hd":"64","v_score":"0","decile":"2","lat":40.09992470657789,"lng":-111.6457778580758,"phone":"(477) 377-8849","sd":"25","ssbd":"13","lsbd":"School Board Nebo 3"},{"vid":"2937966","name":"Eston Hauck","party":"","address":"786 S 820 E, Spanish Fork, UT 84660","precinct":"25SF25","hd":"64","v_score":"4.214075011","decile":"7","lat":40.099558802922715,"lng":-111.64075845932283,"phone":"(965) 513-3727","sd":"25","ssbd":"13","lsbd":"School Board Nebo 3"},{"vid":"2940873","name":"Mr. Pryor Maggio DDS","party":"Rep","address":"903 S 770 E, Spanish Fork, UT 84660","precinct":"25SF25","hd":"64","v_score":"0","decile":"2","lat":40.09789880386159,"lng":-111.6411461201625,"phone":"(570) 025-4245","sd":"25","ssbd":"13","lsbd":"School Board Nebo 3"},{"vid":"2946004","name":"Yetta Carroll-Rogahn","party":"Rep","address":"904 S 770 E, Spanish Fork, UT 84660","precinct":"25SF25","hd":"64","v_score":"0","decile":"2","lat":40.09790487897779,"lng":-111.64161169200571,"phone":"(250) 808-4098","sd":"25","ssbd":"13","lsbd":"School Board Nebo 3"},{"vid":"054d4d3e13b194bbd556afaf94e5160b4e38f8379f74d4763a37b0bff5683925","name":"Shaina Greenholt","party":"Rep","address":"740 S 530 E, Spanish Fork, UT 84660","precinct":"25SF25","hd":"64","v_score":"5.40460374","decile":"7","lat":40.09992470657789,"lng":-111.6457778580758,"phone":"(361) 888-7149","sd":"25","ssbd":"13","lsbd":"School Board Nebo 3"},{"vid":"3268664","name":"Ms. Katrina Langworth DVM","party":"Rep","address":"759 S 770 E, Spanish Fork, UT 84660","precinct":"25SF25","hd":"64","v_score":"15.20821291","decile":"9","lat":40.09978005844065,"lng":-111.64112693275712,"phone":"(857) 959-1545","sd":"25","ssbd":"13","lsbd":"School Board Nebo 3"},{"vid":"3278042","name":"Elijah Hessel","party":"Dem","address":"1045 E 1240 S, Spanish Fork, UT 84660","precinct":"25SF25","hd":"64","v_score":"3.781490609","decile":"6","lat":40.0939336269972,"lng":-111.63645281110928,"phone":"(164) 861-5800","sd":"25","ssbd":"13","lsbd":"School Board Nebo 3"},{"vid":"3308400","name":"Lamar Buckridge","party":"","address":"903 S 770 E, Spanish Fork, UT 84660","precinct":"25SF25","hd":"64","v_score":"0","decile":"2","lat":40.09789880386159,"lng":-111.6411461201625,"phone":"(735) 326-4890","sd":"25","ssbd":"13","lsbd":"School Board Nebo 3"},{"vid":"9134e7f72b0cd82747c59d9a6f8745497ea86a23bb5c4bc95a25c6be5857ea6e","name":"Dr. Bird Connelly II","party":"Dem","address":"799 S 770 E, Spanish Fork, UT 84660","precinct":"25SF25","hd":"64","v_score":"22.45367812","decile":"10","lat":40.099308752833586,"lng":-111.64110962454156,"phone":"(760) 681-3843","sd":"25","ssbd":"13","lsbd":"School Board Nebo 3"},{"vid":"cb885463de42541b5519974689e695d7115165cfe71ff7e1b60c3afad8c6e153","name":"Virdie Kuhn","party":"","address":"799 S 770 E, Spanish Fork, UT 84660","precinct":"25SF25","hd":"64","v_score":"12.14993957","decile":"9","lat":40.099308752833586,"lng":-111.64110962454156,"phone":"(842) 046-2558","sd":"25","ssbd":"13","lsbd":"School Board Nebo 3"},{"vid":"3361412","name":"Alanna Johns PhD","party":"","address":"1225 S 850 E, Spanish Fork, UT 84660","precinct":"25SF25","hd":"64","v_score":"3.102699348","decile":"6","lat":40.09386918167825,"lng":-111.63971473998342,"phone":"(494) 920-3130","sd":"25","ssbd":"13","lsbd":"School Board Nebo 3"},{"vid":"3445080","name":"Keshaun Streich","party":"","address":"785 E 1050 S, Spanish Fork, UT 84660","precinct":"25SF25","hd":"64","v_score":"18.97275282","decile":"10","lat":40.096664564219346,"lng":-111.64107072374676,"phone":"(800) 087-4831","sd":"25","ssbd":"13","lsbd":"School Board Nebo 3"},{"vid":"3445131","name":"Octavius Graham","party":"Rep","address":"785 E 1050 S, Spanish Fork, UT 84660","precinct":"25SF25","hd":"64","v_score":"16.02984522","decile":"9","lat":40.096664564219346,"lng":-111.64107072374676,"phone":"(543) 945-9077","sd":"25","ssbd":"13","lsbd":"School Board Nebo 3"},{"vid":"4308136","name":"Seamus Witting DVM","party":"Rep","address":"1070 E 1050 S, Spanish Fork, UT 84660","precinct":"25SF25","hd":"64","v_score":"15.09172736","decile":"9","lat":40.09565760154505,"lng":-111.63622036881057,"phone":"(546) 323-6270","sd":"25","ssbd":"13","lsbd":"School Board Nebo 3"},{"vid":"5310083","name":"Mr. Jaydan Walter","party":"Dem","address":"309 S 200 E, Spanish Fork, UT 84660","precinct":"25SF25","hd":"64","v_score":"23.84904793","decile":"10","lat":40.10561687043941,"lng":-111.65110824322072,"phone":"(750) 606-9300","sd":"25","ssbd":"13","lsbd":"School Board Nebo 3"},{"vid":"5549258","name":"Mrs. Roena Wisoky","party":"","address":"727 E 760 S, Spanish Fork, UT 84660","precinct":"25SF25","hd":"64","v_score":"13.15380266","decile":"9","lat":40.099986962452455,"lng":-111.64200151237982,"phone":"(426) 420-5751","sd":"25","ssbd":"13","lsbd":"School Board Nebo 3"},{"vid":"5897606","name":"Cinda Collier MD","party":"Dem","address":"951 E 1100 S, Spanish Fork, UT 84660","precinct":"25SF25","hd":"64","v_score":"2.315214949","decile":"5","lat":40.09552680141647,"lng":-111.63809260645898,"phone":"(156) 825-1085","sd":"25","ssbd":"13","lsbd":"School Board Nebo 3"},{"vid":"5946006","name":"Beatrice Weimann-Gottlieb","party":"","address":"798 E Skylark Dr, Spanish Fork, UT 84660","precinct":"25SF25","hd":"64","v_score":"3.93832808","decile":"6","lat":40.09521000281903,"lng":-111.64063884976304,"phone":"(103) 135-4569","sd":"25","ssbd":"13","lsbd":"School Board Nebo 3"},{"vid":"6200472","name":"Donie Klein","party":"Rep","address":"729 E Scenic Dr, Spanish Fork, UT 84660","precinct":"25SF25","hd":"64","v_score":"20.93928147","decile":"10","lat":40.095007604395946,"lng":-111.64206983568769,"phone":"(909) 766-4308","sd":"25","ssbd":"13","lsbd":"School Board Nebo 3"},{"vid":"6202556","name":"Willard O'Hara-Williamson","party":"Rep","address":"750 S Fox Hill Dr, Spanish Fork, UT 84660","precinct":"25SF25","hd":"64","v_score":"14.25581744","decile":"9","lat":40.09981920209107,"lng":-111.64476191537003,"phone":"(576) 809-8591","sd":"25","ssbd":"13","lsbd":"School Board Nebo 3"},{"vid":"6210084","name":"Amie Schmidt","party":"Rep","address":"748 E 1050 S, Spanish Fork, UT 84660","precinct":"25SF25","hd":"64","v_score":"5.40460374","decile":"7","lat":40.096253074683155,"lng":-111.64159765870386,"phone":"(401) 767-5156","sd":"25","ssbd":"13","lsbd":"School Board Nebo 3"},{"vid":"6210368","name":"Dr. Dione Hyatt DVM","party":"","address":"390 S 300 E, Spanish Fork, UT 84660","precinct":"25SF25","hd":"64","v_score":"4.210716443","decile":"7","lat":40.10473060852751,"lng":-111.65008604954026,"phone":"(994) 769-5201","sd":"25","ssbd":"13","lsbd":"School Board Nebo 3"},{"vid":"6212660","name":"Tyquan Heaney","party":"","address":"671 E 860 S, Spanish Fork, UT 84660","precinct":"25SF25","hd":"64","v_score":"16.72520646","decile":"9","lat":40.09850135945224,"lng":-111.64278164633875,"phone":"(565) 879-8953","sd":"25","ssbd":"13","lsbd":"School Board Nebo 3"},{"vid":"6217835","name":"Ura Armstrong","party":"Rep","address":"1188 S 1100 E, Spanish Fork, UT 84660","precinct":"25SF25","hd":"64","v_score":"22.20326336","decile":"10","lat":40.09419374373751,"lng":-111.63598560721148,"phone":"(710) 032-4887","sd":"25","ssbd":"13","lsbd":"School Board Nebo 3"},{"vid":"6219461","name":"Guy Swaniawski","party":"Dem","address":"1188 S 1100 E, Spanish Fork, UT 84660","precinct":"25SF25","hd":"64","v_score":"31.14994604","decile":"10","lat":40.09419374373751,"lng":-111.63598560721148,"phone":"(253) 946-9063","sd":"25","ssbd":"13","lsbd":"School Board Nebo 3"},{"vid":"b85528e200542027592b50279857a2469ff3f6af19d2c376e122417e28bcfac9","name":"Dr. Lenard Fay","party":"Dem","address":"896 S 690 E, Spanish Fork, UT 84660","precinct":"25SF25","hd":"64","v_score":"2.315214949","decile":"5","lat":40.09788963497156,"lng":-111.64285082258891,"phone":"(180) 546-9029","sd":"25","ssbd":"13","lsbd":"School Board Nebo 3"},{"vid":"6226062","name":"Dr. Arsenio Corwin","party":"","address":"747 E 760 S, Spanish Fork, UT 84660","precinct":"25SF25","hd":"64","v_score":"31.14994604","decile":"10","lat":40.09998905149764,"lng":-111.64167307268126,"phone":"(955) 102-6933","sd":"25","ssbd":"13","lsbd":"School Board Nebo 3"},{"vid":"6227403","name":"Miss Dione Hagenes","party":"Dem","address":"788 E 820 S, Spanish Fork, UT 84660","precinct":"25SF25","hd":"64","v_score":"28.19136616","decile":"10","lat":40.098722775913245,"lng":-111.64117896154997,"phone":"(436) 942-9329","sd":"25","ssbd":"13","lsbd":"School Board Nebo 3"},{"vid":"6231480","name":"Aurelia Schroeder MD","party":"","address":"677 E 1050 S, Spanish Fork, UT 84660","precinct":"25SF25","hd":"64","v_score":"17.19872503","decile":"9","lat":40.096266516807205,"lng":-111.64330243502495,"phone":"(155) 500-5932","sd":"25","ssbd":"13","lsbd":"School Board Nebo 3"},{"vid":"6237342","name":"Mr. Verl Nicolas V","party":"","address":"805 E 1050 S, Spanish Fork, UT 84660","precinct":"25SF25","hd":"64","v_score":"18.27552205","decile":"10","lat":40.09659264866704,"lng":-111.6406227038062,"phone":"(152) 333-3582","sd":"25","ssbd":"13","lsbd":"School Board Nebo 3"},{"vid":"fd0263f014cc385b3da8ca83df857498a2eaf0a189905730f636afdaeccafdcb","name":"Kaia Cronin","party":"Rep","address":"420 S 300 E, Spanish Fork, UT 84660","precinct":"25SF25","hd":"64","v_score":"4.064235245","decile":"6","lat":40.103960346193794,"lng":-111.65012207937927,"phone":"(119) 001-5665","sd":"25","ssbd":"13","lsbd":"School Board Nebo 3"},{"vid":"a43c019da7ec104df60eb70e2bc5d93776fa15b64c7b7b1ff7a2cb8caa3f20c9","name":"Dr. Torrie Zieme","party":"","address":"907 E 1100 S, Spanish Fork, UT 84660","precinct":"25SF25","hd":"64","v_score":"39.36155753","decile":"10","lat":40.27703762011702,"lng":-111.67371563018403,"phone":"(186) 834-4052","sd":"25","ssbd":"13","lsbd":"School Board Nebo 3"},{"vid":"6244755","name":"Jaylan Schmeler","party":"Rep","address":"662 E Scenic Dr, Spanish Fork, UT 84660","precinct":"25SF25","hd":"64","v_score":"13.35204966","decile":"9","lat":40.09594802303761,"lng":-111.64355427505137,"phone":"(356) 756-2929","sd":"25","ssbd":"13","lsbd":"School Board Nebo 3"},{"vid":"d6e74d0757c17d251363201250135c4e780753e0870b83ce502c920d355663ae","name":"Alec Witting","party":"Rep","address":"867 S 530 E, Spanish Fork, UT 84660","precinct":"25SF25","hd":"64","v_score":"10.89074633","decile":"9","lat":40.09845713305307,"lng":-111.64571379297918,"phone":"(506) 129-8252","sd":"25","ssbd":"13","lsbd":"School Board Nebo 3"},{"vid":"6254061","name":"Marleen Roberts","party":"","address":"967 S 690 E, Spanish Fork, UT 84660","precinct":"25SF25","hd":"64","v_score":"13.080119","decile":"9","lat":40.09701824374414,"lng":-111.64238267204917,"phone":"(530) 571-8865","sd":"25","ssbd":"13","lsbd":"School Board Nebo 3"},{"vid":"6255260","name":"Ms. Irva Mills MD","party":"Dem","address":"967 S 690 E, Spanish Fork, UT 84660","precinct":"25SF25","hd":"64","v_score":"10.13721141","decile":"9","lat":40.09701824374414,"lng":-111.64238267204917,"phone":"(109) 413-7158","sd":"25","ssbd":"13","lsbd":"School Board Nebo 3"},{"vid":"6262922","name":"Mrs. Joni Blick","party":"Rep","address":"455 E Scenic Dr, Spanish Fork, UT 84660","precinct":"25SF25","hd":"64","v_score":"5.40460374","decile":"7","lat":40.09948427840613,"lng":-111.64653135685185,"phone":"(216) 787-5219","sd":"25","ssbd":"13","lsbd":"School Board Nebo 3"},{"vid":"6266469","name":"Shaquita Hauck","party":"","address":"350 E Scenic Dr, Spanish Fork, UT 84660","precinct":"25SF25","hd":"64","v_score":"9.116556227","decile":"8","lat":40.10141906654897,"lng":-111.64877060317095,"phone":"(775) 862-8501","sd":"25","ssbd":"13","lsbd":"School Board Nebo 3"},{"vid":"6267404","name":"Mervin Kling-Barton","party":"Dem","address":"420 S 820 E, Spanish Fork, UT 84660","precinct":"25SF25","hd":"64","v_score":"1.193887297","decile":"4","lat":40.10371948114444,"lng":-111.64096575036567,"phone":"(675) 235-5667","sd":"25","ssbd":"13","lsbd":"School Board Nebo 3"},{"vid":"6269593","name":"Craig McClure","party":"Rep","address":"490 E Scenic Dr, Spanish Fork, UT 84660","precinct":"25SF25","hd":"64","v_score":"31.14994604","decile":"10","lat":40.09870395336713,"lng":-111.64650881973834,"phone":"(221) 533-2494","sd":"25","ssbd":"13","lsbd":"School Board Nebo 3"},{"vid":"6272314","name":"Lakesha Osinski MD","party":"Rep","address":"490 E Scenic Dr, Spanish Fork, UT 84660","precinct":"25SF25","hd":"64","v_score":"31.14994604","decile":"10","lat":40.09870395336713,"lng":-111.64650881973834,"phone":"(512) 008-2249","sd":"25","ssbd":"13","lsbd":"School Board Nebo 3"},{"vid":"6287565","name":"Darryll O'Conner III","party":"Dem","address":"743 E Scenic Dr, Spanish Fork, UT 84660","precinct":"25SF25","hd":"64","v_score":"26.93587103","decile":"10","lat":40.093197037237346,"lng":-111.64115609259457,"phone":"(909) 914-6906","sd":"25","ssbd":"13","lsbd":"School Board Nebo 3"},{"vid":"6291960","name":"Orah Feest","party":"Rep","address":"798 S 820 E, Spanish Fork, UT 84660","precinct":"25SF25","hd":"64","v_score":"31.14994604","decile":"10","lat":40.099310192545175,"lng":-111.64073084271548,"phone":"(602) 687-4872","sd":"25","ssbd":"13","lsbd":"School Board Nebo 3"},{"vid":"6300896","name":"Miss Chana Mohr PhD","party":"Dem","address":"804 E 700 S, Spanish Fork, UT 84660","precinct":"25SF25","hd":"64","v_score":"5.40460374","decile":"7","lat":40.100299047846164,"lng":-111.64062682163754,"phone":"(148) 062-8287","sd":"25","ssbd":"13","lsbd":"School Board Nebo 3"},{"vid":"6301680","name":"Javier Emard","party":"","address":"737 E Scenic Dr, Spanish Fork, UT 84660","precinct":"25SF25","hd":"64","v_score":"3.93832808","decile":"6","lat":40.093576691496345,"lng":-111.64176146894116,"phone":"(667) 590-3143","sd":"25","ssbd":"13","lsbd":"School Board Nebo 3"},{"vid":"6303906","name":"Lou Mills MD","party":"Dem","address":"902 S 820 E, Spanish Fork, UT 84660","precinct":"25SF25","hd":"64","v_score":"18.0632389","decile":"10","lat":40.09793474641949,"lng":-111.64063496187492,"phone":"(321) 222-6541","sd":"25","ssbd":"13","lsbd":"School Board Nebo 3"},{"vid":"6309950","name":"Norine Lemke","party":"Dem","address":"946 S 770 E, Spanish Fork, UT 84660","precinct":"25SF25","hd":"64","v_score":"13.080119","decile":"9","lat":40.097163244857576,"lng":-111.6414704954099,"phone":"(157) 964-2221","sd":"25","ssbd":"13","lsbd":"School Board Nebo 3"},{"vid":"6312108","name":"Ellamae Thiel DDS","party":"Rep","address":"826 S Fox Hill Dr, Spanish Fork, UT 84660","precinct":"25SF25","hd":"64","v_score":"1.121327652","decile":"3","lat":40.09885593977106,"lng":-111.64492740862384,"phone":"(166) 867-4925","sd":"25","ssbd":"13","lsbd":"School Board Nebo 3"},{"vid":"6325992","name":"Keanu Bahringer-Ryan","party":"","address":"860 E 1050 S, Spanish Fork, UT 84660","precinct":"25SF25","hd":"64","v_score":"8.280646305","decile":"8","lat":40.09585654432132,"lng":-111.6394531615207,"phone":"(552) 509-1197","sd":"25","ssbd":"13","lsbd":"School Board Nebo 3"},{"vid":"6333596","name":"Alani Mayer","party":"","address":"748 E 1050 S, Spanish Fork, UT 84660","precinct":"25SF25","hd":"64","v_score":"5.40460374","decile":"7","lat":40.096253074683155,"lng":-111.64159765870386,"phone":"(846) 758-2569","sd":"25","ssbd":"13","lsbd":"School Board Nebo 3"},{"vid":"6341532","name":"Florie Hodkiewicz DDS","party":"","address":"624 E Scenic Dr, Spanish Fork, UT 84660","precinct":"25SF25","hd":"64","v_score":"9.141333219","decile":"8","lat":40.09658681903429,"lng":-111.64438390519948,"phone":"(446) 696-0675","sd":"25","ssbd":"13","lsbd":"School Board Nebo 3"},{"vid":"6342252","name":"Josiah Reilly","party":"Dem","address":"836 S Wolf Hollow Dr, Spanish Fork, UT 84660","precinct":"25SF25","hd":"64","v_score":"31.14994604","decile":"10","lat":40.09875403352076,"lng":-111.64393874689702,"phone":"(829) 355-3304","sd":"25","ssbd":"13","lsbd":"School Board Nebo 3"},{"vid":"5465ee68f710bc906cca63d4a2acf09df7a3aab439393d05dd24dbfee9f6d871","name":"Ms. Candi Carter","party":"","address":"730 E Scenic Dr, Spanish Fork, UT 84660","precinct":"25SF25","hd":"64","v_score":"25.07736664","decile":"10","lat":40.09350378662838,"lng":-111.6423527394112,"phone":"(953) 374-1592","sd":"25","ssbd":"13","lsbd":"School Board Nebo 3"},{"vid":"6355759","name":"Elenore Klein","party":"Dem","address":"856 S 770 E, Spanish Fork, UT 84660","precinct":"25SF25","hd":"64","v_score":"19.47300581","decile":"10","lat":40.09852204430615,"lng":-111.64158959511651,"phone":"(858) 208-1190","sd":"25","ssbd":"13","lsbd":"School Board Nebo 3"},{"vid":"6358194","name":"Elias McCullough I","party":"","address":"725 S 530 E, Spanish Fork, UT 84660","precinct":"25SF25","hd":"64","v_score":"25.25731222","decile":"10","lat":40.10005736267274,"lng":-111.64541932794374,"phone":"(298) 759-8437","sd":"25","ssbd":"13","lsbd":"School Board Nebo 3"},{"vid":"50bf1611eb80600e0376b745200cc870b650d6cab851a981490559a839c2de0f","name":"Jasmine Mills-Schuster","party":"","address":"760 E Skylark Dr, Spanish Fork, UT 84660","precinct":"25SF25","hd":"64","v_score":"3.93832808","decile":"6","lat":40.095189753147366,"lng":-111.64144728063592,"phone":"(887) 261-0861","sd":"25","ssbd":"13","lsbd":"School Board Nebo 3"},{"vid":"90cf83f74ae187b286c4fa7b66550e50caaca16b2c0c7c888aaeb8aa937da45e","name":"Mrs. Kia Emard","party":"","address":"860 E 1050 S, Spanish Fork, UT 84660","precinct":"25SF25","hd":"64","v_score":"11.2235539","decile":"9","lat":40.09585654432132,"lng":-111.6394531615207,"phone":"(782) 686-4081","sd":"25","ssbd":"13","lsbd":"School Board Nebo 3"},{"vid":"6383906","name":"Rowan Jakubowski","party":"Rep","address":"1224 S Crosswinds Dr, Spanish Fork, UT 84660","precinct":"25SF25","hd":"64","v_score":"19.66811405","decile":"10","lat":40.09370789276636,"lng":-111.63929019318678,"phone":"(184) 375-0308","sd":"25","ssbd":"13","lsbd":"School Board Nebo 3"},{"vid":"6387239","name":"Kristi Abernathy","party":"Dem","address":"1021 E 1100 S, Spanish Fork, UT 84660","precinct":"25SF25","hd":"64","v_score":"2.315214949","decile":"5","lat":40.09553949751574,"lng":-111.63707808076785,"phone":"(191) 413-1956","sd":"25","ssbd":"13","lsbd":"School Board Nebo 3"},{"vid":"6389255","name":"Darry Bailey","party":"Rep","address":"951 E 1100 S, Spanish Fork, UT 84660","precinct":"25SF25","hd":"64","v_score":"2.315214949","decile":"5","lat":40.09552680141647,"lng":-111.63809260645898,"phone":"(697) 579-6606","sd":"25","ssbd":"13","lsbd":"School Board Nebo 3"},{"vid":"6399479","name":"Lavera O'Hara","party":"","address":"811 E 820 S, Spanish Fork, UT 84660","precinct":"25SF25","hd":"64","v_score":"2.315214949","decile":"5","lat":40.09899254566475,"lng":-111.64060213429677,"phone":"(554) 492-2940","sd":"25","ssbd":"13","lsbd":"School Board Nebo 3"},{"vid":"6414683","name":"Ana Eichmann","party":"Dem","address":"954 S 690 E, Spanish Fork, UT 84660","precinct":"25SF25","hd":"64","v_score":"3.93832808","decile":"6","lat":40.097181328980085,"lng":-111.6428121632317,"phone":"(390) 846-7210","sd":"25","ssbd":"13","lsbd":"School Board Nebo 3"},{"vid":"6439160","name":"Mr. Marques Quitzon IV","party":"Dem","address":"836 S Wolf Hollow Dr, Spanish Fork, UT 84660","precinct":"25SF25","hd":"64","v_score":"29.95605874","decile":"10","lat":40.09875403352076,"lng":-111.64393874689702,"phone":"(902) 467-7156","sd":"25","ssbd":"13","lsbd":"School Board Nebo 3"},{"vid":"6449049","name":"Dr. Ova Tillman III","party":"","address":"748 E 760 S, Spanish Fork, UT 84660","precinct":"25SF25","hd":"64","v_score":"20.93928147","decile":"10","lat":40.09959890289977,"lng":-111.64153246816014,"phone":"(254) 187-4341","sd":"25","ssbd":"13","lsbd":"School Board Nebo 3"},{"vid":"6450677","name":"Sherrie Ryan","party":"","address":"856 S 770 E, Spanish Fork, UT 84660","precinct":"25SF25","hd":"64","v_score":"1.193887297","decile":"4","lat":40.09852204430615,"lng":-111.64158959511651,"phone":"(292) 401-6145","sd":"25","ssbd":"13","lsbd":"School Board Nebo 3"},{"vid":"4ab32044139d44b9ffae4df78e7634b065444a3e97e96dd0e5fb426d8c09457c","name":"Cinda Brekke","party":"Dem","address":"748 E 760 S, Spanish Fork, UT 84660","precinct":"25SF25","hd":"64","v_score":"16.72520646","decile":"9","lat":40.09959890289977,"lng":-111.64153246816014,"phone":"(576) 267-4245","sd":"25","ssbd":"13","lsbd":"School Board Nebo 3"},{"vid":"6462269","name":"Shaneka Ernser","party":"Rep","address":"727 E 760 S, Spanish Fork, UT 84660","precinct":"25SF25","hd":"64","v_score":"10.13721141","decile":"9","lat":40.099986962452455,"lng":-111.64200151237982,"phone":"(754) 829-8048","sd":"25","ssbd":"13","lsbd":"School Board Nebo 3"},{"vid":"f8f490c189a2ec5367bee162e5c44c917d187b1d87b26cf7c2ae442d108d79d7","name":"Mr. Chuck Beier DVM","party":"","address":"677 E 1050 S, Spanish Fork, UT 84660","precinct":"25SF25","hd":"64","v_score":"14.18213378","decile":"9","lat":40.096266516807205,"lng":-111.64330243502495,"phone":"(274) 171-6172","sd":"25","ssbd":"13","lsbd":"School Board Nebo 3"},{"vid":"6489794","name":"Mrs. Bebe Ruecker","party":"","address":"814 S 630 E, Spanish Fork, UT 84660","precinct":"25SF25","hd":"64","v_score":"12.59867706","decile":"9","lat":40.09902902011892,"lng":-111.64386273145766,"phone":"(815) 041-5614","sd":"25","ssbd":"13","lsbd":"School Board Nebo 3"},{"vid":"6496534","name":"Huston Sanford","party":"Rep","address":"1078 S 900 E, Spanish Fork, UT 84660","precinct":"25SF25","hd":"64","v_score":"1.121327652","decile":"3","lat":40.09591905107894,"lng":-111.63892700843222,"phone":"(553) 568-1122","sd":"25","ssbd":"13","lsbd":"School Board Nebo 3"},{"vid":"6503721","name":"Zachary Schroeder","party":"Dem","address":"789 E 1170 S, Spanish Fork, UT 84660","precinct":"25SF25","hd":"64","v_score":"5.659072284","decile":"7","lat":40.09467872236768,"lng":-111.64058186581066,"phone":"(578) 313-0320","sd":"25","ssbd":"13","lsbd":"School Board Nebo 3"},{"vid":"6505139","name":"Leopoldo Lakin","party":"Dem","address":"790 E Canyon Rd, Spanish Fork, UT 84660","precinct":"25SF25","hd":"64","v_score":"18.96489872","decile":"10","lat":40.104094370757466,"lng":-111.64109948899993,"phone":"(691) 650-0239","sd":"25","ssbd":"13","lsbd":"School Board Nebo 3"},{"vid":"6510534","name":"Tamia Hilll","party":"","address":"860 E 1050 S, Spanish Fork, UT 84660","precinct":"25SF25","hd":"64","v_score":"6.814370645","decile":"8","lat":40.09585654432132,"lng":-111.6394531615207,"phone":"(576) 229-2593","sd":"25","ssbd":"13","lsbd":"School Board Nebo 3"},{"vid":"34d2419d0499792e6634f02d50ae88068fc8045ab63d74d80727a54a053294e0","name":"Dejah Rippin","party":"Rep","address":"656 E 700 S, Spanish Fork, UT 84660","precinct":"25SF25","hd":"64","v_score":"2.315214949","decile":"5","lat":40.10025478958727,"lng":-111.64322546605611,"phone":"(436) 367-6448","sd":"25","ssbd":"13","lsbd":"School Board Nebo 3"},{"vid":"6514344","name":"Winnie Stiedemann","party":"","address":"1018 E 1050 S, Spanish Fork, UT 84660","precinct":"25SF25","hd":"64","v_score":"22.18184494","decile":"10","lat":40.095950314111114,"lng":-111.63730815244634,"phone":"(825) 091-4288","sd":"25","ssbd":"13","lsbd":"School Board Nebo 3"},{"vid":"6519705","name":"Tianna Roberts","party":"","address":"966 S 690 E, Spanish Fork, UT 84660","precinct":"25SF25","hd":"64","v_score":"8.280646305","decile":"8","lat":40.09702506410242,"lng":-111.64266966587083,"phone":"(512) 197-3309","sd":"25","ssbd":"13","lsbd":"School Board Nebo 3"},{"vid":"6525463","name":"Miss Orelia Kirlin","party":"","address":"723 E 1050 S, Spanish Fork, UT 84660","precinct":"25SF25","hd":"64","v_score":"36.20706943","decile":"10","lat":40.09648939092008,"lng":-111.64214500374877,"phone":"(707) 853-6575","sd":"25","ssbd":"13","lsbd":"School Board Nebo 3"}]