[{"vid":"505716","name":"Noretta Connelly","party":"","address":"1368 N 200 E, Springville, UT 84663","precinct":"25SP03","hd":"62","v_score":"9.55742766","decile":"8","lat":40.18522483135599,"lng":-111.60665635627137},{"vid":"612174","name":"Mr. Santana Muller","party":"Dem","address":"275 E 1300 N, Springville, UT 84663","precinct":"25SP03","hd":"62","v_score":"19.74179771","decile":"10","lat":40.18474064184716,"lng":-111.60633083448053},{"vid":"1225945","name":"Buddy Baumbach","party":"","address":"783 N 200 E, Springville, UT 84663","precinct":"25SP03","hd":"62","v_score":"5.40460374","decile":"7","lat":40.17714437633712,"lng":-111.6073179608069},{"vid":"1237061","name":"Mr. Irven Klein","party":"","address":"1471 N 150 E, Springville, UT 84663","precinct":"25SP03","hd":"62","v_score":"0","decile":"1","lat":40.18652147821339,"lng":-111.60865433971898},{"vid":"1253961","name":"Colby Quigley","party":"","address":"374 E 1075 N, Springville, UT 84663","precinct":"25SP03","hd":"62","v_score":"0","decile":"1","lat":40.18141247103051,"lng":-111.60508752426583},{"vid":"29a07a407e977bf7e51134fe96a6bc1a8d7a0166e686097f9e0542e34df22031","name":"Zachery Robel-Schulist","party":"Rep","address":"292 E 1150 N, Springville, UT 84663","precinct":"25SP03","hd":"62","v_score":"14.48247422","decile":"9","lat":40.18217409383696,"lng":-111.60621591465313},{"vid":"89e5d36f9e57a4969a221739e4b5c4fe80e6430180a3dbee25a29458e99cec6e","name":"Roy Gleason","party":"Dem","address":"1652 N 100 E, Springville, UT 84663","precinct":"25SP03","hd":"62","v_score":"3.781490609","decile":"6","lat":40.18967373845553,"lng":-111.60858462272742},{"vid":"1318990","name":"Delvin Franecki","party":"Rep","address":"1478 N 150 E, Springville, UT 84663","precinct":"25SP03","hd":"62","v_score":"2.660162957","decile":"5","lat":40.1868016025258,"lng":-111.60811983155047},{"vid":"1320171","name":"Dr. Orrie Ankunding","party":"Dem","address":"1292 N 150 E, Springville, UT 84663","precinct":"25SP03","hd":"62","v_score":"2.587603312","decile":"5","lat":40.1845105829863,"lng":-111.6080830226967},{"vid":"5c58e2e9918048c47e3b028700668a4f3425c0cb35d58f7b9e0f2ab9fcacfda9","name":"Kelsi Koch","party":"","address":"850 N Main St, Trlr 41, Springville, UT 84663","precinct":"25SP03","hd":"62","v_score":"10.66687182","decile":"9","lat":40.178017624105806,"lng":-111.60959702602891},{"vid":"1325726","name":"Lexis Runolfsdottir","party":"","address":"745 N 150 E, Springville, UT 84663","precinct":"25SP03","hd":"62","v_score":"6.027167436","decile":"7","lat":40.176505443822656,"lng":-111.60864856570767},{"vid":"1326020","name":"Murray Block","party":"Rep","address":"205 E 1230 N, Springville, UT 84663","precinct":"25SP03","hd":"62","v_score":"3.93832808","decile":"6","lat":40.18338894821603,"lng":-111.60738960743956},{"vid":"1326171","name":"Miss Bethann Wiegand PhD","party":"","address":"742 N 375 E, Springville, UT 84663","precinct":"25SP03","hd":"62","v_score":"7.227307695","decile":"8","lat":40.17722088727572,"lng":-111.6038053437691},{"vid":"1327383","name":"Dann Hane","party":"Dem","address":"103 E 700 N, Unit 20, Springville, UT 84663","precinct":"25SP03","hd":"62","v_score":"0","decile":"1","lat":40.177378399875295,"lng":-111.60894038755995},{"vid":"1331909","name":"Dr. Kian Kertzmann Jr.","party":"Rep","address":"103 E 700 N, Unit 17, Springville, UT 84663","precinct":"25SP03","hd":"62","v_score":"18.08986941","decile":"10","lat":40.177378399875295,"lng":-111.60894038755995},{"vid":"1337820","name":"Lafe Ward IV","party":"","address":"1495 N 150 E, Springville, UT 84663","precinct":"25SP03","hd":"62","v_score":"5.40460374","decile":"7","lat":40.18711838277838,"lng":-111.60865821990201},{"vid":"d500c93325a31e18e2bde10181acc6869b3776805c41d90d304cbffeeb80541b","name":"Paola Ward","party":"","address":"272 E 1150 N, Springville, UT 84663","precinct":"25SP03","hd":"62","v_score":"5.40460374","decile":"7","lat":40.18217295238904,"lng":-111.60651542913857},{"vid":"1360260","name":"Rashaad Hermann","party":"Dem","address":"1570 N 50 E, Springville, UT 84663","precinct":"25SP03","hd":"62","v_score":"8.15240309","decile":"8","lat":40.18834775603662,"lng":-111.60927892863421},{"vid":"1384317","name":"Jairo Pollich Sr.","party":"Rep","address":"798 N 200 E, Springville, UT 84663","precinct":"25SP03","hd":"62","v_score":"0","decile":"1","lat":40.17740046039546,"lng":-111.60677685358866},{"vid":"1392501","name":"Mr. Theo Friesen MD","party":"Rep","address":"1662 N 50 E, Springville, UT 84663","precinct":"25SP03","hd":"62","v_score":"3.781490609","decile":"6","lat":40.189657575443775,"lng":-111.60984805071291},{"vid":"1394334","name":"Harve Hilpert","party":"Rep","address":"1617 N 100 E, Springville, UT 84663","precinct":"25SP03","hd":"62","v_score":"2.315214949","decile":"5","lat":40.18905931058667,"lng":-111.60916251739386},{"vid":"1397848","name":"Frida Zulauf","party":"Dem","address":"850 N Main St, Trlr 3, Springville, UT 84663","precinct":"25SP03","hd":"62","v_score":"0","decile":"1","lat":40.178017624105806,"lng":-111.60959702602891},{"vid":"1406321","name":"Benjamen Wuckert","party":"","address":"103 E 700 N, Unit 12, Springville, UT 84663","precinct":"25SP03","hd":"62","v_score":"13.26938015","decile":"9","lat":40.177378399875295,"lng":-111.60894038755995},{"vid":"1425339","name":"Mrs. Santos Franecki DVM","party":"Dem","address":"272 E 1150 N, Springville, UT 84663","precinct":"25SP03","hd":"62","v_score":"5.40460374","decile":"7","lat":40.18217295238904,"lng":-111.60651542913857},{"vid":"eb635b5438f360741a472192945e1c4a087c400a0ba0a60f4531cffdd7d38c13","name":"Mr. Blaine Gleichner","party":"Dem","address":"755 N 150 E, Springville, UT 84663","precinct":"25SP03","hd":"62","v_score":"8.280646305","decile":"8","lat":40.17673888478148,"lng":-111.60864711169454},{"vid":"1465081","name":"Dr. Stephan D'Amore DVM","party":"","address":"775 N 200 E, Springville, UT 84663","precinct":"25SP03","hd":"62","v_score":"5.40460374","decile":"7","lat":40.17704832198478,"lng":-111.60731781042892},{"vid":"1468890","name":"Veda McDermott-Bednar","party":"Dem","address":"57 E 1600 N, Springville, UT 84663","precinct":"25SP03","hd":"62","v_score":"2.744440783","decile":"5","lat":40.188800238438205,"lng":-111.60960243280896},{"vid":"1469732","name":"Ronny Labadie","party":"Rep","address":"1464 N Spring Mountain Dr, Springville, UT 84663","precinct":"25SP03","hd":"62","v_score":"7.282185415","decile":"8","lat":40.18679630071106,"lng":-111.60707982443195},{"vid":"183123daa49e8618964cc8d73047daf61455912fe8534067d74a6f5f104a19c0","name":"Dr. Ennis Pouros DVM","party":"Dem","address":"702 N 200 E, Springville, UT 84663","precinct":"25SP03","hd":"62","v_score":"2.315214949","decile":"5","lat":40.17590075368937,"lng":-111.606771477531},{"vid":"1485637","name":"Eura Kulas","party":"","address":"1434 N 150 E, Springville, UT 84663","precinct":"25SP03","hd":"62","v_score":"26.85320151","decile":"10","lat":40.18615232551646,"lng":-111.60806391178761},{"vid":"1485983","name":"Sina Hintz","party":"Rep","address":"1045 N 400 E, Springville, UT 84663","precinct":"25SP03","hd":"62","v_score":"7.209387876","decile":"8","lat":40.181151978230545,"lng":-111.60418357546688},{"vid":"1496055","name":"Kyara Lockman-Tromp","party":"","address":"762 N 200 E, Springville, UT 84663","precinct":"25SP03","hd":"62","v_score":"20.42379706","decile":"10","lat":40.17679276907899,"lng":-111.6067726870227},{"vid":"1497841","name":"Priscila Stanton DVM","party":"","address":"792 N 200 E, Springville, UT 84663","precinct":"25SP03","hd":"62","v_score":"7.781882349","decile":"8","lat":40.17725720216777,"lng":-111.60677663080646},{"vid":"1500123","name":"Brook Stoltenberg","party":"Rep","address":"762 N 200 E, Springville, UT 84663","precinct":"25SP03","hd":"62","v_score":"0","decile":"1","lat":40.17679276907899,"lng":-111.6067726870227},{"vid":"1501627","name":"Ms. Polly Purdy","party":"Rep","address":"1614 N 50 E, Springville, UT 84663","precinct":"25SP03","hd":"62","v_score":"0","decile":"1","lat":40.18899955549546,"lng":-111.60963142791104},{"vid":"1506275","name":"Dr. Wilmer Anderson","party":"","address":"1505 N 150 E, Springville, UT 84663","precinct":"25SP03","hd":"62","v_score":"2.315214949","decile":"5","lat":40.18731735135498,"lng":-111.60865953683222},{"vid":"aa3710914053b209a21119115c7abc81d2cf402848847c657e75bd953a8dda26","name":"Millie Wiegand","party":"Rep","address":"1505 N 150 E, Springville, UT 84663","precinct":"25SP03","hd":"62","v_score":"2.315214949","decile":"5","lat":40.18731735135498,"lng":-111.60865953683222},{"vid":"2a81d8897b57d174941840f749056f4701dec06869141fd307daeace8079d0b5","name":"Mr. Lionel Mosciski MD","party":"Dem","address":"790 N 150 E, Springville, UT 84663","precinct":"25SP03","hd":"62","v_score":"1.121327652","decile":"3","lat":40.177209852663275,"lng":-111.60815638612966},{"vid":"1530875","name":"Sylvanus Dietrich","party":"","address":"174 E 800 N, Springville, UT 84663","precinct":"25SP03","hd":"62","v_score":"5.40460374","decile":"7","lat":40.17730882710824,"lng":-111.6076381794833},{"vid":"1547622","name":"Alwine Brown DDS","party":"","address":"814 N 175 E, Springville, UT 84663","precinct":"25SP03","hd":"62","v_score":"4.15282392","decile":"7","lat":40.17776524924072,"lng":-111.60807500289718},{"vid":"1559115","name":"Bridgette Thiel","party":"Dem","address":"1451 N 150 E, Springville, UT 84663","precinct":"25SP03","hd":"62","v_score":"7.493443096","decile":"8","lat":40.18632251073363,"lng":-111.60865302296843},{"vid":"1574240","name":"Dr. Luberta Nienow","party":"Rep","address":"103 E 700 N, Unit 7, Springville, UT 84663","precinct":"25SP03","hd":"62","v_score":"2.315214949","decile":"5","lat":40.177378399875295,"lng":-111.60894038755995},{"vid":"075ddf5ef71e6f51c4283acbc0103c5354893123016ff199d8c7cd676e8415ad","name":"Garrison Casper","party":"","address":"1531 N 150 E, Springville, UT 84663","precinct":"25SP03","hd":"62","v_score":"6.814370645","decile":"8","lat":40.18812501604848,"lng":-111.60875128788072},{"vid":"1578930","name":"Janine Cole","party":"","address":"1495 N 150 E, Springville, UT 84663","precinct":"25SP03","hd":"62","v_score":"2.587603312","decile":"5","lat":40.18711838277838,"lng":-111.60865821990201},{"vid":"1592480","name":"Sammy Murray-Leffler","party":"Dem","address":"798 N 200 E, Springville, UT 84663","precinct":"25SP03","hd":"62","v_score":"10.43635069","decile":"9","lat":40.17740046039546,"lng":-111.60677685358866},{"vid":"1603668","name":"Tawanna Littel","party":"Rep","address":"790 N 150 E, Springville, UT 84663","precinct":"25SP03","hd":"62","v_score":"1.121327652","decile":"3","lat":40.177209852663275,"lng":-111.60815638612966},{"vid":"1614615","name":"Memphis Bernier","party":"Dem","address":"748 N 200 E, Springville, UT 84663","precinct":"25SP03","hd":"62","v_score":"13.89381337","decile":"9","lat":40.17655600752559,"lng":-111.60677396514568},{"vid":"1616300","name":"Elzy Cremin","party":"Rep","address":"740 N 200 E, Springville, UT 84663","precinct":"25SP03","hd":"62","v_score":"9.757278238","decile":"8","lat":40.17645995343855,"lng":-111.60677381512701},{"vid":"1621471","name":"Marcellus Cormier","party":"","address":"781 N 150 E, Springville, UT 84663","precinct":"25SP03","hd":"62","v_score":"8.347511332","decile":"8","lat":40.17707870172656,"lng":-111.608685511978},{"vid":"1632278","name":"Tanisha Rippin","party":"Dem","address":"103 E 700 N, Unit 9, Springville, UT 84663","precinct":"25SP03","hd":"62","v_score":"1.121327652","decile":"3","lat":40.177378399875295,"lng":-111.60894038755995},{"vid":"1651484","name":"Dr. Tyquan Brown DVM","party":"Rep","address":"1513 N 150 E, Springville, UT 84663","precinct":"25SP03","hd":"62","v_score":"3.781490609","decile":"6","lat":40.187516246879326,"lng":-111.60866084046737},{"vid":"1656470","name":"Price Hahn Sr.","party":"","address":"1495 N 150 E, Springville, UT 84663","precinct":"25SP03","hd":"62","v_score":"2.587603312","decile":"5","lat":40.18711838277838,"lng":-111.60865821990201},{"vid":"9d92abb5764e6acb7b3dbaf07b04d8b140c2bf8ba32dece90cc8b7674ff21e37","name":"Mr. Eston Stroman","party":"Dem","address":"765 N 150 E, Springville, UT 84663","precinct":"25SP03","hd":"62","v_score":"2.660162957","decile":"5","lat":40.17688659269995,"lng":-111.60868610181181},{"vid":"1696167","name":"Mr. Levar Harris","party":"","address":"1658 N 100 E, Springville, UT 84663","precinct":"25SP03","hd":"62","v_score":"6.74007049","decile":"8","lat":40.18974475390687,"lng":-111.60897509846252},{"vid":"1724789","name":"Mr. Kelley Bode IV","party":"Rep","address":"769 N 150 E, Springville, UT 84663","precinct":"25SP03","hd":"62","v_score":"1.193887297","decile":"3","lat":40.17693379637199,"lng":-111.60868598215622},{"vid":"1728421","name":"Mr. Les Zieme","party":"Rep","address":"1536 N 50 E, Springville, UT 84663","precinct":"25SP03","hd":"62","v_score":"10.15822798","decile":"9","lat":40.187840935896155,"lng":-111.6096106062204},{"vid":"1732149","name":"Giovanna Gusikowski","party":"","address":"270 E 1230 N, Springville, UT 84663","precinct":"25SP03","hd":"62","v_score":"11.36410258","decile":"9","lat":40.18295583692518,"lng":-111.60622114587244},{"vid":"1738821","name":"Michel Hand II","party":"Dem","address":"1494 N 150 E, Springville, UT 84663","precinct":"25SP03","hd":"62","v_score":"2.315214949","decile":"5","lat":40.18699084412181,"lng":-111.6081524784582},{"vid":"feb894f5c63a5bd512ca679eb2241bb1e74e3823de1666a18a1a0599ff0c1d42","name":"Marisela Hayes","party":"","address":"1292 N 150 E, Springville, UT 84663","precinct":"25SP03","hd":"62","v_score":"3.781490609","decile":"6","lat":40.1845105829863,"lng":-111.6080830226967},{"vid":"1742977","name":"Abe Sipes","party":"Dem","address":"754 N 200 E, Springville, UT 84663","precinct":"25SP03","hd":"62","v_score":"2.660162957","decile":"5","lat":40.17669671450345,"lng":-111.60677253772269},{"vid":"1754394","name":"Kaia Monahan DDS","party":"Rep","address":"235 E 1300 N, Springville, UT 84663","precinct":"25SP03","hd":"62","v_score":"1.193887297","decile":"3","lat":40.18473906874688,"lng":-111.60661708480177},{"vid":"1765482","name":"Dr. Annemarie Stroman","party":"Rep","address":"1604 N 100 E, Springville, UT 84663","precinct":"25SP03","hd":"62","v_score":"2.315214949","decile":"5","lat":40.1887322362547,"lng":-111.6084141332663},{"vid":"1765995","name":"Elmer Herman","party":"","address":"1604 N 100 E, Springville, UT 84663","precinct":"25SP03","hd":"62","v_score":"2.315214949","decile":"5","lat":40.1887322362547,"lng":-111.6084141332663},{"vid":"0d4daf827afe7134eca90424055dbf9971f6bd8ebda1a520dc0158014f690536","name":"Kelsi Kohler PhD","party":"Dem","address":"1517 N 150 E, Springville, UT 84663","precinct":"25SP03","hd":"62","v_score":"10.66687182","decile":"9","lat":40.1877916485246,"lng":-111.60862147090174},{"vid":"1777302","name":"Otho Price","party":"","address":"793 N 150 E, Springville, UT 84663","precinct":"25SP03","hd":"62","v_score":"9.116556227","decile":"8","lat":40.17728724989262,"lng":-111.60868630788534},{"vid":"1777324","name":"Angella McClure DVM","party":"","address":"205 E 1300 N, Springville, UT 84663","precinct":"25SP03","hd":"62","v_score":"2.315214949","decile":"5","lat":40.18464715297781,"lng":-111.60722123601575},{"vid":"1778019","name":"Jep Ratke I","party":"Rep","address":"793 N 150 E, Springville, UT 84663","precinct":"25SP03","hd":"62","v_score":"9.116556227","decile":"8","lat":40.17728724989262,"lng":-111.60868630788534},{"vid":"1778384","name":"Amalia Rippin","party":"Dem","address":"1419 N 150 E, Springville, UT 84663","precinct":"25SP03","hd":"62","v_score":"9.682978083","decile":"8","lat":40.18601445309473,"lng":-111.60865101990501},{"vid":"1780668","name":"Zachariah Reinger-Nader","party":"","address":"1660 N 50 E, Springville, UT 84663","precinct":"25SP03","hd":"62","v_score":"0","decile":"1","lat":40.18966378188376,"lng":-111.60969797977853},{"vid":"1786110","name":"Winfield Tremblay","party":"","address":"888 N 375 E, Springville, UT 84663","precinct":"25SP03","hd":"62","v_score":"18.40864136","decile":"10","lat":40.179142398901135,"lng":-111.60377306368201},{"vid":"1803826","name":"Kacy Lehner","party":"","address":"1335 N 150 E, Springville, UT 84663","precinct":"25SP03","hd":"62","v_score":"3.93832808","decile":"6","lat":40.18494965797811,"lng":-111.60864407970078},{"vid":"1805336","name":"Liddie Lockman PhD","party":"Dem","address":"297 E 1150 N, Springville, UT 84663","precinct":"25SP03","hd":"62","v_score":"22.18745887","decile":"10","lat":40.18266119553827,"lng":-111.60607752556044},{"vid":"1807890","name":"Veronica Marquardt","party":"","address":"210 E 1230 N, Springville, UT 84663","precinct":"25SP03","hd":"62","v_score":"7.169296324","decile":"8","lat":40.182946475352104,"lng":-111.60709176807262},{"vid":"1837647","name":"Doris Kunze","party":"Dem","address":"1414 N 150 E, Springville, UT 84663","precinct":"25SP03","hd":"62","v_score":"2.315214949","decile":"5","lat":40.1858683791371,"lng":-111.608175915373},{"vid":"f83bbc3e832a85e753001817fcfb619bd33b3313335a813dd737c5d7681835d0","name":"Geo Okuneva","party":"","address":"753 N 150 E, Springville, UT 84663","precinct":"25SP03","hd":"62","v_score":"8.507303088","decile":"8","lat":40.17669168056205,"lng":-111.60864723188911},{"vid":"1840914","name":"Jena Bruen","party":"Rep","address":"753 N 375 E, Springville, UT 84663","precinct":"25SP03","hd":"62","v_score":"34.44358256","decile":"10","lat":40.177498429323535,"lng":-111.60433873697434},{"vid":"df090ffe2d836ef188e1843783f78cc2b471bdbb3012cddaba3c5e84e6c69393","name":"Ivey Ferry","party":"Dem","address":"290 E 1230 N, Springville, UT 84663","precinct":"25SP03","hd":"62","v_score":"1.46627566","decile":"4","lat":40.18278743190675,"lng":-111.60591139355722},{"vid":"1842929","name":"Lovie Marquardt","party":"Rep","address":"850 N Main St, Trlr 7, Springville, UT 84663","precinct":"25SP03","hd":"62","v_score":"2.315214949","decile":"5","lat":40.178017624105806,"lng":-111.60959702602891},{"vid":"1847257","name":"Mr. Kale Morar","party":"Dem","address":"179 E 700 N, Springville, UT 84663","precinct":"25SP03","hd":"62","v_score":"7.650280567","decile":"8","lat":40.17611041410273,"lng":-111.60738253206884},{"vid":"1856076","name":"Herminia Hilll-Miller","party":"","address":"1388 N 200 E, Springville, UT 84663","precinct":"25SP03","hd":"62","v_score":"0","decile":"1","lat":40.18551535774622,"lng":-111.60660104459775},{"vid":"1866803","name":"Vincent Von-Klein","party":"","address":"193 E 1400 N, Springville, UT 84663","precinct":"25SP03","hd":"62","v_score":"8.347511332","decile":"8","lat":40.18600989947958,"lng":-111.6073486734878},{"vid":"1868419","name":"Elzy Grady PhD","party":"Dem","address":"1515 N 150 E, Springville, UT 84663","precinct":"25SP03","hd":"62","v_score":"10.7066531","decile":"9","lat":40.187615822546604,"lng":-111.60866148779336},{"vid":"1873434","name":"Verne Altenwerth-Walsh","party":"","address":"290 E 1075 N, Springville, UT 84663","precinct":"25SP03","hd":"62","v_score":"5.40460374","decile":"7","lat":40.1814049842647,"lng":-111.60623245512286},{"vid":"1875429","name":"Dr. Rae Klocko","party":"Dem","address":"290 E 1270 N, Springville, UT 84663","precinct":"25SP03","hd":"62","v_score":"19.74179771","decile":"10","lat":40.1836207691237,"lng":-111.6060429754862},{"vid":"1876500","name":"Misty Jenkins","party":"","address":"1149 N 400 E, Springville, UT 84663","precinct":"25SP03","hd":"62","v_score":"1.121327652","decile":"3","lat":40.18224167539664,"lng":-111.60465278248178},{"vid":"1894326","name":"Dr. Clayton Hirthe Jr.","party":"Dem","address":"1618 N 50 E, Springville, UT 84663","precinct":"25SP03","hd":"62","v_score":"6.724398202","decile":"8","lat":40.18911529734543,"lng":-111.60960303216493},{"vid":"1901286","name":"Monique Lindgren","party":"","address":"1119 N 400 E, Springville, UT 84663","precinct":"25SP03","hd":"62","v_score":"8.347511332","decile":"8","lat":40.1817665344639,"lng":-111.60437483085548},{"vid":"4a6129bb3aaa4432ae341544fe0f46fb0ae2bb2ca95fe539d873bea2994714cb","name":"Tia Stiedemann","party":"","address":"774 N 200 E, Springville, UT 84663","precinct":"25SP03","hd":"62","v_score":"6.814370645","decile":"8","lat":40.1769830394688,"lng":-111.60677284099394},{"vid":"1908664","name":"Kasen Schaden","party":"Rep","address":"724 N 200 E, Springville, UT 84663","precinct":"25SP03","hd":"62","v_score":"1.121327652","decile":"3","lat":40.17623065596042,"lng":-111.60677499713027},{"vid":"1908799","name":"Mr. Ewart Runte","party":"Dem","address":"1513 N 150 E, Springville, UT 84663","precinct":"25SP03","hd":"62","v_score":"3.781490609","decile":"6","lat":40.187516246879326,"lng":-111.60866084046737},{"vid":"1918180","name":"Megan Barton","party":"Dem","address":"1284 N 150 E, Springville, UT 84663","precinct":"25SP03","hd":"62","v_score":"1.46627566","decile":"4","lat":40.18429103138522,"lng":-111.60808156778526},{"vid":"1923213","name":"Shyanne Kreiger MD","party":"","address":"779 N 200 E, Springville, UT 84663","precinct":"25SP03","hd":"62","v_score":"0","decile":"1","lat":40.17709552650519,"lng":-111.6073178839111},{"vid":"1926442","name":"Dilan O'Kon","party":"","address":"1542 N 50 E, Springville, UT 84663","precinct":"25SP03","hd":"62","v_score":"0","decile":"1","lat":40.187951392566916,"lng":-111.60913956238409},{"vid":"1928895","name":"Trinidad Gibson","party":"","address":"152 E 1270 N, Springville, UT 84663","precinct":"25SP03","hd":"62","v_score":"2.315214949","decile":"5","lat":40.18365736848291,"lng":-111.60807503719363},{"vid":"1933738","name":"Erlene Stracke","party":"Dem","address":"888 N 375 E, Springville, UT 84663","precinct":"25SP03","hd":"62","v_score":"15.45006148","decile":"9","lat":40.179142398901135,"lng":-111.60377306368201},{"vid":"3159e038c177811863e1a910704470a91f4939003730b721252cb8a5b26ed371","name":"Lovisa Wehner","party":"Rep","address":"103 E 700 N, Unit 17, Springville, UT 84663","precinct":"25SP03","hd":"62","v_score":"3.781490609","decile":"6","lat":40.177378399875295,"lng":-111.60894038755995},{"vid":"1961507","name":"Gustaf Kertzmann","party":"Rep","address":"1536 N 50 E, Springville, UT 84663","precinct":"25SP03","hd":"62","v_score":"11.99259879","decile":"9","lat":40.187840935896155,"lng":-111.6096106062204},{"vid":"1963880","name":"Jeremie Kris MD","party":"Rep","address":"722 N 150 E, Springville, UT 84663","precinct":"25SP03","hd":"62","v_score":"2.315214949","decile":"5","lat":40.176193457571955,"lng":-111.60812169624766},{"vid":"1972656","name":"Mrs. Cecelia Ankunding","party":"","address":"290 E 1270 N, Springville, UT 84663","precinct":"25SP03","hd":"62","v_score":"19.74179771","decile":"10","lat":40.1836207691237,"lng":-111.6060429754862},{"vid":"1973703","name":"Mr. Deshawn Haag","party":"","address":"179 E 700 N, Springville, UT 84663","precinct":"25SP03","hd":"62","v_score":"3.93832808","decile":"6","lat":40.17611041410273,"lng":-111.60738253206884},{"vid":"c699596ef38eee12e26b4f5bdcb3194c910edeedc34d8de6784aac0a2ba2c30d","name":"Georgie Price","party":"Dem","address":"1292 N 150 E, Springville, UT 84663","precinct":"25SP03","hd":"62","v_score":"2.315214949","decile":"5","lat":40.1845105829863,"lng":-111.6080830226967},{"vid":"dffc05a7e6d321263420e88675e8e68a788d2f3baba769bf8decb80888fed497","name":"Danika Cassin","party":"","address":"757 N 200 E, Springville, UT 84663","precinct":"25SP03","hd":"62","v_score":"1.121327652","decile":"3","lat":40.17675623320345,"lng":-111.60731935660918},{"vid":"1992702","name":"Kaleena Braun","party":"","address":"794 N 200 E, Springville, UT 84663","precinct":"25SP03","hd":"62","v_score":"24.66382884","decile":"10","lat":40.17730440585656,"lng":-111.60677670374966},{"vid":"1995053","name":"Mr. Jerald Runolfsdottir","party":"Rep","address":"1438 N 150 E, Springville, UT 84663","precinct":"25SP03","hd":"62","v_score":"3.781490609","decile":"6","lat":40.186280491763746,"lng":-111.6080945622752},{"vid":"ea1e30eb24de605b7dfe3459f0ac15417aa069203fd6a1112811ce6a486390cd","name":"Emanuel Brekke","party":"Dem","address":"290 E 1300 N, Springville, UT 84663","precinct":"25SP03","hd":"62","v_score":"5.530510904","decile":"7","lat":40.18429797662544,"lng":-111.60615783812088},{"vid":"2002121","name":"Misael Bechtelar","party":"Dem","address":"1536 N 50 E, Springville, UT 84663","precinct":"25SP03","hd":"62","v_score":"8.280646305","decile":"8","lat":40.187840935896155,"lng":-111.6096106062204},{"vid":"0675a41370da61d3308171cd67a10cc6944e651e32c5f8b8778ea0d455acf661","name":"Arden Frami","party":"","address":"1471 N 150 E, Springville, UT 84663","precinct":"25SP03","hd":"62","v_score":"5.530510904","decile":"7","lat":40.18652147821339,"lng":-111.60865433971898},{"vid":"2002591","name":"Diamond Schroeder","party":"","address":"1451 N 150 E, Springville, UT 84663","precinct":"25SP03","hd":"62","v_score":"7.493443096","decile":"8","lat":40.18632251073363,"lng":-111.60865302296843},{"vid":"2021288","name":"Ansel Erdman-Wyman","party":"","address":"1336 N 150 E, Springville, UT 84663","precinct":"25SP03","hd":"62","v_score":"0","decile":"1","lat":40.18494946156423,"lng":-111.60808585598313},{"vid":"2044977","name":"Leaner Breitenberg","party":"Rep","address":"250 E 1230 N, Springville, UT 84663","precinct":"25SP03","hd":"62","v_score":"6.881235673","decile":"8","lat":40.18296879510829,"lng":-111.60653854698293},{"vid":"2045762","name":"Calvin Leannon","party":"Rep","address":"757 N 200 E, Springville, UT 84663","precinct":"25SP03","hd":"62","v_score":"2.315214949","decile":"5","lat":40.17675623320345,"lng":-111.60731935660918},{"vid":"2046648","name":"Vince Medhurst","party":"Rep","address":"1521 N 150 E, Springville, UT 84663","precinct":"25SP03","hd":"62","v_score":"1.46627566","decile":"4","lat":40.18791528817639,"lng":-111.60861844932845},{"vid":"28bf67dc67b4e84bfcd8863b7e2daac09288f8c2b4d17a320031179f8e6a4f21","name":"Dr. Dewey Satterfield","party":"","address":"1375 N 200 E, Springville, UT 84663","precinct":"25SP03","hd":"62","v_score":"27.02719121","decile":"10","lat":40.18514065583113,"lng":-111.60712462873008},{"vid":"e6dbb4078ab4e042fbf6d9e1c88b5c78e4b11bdd9b19afdac6c657792680dac3","name":"Lennie Mosciski","party":"Rep","address":"850 N Main St, Trlr 44, Springville, UT 84663","precinct":"25SP03","hd":"62","v_score":"1.121327652","decile":"3","lat":40.178017624105806,"lng":-111.60959702602891},{"vid":"2062807","name":"Ananias Konopelski","party":"Rep","address":"909 N 400 E, Springville, UT 84663","precinct":"25SP03","hd":"62","v_score":"0","decile":"1","lat":40.17945285468269,"lng":-111.60337225348749},{"vid":"87060fd1dc5b7e9b2d8e20eb6f5fd9cb162e2e4d3056668dca533c2405190b6a","name":"Mr. Elizah Streich III","party":"Rep","address":"852 N 375 E, Springville, UT 84663","precinct":"25SP03","hd":"62","v_score":"0","decile":"1","lat":40.178703326975274,"lng":-111.60372657014251},{"vid":"d2c408d0866815c1edf2ad655f003cb821478204a5feeddeacba4563298e2810","name":"Evelyn Beer-Green","party":"Dem","address":"160 E 750 N, Springville, UT 84663","precinct":"25SP03","hd":"62","v_score":"2.587603312","decile":"5","lat":40.17643940523049,"lng":-111.60807052856842},{"vid":"2086751","name":"Eddie Koss-Torp","party":"","address":"1658 N 100 E, Springville, UT 84663","precinct":"25SP03","hd":"62","v_score":"1.46627566","decile":"4","lat":40.18974475390687,"lng":-111.60897509846252},{"vid":"a3782a2e66a90f94cf285463b74858b4704052ac02d6021a2eb3fe8c4009de93","name":"Raquan Leuschke","party":"Dem","address":"368 E 1075 N, Springville, UT 84663","precinct":"25SP03","hd":"62","v_score":"20.26520646","decile":"10","lat":40.181410593677015,"lng":-111.60537376596324},{"vid":"2098107","name":"Kerry Abshire","party":"Dem","address":"1418 N 150 E, Springville, UT 84663","precinct":"25SP03","hd":"62","v_score":"6.881235673","decile":"8","lat":40.18603891989237,"lng":-111.60810730936906},{"vid":"e8c12ef018c2c90ad0b8def7a82137b5b115e1fe202316800814fc3fb1cc1cac","name":"Dr. Marina Wuckert MD","party":"Dem","address":"1602 N 100 E, Springville, UT 84663","precinct":"25SP03","hd":"62","v_score":"8.280646305","decile":"8","lat":40.188722820167506,"lng":-111.60856391152954},{"vid":"2ead8dbef15dff23847c1b5691f8d4e013a193b43e942dd35724735659fcbed0","name":"Amira Cremin PhD","party":"Dem","address":"1602 N 100 E, Springville, UT 84663","precinct":"25SP03","hd":"62","v_score":"8.280646305","decile":"8","lat":40.188722820167506,"lng":-111.60856391152954},{"vid":"90a46b088e363cd2a53ef988c15d03aab3c6704cad7aced6b9f6e92cf78e778d","name":"Mr. Rustin Wolf IV","party":"Rep","address":"1620 N 100 E, Springville, UT 84663","precinct":"25SP03","hd":"62","v_score":"1.193887297","decile":"3","lat":40.18912072110999,"lng":-111.60863471476397},{"vid":"424fc5808ffc4903a3ad688f8cfdfa4555eddd0dfecb4621e085c61d38213bcb","name":"Elida Rosenbaum","party":"Rep","address":"297 E 1150 N, Springville, UT 84663","precinct":"25SP03","hd":"62","v_score":"24.37270649","decile":"10","lat":40.18266119553827,"lng":-111.60607752556044},{"vid":"2132169","name":"Jaylyn Hudson","party":"","address":"802 N 150 E, Springville, UT 84663","precinct":"25SP03","hd":"62","v_score":"7.159318653","decile":"8","lat":40.17730590651241,"lng":-111.6081565372263},{"vid":"14723828e05ae59096712b089a293659cbd32e4f19d37879fea4660789d8205d","name":"Priscila Satterfield","party":"Rep","address":"397 E 1150 N, Springville, UT 84663","precinct":"25SP03","hd":"62","v_score":"0","decile":"1","lat":40.1825579025112,"lng":-111.60475995026506},{"vid":"19674f24096cdc5ca0249efba8ff6842684c5bc4ef609d3c975f1f133da92f1f","name":"Gillian O'Kon","party":"Dem","address":"183 E 700 N, Springville, UT 84663","precinct":"25SP03","hd":"62","v_score":"1.193887297","decile":"3","lat":40.176110529687676,"lng":-111.60725730997251},{"vid":"2166675","name":"Mr. Osvaldo Cummerata DVM","party":"","address":"779 N 200 E, Springville, UT 84663","precinct":"25SP03","hd":"62","v_score":"5.530510904","decile":"7","lat":40.17709552650519,"lng":-111.6073178839111},{"vid":"eeba5aeda1e25f7556d4347aaab4acbfb2f7e6670ffe8d77e2f9c7fbdf006ba1","name":"Charle Gutmann-Blick","party":"Rep","address":"270 E 1270 N, Springville, UT 84663","precinct":"25SP03","hd":"62","v_score":"16.99735693","decile":"9","lat":40.183618339981166,"lng":-111.60636086920287},{"vid":"b4a18c0460119094604c65b431579b4829017e277220976194fe5d85c66b3bd1","name":"Akeem Hauck","party":"","address":"57 E 1600 N, Springville, UT 84663","precinct":"25SP03","hd":"62","v_score":"0","decile":"1","lat":40.188800238438205,"lng":-111.60960243280896},{"vid":"2173628","name":"Ms. Arletta Thompson MD","party":"Dem","address":"103 E 700 N, Unit 16, Springville, UT 84663","precinct":"25SP03","hd":"62","v_score":"8.570402431","decile":"8","lat":40.177378399875295,"lng":-111.60894038755995},{"vid":"2178966","name":"Ivana Skiles","party":"Dem","address":"120 E 1250 N, Springville, UT 84663","precinct":"25SP03","hd":"62","v_score":"0","decile":"1","lat":40.18334573273195,"lng":-111.60886818481069},{"vid":"3d375ee826c88574f1c86e35171338a708726be38afb0ae5d0ba50645024b49e","name":"Mitzi Morar","party":"Rep","address":"769 N 150 E, Springville, UT 84663","precinct":"25SP03","hd":"62","v_score":"0","decile":"1","lat":40.17693379637199,"lng":-111.60868598215622},{"vid":"2193523","name":"Robbie Hermann","party":"","address":"799 N 400 E, Springville, UT 84663","precinct":"25SP03","hd":"62","v_score":"0","decile":"1","lat":40.17810890310226,"lng":-111.60340022585416},{"vid":"a15b49aff95069e416385daad486132f911129cb27e508eb353248a4ae32de0a","name":"Aloys Luettgen","party":"Rep","address":"1375 N 200 E, Springville, UT 84663","precinct":"25SP03","hd":"62","v_score":"18.8868124","decile":"10","lat":40.18514065583113,"lng":-111.60712462873008},{"vid":"2206661","name":"Doshie Wiegand","party":"Rep","address":"60 E 1150 N, Springville, UT 84663","precinct":"25SP03","hd":"62","v_score":"0","decile":"1","lat":40.18204670275996,"lng":-111.60950125971071},{"vid":"2211402","name":"Dr. Clearence Mayert","party":"","address":"1295 N 170 E, Springville, UT 84663","precinct":"25SP03","hd":"62","v_score":"0","decile":"1","lat":40.184467161136745,"lng":-111.6076204419846},{"vid":"2212682","name":"Marty West","party":"Rep","address":"1457 N 150 E, Springville, UT 84663","precinct":"25SP03","hd":"62","v_score":"4.152467179","decile":"7","lat":40.18642199440919,"lng":-111.60865368143354},{"vid":"1590698636a8a64e1f8a6c9b6eb477fbc03884b2ea6a18a6980247b993e66e40","name":"Ashby Herman","party":"Dem","address":"756 N 150 E, Springville, UT 84663","precinct":"25SP03","hd":"62","v_score":"1.121327652","decile":"3","lat":40.1767674537572,"lng":-111.6081556886777},{"vid":"66caa27159b57294181d425d6c36c9b6fc7861142a30e02ba1ac1092287be6f6","name":"Lalla Goyette-Skiles","party":"","address":"1652 N 100 E, Springville, UT 84663","precinct":"25SP03","hd":"62","v_score":"1.121327652","decile":"3","lat":40.18967373845553,"lng":-111.60858462272742},{"vid":"b9db7be1a60046a56d4b18bbd01a26bcc3f4b21f51dda037b71c46c1f987c5f0","name":"Nicolas Powlowski","party":"Rep","address":"792 N 200 E, Springville, UT 84663","precinct":"25SP03","hd":"62","v_score":"9.757278238","decile":"8","lat":40.17725720216777,"lng":-111.60677663080646},{"vid":"8c37f2258f020a1bc0d8150ef94b0a87bef3133fb0ea7388fa8cb41613f7ba85","name":"Vesta Morissette","party":"Rep","address":"1335 N 150 E, Springville, UT 84663","precinct":"25SP03","hd":"62","v_score":"1.623113131","decile":"5","lat":40.18494965797811,"lng":-111.60864407970078},{"vid":"2236119","name":"Dr. Marcell Leuschke PhD","party":"","address":"1478 N 150 E, Springville, UT 84663","precinct":"25SP03","hd":"62","v_score":"0","decile":"1","lat":40.1868016025258,"lng":-111.60811983155047},{"vid":"6338e95d2854f581ea6af627798f9b0d3c6c7e07819136c76306d654d3d6259c","name":"Caryl Lynch-Bergstrom","party":"Rep","address":"747 N 400 E, Springville, UT 84663","precinct":"25SP03","hd":"62","v_score":"0","decile":"1","lat":40.177367934417056,"lng":-111.60340640841927},{"vid":"9e6ab469d7ed51326fd5f163fc16f55e331e94dcdc92801171e14dc01fad0c48","name":"Artis Bernhard-Wehner","party":"","address":"1512 N 150 E, Springville, UT 84663","precinct":"25SP03","hd":"62","v_score":"0","decile":"1","lat":40.18753991845115,"lng":-111.60807667556026},{"vid":"57e116b7aae70098f6439035fe4052785454b714f59c393c592cf8dd05a84a90","name":"Mrs. Zenobia Blick MD","party":"Rep","address":"1149 N 400 E, Springville, UT 84663","precinct":"25SP03","hd":"62","v_score":"0","decile":"1","lat":40.18224167539664,"lng":-111.60465278248178},{"vid":"f4b3af8bb9dfb8253fbe6c94a16fcf52f4f5df007a470df89b6b0bad8c3c3e86","name":"Esco Prosacco MD","party":"Dem","address":"103 E 700 N, Unit 15, Springville, UT 84663","precinct":"25SP03","hd":"62","v_score":"3.93832808","decile":"6","lat":40.177378399875295,"lng":-111.60894038755995},{"vid":"f7069195aac93302db758c94062c00d986027ad0ce9856a0b2f582f428eed867","name":"Shaylee Crooks","party":"Dem","address":"164 E 750 N, Springville, UT 84663","precinct":"25SP03","hd":"62","v_score":"2.315214949","decile":"5","lat":40.17643952122669,"lng":-111.60794530539411},{"vid":"2254641","name":"Lavon Mante","party":"","address":"189 E 1400 N, Springville, UT 84663","precinct":"25SP03","hd":"62","v_score":"1.193887297","decile":"3","lat":40.18598591820852,"lng":-111.60768825660782},{"vid":"a16b2015511158d16abf52c9b51a5631729f92e8b872f80e056f309ce0ce487a","name":"Mr. Francis Raynor Jr.","party":"","address":"850 N Main St, Trlr 24, Springville, UT 84663","precinct":"25SP03","hd":"62","v_score":"1.121327652","decile":"3","lat":40.178017624105806,"lng":-111.60959702602891},{"vid":"6b2c4841e0e22363e9a4c637265033fc290a54a56d118f1125e917576978b535","name":"Myrtle Koss-Padberg","party":"Rep","address":"368 E 1075 N, Springville, UT 84663","precinct":"25SP03","hd":"62","v_score":"9.498154327","decile":"8","lat":40.181410593677015,"lng":-111.60537376596324},{"vid":"825ae02ea4f55c0e7d2a8ca9ae40371d90af2e46b279e4cd29e0c210f2c5a74f","name":"Dr. Leopoldo Sporer MD","party":"Rep","address":"110 E 1250 N, Springville, UT 84663","precinct":"25SP03","hd":"62","v_score":"14.13332036","decile":"9","lat":40.18354888416494,"lng":-111.60900842541254},{"vid":"a80184becb89725dfe4135d408468a01385651390bb6fdd4ee678cb886864206","name":"Daniela Treutel","party":"","address":"1422 N Spring Mountain Dr, Springville, UT 84663","precinct":"25SP03","hd":"62","v_score":"2.315214949","decile":"5","lat":40.186164268495595,"lng":-111.60650909987393},{"vid":"2274925","name":"Chandler Reichel","party":"Rep","address":"1569 N 150 E, Springville, UT 84663","precinct":"25SP03","hd":"62","v_score":"1.121327652","decile":"3","lat":40.18836432081524,"lng":-111.60894983100954},{"vid":"309153aa6d58812cbfab97c5bd612e6415363401ee59eba1009b1408df4c51f6","name":"Kiara Cruickshank","party":"","address":"1375 N 200 E, Springville, UT 84663","precinct":"25SP03","hd":"62","v_score":"6.814370645","decile":"8","lat":40.18514065583113,"lng":-111.60712462873008},{"vid":"e985bf605408289b1f012edf663d783a5d11ba26931282adf4cef764b1533192","name":"Erie Krajcik","party":"","address":"1569 N 150 E, Springville, UT 84663","precinct":"25SP03","hd":"62","v_score":"2.817000428","decile":"6","lat":40.18836432081524,"lng":-111.60894983100954},{"vid":"2294574","name":"Jamin Kshlerin","party":"Rep","address":"345 E 1230 N, Springville, UT 84663","precinct":"25SP03","hd":"62","v_score":"0","decile":"1","lat":40.18328326124966,"lng":-111.60511844464483},{"vid":"2297846","name":"Ms. Jettie Koelpin DVM","party":"Rep","address":"1515 N 150 E, Springville, UT 84663","precinct":"25SP03","hd":"62","v_score":"9.757278238","decile":"8","lat":40.187615822546604,"lng":-111.60866148779336},{"vid":"b61edd45a626b4aa895d162b4ba19c0f7655b2d4da4da5fe1cef9c0367a891fc","name":"Elyssa Baumbach","party":"","address":"240 E 1270 N, Springville, UT 84663","precinct":"25SP03","hd":"62","v_score":"1.121327652","decile":"3","lat":40.18361593829036,"lng":-111.60667879780416},{"vid":"2301869","name":"Mrs. Fleeta Mueller","party":"Rep","address":"1505 N 150 E, Springville, UT 84663","precinct":"25SP03","hd":"62","v_score":"2.315214949","decile":"5","lat":40.18731735135498,"lng":-111.60865953683222},{"vid":"2311088","name":"Haven Bartell","party":"Dem","address":"797 N 150 E, Springville, UT 84663","precinct":"25SP03","hd":"62","v_score":"29.11775183","decile":"10","lat":40.17733445369777,"lng":-111.60868615175812},{"vid":"2311096","name":"Charlton Jerde","party":"Rep","address":"797 N 150 E, Springville, UT 84663","precinct":"25SP03","hd":"62","v_score":"29.11775183","decile":"10","lat":40.17733445369777,"lng":-111.60868615175812},{"vid":"2314999","name":"Lera Fay","party":"Dem","address":"759 N 150 E, Springville, UT 84663","precinct":"25SP03","hd":"62","v_score":"1.121327652","decile":"3","lat":40.17678773555651,"lng":-111.60864695430969},{"vid":"2339829","name":"Davon Hansen","party":"Rep","address":"1149 N 400 E, Springville, UT 84663","precinct":"25SP03","hd":"62","v_score":"0","decile":"1","lat":40.18224167539664,"lng":-111.60465278248178},{"vid":"2343611","name":"Dr. Leonel Buckridge PhD","party":"","address":"708 N 200 E, Springville, UT 84663","precinct":"25SP03","hd":"62","v_score":"13.54291438","decile":"9","lat":40.17599680774432,"lng":-111.60677162719033},{"vid":"2344895","name":"Dr. London Lang Jr.","party":"Rep","address":"763 N 200 E, Springville, UT 84663","precinct":"25SP03","hd":"62","v_score":"1.121327652","decile":"3","lat":40.176852287282905,"lng":-111.60731950752614},{"vid":"2345434","name":"Dr. Mathews Kassulke MD","party":"Dem","address":"1512 N 150 E, Springville, UT 84663","precinct":"25SP03","hd":"62","v_score":"2.315214949","decile":"5","lat":40.18753991845115,"lng":-111.60807667556026},{"vid":"2366264","name":"Heather Schiller","party":"","address":"1149 N 400 E, Springville, UT 84663","precinct":"25SP03","hd":"62","v_score":"0","decile":"1","lat":40.18224167539664,"lng":-111.60465278248178},{"vid":"2367761","name":"Lavon Heller DVM","party":"Dem","address":"737 N 375 E, Springville, UT 84663","precinct":"25SP03","hd":"62","v_score":"23.14124903","decile":"10","lat":40.17705957104289,"lng":-111.60434113601514},{"vid":"2368705","name":"Jermain Greenholt","party":"","address":"103 E 700 N, Unit 16, Springville, UT 84663","precinct":"25SP03","hd":"62","v_score":"7.650280567","decile":"8","lat":40.177378399875295,"lng":-111.60894038755995},{"vid":"2374605","name":"Elzie Marquardt","party":"Dem","address":"1512 N 150 E, Springville, UT 84663","precinct":"25SP03","hd":"62","v_score":"2.315214949","decile":"5","lat":40.18753991845115,"lng":-111.60807667556026},{"vid":"2382401","name":"Kristin Hessel","party":"","address":"290 E 1230 N, Springville, UT 84663","precinct":"25SP03","hd":"62","v_score":"1.121327652","decile":"3","lat":40.18278743190675,"lng":-111.60591139355722},{"vid":"2391738","name":"Dafne Mraz","party":"Dem","address":"170 E 1270 N, Springville, UT 84663","precinct":"25SP03","hd":"62","v_score":"4.137918904","decile":"7","lat":40.18360864422785,"lng":-111.60763251398848},{"vid":"2393161","name":"Roselyn McClure MD","party":"","address":"1648 N 50 E, Springville, UT 84663","precinct":"25SP03","hd":"62","v_score":"5.191257514","decile":"7","lat":40.18951036954047,"lng":-111.60938922162885},{"vid":"2396057","name":"Phoenix Fadel","party":"Dem","address":"802 N 150 E, Springville, UT 84663","precinct":"25SP03","hd":"62","v_score":"1.121327652","decile":"3","lat":40.17730590651241,"lng":-111.6081565372263},{"vid":"2400303","name":"Roxanne Brakus-Brown","party":"","address":"1418 N 150 E, Springville, UT 84663","precinct":"25SP03","hd":"62","v_score":"1.193887297","decile":"3","lat":40.18603891989237,"lng":-111.60810730936906},{"vid":"2400582","name":"Ardith Jacobi MD","party":"","address":"1602 N 100 E, Springville, UT 84663","precinct":"25SP03","hd":"62","v_score":"2.817000428","decile":"6","lat":40.188722820167506,"lng":-111.60856391152954},{"vid":"2405933","name":"Odin Conroy","party":"Rep","address":"791 N 200 E, Springville, UT 84663","precinct":"25SP03","hd":"62","v_score":"2.315214949","decile":"5","lat":40.17729597654058,"lng":-111.60731952028223},{"vid":"2406282","name":"Mr. Erasmus Gulgowski","party":"","address":"791 N 200 E, Springville, UT 84663","precinct":"25SP03","hd":"62","v_score":"2.315214949","decile":"5","lat":40.17729597654058,"lng":-111.60731952028223},{"vid":"2408462","name":"Rosalie Hauck","party":"Rep","address":"103 E 700 N, Unit 7, Springville, UT 84663","precinct":"25SP03","hd":"62","v_score":"2.315214949","decile":"5","lat":40.177378399875295,"lng":-111.60894038755995},{"vid":"2415774","name":"Mr. Lucien Hoeger","party":"Dem","address":"1521 N 150 E, Springville, UT 84663","precinct":"25SP03","hd":"62","v_score":"1.121327652","decile":"3","lat":40.18791528817639,"lng":-111.60861844932845},{"vid":"2418638","name":"Miss Lala Bashirian","party":"Rep","address":"850 N Main St, Trlr 11, Springville, UT 84663","precinct":"25SP03","hd":"62","v_score":"2.315214949","decile":"5","lat":40.178017624105806,"lng":-111.60959702602891},{"vid":"2419998","name":"Kathy Weimann-Muller","party":"Rep","address":"1119 N 400 E, Springville, UT 84663","precinct":"25SP03","hd":"62","v_score":"1.121327652","decile":"3","lat":40.1817665344639,"lng":-111.60437483085548},{"vid":"2432358","name":"Breonna Moen MD","party":"Rep","address":"1614 N 50 E, Springville, UT 84663","precinct":"25SP03","hd":"62","v_score":"5.191257514","decile":"7","lat":40.18899955549546,"lng":-111.60963142791104},{"vid":"2433807","name":"Marty Stehr-Bednar","party":"","address":"375 E 1150 N, Springville, UT 84663","precinct":"25SP03","hd":"62","v_score":"2.315214949","decile":"5","lat":40.18266359239011,"lng":-111.60521877980692},{"vid":"2435732","name":"Janelle Fadel","party":"Dem","address":"1437 N 150 E, Springville, UT 84663","precinct":"25SP03","hd":"62","v_score":"1.121327652","decile":"3","lat":40.186223026088584,"lng":-111.60865240025628},{"vid":"2436784","name":"Bertina Hane","party":"Dem","address":"1368 N 200 E, Springville, UT 84663","precinct":"25SP03","hd":"62","v_score":"2.315214949","decile":"5","lat":40.18522483135599,"lng":-111.60665635627137},{"vid":"2444968","name":"Dr. Merrill Ritchie","party":"Dem","address":"722 N 150 E, Springville, UT 84663","precinct":"25SP03","hd":"62","v_score":"2.315214949","decile":"5","lat":40.176193457571955,"lng":-111.60812169624766},{"vid":"2445562","name":"Ms. Mimi Bechtelar","party":"","address":"210 E 1270 N, Springville, UT 84663","precinct":"25SP03","hd":"62","v_score":"1.121327652","decile":"3","lat":40.1836135077751,"lng":-111.60699669137111},{"vid":"2448756","name":"Robbin Langosh","party":"Dem","address":"852 N 375 E, Springville, UT 84663","precinct":"25SP03","hd":"62","v_score":"1.121327652","decile":"3","lat":40.178703326975274,"lng":-111.60372657014251},{"vid":"2452903","name":"Raegan Wyman","party":"Dem","address":"375 E 1150 N, Springville, UT 84663","precinct":"25SP03","hd":"62","v_score":"2.315214949","decile":"5","lat":40.18266359239011,"lng":-111.60521877980692},{"vid":"2457491","name":"Jaidyn Huel-Hyatt","party":"","address":"230 E 1230 N, Springville, UT 84663","precinct":"25SP03","hd":"62","v_score":"1.121327652","decile":"3","lat":40.182949234698654,"lng":-111.60680552080565},{"vid":"2470048","name":"Makaila Ullrich DVM","party":"Dem","address":"1368 N 200 E, Springville, UT 84663","precinct":"25SP03","hd":"62","v_score":"0","decile":"1","lat":40.18522483135599,"lng":-111.60665635627137},{"vid":"2472303","name":"Dr. Spencer Heathcote","party":"","address":"771 N 200 E, Springville, UT 84663","precinct":"25SP03","hd":"62","v_score":"1.193887297","decile":"3","lat":40.1769483417755,"lng":-111.6073196570058},{"vid":"2475003","name":"Freeman Stanton","party":"Dem","address":"850 N Main St, Trlr 17, Springville, UT 84663","precinct":"25SP03","hd":"62","v_score":"0","decile":"1","lat":40.178017624105806,"lng":-111.60959702602891},{"vid":"2476088","name":"Vita Prosacco","party":"Dem","address":"1368 N 200 E, Springville, UT 84663","precinct":"25SP03","hd":"62","v_score":"0","decile":"1","lat":40.18522483135599,"lng":-111.60665635627137},{"vid":"2482695","name":"Diamond Lindgren V","party":"Dem","address":"1292 N 150 E, Springville, UT 84663","precinct":"25SP03","hd":"62","v_score":"1.193887297","decile":"3","lat":40.1845105829863,"lng":-111.6080830226967},{"vid":"2483467","name":"Mr. Rubin Johnston PhD","party":"","address":"737 N 150 E, Springville, UT 84663","precinct":"25SP03","hd":"62","v_score":"5.83359168","decile":"7","lat":40.17640938884041,"lng":-111.60864887921969},{"vid":"2484155","name":"Marcia Hills-Schaden","party":"Dem","address":"1567 N 150 E, Springville, UT 84663","precinct":"25SP03","hd":"62","v_score":"2.817000428","decile":"6","lat":40.18826468338642,"lng":-111.60890920380251},{"vid":"2493988","name":"Bea Prosacco","party":"","address":"1538 N 50 E, Springville, UT 84663","precinct":"25SP03","hd":"62","v_score":"0","decile":"1","lat":40.18785483340363,"lng":-111.60944557100028},{"vid":"2503335","name":"Mira Bogisich","party":"Rep","address":"1499 N 150 E, Springville, UT 84663","precinct":"25SP03","hd":"62","v_score":"0","decile":"1","lat":40.18721786720827,"lng":-111.60865887854679},{"vid":"2508998","name":"Landyn Armstrong Jr.","party":"","address":"322 E 1150 N, Springville, UT 84663","precinct":"25SP03","hd":"62","v_score":"1.623113131","decile":"5","lat":40.182175233797885,"lng":-111.6059164022638},{"vid":"2522308","name":"Ms. Virginia Mitchell PhD","party":"Rep","address":"205 E 1300 N, Springville, UT 84663","precinct":"25SP03","hd":"62","v_score":"0","decile":"1","lat":40.18464715297781,"lng":-111.60722123601575},{"vid":"2525822","name":"Ivan Streich","party":"Rep","address":"252 E 1075 N, Springville, UT 84663","precinct":"25SP03","hd":"62","v_score":"21.94954204","decile":"10","lat":40.18140122338037,"lng":-111.60680493869734},{"vid":"2527979","name":"Meryl Dibbert-Murray","party":"","address":"1612 N 100 E, Springville, UT 84663","precinct":"25SP03","hd":"62","v_score":"0","decile":"1","lat":40.18894654336082,"lng":-111.60844696363566},{"vid":"2535388","name":"Brenton Steuber","party":"Rep","address":"1618 N 50 E, Springville, UT 84663","precinct":"25SP03","hd":"62","v_score":"0","decile":"1","lat":40.18911529734543,"lng":-111.60960303216493},{"vid":"2539283","name":"Dariana Howell-Bogisich","party":"Rep","address":"1437 N 150 E, Springville, UT 84663","precinct":"25SP03","hd":"62","v_score":"1.193887297","decile":"4","lat":40.186223026088584,"lng":-111.60865240025628},{"vid":"2541583","name":"Arbie Keeling","party":"","address":"1336 N 150 E, Springville, UT 84663","precinct":"25SP03","hd":"62","v_score":"1.193887297","decile":"4","lat":40.18494946156423,"lng":-111.60808585598313},{"vid":"2559481","name":"Cassidy Reinger","party":"","address":"197 E 1400 N, Springville, UT 84663","precinct":"25SP03","hd":"62","v_score":"0","decile":"1","lat":40.18593871959886,"lng":-111.60716397663145},{"vid":"2560175","name":"Kiyoshi Mueller","party":"Rep","address":"736 N 200 E, Springville, UT 84663","precinct":"25SP03","hd":"62","v_score":"0","decile":"1","lat":40.17641110242755,"lng":-111.6067737394889},{"vid":"2570120","name":"Tiarra Kerluke DDS","party":"Rep","address":"1335 N 150 E, Springville, UT 84663","precinct":"25SP03","hd":"62","v_score":"1.623113131","decile":"5","lat":40.18494965797811,"lng":-111.60864407970078},{"vid":"2598037","name":"Delwin Kirlin","party":"","address":"1305 N 150 E, Springville, UT 84663","precinct":"25SP03","hd":"62","v_score":"2.817000428","decile":"6","lat":40.184713631074366,"lng":-111.60864254573761},{"vid":"2611247","name":"Emilia Ritchie","party":"Rep","address":"1502 N 150 E, Springville, UT 84663","precinct":"25SP03","hd":"62","v_score":"1.193887297","decile":"4","lat":40.18744423045398,"lng":-111.60797801251462},{"vid":"2614088","name":"Dr. Marlon Crist I","party":"Rep","address":"103 E 700 N, Unit 2, Springville, UT 84663","precinct":"25SP03","hd":"62","v_score":"1.193887297","decile":"4","lat":40.177378399875295,"lng":-111.60894038755995},{"vid":"2621779","name":"Kayden Casper PhD","party":"","address":"709 N 375 E, Springville, UT 84663","precinct":"25SP03","hd":"62","v_score":"2.817000428","decile":"6","lat":40.17639090510469,"lng":-111.60423590813313},{"vid":"2622416","name":"Phebe Heller","party":"Dem","address":"375 E 1150 N, Springville, UT 84663","precinct":"25SP03","hd":"62","v_score":"1.193887297","decile":"4","lat":40.18266359239011,"lng":-111.60521877980692},{"vid":"2630216","name":"Rayford Nitzsche","party":"","address":"330 E 1270 N, Springville, UT 84663","precinct":"25SP03","hd":"62","v_score":"0","decile":"1","lat":40.18367182020664,"lng":-111.60536287943437},{"vid":"2634695","name":"Alan Stanton V","party":"Dem","address":"200 E 1230 N, Springville, UT 84663","precinct":"25SP03","hd":"62","v_score":"10.06767328","decile":"9","lat":40.18294371449558,"lng":-111.60737797850865},{"vid":"2647932","name":"Erie Fritsch","party":"Dem","address":"732 N 200 E, Springville, UT 84663","precinct":"25SP03","hd":"62","v_score":"13.99215518","decile":"9","lat":40.176326738101345,"lng":-111.60677514678959},{"vid":"2648063","name":"Mr. Lionel Gusikowski","party":"Dem","address":"103 E 700 N, Unit 13, Springville, UT 84663","precinct":"25SP03","hd":"62","v_score":"0","decile":"1","lat":40.177378399875295,"lng":-111.60894038755995},{"vid":"2655406","name":"Renea Gorczany","party":"","address":"166 E 750 N, Springville, UT 84663","precinct":"25SP03","hd":"62","v_score":"1.193887297","decile":"4","lat":40.17643957846978,"lng":-111.60788376720389},{"vid":"2657289","name":"Oral Hauck-Leuschke","party":"","address":"230 E 1230 N, Springville, UT 84663","precinct":"25SP03","hd":"62","v_score":"0","decile":"1","lat":40.182949234698654,"lng":-111.60680552080565},{"vid":"2658741","name":"Mrs. Minerva VonRueden","party":"Dem","address":"1659 N 100 E, Springville, UT 84663","precinct":"25SP03","hd":"62","v_score":"0","decile":"1","lat":40.18969099943782,"lng":-111.60925569460771},{"vid":"2658822","name":"Ms. Chanelle Reynolds","party":"Dem","address":"837 N 375 E, Springville, UT 84663","precinct":"25SP03","hd":"62","v_score":"0","decile":"1","lat":40.17851975356716,"lng":-111.60426285197038},{"vid":"2659685","name":"Marland Schumm","party":"","address":"346 E 1075 N, Springville, UT 84663","precinct":"25SP03","hd":"62","v_score":"1.193887297","decile":"4","lat":40.181408715362636,"lng":-111.60566000766063},{"vid":"2661084","name":"Mr. Lane Beatty","party":"","address":"255 E 1230 N, Springville, UT 84663","precinct":"25SP03","hd":"62","v_score":"1.193887297","decile":"4","lat":40.18339701564524,"lng":-111.6064738947828},{"vid":"2664533","name":"Aili Kris","party":"Dem","address":"850 N Main St, Trlr 48, Springville, UT 84663","precinct":"25SP03","hd":"62","v_score":"0","decile":"1","lat":40.178017624105806,"lng":-111.60959702602891},{"vid":"2668475","name":"Monserrat Stoltenberg DVM","party":"","address":"375 E 1150 N, Springville, UT 84663","precinct":"25SP03","hd":"62","v_score":"1.193887297","decile":"4","lat":40.18266359239011,"lng":-111.60521877980692},{"vid":"2668949","name":"Peyton Walsh","party":"Rep","address":"1646 N 100 E, Springville, UT 84663","precinct":"25SP03","hd":"62","v_score":"1.193887297","decile":"4","lat":40.18959881990042,"lng":-111.60869883543096},{"vid":"2671418","name":"Dr. Arietta Feest DDS","party":"","address":"850 N Main St, Trlr 19, Springville, UT 84663","precinct":"25SP03","hd":"62","v_score":"0","decile":"2","lat":40.178017624105806,"lng":-111.60959702602891},{"vid":"2675213","name":"Althea Parker","party":"Rep","address":"1285 N 170 E, Springville, UT 84663","precinct":"25SP03","hd":"62","v_score":"1.193887297","decile":"4","lat":40.1842388997856,"lng":-111.6077234376886},{"vid":"2686755","name":"Ms. Kamari Raynor","party":"Dem","address":"198 E 1075 N, Springville, UT 84663","precinct":"25SP03","hd":"62","v_score":"0","decile":"2","lat":40.181443673554185,"lng":-111.60739697792226},{"vid":"2692391","name":"Elliot Borer","party":"","address":"200 E 1300 N, Springville, UT 84663","precinct":"25SP03","hd":"62","v_score":"3.711952487","decile":"6","lat":40.1843509870629,"lng":-111.60722339102628},{"vid":"2694078","name":"Carie Gorczany","party":"Dem","address":"375 E 1150 N, Springville, UT 84663","precinct":"25SP03","hd":"62","v_score":"0","decile":"2","lat":40.18266359239011,"lng":-111.60521877980692},{"vid":"2706874","name":"Lala Thiel","party":"Dem","address":"295 E 1300 N, Springville, UT 84663","precinct":"25SP03","hd":"62","v_score":"0","decile":"2","lat":40.18465776599167,"lng":-111.60587159820611},{"vid":"2717080","name":"Lowell Walter IV","party":"Rep","address":"1437 N 150 E, Springville, UT 84663","precinct":"25SP03","hd":"62","v_score":"0","decile":"2","lat":40.186223026088584,"lng":-111.60865240025628},{"vid":"2743190","name":"Bobbie D'Amore","party":"Dem","address":"103 E 700 N, Unit 1, Springville, UT 84663","precinct":"25SP03","hd":"62","v_score":"0","decile":"2","lat":40.177378399875295,"lng":-111.60894038755995},{"vid":"2746507","name":"Billy Reynolds","party":"Dem","address":"718 N 375 E, Springville, UT 84663","precinct":"25SP03","hd":"62","v_score":"1.193887297","decile":"4","lat":40.17677499059028,"lng":-111.60380906153672},{"vid":"2748930","name":"Kelsea Kuhlman","party":"Rep","address":"103 E 700 N, Unit 15, Springville, UT 84663","precinct":"25SP03","hd":"62","v_score":"1.193887297","decile":"4","lat":40.177378399875295,"lng":-111.60894038755995},{"vid":"2761096","name":"Miss Geri Larkin","party":"Dem","address":"1614 N 50 E, Springville, UT 84663","precinct":"25SP03","hd":"62","v_score":"4.069929862","decile":"7","lat":40.18899955549546,"lng":-111.60963142791104},{"vid":"2765193","name":"Sherrie Kirlin MD","party":"","address":"802 N 150 E, Springville, UT 84663","precinct":"25SP03","hd":"62","v_score":"4.069929862","decile":"7","lat":40.17730590651241,"lng":-111.6081565372263},{"vid":"2766082","name":"Kristoffer Connelly","party":"Rep","address":"215 E 1300 N, Springville, UT 84663","precinct":"25SP03","hd":"62","v_score":"1.193887297","decile":"4","lat":40.18473749578379,"lng":-111.60690333512302},{"vid":"2776914","name":"Dr. Braydon Gerhold DVM","party":"Rep","address":"200 E 1300 N, Springville, UT 84663","precinct":"25SP03","hd":"62","v_score":"0","decile":"2","lat":40.1843509870629,"lng":-111.60722339102628},{"vid":"2779051","name":"Dr. Letha Stark","party":"","address":"1618 N 50 E, Springville, UT 84663","precinct":"25SP03","hd":"62","v_score":"0","decile":"2","lat":40.18911529734543,"lng":-111.60960303216493},{"vid":"2780147","name":"Jonna Considine","party":"","address":"1637 N 100 E, Springville, UT 84663","precinct":"25SP03","hd":"62","v_score":"1.193887297","decile":"4","lat":40.18933267086061,"lng":-111.60929989585195},{"vid":"2787730","name":"Olevia Kunze DVM","party":"Rep","address":"850 N Main St, Trlr 35, Springville, UT 84663","precinct":"25SP03","hd":"62","v_score":"1.193887297","decile":"4","lat":40.178017624105806,"lng":-111.60959702602891},{"vid":"2795762","name":"Ms. Rosanne Hegmann","party":"Dem","address":"850 N Main St, Trlr 36, Springville, UT 84663","precinct":"25SP03","hd":"62","v_score":"0","decile":"2","lat":40.178017624105806,"lng":-111.60959702602891},{"vid":"2800978","name":"Loreen Huel DVM","party":"Dem","address":"1335 N 150 E, Springville, UT 84663","precinct":"25SP03","hd":"62","v_score":"1.193887297","decile":"4","lat":40.18494965797811,"lng":-111.60864407970078},{"vid":"2807858","name":"Ms. Ellamae Denesik","party":"Rep","address":"1414 N 150 E, Springville, UT 84663","precinct":"25SP03","hd":"62","v_score":"1.193887297","decile":"4","lat":40.1858683791371,"lng":-111.608175915373},{"vid":"2808323","name":"Keyon Beer-Schowalter","party":"","address":"1622 N 100 E, Springville, UT 84663","precinct":"25SP03","hd":"62","v_score":"1.193887297","decile":"4","lat":40.189130108457135,"lng":-111.60848489913076},{"vid":"2809291","name":"Ross Muller","party":"Rep","address":"985 N 400 E, Springville, UT 84663","precinct":"25SP03","hd":"62","v_score":"1.193887297","decile":"4","lat":40.18029255158488,"lng":-111.6037053053749},{"vid":"2817547","name":"Marylyn Schuster","party":"Dem","address":"40 E 1150 N, Springville, UT 84663","precinct":"25SP03","hd":"62","v_score":"0","decile":"2","lat":40.182327557499896,"lng":-111.60958866468991},{"vid":"2821012","name":"Mrs. Brynlee Erdman","party":"Dem","address":"850 N Main St, Trlr 24, Springville, UT 84663","precinct":"25SP03","hd":"62","v_score":"0","decile":"2","lat":40.178017624105806,"lng":-111.60959702602891},{"vid":"2824876","name":"Dr. West Jast","party":"","address":"850 N Main St, Trlr 17, Springville, UT 84663","precinct":"25SP03","hd":"62","v_score":"0","decile":"2","lat":40.178017624105806,"lng":-111.60959702602891},{"vid":"2828964","name":"Deane Rosenbaum","party":"","address":"1517 N 150 E, Springville, UT 84663","precinct":"25SP03","hd":"62","v_score":"0","decile":"2","lat":40.1877916485246,"lng":-111.60862147090174},{"vid":"2830137","name":"Mrs. Elsa Wiza","party":"Rep","address":"1504 N 150 E, Springville, UT 84663","precinct":"25SP03","hd":"62","v_score":"0","decile":"2","lat":40.18750736604033,"lng":-111.60787394574322},{"vid":"2836492","name":"Oral Aufderhar","party":"Dem","address":"741 N 150 E, Springville, UT 84663","precinct":"25SP03","hd":"62","v_score":"1.193887297","decile":"4","lat":40.17645823944084,"lng":-111.60864872219419},{"vid":"2836903","name":"Rheta Schoen","party":"Dem","address":"273 E 1150 N, Springville, UT 84663","precinct":"25SP03","hd":"62","v_score":"0","decile":"2","lat":40.18266041342501,"lng":-111.60636373743375},{"vid":"2839761","name":"Marianita Emmerich-Quigley","party":"Rep","address":"799 N 400 E, Springville, UT 84663","precinct":"25SP03","hd":"62","v_score":"1.193887297","decile":"4","lat":40.17810890310226,"lng":-111.60340022585416},{"vid":"2839909","name":"Ken Murphy","party":"Rep","address":"160 E 750 N, Springville, UT 84663","precinct":"25SP03","hd":"62","v_score":"1.193887297","decile":"4","lat":40.17643940523049,"lng":-111.60807052856842},{"vid":"2844592","name":"Danika Gusikowski","party":"","address":"1652 N 100 E, Springville, UT 84663","precinct":"25SP03","hd":"62","v_score":"1.193887297","decile":"4","lat":40.18967373845553,"lng":-111.60858462272742},{"vid":"2848453","name":"Dr. Cyrus Dach PhD","party":"","address":"1659 N 100 E, Springville, UT 84663","precinct":"25SP03","hd":"62","v_score":"0","decile":"2","lat":40.18969099943782,"lng":-111.60925569460771},{"vid":"2858141","name":"Nylah Dare","party":"","address":"189 E 1400 N, Springville, UT 84663","precinct":"25SP03","hd":"62","v_score":"1.193887297","decile":"4","lat":40.18598591820852,"lng":-111.60768825660782},{"vid":"2860924","name":"Sigurd Sipes-Moore","party":"Dem","address":"310 E 1270 N, Springville, UT 84663","precinct":"25SP03","hd":"62","v_score":"1.193887297","decile":"4","lat":40.183623196550386,"lng":-111.60572504703467},{"vid":"2878566","name":"Ms. Judi Gutmann DDS","party":"Dem","address":"103 E 700 N, Unit 15, Springville, UT 84663","precinct":"25SP03","hd":"62","v_score":"1.193887297","decile":"4","lat":40.177378399875295,"lng":-111.60894038755995},{"vid":"697fac1659a2aaad5effb6f2369d8f322b3d701cda49d7dd6332fcedd84b11a2","name":"Miss Leila Cole DDS","party":"","address":"1277 N 150 E, Springville, UT 84663","precinct":"25SP03","hd":"62","v_score":"1.193887297","decile":"4","lat":40.18405500342525,"lng":-111.60863824604135},{"vid":"2885046","name":"Jaheim Hegmann DDS","party":"Dem","address":"1418 N 150 E, Springville, UT 84663","precinct":"25SP03","hd":"62","v_score":"1.193887297","decile":"4","lat":40.18603891989237,"lng":-111.60810730936906},{"vid":"2885431","name":"Dr. Vic Bartell III","party":"Dem","address":"1660 N 50 E, Springville, UT 84663","precinct":"25SP03","hd":"62","v_score":"1.193887297","decile":"4","lat":40.18966378188376,"lng":-111.60969797977853},{"vid":"2885515","name":"Dr. Jorge Emmerich Jr.","party":"","address":"103 E 700 N, Unit 2, Springville, UT 84663","precinct":"25SP03","hd":"62","v_score":"1.193887297","decile":"4","lat":40.177378399875295,"lng":-111.60894038755995},{"vid":"2890973","name":"Adalynn Stamm-Orn","party":"Rep","address":"290 E 1270 N, Springville, UT 84663","precinct":"25SP03","hd":"62","v_score":"2.876042565","decile":"6","lat":40.1836207691237,"lng":-111.6060429754862},{"vid":"2894923","name":"Mr. Durward Zboncak","party":"Rep","address":"1542 N 50 E, Springville, UT 84663","precinct":"25SP03","hd":"62","v_score":"0","decile":"2","lat":40.187951392566916,"lng":-111.60913956238409},{"vid":"2914566","name":"Christy Shanahan-Davis","party":"Rep","address":"1280 N 170 E, Springville, UT 84663","precinct":"25SP03","hd":"62","v_score":"0","decile":"2","lat":40.183964166975606,"lng":-111.60724460087876},{"vid":"2915528","name":"Ailene Blick MD","party":"Rep","address":"211 E 1400 N, Springville, UT 84663","precinct":"25SP03","hd":"62","v_score":"0","decile":"2","lat":40.18589225248007,"lng":-111.60679873117577},{"vid":"2915529","name":"Cale Lindgren MD","party":"Dem","address":"211 E 1400 N, Springville, UT 84663","precinct":"25SP03","hd":"62","v_score":"0","decile":"2","lat":40.18589225248007,"lng":-111.60679873117577},{"vid":"2926872","name":"Winford Gusikowski","party":"","address":"200 E 1230 N, Springville, UT 84663","precinct":"25SP03","hd":"62","v_score":"0","decile":"2","lat":40.18294371449558,"lng":-111.60737797850865},{"vid":"2932615","name":"Roma Schoen","party":"","address":"796 N 200 E, Springville, UT 84663","precinct":"25SP03","hd":"62","v_score":"0","decile":"2","lat":40.17735325622445,"lng":-111.60677677992678},{"vid":"2933229","name":"Kadyn Schoen V","party":"Dem","address":"850 N Main St, Trlr 8, Springville, UT 84663","precinct":"25SP03","hd":"62","v_score":"2.876042565","decile":"6","lat":40.178017624105806,"lng":-111.60959702602891},{"vid":"2937514","name":"Lessie Ward","party":"","address":"794 N 150 E, Springville, UT 84663","precinct":"25SP03","hd":"62","v_score":"0","decile":"2","lat":40.17725870268742,"lng":-111.60815646302547},{"vid":"2937528","name":"Tad Flatley","party":"","address":"1481 N 150 E, Springville, UT 84663","precinct":"25SP03","hd":"62","v_score":"0","decile":"2","lat":40.18672044689384,"lng":-111.60865562089624},{"vid":"2941713","name":"Elfreda Wilderman","party":"","address":"799 N 400 E, Springville, UT 84663","precinct":"25SP03","hd":"62","v_score":"0","decile":"2","lat":40.17810890310226,"lng":-111.60340022585416},{"vid":"2945786","name":"Shoji Wisoky","party":"Dem","address":"1522 N 50 E, Springville, UT 84663","precinct":"25SP03","hd":"62","v_score":"0","decile":"2","lat":40.18777413017145,"lng":-111.60907475603302},{"vid":"2965482","name":"Robert Leffler","party":"Dem","address":"1520 N 50 E, Springville, UT 84663","precinct":"25SP03","hd":"62","v_score":"0","decile":"2","lat":40.187762811748186,"lng":-111.60924192505136},{"vid":"2970800","name":"Marla Wunsch-Kutch","party":"Dem","address":"1612 N 100 E, Springville, UT 84663","precinct":"25SP03","hd":"62","v_score":"0","decile":"2","lat":40.18894654336082,"lng":-111.60844696363566},{"vid":"2973328","name":"Baxter Watsica","party":"Dem","address":"739 N 400 E, Springville, UT 84663","precinct":"25SP03","hd":"62","v_score":"0","decile":"2","lat":40.17706974196227,"lng":-111.60347529141494},{"vid":"152a5d0341622f2d24090dde1f1414ae3a0f1f48c4ec41c1753f967ed28a19b0","name":"Miss Nola Wintheiser","party":"","address":"1654 N 50 E, Springville, UT 84663","precinct":"25SP03","hd":"62","v_score":"3.089388791","decile":"6","lat":40.18959825046268,"lng":-111.60947106012752},{"vid":"3271756","name":"Gisselle Wiegand","party":"Dem","address":"727 N 200 E, Springville, UT 84663","precinct":"25SP03","hd":"62","v_score":"2.315214949","decile":"5","lat":40.17624137733555,"lng":-111.60732341753327},{"vid":"3503501","name":"Con Hettinger-Hoeger","party":"Rep","address":"850 N Main St, Springville, UT 84663","precinct":"25SP03","hd":"62","v_score":"0","decile":"2","lat":40.178017624105806,"lng":-111.60959702602891},{"vid":"3556990","name":"Allyn Block","party":"Dem","address":"1567 N 150 E, Springville, UT 84663","precinct":"25SP03","hd":"62","v_score":"2.817000428","decile":"6","lat":40.18826468338642,"lng":-111.60890920380251},{"vid":"3583356","name":"Jacquelin Thiel","party":"Rep","address":"160 E 750 N, Springville, UT 84663","precinct":"25SP03","hd":"62","v_score":"1.193887297","decile":"4","lat":40.17643940523049,"lng":-111.60807052856842},{"vid":"4444713","name":"Shirleen Schimmel","party":"Rep","address":"164 E 750 N, Springville, UT 84663","precinct":"25SP03","hd":"62","v_score":"3.93832808","decile":"6","lat":40.17643952122669,"lng":-111.60794530539411},{"vid":"4446299","name":"Ms. Elfie Stamm MD","party":"Rep","address":"187 E 1400 N, Springville, UT 84663","precinct":"25SP03","hd":"62","v_score":"10.22509301","decile":"9","lat":40.18600350375191,"lng":-111.60784820547696},{"vid":"4455361","name":"Hayley Leuschke PhD","party":"Dem","address":"187 E 1400 N, Springville, UT 84663","precinct":"25SP03","hd":"62","v_score":"5.815909755","decile":"7","lat":40.18600350375191,"lng":-111.60784820547696},{"vid":"5217140","name":"Evertt Batz","party":"Dem","address":"1548 N 50 E, Springville, UT 84663","precinct":"25SP03","hd":"62","v_score":"3.781490609","decile":"6","lat":40.188074072892704,"lng":-111.6091539034486},{"vid":"6f03814024dd6a6e5bb8fae29889d3ecfccb6284c8430ced6c3c0472d1d5ff8a","name":"Mrs. Lainey Glover DDS","party":"","address":"1612 N 100 E, Springville, UT 84663","precinct":"25SP03","hd":"62","v_score":"8.347511332","decile":"8","lat":40.18894654336082,"lng":-111.60844696363566},{"vid":"5562865","name":"Kavon Howe","party":"Dem","address":"1612 N 100 E, Springville, UT 84663","precinct":"25SP03","hd":"62","v_score":"5.40460374","decile":"7","lat":40.18894654336082,"lng":-111.60844696363566},{"vid":"6156405","name":"Ramiro Gottlieb","party":"Rep","address":"1652 N 100 E, Springville, UT 84663","precinct":"25SP03","hd":"62","v_score":"3.781490609","decile":"6","lat":40.18967373845553,"lng":-111.60858462272742},{"vid":"b03988f697008015ff234d6594754ec6e7cb80f87c0eed050fce022597c1cb2f","name":"Forest Bailey","party":"","address":"170 E 800 N, Springville, UT 84663","precinct":"25SP03","hd":"62","v_score":"17.70459196","decile":"10","lat":40.177299655289325,"lng":-111.60776281695604},{"vid":"6183644","name":"Eloy Larkin","party":"","address":"156 E 750 N, Springville, UT 84663","precinct":"25SP03","hd":"62","v_score":"32.3393441","decile":"10","lat":40.17643928909701,"lng":-111.60819578677702},{"vid":"06fded423cfb930f1c41ec318678fc3b434bc1fa12789c6e3693014aa46ec25d","name":"Gustie Hackett DDS","party":"Dem","address":"767 N 200 E, Springville, UT 84663","precinct":"25SP03","hd":"62","v_score":"12.6804464","decile":"9","lat":40.176899490841514,"lng":-111.60731958100837},{"vid":"6202093","name":"Almeda Greenfelder","party":"Dem","address":"1295 N 170 E, Springville, UT 84663","precinct":"25SP03","hd":"62","v_score":"8.280646305","decile":"8","lat":40.184467161136745,"lng":-111.6076204419846},{"vid":"6203609","name":"Alwina Trantow","party":"Dem","address":"270 E 1230 N, Springville, UT 84663","precinct":"25SP03","hd":"62","v_score":"20.24953417","decile":"10","lat":40.18295583692518,"lng":-111.60622114587244},{"vid":"6203705","name":"Danita Sawayn","party":"","address":"1295 N 170 E, Springville, UT 84663","precinct":"25SP03","hd":"62","v_score":"8.280646305","decile":"8","lat":40.184467161136745,"lng":-111.6076204419846},{"vid":"6c7fc7fcb331fa241be329354a28247a3881c3e1c3cf8e8fef5ff1a3921811b8","name":"Mr. Shanon Stark","party":"","address":"881 N 400 E, Springville, UT 84663","precinct":"25SP03","hd":"62","v_score":"30.91198908","decile":"10","lat":40.17900836256261,"lng":-111.60347388345545},{"vid":"6204652","name":"Kody Schinner","party":"","address":"881 N 400 E, Springville, UT 84663","precinct":"25SP03","hd":"62","v_score":"22.70037759","decile":"10","lat":40.17900836256261,"lng":-111.60347388345545},{"vid":"3024f17e5c9d3ea0781f31e72a4d96bef34c8a0f38bab0adf7a561dfe1c80cd1","name":"Lavern Hilpert","party":"","address":"864 N 375 E, Springville, UT 84663","precinct":"25SP03","hd":"62","v_score":"5.40460374","decile":"7","lat":40.178851526294864,"lng":-111.60372532669449},{"vid":"6208635","name":"Nelda Kling","party":"Rep","address":"270 E 1230 N, Springville, UT 84663","precinct":"25SP03","hd":"62","v_score":"8.421194992","decile":"8","lat":40.18295583692518,"lng":-111.60622114587244},{"vid":"445d6febeb5dc5709c51e5ebdf8735c0f25c9e3e606e018dc237c80269a8d2d2","name":"Eden Erdman","party":"Dem","address":"904 N 375 E, Springville, UT 84663","precinct":"25SP03","hd":"62","v_score":"5.40460374","decile":"7","lat":40.17936660726275,"lng":-111.60375474410405},{"vid":"6215414","name":"Mrs. Mareli Ward","party":"","address":"1458 N 150 E, Springville, UT 84663","precinct":"25SP03","hd":"62","v_score":"16.86575515","decile":"9","lat":40.186513763896535,"lng":-111.60809607539747},{"vid":"6215508","name":"Lott Pouros","party":"Dem","address":"135 E 1250 N, Springville, UT 84663","precinct":"25SP03","hd":"62","v_score":"14.12536527","decile":"9","lat":40.18372102197524,"lng":-111.60854484506304},{"vid":"6216834","name":"Mr. Milford Osinski III","party":"Dem","address":"226 E 1075 N, Springville, UT 84663","precinct":"25SP03","hd":"62","v_score":"37.31962512","decile":"10","lat":40.18144866032289,"lng":-111.60713766863118},{"vid":"399dd2ff7deade5598357f29079f33949a04726b7262686da11054e0150e23a1","name":"Joann Schmeler","party":"Dem","address":"225 E 1230 N, Springville, UT 84663","precinct":"25SP03","hd":"62","v_score":"25.84727217","decile":"10","lat":40.18339432776047,"lng":-111.60677912000817},{"vid":"48d5f89a015c4c5e1e1426733bbc18c4de5f479c5a45c45610fcb11a057c13f4","name":"Manuelita Abshire","party":"","address":"729 N 375 E, Springville, UT 84663","precinct":"25SP03","hd":"62","v_score":"11.36410258","decile":"9","lat":40.17691136959396,"lng":-111.60434190641033},{"vid":"6236293","name":"Wyatt Renner","party":"Rep","address":"788 N 200 E, Springville, UT 84663","precinct":"25SP03","hd":"62","v_score":"5.40460374","decile":"7","lat":40.17720835255433,"lng":-111.60677655480897},{"vid":"6244114","name":"Mr. Rube Boehm III","party":"","address":"170 E 1270 N, Springville, UT 84663","precinct":"25SP03","hd":"62","v_score":"8.421194992","decile":"8","lat":40.18360864422785,"lng":-111.60763251398848},{"vid":"6245603","name":"Pascal Koelpin DDS","party":"Dem","address":"1155 N 150 E, Springville, UT 84663","precinct":"25SP03","hd":"62","v_score":"29.79610911","decile":"10","lat":40.182906907685584,"lng":-111.60846592240003},{"vid":"462659f98c006b5d113d82cdf1e39e8b60122b6aa57e0188f61a4d1194e6da29","name":"Alijah Lockman","party":"","address":"765 N 150 E, Springville, UT 84663","precinct":"25SP03","hd":"62","v_score":"3.781490609","decile":"6","lat":40.17688659269995,"lng":-111.60868610181181},{"vid":"6250065","name":"Joselin Robel-O'Hara","party":"","address":"850 N Main St, Trlr 22, Springville, UT 84663","precinct":"25SP03","hd":"62","v_score":"0","decile":"3","lat":40.178017624105806,"lng":-111.60959702602891},{"vid":"6257146","name":"Glendon Kunde","party":"Dem","address":"290 E 1075 N, Springville, UT 84663","precinct":"25SP03","hd":"62","v_score":"9.116556227","decile":"8","lat":40.1814049842647,"lng":-111.60623245512286},{"vid":"6258442","name":"Mammie Nitzsche","party":"","address":"103 E 700 N, Unit 1, Springville, UT 84663","precinct":"25SP03","hd":"62","v_score":"11.29723756","decile":"9","lat":40.177378399875295,"lng":-111.60894038755995},{"vid":"6259298","name":"Colette Stiedemann","party":"Dem","address":"744 N 200 E, Springville, UT 84663","precinct":"25SP03","hd":"62","v_score":"1.193887297","decile":"4","lat":40.176507156721016,"lng":-111.6067738891482},{"vid":"6261147","name":"Hardy Renner","party":"","address":"1458 N 150 E, Springville, UT 84663","precinct":"25SP03","hd":"62","v_score":"8.421194992","decile":"8","lat":40.186513763896535,"lng":-111.60809607539747},{"vid":"6261700","name":"Carlos Hudson","party":"Dem","address":"1662 N 50 E, Springville, UT 84663","precinct":"25SP03","hd":"62","v_score":"3.781490609","decile":"6","lat":40.189657575443775,"lng":-111.60984805071291},{"vid":"6263106","name":"Zenobia Larkin","party":"Rep","address":"744 N 200 E, Springville, UT 84663","precinct":"25SP03","hd":"62","v_score":"2.660162957","decile":"5","lat":40.176507156721016,"lng":-111.6067738891482},{"vid":"6265969","name":"Lexis Kuvalis-Grimes","party":"","address":"120 E 1250 N, Springville, UT 84663","precinct":"25SP03","hd":"62","v_score":"14.46680193","decile":"9","lat":40.18334573273195,"lng":-111.60886818481069},{"vid":"6271899","name":"Boone Bergnaum","party":"Dem","address":"170 E 1270 N, Springville, UT 84663","precinct":"25SP03","hd":"62","v_score":"8.421194992","decile":"8","lat":40.18360864422785,"lng":-111.60763251398848},{"vid":"18af5ae83ad45af6a7959111f7e60704b13943b7efa48d925d59ff0b44934cd5","name":"Ms. Tennille Botsford","party":"","address":"325 E 1150 N, Springville, UT 84663","precinct":"25SP03","hd":"62","v_score":"6.884189957","decile":"8","lat":40.182662004280175,"lng":-111.60579127649683},{"vid":"6279622","name":"Rishi Price","party":"Rep","address":"770 N 200 E, Springville, UT 84663","precinct":"25SP03","hd":"62","v_score":"16.63280648","decile":"9","lat":40.176935835556456,"lng":-111.60677276715242},{"vid":"6287513","name":"Coolidge Connelly","party":"","address":"766 N 375 E, Springville, UT 84663","precinct":"25SP03","hd":"62","v_score":"16.72520646","decile":"9","lat":40.17766595918883,"lng":-111.60373523457308},{"vid":"6291588","name":"Ivette Wisoky","party":"Dem","address":"290 E 1230 N, Springville, UT 84663","precinct":"25SP03","hd":"62","v_score":"1.121327652","decile":"3","lat":40.18278743190675,"lng":-111.60591139355722},{"vid":"6307635","name":"Arnold Hickle","party":"","address":"801 N 150 E, Springville, UT 84663","precinct":"25SP03","hd":"62","v_score":"16.86575515","decile":"9","lat":40.17738330390676,"lng":-111.60868599473262},{"vid":"6307708","name":"Mr. Dion Kerluke","party":"","address":"379 E 925 N, Springville, UT 84663","precinct":"25SP03","hd":"62","v_score":"1.121327652","decile":"3","lat":40.17962185817805,"lng":-111.60395176921253},{"vid":"6314774","name":"Signa Crona","party":"","address":"310 E 1270 N, Springville, UT 84663","precinct":"25SP03","hd":"62","v_score":"23.97715895","decile":"10","lat":40.183623196550386,"lng":-111.60572504703467},{"vid":"6316552","name":"Evelyn Mayer DVM","party":"","address":"1336 N 150 E, Springville, UT 84663","precinct":"25SP03","hd":"62","v_score":"3.93832808","decile":"6","lat":40.18494946156423,"lng":-111.60808585598313},{"vid":"6317505","name":"Ramona Hahn","party":"Rep","address":"320 E 1075 N, Springville, UT 84663","precinct":"25SP03","hd":"62","v_score":"8.284004873","decile":"8","lat":40.181406837048186,"lng":-111.60594624899873},{"vid":"6336012","name":"Golden Grady","party":"Rep","address":"728 N 375 E, Springville, UT 84663","precinct":"25SP03","hd":"62","v_score":"35.064813","decile":"10","lat":40.17692316556893,"lng":-111.60380781880737},{"vid":"62dec75be31bd12365009432e4a2405ac289f40963757eec7ff242d80b2f81a6","name":"Erie Heller","party":"Dem","address":"708 N 375 E, Springville, UT 84663","precinct":"25SP03","hd":"62","v_score":"16.9423657","decile":"9","lat":40.1763932618452,"lng":-111.6038541348578},{"vid":"6350305","name":"Dr. Albion Gulgowski","party":"","address":"1190 N 150 E, Springville, UT 84663","precinct":"25SP03","hd":"62","v_score":"22.12059385","decile":"10","lat":40.18299336037201,"lng":-111.60805567360677},{"vid":"6350306","name":"Kasey Schinner","party":"","address":"1190 N 150 E, Springville, UT 84663","precinct":"25SP03","hd":"62","v_score":"26.85320151","decile":"10","lat":40.18299336037201,"lng":-111.60805567360677},{"vid":"6360745","name":"Dr. Nannette Brekke DVM","party":"","address":"850 N Main St, Trlr 16, Springville, UT 84663","precinct":"25SP03","hd":"62","v_score":"22.24650101","decile":"10","lat":40.178017624105806,"lng":-111.60959702602891},{"vid":"6364352","name":"Reilly Metz","party":"Rep","address":"729 N 375 E, Springville, UT 84663","precinct":"25SP03","hd":"62","v_score":"22.12711585","decile":"10","lat":40.17691136959396,"lng":-111.60434190641033},{"vid":"6364641","name":"Arlo Russel IV","party":"Dem","address":"305 E 1230 N, Springville, UT 84663","precinct":"25SP03","hd":"62","v_score":"36.94239468","decile":"10","lat":40.183402389927416,"lng":-111.6058634076508},{"vid":"6372764","name":"Audra Larson DDS","party":"Rep","address":"1505 N 150 E, Springville, UT 84663","precinct":"25SP03","hd":"62","v_score":"8.363183621","decile":"8","lat":40.18731735135498,"lng":-111.60865953683222},{"vid":"6372784","name":"Harman Batz-Hagenes","party":"","address":"789 N 150 E, Springville, UT 84663","precinct":"25SP03","hd":"62","v_score":"18.98842511","decile":"10","lat":40.17723839837904,"lng":-111.60868646437186},{"vid":"6f39d880b9fbe4268711b24af84e36280c0a596026d02f93c6ac705102b6f124","name":"Pierce Corkery","party":"Rep","address":"1015 N 400 E, Springville, UT 84663","precinct":"25SP03","hd":"62","v_score":"1.121327652","decile":"3","lat":40.180704408038096,"lng":-111.60395121418122},{"vid":"6385092","name":"Brain King","party":"","address":"761 N 400 E, Springville, UT 84663","precinct":"25SP03","hd":"62","v_score":"26.85320151","decile":"10","lat":40.17766433280054,"lng":-111.60340392026559},{"vid":"6390086","name":"Ms. Elizabeth Roob DDS","party":"Dem","address":"186 E 1400 N, Springville, UT 84663","precinct":"25SP03","hd":"62","v_score":"11.23922619","decile":"9","lat":40.18543645464837,"lng":-111.60780875910535},{"vid":"6391231","name":"Ephraim Bogan","party":"","address":"200 E 1230 N, Springville, UT 84663","precinct":"25SP03","hd":"62","v_score":"32.2221159","decile":"10","lat":40.18294371449558,"lng":-111.60737797850865},{"vid":"6400129","name":"Ms. Jerri Jacobi","party":"Rep","address":"297 E 1150 N, Springville, UT 84663","precinct":"25SP03","hd":"62","v_score":"24.43071786","decile":"10","lat":40.18266119553827,"lng":-111.60607752556044},{"vid":"6404824","name":"Mr. Linton Lubowitz","party":"Dem","address":"1491 N 150 E, Springville, UT 84663","precinct":"25SP03","hd":"62","v_score":"5.40460374","decile":"7","lat":40.18691941457892,"lng":-111.60865693818579},{"vid":"6407095","name":"Henriette Kris","party":"","address":"320 E 1075 N, Springville, UT 84663","precinct":"25SP03","hd":"62","v_score":"27.9534092","decile":"10","lat":40.181406837048186,"lng":-111.60594624899873},{"vid":"6407488","name":"Anibal Jacobi","party":"Dem","address":"156 E 750 N, Springville, UT 84663","precinct":"25SP03","hd":"62","v_score":"26.85320151","decile":"10","lat":40.17643928909701,"lng":-111.60819578677702},{"vid":"6410794","name":"Miller Hessel","party":"","address":"292 E 1150 N, Springville, UT 84663","precinct":"25SP03","hd":"62","v_score":"5.407962308","decile":"7","lat":40.18217409383696,"lng":-111.60621591465313},{"vid":"9aa4fec69d6f7237024612814d235f0132db832f1c2c21fc2a0d2971efb8f0bc","name":"Dr. Rylan Swaniawski Jr.","party":"","address":"733 N 150 E, Springville, UT 84663","precinct":"25SP03","hd":"62","v_score":"2.315214949","decile":"5","lat":40.17636218535266,"lng":-111.60864903552655},{"vid":"cf5885dced4aca41c7bbcf3baba6f91aee8dd82fbe150f2f8f5323ac8762c015","name":"Mr. Thos Bradtke DVM","party":"","address":"1507 N 150 E, Springville, UT 84663","precinct":"25SP03","hd":"62","v_score":"8.280646305","decile":"8","lat":40.1874168350813,"lng":-111.60866019547697},{"vid":"6427788","name":"Bowman Dare-Effertz","party":"","address":"1292 N 150 E, Springville, UT 84663","precinct":"25SP03","hd":"62","v_score":"2.587603312","decile":"5","lat":40.1845105829863,"lng":-111.6080830226967},{"vid":"6430981","name":"Montie Feil","party":"Dem","address":"120 E 1250 N, Springville, UT 84663","precinct":"25SP03","hd":"62","v_score":"4.283276088","decile":"7","lat":40.18334573273195,"lng":-111.60886818481069},{"vid":"6432401","name":"Hilliard Oberbrunner","party":"","address":"249 E 1075 N, Springville, UT 84663","precinct":"25SP03","hd":"62","v_score":"35.064813","decile":"10","lat":40.18186734510069,"lng":-111.60684654740368},{"vid":"6439267","name":"Hildegarde Bechtelar","party":"","address":"1426 N Spring Mountain Dr, Springville, UT 84663","precinct":"25SP03","hd":"62","v_score":"1.193887297","decile":"4","lat":40.186342993223725,"lng":-111.60661583255028},{"vid":"6441622","name":"Mr. Haven O'Kon","party":"Dem","address":"1656 N 100 E, Springville, UT 84663","precinct":"25SP03","hd":"62","v_score":"11.29723756","decile":"9","lat":40.18974714419506,"lng":-111.60882484103786},{"vid":"a601707abff074037f6fb461b64eb8b2fc1c91c43e840907fff2a833f6e836ab","name":"Alexia Hilll PhD","party":"Dem","address":"1295 N 170 E, Springville, UT 84663","precinct":"25SP03","hd":"62","v_score":"13.10113557","decile":"9","lat":40.184467161136745,"lng":-111.6076204419846},{"vid":"364e802207cc6be280aabc587b3fe1fa95335b9cd835caef6d4f01b43caccbf5","name":"Samantha Johns","party":"Rep","address":"1235 N 150 E, Springville, UT 84663","precinct":"25SP03","hd":"62","v_score":"25.06350144","decile":"10","lat":40.18337490796834,"lng":-111.60848361791942},{"vid":"6447845","name":"Little Osinski","party":"Rep","address":"712 N 200 E, Springville, UT 84663","precinct":"25SP03","hd":"62","v_score":"2.315214949","decile":"5","lat":40.176045658229945,"lng":-111.60677170300814},{"vid":"b1d20ca5ffa1fe24b7b39f6f8fe41965fff4d74689e0f09ae14012a212535183","name":"Dr. River Gorczany V","party":"Rep","address":"103 E 700 N, Unit 6, Springville, UT 84663","precinct":"25SP03","hd":"62","v_score":"0","decile":"3","lat":40.177378399875295,"lng":-111.60894038755995},{"vid":"6450110","name":"Miss Chaya Bosco DVM","party":"Rep","address":"320 E 1075 N, Springville, UT 84663","precinct":"25SP03","hd":"62","v_score":"26.2609852","decile":"10","lat":40.181406837048186,"lng":-111.60594624899873},{"vid":"6452816","name":"Shanita Buckridge","party":"Rep","address":"1433 N Spring Mountain Dr, Springville, UT 84663","precinct":"25SP03","hd":"62","v_score":"14.25581744","decile":"9","lat":40.18620857559423,"lng":-111.60723343922014},{"vid":"6456128","name":"Dr. Alvan Haley","party":"Dem","address":"1280 N 170 E, Springville, UT 84663","precinct":"25SP03","hd":"62","v_score":"10.13721141","decile":"9","lat":40.183964166975606,"lng":-111.60724460087876},{"vid":"6459302","name":"Branden Leffler","party":"Rep","address":"193 E 1400 N, Springville, UT 84663","precinct":"25SP03","hd":"62","v_score":"3.93832808","decile":"6","lat":40.18600989947958,"lng":-111.6073486734878},{"vid":"6460892","name":"Julia Bogan","party":"Rep","address":"1336 N 150 E, Springville, UT 84663","precinct":"25SP03","hd":"62","v_score":"5.40460374","decile":"7","lat":40.18494946156423,"lng":-111.60808585598313},{"vid":"6461092","name":"Jayme Moore II","party":"","address":"1482 N Spring Mountain Dr, Springville, UT 84663","precinct":"25SP03","hd":"62","v_score":"4.568975008","decile":"7","lat":40.18709850539214,"lng":-111.60738917996129},{"vid":"6462711","name":"Marilee Cremin","party":"Dem","address":"275 E 1300 N, Springville, UT 84663","precinct":"25SP03","hd":"62","v_score":"13.84916389","decile":"9","lat":40.18474064184716,"lng":-111.60633083448053},{"vid":"6462844","name":"Wesley Fahey","party":"Rep","address":"168 E 800 N, Springville, UT 84663","precinct":"25SP03","hd":"62","v_score":"19.55230341","decile":"10","lat":40.177294995046694,"lng":-111.60782622885228},{"vid":"6464669","name":"Mrs. Porsche Walker PhD","party":"Rep","address":"1283 N 150 E, Springville, UT 84663","precinct":"25SP03","hd":"62","v_score":"3.781490609","decile":"6","lat":40.184274555652976,"lng":-111.60863966735577},{"vid":"6467018","name":"Elnora Smith-Heidenreich","party":"Dem","address":"163 E 750 N, Springville, UT 84663","precinct":"25SP03","hd":"62","v_score":"12.2514272","decile":"9","lat":40.176848758549035,"lng":-111.60796104010497},{"vid":"6468308","name":"Marilyn Collier-Gorczany","party":"Dem","address":"205 E 1230 N, Springville, UT 84663","precinct":"25SP03","hd":"62","v_score":"2.817000428","decile":"6","lat":40.18338894821603,"lng":-111.60738960743956},{"vid":"02979ce8f7b72d17f64cf7a85ebe5ca7b3c812b4e996341b09185ad158cbc438","name":"Britt Tromp","party":"","address":"763 N 200 E, Springville, UT 84663","precinct":"25SP03","hd":"62","v_score":"0","decile":"3","lat":40.176852287282905,"lng":-111.60731950752614},{"vid":"6483261","name":"Mr. Darren Becker II","party":"","address":"761 N 400 E, Springville, UT 84663","precinct":"25SP03","hd":"62","v_score":"26.85320151","decile":"10","lat":40.17766433280054,"lng":-111.60340392026559},{"vid":"6484510","name":"Winfred Stokes","party":"","address":"103 E 700 N, Unit 2, Springville, UT 84663","precinct":"25SP03","hd":"62","v_score":"8.363183621","decile":"8","lat":40.177378399875295,"lng":-111.60894038755995},{"vid":"6491632","name":"Velia Bernhard DDS","party":"Rep","address":"397 E 925 N, Springville, UT 84663","precinct":"25SP03","hd":"62","v_score":"32.46978925","decile":"10","lat":40.179765573172524,"lng":-111.60338975199632},{"vid":"6492091","name":"Shay Olson","party":"","address":"1471 N 150 E, Springville, UT 84663","precinct":"25SP03","hd":"62","v_score":"3.089388791","decile":"6","lat":40.18652147821339,"lng":-111.60865433971898},{"vid":"6493620","name":"Mozelle Daugherty DVM","party":"Rep","address":"170 E 800 N, Springville, UT 84663","precinct":"25SP03","hd":"62","v_score":"9.487532797","decile":"8","lat":40.177299655289325,"lng":-111.60776281695604},{"vid":"6498864","name":"Mr. Halley Wolff DDS","party":"","address":"347 E 1075 N, Apt B, Springville, UT 84663","precinct":"25SP03","hd":"62","v_score":"2.315214949","decile":"5","lat":40.181896074344486,"lng":-111.60569970945323},{"vid":"6501361","name":"Rollie Herzog","party":"Dem","address":"1662 N 50 E, Springville, UT 84663","precinct":"25SP03","hd":"62","v_score":"1.46627566","decile":"4","lat":40.189657575443775,"lng":-111.60984805071291},{"vid":"6501469","name":"Rosalie Windler","party":"Rep","address":"712 N 200 E, Springville, UT 84663","precinct":"25SP03","hd":"62","v_score":"18.71237903","decile":"10","lat":40.176045658229945,"lng":-111.60677170300814},{"vid":"6507393","name":"Mr. Drake Harvey MD","party":"Rep","address":"1491 N 150 E, Springville, UT 84663","precinct":"25SP03","hd":"62","v_score":"5.40460374","decile":"7","lat":40.18691941457892,"lng":-111.60865693818579},{"vid":"6508167","name":"Dr. Brett Koepp","party":"Rep","address":"799 N 400 E, Springville, UT 84663","precinct":"25SP03","hd":"62","v_score":"1.193887297","decile":"4","lat":40.17810890310226,"lng":-111.60340022585416},{"vid":"6508257","name":"Lilia Nader","party":"Dem","address":"1283 N 150 E, Springville, UT 84663","precinct":"25SP03","hd":"62","v_score":"3.781490609","decile":"6","lat":40.184274555652976,"lng":-111.60863966735577},{"vid":"6509270","name":"Ms. Zadie O'Hara","party":"Rep","address":"392 E 1075 N, Springville, UT 84663","precinct":"25SP03","hd":"62","v_score":"5.40460374","decile":"7","lat":40.18141621585437,"lng":-111.60451504087098},{"vid":"6512625","name":"Marcelo Jaskolski","party":"Dem","address":"1654 N 50 E, Springville, UT 84663","precinct":"25SP03","hd":"62","v_score":"0","decile":"3","lat":40.18959825046268,"lng":-111.60947106012752},{"vid":"e4d9566e884c47205e184b02f002c217774179755539f996518c3a076c67cfc4","name":"Mrs. Ariel Koch MD","party":"","address":"708 N 375 E, Springville, UT 84663","precinct":"25SP03","hd":"62","v_score":"18.40864136","decile":"10","lat":40.1763932618452,"lng":-111.6038541348578},{"vid":"6522841","name":"Miss Patsy Skiles MD","party":"Rep","address":"795 N 200 E, Springville, UT 84663","precinct":"25SP03","hd":"62","v_score":"3.781490609","decile":"6","lat":40.17734482663998,"lng":-111.6073195968187},{"vid":"6523183","name":"Jailyn Miller","party":"","address":"744 N 200 E, Springville, UT 84663","precinct":"25SP03","hd":"62","v_score":"1.193887297","decile":"4","lat":40.176507156721016,"lng":-111.6067738891482},{"vid":"6530059","name":"Steve Jaskolski","party":"Dem","address":"779 N 375 E, Springville, UT 84663","precinct":"25SP03","hd":"62","v_score":"13.54291438","decile":"9","lat":40.17778933424322,"lng":-111.60433724038107},{"vid":"6531256","name":"Dario Nitzsche DDS","party":"Dem","address":"850 N Main St, Trlr 37, Springville, UT 84663","precinct":"25SP03","hd":"62","v_score":"1.193887297","decile":"4","lat":40.178017624105806,"lng":-111.60959702602891},{"vid":"6533617","name":"Nola Abshire","party":"","address":"175 E 700 N, Springville, UT 84663","precinct":"25SP03","hd":"62","v_score":"2.315214949","decile":"5","lat":40.17611029865508,"lng":-111.60750775434484}]