[{"id":"8194","name":"Clella Pouros","party":"Dem","address":"2435 S State St, Springville, UT 84663","precinct":"25SP22","hd":"63","v_score":"2.744440783","decile":"5","lat":40.182778021739,"lng":-111.610701894237},{"id":"12141","name":"Eden Friesen","party":"Dem","address":"2485 S State St, Springville, UT 84663","precinct":"25SP22","hd":"63","v_score":"15.02598214","decile":"9","lat":40.183167415366,"lng":-111.610702500719},{"id":"14511","name":"Dr. Lavonia Wiegand DVM","party":"","address":"1838 S State St, Springville, UT 84663","precinct":"25SP22","hd":"63","v_score":"0","decile":"1","lat":40.183635218179,"lng":-111.610553239244},{"id":"16947","name":"Jeffie Larkin","party":"Dem","address":"2485 S State St, Springville, UT 84663","precinct":"25SP22","hd":"63","v_score":"23.6036616","decile":"10","lat":40.183167415366,"lng":-111.610702500719},{"id":"21044","name":"Terry Leuschke","party":"","address":"1825 S State St, Springville, UT 84663","precinct":"25SP22","hd":"63","v_score":"22.27012839","decile":"10","lat":40.141485766423,"lng":-111.612588681305},{"id":"33274","name":"Dr. Thora Halvorson DDS","party":"Rep","address":"2546 S State St, Springville, UT 84663","precinct":"25SP22","hd":"63","v_score":"26.85320151","decile":"10","lat":40.18484231272,"lng":-111.610555119298},{"id":"46865","name":"Nicki Volkman","party":"","address":"1925 S State St, Springville, UT 84663","precinct":"25SP22","hd":"63","v_score":"1.121327652","decile":"3","lat":40.140083034949,"lng":-111.613835184547},{"id":"62739","name":"Laurine Hessel DVM","party":"","address":"1769 S Main St, Springville, UT 84663","precinct":"25SP22","hd":"63","v_score":"0","decile":"1","lat":40.144314433404,"lng":-111.610086297443},{"id":"68941","name":"Ms. Ottilia Marquardt DDS","party":"Rep","address":"2595 S State St, Springville, UT 84663","precinct":"25SP22","hd":"63","v_score":"0","decile":"1","lat":40.184024081346,"lng":-111.610703834979},{"id":"71119","name":"Mr. Ryne Ankunding","party":"","address":"1718 S Main St, Springville, UT 84663","precinct":"25SP22","hd":"63","v_score":"0","decile":"1","lat":40.144678301075,"lng":-111.60993757317},{"id":"86213","name":"Tyreese Russel-Howe","party":"Dem","address":"1875 S State St, Springville, UT 84663","precinct":"25SP22","hd":"63","v_score":"0","decile":"1","lat":40.140784400686,"lng":-111.613211932926},{"id":"87920","name":"Sage Ullrich","party":"Dem","address":"1799 S State St, Springville, UT 84663","precinct":"25SP22","hd":"63","v_score":"10.42565066","decile":"9","lat":40.141918130752,"lng":-111.612205525177},{"id":"88663","name":"Mr. Lukas Konopelski","party":"","address":"1718 S Main St, Springville, UT 84663","precinct":"25SP22","hd":"63","v_score":"0","decile":"1","lat":40.144678301075,"lng":-111.60993757317},{"id":"90307","name":"Kennith Windler","party":"","address":"2085 S State St, Springville, UT 84663","precinct":"25SP22","hd":"63","v_score":"0","decile":"1","lat":40.137288011364,"lng":-111.616318286272},{"id":"92032","name":"Theodocia Huels","party":"","address":"1875 S State St, Springville, UT 84663","precinct":"25SP22","hd":"63","v_score":"1.193887297","decile":"4","lat":40.140784400686,"lng":-111.613211932926},{"id":"92127","name":"Alisson Upton-Hackett","party":"","address":"1693 S Main St, Springville, UT 84663","precinct":"25SP22","hd":"63","v_score":"9.116556227","decile":"8","lat":40.144944149897,"lng":-111.609568765332},{"id":"108152","name":"Admiral McKenzie","party":"","address":"2445 S State St, Springville, UT 84663","precinct":"25SP22","hd":"63","v_score":"0","decile":"2","lat":40.182855900464,"lng":-111.610702015534},{"id":"109371","name":"Deacon Bergstrom","party":"Dem","address":"1762 S Main St, Springville, UT 84663","precinct":"25SP22","hd":"63","v_score":"1.193887297","decile":"4","lat":40.144415712457,"lng":-111.610176716405},{"id":"113431","name":"Nelie Smitham","party":"Rep","address":"2045 S State St, Springville, UT 84663","precinct":"25SP22","hd":"63","v_score":"1.193887297","decile":"4","lat":40.13839975718,"lng":-111.615330988437},{"id":"115251","name":"Whit Green","party":"Rep","address":"1765 S Main St, Springville, UT 84663","precinct":"25SP22","hd":"63","v_score":"4.069929862","decile":"7","lat":40.144338305097,"lng":-111.610064557149},{"id":"117123","name":"Idell Rogahn","party":"","address":"1935 S State St, Springville, UT 84663","precinct":"25SP22","hd":"63","v_score":"0","decile":"2","lat":40.139942761802,"lng":-111.613959834871},{"id":"122165","name":"Dr. Stewart Mante Jr.","party":"Dem","address":"2546 S State St, Springville, UT 84663","precinct":"25SP22","hd":"63","v_score":"2.876042565","decile":"6","lat":40.18484231272,"lng":-111.610555119298},{"id":"137186","name":"Mrs. Idella Crooks DDS","party":"Rep","address":"2310 S State St, Springville, UT 84663","precinct":"25SP22","hd":"63","v_score":"12.64191471","decile":"9","lat":40.184439947873,"lng":-111.610554492613},{"id":"148202","name":"Ken Rogahn","party":"Dem","address":"1762 S Main St, Springville, UT 84663","precinct":"25SP22","hd":"63","v_score":"3.93832808","decile":"6","lat":40.144415712457,"lng":-111.610176716405},{"id":"152759","name":"Lark Braun-Flatley","party":"Dem","address":"2085 S State St, Springville, UT 84663","precinct":"25SP22","hd":"63","v_score":"0","decile":"3","lat":40.137288011364,"lng":-111.616318286272},{"id":"152909","name":"Dorsey Stoltenberg-Casper","party":"Dem","address":"2546 S State St, Springville, UT 84663","precinct":"25SP22","hd":"63","v_score":"22.12059385","decile":"10","lat":40.18484231272,"lng":-111.610555119298},{"id":"153732","name":"Yaretzi Marvin-Kohler","party":"","address":"1785 S State St, Springville, UT 84663","precinct":"25SP22","hd":"63","v_score":"17.96776993","decile":"10","lat":40.142080017022,"lng":-111.612065223725},{"id":"153842","name":"Dr. Arlyn Bogan","party":"","address":"2035 S State St, Springville, UT 84663","precinct":"25SP22","hd":"63","v_score":"21.35154895","decile":"10","lat":40.138540030327,"lng":-111.615206338113},{"id":"157916","name":"Jarrad McDermott III","party":"Dem","address":"2047 S State St, Springville, UT 84663","precinct":"25SP22","hd":"63","v_score":"20.03603784","decile":"10","lat":40.138371702551,"lng":-111.615355918502},{"id":"158491","name":"Cicero Kemmer","party":"","address":"2445 S State St, Springville, UT 84663","precinct":"25SP22","hd":"63","v_score":"1.193887297","decile":"4","lat":40.182855900464,"lng":-111.610702015534},{"id":"159927","name":"Claudia Fahey","party":"Dem","address":"1838 S State St, Springville, UT 84663","precinct":"25SP22","hd":"63","v_score":"3.93832808","decile":"6","lat":40.183635218179,"lng":-111.610553239244},{"id":"160840","name":"Conway Johnson","party":"","address":"2546 S State St, Springville, UT 84663","precinct":"25SP22","hd":"63","v_score":"26.85320151","decile":"10","lat":40.18484231272,"lng":-111.610555119298},{"id":"161939","name":"Harding Parker","party":"Dem","address":"1693 S Main St, Springville, UT 84663","precinct":"25SP22","hd":"63","v_score":"21.78778628","decile":"10","lat":40.144944149897,"lng":-111.609568765332},{"id":"169010","name":"Sanford Hodkiewicz","party":"Rep","address":"1718 S Main St, Springville, UT 84663","precinct":"25SP22","hd":"63","v_score":"2.817000428","decile":"6","lat":40.144678301075,"lng":-111.60993757317},{"id":"170400","name":"Mrs. Brynlee Jacobi PhD","party":"Rep","address":"1875 S State St, Springville, UT 84663","precinct":"25SP22","hd":"63","v_score":"0","decile":"3","lat":40.140784400686,"lng":-111.613211932926},{"id":"175206","name":"Pam Bruen","party":"Rep","address":"2445 S State St, Springville, UT 84663","precinct":"25SP22","hd":"63","v_score":"0","decile":"3","lat":40.182855900464,"lng":-111.610702015534},{"id":"177911","name":"Emmie Volkman DVM","party":"","address":"1785 S State St, Springville, UT 84663","precinct":"25SP22","hd":"63","v_score":"17.96776993","decile":"10","lat":40.142080017022,"lng":-111.612065223725},{"id":"180281","name":"Ellar Heidenreich","party":"","address":"1785 S State St, Springville, UT 84663","precinct":"25SP22","hd":"63","v_score":"13.54291438","decile":"9","lat":40.142080017022,"lng":-111.612065223725}]