[{"vid":"1882419","name":"Dr. Thora Halvorson DDS","party":"Rep","address":"2546 S State St, Springville, UT 84663","precinct":"25SP22","hd":"63","v_score":"26.85320151","decile":"10","lat":40.13134944753708,"lng":-111.62293442358649,"phone":"(137) 359-9819","sd":"25","ssbd":"13","lsbd":"School Board Nebo 6"},{"vid":"43203febd7fd7428df3ccaeb2f19a1c696e0a1edac78fb6f9c3249176ecb3e88","name":"Nicki Volkman","party":"","address":"1925 S State St, Springville, UT 84663","precinct":"25SP22","hd":"63","v_score":"1.121327652","decile":"3","lat":40.140757864332315,"lng":-111.61246874498083,"phone":"(275) 329-0989","sd":"25","ssbd":"13","lsbd":"School Board Nebo 6"},{"vid":"2332158","name":"Ms. Ottilia Marquardt DDS","party":"Rep","address":"2595 S State St, Springville, UT 84663","precinct":"25SP22","hd":"63","v_score":"0","decile":"1","lat":40.130420168276615,"lng":-111.62152342656151,"phone":"(528) 442-6329","sd":"25","ssbd":"13","lsbd":"School Board Nebo 6"},{"vid":"2510368","name":"Tyreese Russel-Howe","party":"Dem","address":"1875 S State St, Springville, UT 84663","precinct":"25SP22","hd":"63","v_score":"0","decile":"1","lat":40.26365926332655,"lng":-111.6784013649225,"phone":"(965) 871-1242","sd":"25","ssbd":"13","lsbd":"School Board Nebo 6"},{"vid":"2527020","name":"Sage Ullrich","party":"Dem","address":"1799 S State St, Springville, UT 84663","precinct":"25SP22","hd":"63","v_score":"10.42565066","decile":"9","lat":40.14199914649026,"lng":-111.61183232952949,"phone":"(388) 417-9787","sd":"25","ssbd":"13","lsbd":"School Board Nebo 6"},{"vid":"2571342","name":"Theodocia Huels","party":"","address":"1875 S State St, Springville, UT 84663","precinct":"25SP22","hd":"63","v_score":"1.193887297","decile":"4","lat":40.26365926332655,"lng":-111.6784013649225,"phone":"(535) 200-1275","sd":"25","ssbd":"13","lsbd":"School Board Nebo 6"},{"vid":"2736219","name":"Admiral McKenzie","party":"","address":"2445 S State St, Springville, UT 84663","precinct":"25SP22","hd":"63","v_score":"0","decile":"2","lat":40.13244472520964,"lng":-111.61910160512981,"phone":"(642) 049-0953","sd":"25","ssbd":"13","lsbd":"School Board Nebo 6"},{"vid":"2788190","name":"Nelie Smitham","party":"Rep","address":"2045 S State St, Springville, UT 84663","precinct":"25SP22","hd":"63","v_score":"1.193887297","decile":"4","lat":40.13854946643192,"lng":-111.61438465332314,"phone":"(580) 802-7739","sd":"25","ssbd":"13","lsbd":"School Board Nebo 6"},{"vid":"2801696","name":"Whit Green","party":"Rep","address":"1765 S Main St, Springville, UT 84663","precinct":"25SP22","hd":"63","v_score":"4.069929862","decile":"7","lat":40.143841793553015,"lng":-111.60992560873925,"phone":"(487) 500-5598","sd":"25","ssbd":"13","lsbd":"School Board Nebo 6"},{"vid":"2820850","name":"Idell Rogahn","party":"","address":"1935 S State St, Springville, UT 84663","precinct":"25SP22","hd":"63","v_score":"0","decile":"2","lat":40.14053058283436,"lng":-111.61278622423194,"phone":"(310) 691-0987","sd":"25","ssbd":"13","lsbd":"School Board Nebo 6"},{"vid":"2877559","name":"Dr. Stewart Mante Jr.","party":"Dem","address":"2546 S State St, Springville, UT 84663","precinct":"25SP22","hd":"63","v_score":"2.876042565","decile":"6","lat":40.13134944753708,"lng":-111.62293442358649,"phone":"(786) 599-0497","sd":"25","ssbd":"13","lsbd":"School Board Nebo 6"},{"vid":"b57de2d4c779e0e6073fcbece7dbdd912dfe9bd5107f6425b01593e98637c11c","name":"Dorsey Stoltenberg-Casper","party":"Dem","address":"2546 S State St, Springville, UT 84663","precinct":"25SP22","hd":"63","v_score":"22.12059385","decile":"10","lat":40.13134944753708,"lng":-111.62293442358649,"phone":"(926) 552-8718","sd":"25","ssbd":"13","lsbd":"School Board Nebo 6"},{"vid":"6270960","name":"Yaretzi Marvin-Kohler","party":"","address":"1785 S State St, Springville, UT 84663","precinct":"25SP22","hd":"63","v_score":"17.96776993","decile":"10","lat":40.142378712052974,"lng":-111.61126611666774,"phone":"(690) 560-9529","sd":"25","ssbd":"13","lsbd":"School Board Nebo 6"},{"vid":"6325503","name":"Cicero Kemmer","party":"","address":"2445 S State St, Springville, UT 84663","precinct":"25SP22","hd":"63","v_score":"1.193887297","decile":"4","lat":40.13244472520964,"lng":-111.61910160512981,"phone":"(423) 757-6559","sd":"25","ssbd":"13","lsbd":"School Board Nebo 6"},{"vid":"6355771","name":"Conway Johnson","party":"","address":"2546 S State St, Springville, UT 84663","precinct":"25SP22","hd":"63","v_score":"26.85320151","decile":"10","lat":40.13134944753708,"lng":-111.62293442358649,"phone":"(854) 977-5800","sd":"25","ssbd":"13","lsbd":"School Board Nebo 6"},{"vid":"79ee49f2284e82b7aa54cf1112ad1dba47f501d347fc33017431613fe3d5c625","name":"Mrs. Brynlee Jacobi PhD","party":"Rep","address":"1875 S State St, Springville, UT 84663","precinct":"25SP22","hd":"63","v_score":"0","decile":"3","lat":40.26365926332655,"lng":-111.6784013649225,"phone":"(426) 207-0441","sd":"25","ssbd":"13","lsbd":"School Board Nebo 6"},{"vid":"6483039","name":"Pam Bruen","party":"Rep","address":"2445 S State St, Springville, UT 84663","precinct":"25SP22","hd":"63","v_score":"0","decile":"3","lat":40.13244472520964,"lng":-111.61910160512981,"phone":"(969) 338-6470","sd":"25","ssbd":"13","lsbd":"School Board Nebo 6"},{"vid":"6502839","name":"Emmie Volkman DVM","party":"","address":"1785 S State St, Springville, UT 84663","precinct":"25SP22","hd":"63","v_score":"17.96776993","decile":"10","lat":40.142378712052974,"lng":-111.61126611666774,"phone":"(863) 527-7801","sd":"25","ssbd":"13","lsbd":"School Board Nebo 6"},{"vid":"6525276","name":"Ellar Heidenreich","party":"","address":"1785 S State St, Springville, UT 84663","precinct":"25SP22","hd":"63","v_score":"13.54291438","decile":"9","lat":40.142378712052974,"lng":-111.61126611666774,"phone":"(441) 633-7688","sd":"25","ssbd":"13","lsbd":"School Board Nebo 6"}]