[{"id":"16","name":"Noretta Connelly","party":"","address":"1368 N 200 E, Springville, UT 84663","precinct":"25SP03","hd":"62","v_score":"9.55742766","decile":"8","lat":40.18541041137,"lng":-111.606851141781},{"id":"66","name":"Mr. Santana Muller","party":"Dem","address":"275 E 1300 N, Springville, UT 84663","precinct":"25SP03","hd":"62","v_score":"19.74179771","decile":"10","lat":40.184539801192,"lng":-111.605797543651},{"id":"617","name":"Buddy Baumbach","party":"","address":"783 N 200 E, Springville, UT 84663","precinct":"25SP03","hd":"62","v_score":"5.40460374","decile":"7","lat":40.175599070697,"lng":-111.60719345083},{"id":"972","name":"Mr. Irven Klein","party":"","address":"1471 N 150 E, Springville, UT 84663","precinct":"25SP03","hd":"62","v_score":"0","decile":"1","lat":40.186784234941,"lng":-111.608399163279},{"id":"1473","name":"Colby Quigley","party":"","address":"374 E 1075 N, Springville, UT 84663","precinct":"25SP03","hd":"62","v_score":"0","decile":"1","lat":40.181523926271,"lng":-111.604318237438},{"id":"1500","name":"Zachery Robel-Schulist","party":"Rep","address":"292 E 1150 N, Springville, UT 84663","precinct":"25SP03","hd":"62","v_score":"14.48247422","decile":"9","lat":40.182353710558,"lng":-111.605978604696},{"id":"2034","name":"Roy Gleason","party":"Dem","address":"1652 N 100 E, Springville, UT 84663","precinct":"25SP03","hd":"62","v_score":"3.781490609","decile":"6","lat":40.188980620261,"lng":-111.608800895458},{"id":"3670","name":"Delvin Franecki","party":"Rep","address":"1478 N 150 E, Springville, UT 84663","precinct":"25SP03","hd":"62","v_score":"2.660162957","decile":"5","lat":40.186905508639,"lng":-111.60825099141},{"id":"3771","name":"Dr. Orrie Ankunding","party":"Dem","address":"1292 N 150 E, Springville, UT 84663","precinct":"25SP03","hd":"62","v_score":"2.587603312","decile":"5","lat":40.184215259083,"lng":-111.608235435788},{"id":"3772","name":"Kelsi Koch","party":"","address":"850 N Main St, Trlr 41, Springville, UT 84663","precinct":"25SP03","hd":"62","v_score":"10.66687182","decile":"9","lat":40.178207240342,"lng":-111.610531199047},{"id":"4034","name":"Lexis Runolfsdottir","party":"","address":"745 N 150 E, Springville, UT 84663","precinct":"25SP03","hd":"62","v_score":"6.027167436","decile":"7","lat":40.176540417203,"lng":-111.608467776231},{"id":"4056","name":"Murray Block","party":"Rep","address":"205 E 1230 N, Springville, UT 84663","precinct":"25SP03","hd":"62","v_score":"3.93832808","decile":"6","lat":40.183168294668,"lng":-111.60699769766},{"id":"4063","name":"Miss Bethann Wiegand PhD","party":"","address":"742 N 375 E, Springville, UT 84663","precinct":"25SP03","hd":"62","v_score":"7.227307695","decile":"8","lat":40.176796002824,"lng":-111.60396789888},{"id":"4111","name":"Dann Hane","party":"Dem","address":"103 E 700 N, Unit 20, Springville, UT 84663","precinct":"25SP03","hd":"62","v_score":"0","decile":"1","lat":40.17630512763,"lng":-111.610472462771},{"id":"4204","name":"Dr. Kian Kertzmann Jr.","party":"Rep","address":"103 E 700 N, Unit 17, Springville, UT 84663","precinct":"25SP03","hd":"62","v_score":"18.08986941","decile":"10","lat":40.17630512763,"lng":-111.610472462771},{"id":"4467","name":"Lafe Ward IV","party":"","address":"1495 N 150 E, Springville, UT 84663","precinct":"25SP03","hd":"62","v_score":"5.40460374","decile":"7","lat":40.18714407717,"lng":-111.608404615387},{"id":"5192","name":"Paola Ward","party":"","address":"272 E 1150 N, Springville, UT 84663","precinct":"25SP03","hd":"62","v_score":"5.40460374","decile":"7","lat":40.18235371058,"lng":-111.606259587062},{"id":"5277","name":"Gianna Shields","party":"Rep","address":"1486 Spring Mountain Dr, Springville, UT 84663","precinct":"25SP03","hd":"62","v_score":"18.28195787","decile":"10","lat":40.187256560248,"lng":-111.607892575718},{"id":"5494","name":"Rashaad Hermann","party":"Dem","address":"1570 N 50 E, Springville, UT 84663","precinct":"25SP03","hd":"62","v_score":"8.15240309","decile":"8","lat":40.188390946125,"lng":-111.609660579488},{"id":"6314","name":"Jairo Pollich Sr.","party":"Rep","address":"798 N 200 E, Springville, UT 84663","precinct":"25SP03","hd":"62","v_score":"0","decile":"1","lat":40.177376221454,"lng":-111.606974557003},{"id":"6841","name":"Mr. Theo Friesen MD","party":"Rep","address":"1662 N 50 E, Springville, UT 84663","precinct":"25SP03","hd":"62","v_score":"3.781490609","decile":"6","lat":40.189007254576,"lng":-111.609749752835},{"id":"7035","name":"Harve Hilpert","party":"Rep","address":"1617 N 100 E, Springville, UT 84663","precinct":"25SP03","hd":"62","v_score":"2.315214949","decile":"5","lat":40.188715245714,"lng":-111.608950898918},{"id":"7426","name":"Frida Zulauf","party":"Dem","address":"850 N Main St, Trlr 3, Springville, UT 84663","precinct":"25SP03","hd":"62","v_score":"0","decile":"1","lat":40.178207240342,"lng":-111.610531199047},{"id":"7609","name":"Benjamen Wuckert","party":"","address":"103 E 700 N, Unit 12, Springville, UT 84663","precinct":"25SP03","hd":"62","v_score":"13.26938015","decile":"9","lat":40.17630512763,"lng":-111.610472462771},{"id":"7657","name":"Reanna Ritchie","party":"Rep","address":"1496 Spring Mountain Dr, Springville, UT 84663","precinct":"25SP03","hd":"62","v_score":"3.93832808","decile":"6","lat":40.187313298931,"lng":-111.608197110402},{"id":"7985","name":"Griselda Kassulke-Ziemann","party":"Dem","address":"1372 N Millpond Dr, Springville, UT 84663","precinct":"25SP03","hd":"62","v_score":"4.064235245","decile":"6","lat":40.185013778252,"lng":-111.605712089991},{"id":"8567","name":"Mrs. Santos Franecki DVM","party":"Dem","address":"272 E 1150 N, Springville, UT 84663","precinct":"25SP03","hd":"62","v_score":"5.40460374","decile":"7","lat":40.18235371058,"lng":-111.606259587062},{"id":"9251","name":"Mr. Blaine Gleichner","party":"Dem","address":"755 N 150 E, Springville, UT 84663","precinct":"25SP03","hd":"62","v_score":"8.280646305","decile":"8","lat":40.176689364215,"lng":-111.608470266052},{"id":"10271","name":"Dr. Stephan D'Amore DVM","party":"","address":"775 N 200 E, Springville, UT 84663","precinct":"25SP03","hd":"62","v_score":"5.40460374","decile":"7","lat":40.175531752424,"lng":-111.607194745421},{"id":"10421","name":"Veda McDermott-Bednar","party":"Dem","address":"57 E 1600 N, Springville, UT 84663","precinct":"25SP03","hd":"62","v_score":"2.744440783","decile":"5","lat":40.188593331125,"lng":-111.609269459503},{"id":"10451","name":"Ronny Labadie","party":"Rep","address":"1464 N Spring Mountain Dr, Springville, UT 84663","precinct":"25SP03","hd":"62","v_score":"7.282185415","decile":"8","lat":40.186898248135,"lng":-111.60748079509},{"id":"10683","name":"Dr. Ennis Pouros DVM","party":"Dem","address":"702 N 200 E, Springville, UT 84663","precinct":"25SP03","hd":"62","v_score":"2.315214949","decile":"5","lat":40.175772730361,"lng":-111.606974475524},{"id":"11166","name":"Eura Kulas","party":"","address":"1434 N 150 E, Springville, UT 84663","precinct":"25SP03","hd":"62","v_score":"26.85320151","decile":"10","lat":40.18624530792,"lng":-111.608245477282},{"id":"11208","name":"Sina Hintz","party":"Rep","address":"1045 N 400 E, Springville, UT 84663","precinct":"25SP03","hd":"62","v_score":"7.209387876","decile":"8","lat":40.181212036576,"lng":-111.603870193007},{"id":"11696","name":"Kyara Lockman-Tromp","party":"","address":"762 N 200 E, Springville, UT 84663","precinct":"25SP03","hd":"62","v_score":"20.42379706","decile":"10","lat":40.176839028871,"lng":-111.606980592943},{"id":"11804","name":"Priscila Stanton DVM","party":"","address":"792 N 200 E, Springville, UT 84663","precinct":"25SP03","hd":"62","v_score":"7.781882349","decile":"8","lat":40.177286689357,"lng":-111.606975562993},{"id":"11908","name":"Brook Stoltenberg","party":"Rep","address":"762 N 200 E, Springville, UT 84663","precinct":"25SP03","hd":"62","v_score":"0","decile":"1","lat":40.176839028871,"lng":-111.606980592943},{"id":"12011","name":"Ms. Polly Purdy","party":"Rep","address":"1614 N 50 E, Springville, UT 84663","precinct":"25SP03","hd":"62","v_score":"0","decile":"1","lat":40.188684428117,"lng":-111.609734596418},{"id":"12232","name":"Dr. Wilmer Anderson","party":"","address":"1505 N 150 E, Springville, UT 84663","precinct":"25SP03","hd":"62","v_score":"2.315214949","decile":"5","lat":40.187399205722,"lng":-111.6084079597},{"id":"12334","name":"Millie Wiegand","party":"Rep","address":"1505 N 150 E, Springville, UT 84663","precinct":"25SP03","hd":"62","v_score":"2.315214949","decile":"5","lat":40.187399205722,"lng":-111.6084079597},{"id":"12859","name":"Mr. Lionel Mosciski MD","party":"Dem","address":"790 N 150 E, Springville, UT 84663","precinct":"25SP03","hd":"62","v_score":"1.121327652","decile":"3","lat":40.176867094726,"lng":-111.608322372165},{"id":"12968","name":"Mannie Roberts","party":"","address":"900 N Main St, Apt 3, Springville, UT 84663","precinct":"25SP03","hd":"62","v_score":"1.46627566","decile":"4","lat":40.178706633391,"lng":-111.610533842675},{"id":"13308","name":"Sylvanus Dietrich","party":"","address":"174 E 800 N, Springville, UT 84663","precinct":"25SP03","hd":"62","v_score":"5.40460374","decile":"7","lat":40.177439729611,"lng":-111.60765795922},{"id":"13727","name":"Irving Witting","party":"Dem","address":"900 N Main St, Apt 15, Springville, UT 84663","precinct":"25SP03","hd":"62","v_score":"1.121327652","decile":"3","lat":40.178706633391,"lng":-111.610533842675},{"id":"14168","name":"Alwine Brown DDS","party":"","address":"814 N 175 E, Springville, UT 84663","precinct":"25SP03","hd":"62","v_score":"4.15282392","decile":"7","lat":40.177604728452,"lng":-111.607694044266},{"id":"14759","name":"Bridgette Thiel","party":"Dem","address":"1451 N 150 E, Springville, UT 84663","precinct":"25SP03","hd":"62","v_score":"7.493443096","decile":"8","lat":40.186484819453,"lng":-111.608396563941},{"id":"15574","name":"Dr. Luberta Nienow","party":"Rep","address":"103 E 700 N, Unit 7, Springville, UT 84663","precinct":"25SP03","hd":"62","v_score":"2.315214949","decile":"5","lat":40.17630512763,"lng":-111.610472462771},{"id":"15644","name":"Garrison Casper","party":"","address":"1531 N 150 E, Springville, UT 84663","precinct":"25SP03","hd":"62","v_score":"6.814370645","decile":"8","lat":40.187864118194,"lng":-111.608431143795},{"id":"15947","name":"Janine Cole","party":"","address":"1495 N 150 E, Springville, UT 84663","precinct":"25SP03","hd":"62","v_score":"2.587603312","decile":"5","lat":40.18714407717,"lng":-111.608404615387},{"id":"16575","name":"Sammy Murray-Leffler","party":"Dem","address":"798 N 200 E, Springville, UT 84663","precinct":"25SP03","hd":"62","v_score":"10.43635069","decile":"9","lat":40.177376221454,"lng":-111.606974557003},{"id":"17130","name":"Tawanna Littel","party":"Rep","address":"790 N 150 E, Springville, UT 84663","precinct":"25SP03","hd":"62","v_score":"1.121327652","decile":"3","lat":40.176867094726,"lng":-111.608322372165},{"id":"17550","name":"Memphis Bernier","party":"Dem","address":"748 N 200 E, Springville, UT 84663","precinct":"25SP03","hd":"62","v_score":"13.89381337","decile":"9","lat":40.176542666599,"lng":-111.606982023818},{"id":"17631","name":"Elzy Cremin","party":"Rep","address":"740 N 200 E, Springville, UT 84663","precinct":"25SP03","hd":"62","v_score":"9.757278238","decile":"8","lat":40.176408764645,"lng":-111.606980711071},{"id":"17847","name":"Marcellus Cormier","party":"","address":"781 N 150 E, Springville, UT 84663","precinct":"25SP03","hd":"62","v_score":"8.347511332","decile":"8","lat":40.176803625986,"lng":-111.608471610293},{"id":"18627","name":"Tanisha Rippin","party":"Dem","address":"103 E 700 N, Unit 9, Springville, UT 84663","precinct":"25SP03","hd":"62","v_score":"1.121327652","decile":"3","lat":40.17630512763,"lng":-111.610472462771},{"id":"19721","name":"Dr. Tyquan Brown DVM","party":"Rep","address":"1513 N 150 E, Springville, UT 84663","precinct":"25SP03","hd":"62","v_score":"3.781490609","decile":"6","lat":40.187560013087,"lng":-111.608409787036},{"id":"19840","name":"Andres Christiansen","party":"","address":"1246 N Millpond Dr, Springville, UT 84663","precinct":"25SP03","hd":"62","v_score":"1.46627566","decile":"4","lat":40.183417670076,"lng":-111.604848237624},{"id":"20147","name":"Price Hahn Sr.","party":"","address":"1495 N 150 E, Springville, UT 84663","precinct":"25SP03","hd":"62","v_score":"2.587603312","decile":"5","lat":40.18714407717,"lng":-111.608404615387},{"id":"20828","name":"Mr. Eston Stroman","party":"Dem","address":"765 N 150 E, Springville, UT 84663","precinct":"25SP03","hd":"62","v_score":"2.660162957","decile":"5","lat":40.17673331105,"lng":-111.608470783068},{"id":"22185","name":"Mr. Levar Harris","party":"","address":"1658 N 100 E, Springville, UT 84663","precinct":"25SP03","hd":"62","v_score":"6.74007049","decile":"8","lat":40.189024849354,"lng":-111.608800895452},{"id":"23073","name":"Dr. Jayvon Reichel DDS","party":"","address":"900 N Main St, Apt 12, Springville, UT 84663","precinct":"25SP03","hd":"62","v_score":"1.121327652","decile":"3","lat":40.178706633391,"lng":-111.610533842675},{"id":"23318","name":"Brittni Leffler","party":"Rep","address":"1282 N Millpond Dr, Springville, UT 84663","precinct":"25SP03","hd":"62","v_score":"5.273794831","decile":"7","lat":40.184042387785,"lng":-111.605187564557},{"id":"23636","name":"Mr. Kelley Bode IV","party":"Rep","address":"769 N 150 E, Springville, UT 84663","precinct":"25SP03","hd":"62","v_score":"1.193887297","decile":"3","lat":40.176750889784,"lng":-111.608470989874},{"id":"23839","name":"Mr. Les Zieme","party":"Rep","address":"1536 N 50 E, Springville, UT 84663","precinct":"25SP03","hd":"62","v_score":"10.15822798","decile":"9","lat":40.188271828249,"lng":-111.609610947061},{"id":"23956","name":"Giovanna Gusikowski","party":"","address":"270 E 1230 N, Springville, UT 84663","precinct":"25SP03","hd":"62","v_score":"11.36410258","decile":"9","lat":40.183063251699,"lng":-111.606266906939},{"id":"24331","name":"Michel Hand II","party":"Dem","address":"1494 N 150 E, Springville, UT 84663","precinct":"25SP03","hd":"62","v_score":"2.315214949","decile":"5","lat":40.187145403458,"lng":-111.608254626149},{"id":"24401","name":"Marisela Hayes","party":"","address":"1292 N 150 E, Springville, UT 84663","precinct":"25SP03","hd":"62","v_score":"3.781490609","decile":"6","lat":40.184215259083,"lng":-111.608235435788},{"id":"24559","name":"Abe Sipes","party":"Dem","address":"754 N 200 E, Springville, UT 84663","precinct":"25SP03","hd":"62","v_score":"2.660162957","decile":"5","lat":40.176719652741,"lng":-111.606981934263},{"id":"25015","name":"Kaia Monahan DDS","party":"Rep","address":"235 E 1300 N, Springville, UT 84663","precinct":"25SP03","hd":"62","v_score":"1.193887297","decile":"3","lat":40.184541641335,"lng":-111.606145325627},{"id":"25783","name":"Dr. Annemarie Stroman","party":"Rep","address":"1604 N 100 E, Springville, UT 84663","precinct":"25SP03","hd":"62","v_score":"2.315214949","decile":"5","lat":40.188626787516,"lng":-111.608800895504},{"id":"25828","name":"Elmer Herman","party":"","address":"1604 N 100 E, Springville, UT 84663","precinct":"25SP03","hd":"62","v_score":"2.315214949","decile":"5","lat":40.188626787516,"lng":-111.608800895504},{"id":"26180","name":"Kelsi Kohler PhD","party":"Dem","address":"1517 N 150 E, Springville, UT 84663","precinct":"25SP03","hd":"62","v_score":"10.66687182","decile":"9","lat":40.187710900423,"lng":-111.608416247644},{"id":"26449","name":"Otho Price","party":"","address":"793 N 150 E, Springville, UT 84663","precinct":"25SP03","hd":"62","v_score":"9.116556227","decile":"8","lat":40.176856362188,"lng":-111.608472230712},{"id":"26451","name":"Angella McClure DVM","party":"","address":"205 E 1300 N, Springville, UT 84663","precinct":"25SP03","hd":"62","v_score":"2.315214949","decile":"5","lat":40.184543021442,"lng":-111.606406162108},{"id":"26502","name":"Jep Ratke I","party":"Rep","address":"793 N 150 E, Springville, UT 84663","precinct":"25SP03","hd":"62","v_score":"9.116556227","decile":"8","lat":40.176856362188,"lng":-111.608472230712},{"id":"26535","name":"Amalia Rippin","party":"Dem","address":"1419 N 150 E, Springville, UT 84663","precinct":"25SP03","hd":"62","v_score":"9.682978083","decile":"8","lat":40.186005000569,"lng":-111.608394383008},{"id":"26686","name":"Zachariah Reinger-Nader","party":"","address":"1660 N 50 E, Springville, UT 84663","precinct":"25SP03","hd":"62","v_score":"0","decile":"1","lat":40.188993530975,"lng":-111.609750532587},{"id":"27030","name":"Winfield Tremblay","party":"","address":"888 N 375 E, Springville, UT 84663","precinct":"25SP03","hd":"62","v_score":"18.40864136","decile":"10","lat":40.178228110961,"lng":-111.603944660109},{"id":"28027","name":"Kacy Lehner","party":"","address":"1335 N 150 E, Springville, UT 84663","precinct":"25SP03","hd":"62","v_score":"3.93832808","decile":"6","lat":40.184819592646,"lng":-111.60838851728},{"id":"28138","name":"Liddie Lockman PhD","party":"Dem","address":"297 E 1150 N, Springville, UT 84663","precinct":"25SP03","hd":"62","v_score":"22.18745887","decile":"10","lat":40.182468301937,"lng":-111.605908078108},{"id":"28217","name":"Veronica Marquardt","party":"","address":"210 E 1230 N, Springville, UT 84663","precinct":"25SP03","hd":"62","v_score":"7.169296324","decile":"8","lat":40.183054586573,"lng":-111.606928926378},{"id":"30087","name":"Doris Kunze","party":"Dem","address":"1414 N 150 E, Springville, UT 84663","precinct":"25SP03","hd":"62","v_score":"2.315214949","decile":"5","lat":40.185945421117,"lng":-111.608244114199},{"id":"30095","name":"Geo Okuneva","party":"","address":"753 N 150 E, Springville, UT 84663","precinct":"25SP03","hd":"62","v_score":"8.507303088","decile":"8","lat":40.176680574848,"lng":-111.608470162649},{"id":"30315","name":"Jena Bruen","party":"Rep","address":"753 N 375 E, Springville, UT 84663","precinct":"25SP03","hd":"62","v_score":"34.44358256","decile":"10","lat":40.176894969153,"lng":-111.604116929808},{"id":"30336","name":"Ivey Ferry","party":"Dem","address":"290 E 1230 N, Springville, UT 84663","precinct":"25SP03","hd":"62","v_score":"1.46627566","decile":"4","lat":40.183066140075,"lng":-111.606046233793},{"id":"30481","name":"Lovie Marquardt","party":"Rep","address":"850 N Main St, Trlr 7, Springville, UT 84663","precinct":"25SP03","hd":"62","v_score":"2.315214949","decile":"5","lat":40.178207240342,"lng":-111.610531199047},{"id":"30838","name":"Mr. Kale Morar","party":"Dem","address":"179 E 700 N, Springville, UT 84663","precinct":"25SP03","hd":"62","v_score":"7.650280567","decile":"8","lat":40.175871045078,"lng":-111.608239529397},{"id":"31133","name":"Timmie Murphy","party":"Dem","address":"1432 Spring Mountain Dr, Springville, UT 84663","precinct":"25SP03","hd":"62","v_score":"6.881235673","decile":"8","lat":40.186364267254,"lng":-111.606944551735},{"id":"31443","name":"Herminia Hilll-Miller","party":"","address":"1388 N 200 E, Springville, UT 84663","precinct":"25SP03","hd":"62","v_score":"0","decile":"1","lat":40.18556414092,"lng":-111.606859054311},{"id":"31881","name":"Vincent Von-Klein","party":"","address":"193 E 1400 N, Springville, UT 84663","precinct":"25SP03","hd":"62","v_score":"8.347511332","decile":"8","lat":40.18573978207,"lng":-111.607673064252},{"id":"32017","name":"Elzy Grady PhD","party":"Dem","address":"1515 N 150 E, Springville, UT 84663","precinct":"25SP03","hd":"62","v_score":"10.7066531","decile":"9","lat":40.187600214928,"lng":-111.60841024387},{"id":"32377","name":"Verne Altenwerth-Walsh","party":"","address":"290 E 1075 N, Springville, UT 84663","precinct":"25SP03","hd":"62","v_score":"5.40460374","decile":"7","lat":40.181519078296,"lng":-111.605226033601},{"id":"32672","name":"Dr. Rae Klocko","party":"Dem","address":"290 E 1270 N, Springville, UT 84663","precinct":"25SP03","hd":"62","v_score":"19.74179771","decile":"10","lat":40.183734829162,"lng":-111.606361781958},{"id":"32812","name":"Misty Jenkins","party":"","address":"1149 N 400 E, Springville, UT 84663","precinct":"25SP03","hd":"62","v_score":"1.121327652","decile":"3","lat":40.182114279287,"lng":-111.604326557382},{"id":"34098","name":"Dr. Clayton Hirthe Jr.","party":"Dem","address":"1618 N 50 E, Springville, UT 84663","precinct":"25SP03","hd":"62","v_score":"6.724398202","decile":"8","lat":40.188711841781,"lng":-111.609736959661},{"id":"34556","name":"Monique Lindgren","party":"","address":"1119 N 400 E, Springville, UT 84663","precinct":"25SP03","hd":"62","v_score":"8.347511332","decile":"8","lat":40.181869601883,"lng":-111.604200311638},{"id":"34789","name":"Tia Stiedemann","party":"","address":"774 N 200 E, Springville, UT 84663","precinct":"25SP03","hd":"62","v_score":"6.814370645","decile":"8","lat":40.177018093065,"lng":-111.606978580963},{"id":"35066","name":"Kasen Schaden","party":"Rep","address":"724 N 200 E, Springville, UT 84663","precinct":"25SP03","hd":"62","v_score":"1.121327652","decile":"3","lat":40.176140960736,"lng":-111.606978085577},{"id":"35098","name":"Mr. Ewart Runte","party":"Dem","address":"1513 N 150 E, Springville, UT 84663","precinct":"25SP03","hd":"62","v_score":"3.781490609","decile":"6","lat":40.187560013087,"lng":-111.608409787036},{"id":"35879","name":"Megan Barton","party":"Dem","address":"1284 N 150 E, Springville, UT 84663","precinct":"25SP03","hd":"62","v_score":"1.46627566","decile":"4","lat":40.184109170402,"lng":-111.608234894533},{"id":"36226","name":"Shyanne Kreiger MD","party":"","address":"779 N 200 E, Springville, UT 84663","precinct":"25SP03","hd":"62","v_score":"0","decile":"1","lat":40.175565411561,"lng":-111.607194098126},{"id":"36505","name":"Dilan O'Kon","party":"","address":"1542 N 50 E, Springville, UT 84663","precinct":"25SP03","hd":"62","v_score":"0","decile":"1","lat":40.188292849051,"lng":-111.609619705724},{"id":"36639","name":"Trinidad Gibson","party":"","address":"152 E 1270 N, Springville, UT 84663","precinct":"25SP03","hd":"62","v_score":"2.315214949","decile":"5","lat":40.183730710541,"lng":-111.607824826419},{"id":"36912","name":"Erlene Stracke","party":"Dem","address":"888 N 375 E, Springville, UT 84663","precinct":"25SP03","hd":"62","v_score":"15.45006148","decile":"9","lat":40.178228110961,"lng":-111.603944660109},{"id":"37661","name":"Lovisa Wehner","party":"Rep","address":"103 E 700 N, Unit 17, Springville, UT 84663","precinct":"25SP03","hd":"62","v_score":"3.781490609","decile":"6","lat":40.17630512763,"lng":-111.610472462771},{"id":"38342","name":"Cassidy Volkman","party":"","address":"1432 Spring Mountain Dr, Springville, UT 84663","precinct":"25SP03","hd":"62","v_score":"6.881235673","decile":"8","lat":40.186364267254,"lng":-111.606944551735},{"id":"38567","name":"Gustaf Kertzmann","party":"Rep","address":"1536 N 50 E, Springville, UT 84663","precinct":"25SP03","hd":"62","v_score":"11.99259879","decile":"9","lat":40.188271828249,"lng":-111.609610947061},{"id":"38689","name":"Jeremie Kris MD","party":"Rep","address":"722 N 150 E, Springville, UT 84663","precinct":"25SP03","hd":"62","v_score":"2.315214949","decile":"5","lat":40.176270589524,"lng":-111.608311912699},{"id":"39204","name":"Caryl Beahan-Gaylord","party":"Dem","address":"1148 N 200 E, Springville, UT 84663","precinct":"25SP03","hd":"62","v_score":"1.121327652","decile":"3","lat":40.182175278965,"lng":-111.607273477067},{"id":"39381","name":"Derwin Sawayn","party":"Dem","address":"1372 N Millpond Dr, Springville, UT 84663","precinct":"25SP03","hd":"62","v_score":"5.659072284","decile":"7","lat":40.185013778252,"lng":-111.605712089991},{"id":"39917","name":"Mrs. Cecelia Ankunding","party":"","address":"290 E 1270 N, Springville, UT 84663","precinct":"25SP03","hd":"62","v_score":"19.74179771","decile":"10","lat":40.183734829162,"lng":-111.606361781958},{"id":"40166","name":"Mr. Deshawn Haag","party":"","address":"179 E 700 N, Springville, UT 84663","precinct":"25SP03","hd":"62","v_score":"3.93832808","decile":"6","lat":40.175871045078,"lng":-111.608239529397},{"id":"40174","name":"Georgie Price","party":"Dem","address":"1292 N 150 E, Springville, UT 84663","precinct":"25SP03","hd":"62","v_score":"2.315214949","decile":"5","lat":40.184215259083,"lng":-111.608235435788},{"id":"41023","name":"Danika Cassin","party":"","address":"757 N 200 E, Springville, UT 84663","precinct":"25SP03","hd":"62","v_score":"1.121327652","decile":"3","lat":40.175380286311,"lng":-111.60719765825},{"id":"41232","name":"Kaleena Braun","party":"","address":"794 N 200 E, Springville, UT 84663","precinct":"25SP03","hd":"62","v_score":"24.66382884","decile":"10","lat":40.17731653339,"lng":-111.606975227663},{"id":"41499","name":"Mr. Jerald Runolfsdottir","party":"Rep","address":"1438 N 150 E, Springville, UT 84663","precinct":"25SP03","hd":"62","v_score":"3.781490609","decile":"6","lat":40.18630528528,"lng":-111.608245749898},{"id":"41532","name":"Emanuel Brekke","party":"Dem","address":"290 E 1300 N, Springville, UT 84663","precinct":"25SP03","hd":"62","v_score":"5.530510904","decile":"7","lat":40.184427409605,"lng":-111.606213820127},{"id":"41944","name":"Misael Bechtelar","party":"Dem","address":"1536 N 50 E, Springville, UT 84663","precinct":"25SP03","hd":"62","v_score":"8.280646305","decile":"8","lat":40.188271828249,"lng":-111.609610947061},{"id":"41987","name":"Arden Frami","party":"","address":"1471 N 150 E, Springville, UT 84663","precinct":"25SP03","hd":"62","v_score":"5.530510904","decile":"7","lat":40.186784234941,"lng":-111.608399163279},{"id":"42003","name":"Diamond Schroeder","party":"","address":"1451 N 150 E, Springville, UT 84663","precinct":"25SP03","hd":"62","v_score":"7.493443096","decile":"8","lat":40.186484819453,"lng":-111.608396563941},{"id":"43345","name":"Ansel Erdman-Wyman","party":"","address":"1336 N 150 E, Springville, UT 84663","precinct":"25SP03","hd":"62","v_score":"0","decile":"1","lat":40.184798746832,"lng":-111.608238412691},{"id":"44437","name":"Horatio Kling-Volkman","party":"Rep","address":"900 N Main St, Apt 1, Springville, UT 84663","precinct":"25SP03","hd":"62","v_score":"32.98147797","decile":"10","lat":40.178706633391,"lng":-111.610533842675},{"id":"44594","name":"Miss Lois Hintz DDS","party":"Dem","address":"900 N Main St, Apt 18, Springville, UT 84663","precinct":"25SP03","hd":"62","v_score":"1.121327652","decile":"3","lat":40.178706633391,"lng":-111.610533842675},{"id":"44933","name":"Leaner Breitenberg","party":"Rep","address":"250 E 1230 N, Springville, UT 84663","precinct":"25SP03","hd":"62","v_score":"6.881235673","decile":"8","lat":40.183060363324,"lng":-111.606487580085},{"id":"44988","name":"Calvin Leannon","party":"Rep","address":"757 N 200 E, Springville, UT 84663","precinct":"25SP03","hd":"62","v_score":"2.315214949","decile":"5","lat":40.175380286311,"lng":-111.60719765825},{"id":"45026","name":"Vince Medhurst","party":"Rep","address":"1521 N 150 E, Springville, UT 84663","precinct":"25SP03","hd":"62","v_score":"1.46627566","decile":"4","lat":40.187754676929,"lng":-111.608420503687},{"id":"46070","name":"Dr. Dewey Satterfield","party":"","address":"1375 N 200 E, Springville, UT 84663","precinct":"25SP03","hd":"62","v_score":"27.02719121","decile":"10","lat":40.185452027842,"lng":-111.60700339685},{"id":"46210","name":"Lennie Mosciski","party":"Rep","address":"850 N Main St, Trlr 44, Springville, UT 84663","precinct":"25SP03","hd":"62","v_score":"1.121327652","decile":"3","lat":40.178207240342,"lng":-111.610531199047},{"id":"46315","name":"Ananias Konopelski","party":"Rep","address":"909 N 400 E, Springville, UT 84663","precinct":"25SP03","hd":"62","v_score":"0","decile":"1","lat":40.138831625824,"lng":-111.574145888763},{"id":"46562","name":"Mrs. Rebeca Wunsch DDS","party":"","address":"900 N Main St, Apt 1, Springville, UT 84663","precinct":"25SP03","hd":"62","v_score":"20.46505704","decile":"10","lat":40.178706633391,"lng":-111.610533842675},{"id":"47452","name":"Mr. Elizah Streich III","party":"Rep","address":"852 N 375 E, Springville, UT 84663","precinct":"25SP03","hd":"62","v_score":"0","decile":"1","lat":40.177874892181,"lng":-111.603951518771},{"id":"47648","name":"Amy Adams DDS","party":"Rep","address":"900 N Main Street, Springville, UT 84663","precinct":"25SP03","hd":"62","v_score":"5.274151572","decile":"7","lat":40.178706633391,"lng":-111.610533842675},{"id":"47685","name":"Evelyn Beer-Green","party":"Dem","address":"160 E 750 N, Springville, UT 84663","precinct":"25SP03","hd":"62","v_score":"2.587603312","decile":"5","lat":40.176568513956,"lng":-111.607591643669},{"id":"47938","name":"Rena Lynch","party":"","address":"1318 N Millpond Dr, Springville, UT 84663","precinct":"25SP03","hd":"62","v_score":"1.121327652","decile":"3","lat":40.184626250562,"lng":-111.60550933045},{"id":"48153","name":"Eddie Koss-Torp","party":"","address":"1658 N 100 E, Springville, UT 84663","precinct":"25SP03","hd":"62","v_score":"1.46627566","decile":"4","lat":40.189024849354,"lng":-111.608800895452},{"id":"48253","name":"Raquan Leuschke","party":"Dem","address":"368 E 1075 N, Springville, UT 84663","precinct":"25SP03","hd":"62","v_score":"20.26520646","decile":"10","lat":40.181523579988,"lng":-111.604383080021},{"id":"49043","name":"Kerry Abshire","party":"Dem","address":"1418 N 150 E, Springville, UT 84663","precinct":"25SP03","hd":"62","v_score":"6.881235673","decile":"8","lat":40.186005398477,"lng":-111.608244386815},{"id":"49197","name":"Tomasa Buckridge","party":"Rep","address":"99 E 1150 N, Springville, UT 84663","precinct":"25SP03","hd":"62","v_score":"18.74349914","decile":"10","lat":40.182526022652,"lng":-111.608925400154},{"id":"49253","name":"Dr. Marina Wuckert MD","party":"Dem","address":"1602 N 100 E, Springville, UT 84663","precinct":"25SP03","hd":"62","v_score":"8.280646305","decile":"8","lat":40.188612044485,"lng":-111.608800895505},{"id":"49254","name":"Amira Cremin PhD","party":"Dem","address":"1602 N 100 E, Springville, UT 84663","precinct":"25SP03","hd":"62","v_score":"8.280646305","decile":"8","lat":40.188612044485,"lng":-111.608800895505},{"id":"49332","name":"Mr. Rustin Wolf IV","party":"Rep","address":"1620 N 100 E, Springville, UT 84663","precinct":"25SP03","hd":"62","v_score":"1.193887297","decile":"3","lat":40.188744731765,"lng":-111.608800895488},{"id":"50169","name":"Deidra Glover","party":"","address":"1482 Spring Mountain Dr, Springville, UT 84663","precinct":"25SP03","hd":"62","v_score":"3.781490609","decile":"6","lat":40.187197110778,"lng":-111.607795970732},{"id":"50411","name":"Elida Rosenbaum","party":"Rep","address":"297 E 1150 N, Springville, UT 84663","precinct":"25SP03","hd":"62","v_score":"24.37270649","decile":"10","lat":40.182468301937,"lng":-111.605908078108},{"id":"51424","name":"Jaylyn Hudson","party":"","address":"802 N 150 E, Springville, UT 84663","precinct":"25SP03","hd":"62","v_score":"7.159318653","decile":"8","lat":40.176917776271,"lng":-111.608322968412},{"id":"51735","name":"Priscila Satterfield","party":"Rep","address":"397 E 1150 N, Springville, UT 84663","precinct":"25SP03","hd":"62","v_score":"0","decile":"1","lat":40.182481867117,"lng":-111.604529971251},{"id":"52193","name":"Gillian O'Kon","party":"Dem","address":"183 E 700 N, Springville, UT 84663","precinct":"25SP03","hd":"62","v_score":"1.193887297","decile":"3","lat":40.175798781701,"lng":-111.608031130855},{"id":"52745","name":"Jamil Kozey","party":"Dem","address":"1258 N Millpond Dr, Springville, UT 84663","precinct":"25SP03","hd":"62","v_score":"2.660162957","decile":"5","lat":40.183591640225,"lng":-111.604941180546},{"id":"53831","name":"Kiel Bechtelar","party":"Rep","address":"900 N Main St, Apt 21, Springville, UT 84663","precinct":"25SP03","hd":"62","v_score":"1.46627566","decile":"4","lat":40.178706633391,"lng":-111.610533842675},{"id":"53894","name":"Mr. Osvaldo Cummerata DVM","party":"","address":"779 N 200 E, Springville, UT 84663","precinct":"25SP03","hd":"62","v_score":"5.530510904","decile":"7","lat":40.175565411561,"lng":-111.607194098126},{"id":"54180","name":"Charle Gutmann-Blick","party":"Rep","address":"270 E 1270 N, Springville, UT 84663","precinct":"25SP03","hd":"62","v_score":"16.99735693","decile":"9","lat":40.183733980209,"lng":-111.606575722224},{"id":"54239","name":"Akeem Hauck","party":"","address":"57 E 1600 N, Springville, UT 84663","precinct":"25SP03","hd":"62","v_score":"0","decile":"1","lat":40.188593331125,"lng":-111.609269459503},{"id":"54609","name":"Ms. Arletta Thompson MD","party":"Dem","address":"103 E 700 N, Unit 16, Springville, UT 84663","precinct":"25SP03","hd":"62","v_score":"8.570402431","decile":"8","lat":40.17630512763,"lng":-111.610472462771},{"id":"55288","name":"Ivana Skiles","party":"Dem","address":"120 E 1250 N, Springville, UT 84663","precinct":"25SP03","hd":"62","v_score":"0","decile":"1","lat":40.183455248751,"lng":-111.608703407797},{"id":"55388","name":"Mitzi Morar","party":"Rep","address":"769 N 150 E, Springville, UT 84663","precinct":"25SP03","hd":"62","v_score":"0","decile":"1","lat":40.176750889784,"lng":-111.608470989874},{"id":"56596","name":"Robbie Hermann","party":"","address":"799 N 400 E, Springville, UT 84663","precinct":"25SP03","hd":"62","v_score":"0","decile":"1","lat":40.178034371213,"lng":-111.603164743383},{"id":"57585","name":"Aloys Luettgen","party":"Rep","address":"1375 N 200 E, Springville, UT 84663","precinct":"25SP03","hd":"62","v_score":"18.8868124","decile":"10","lat":40.185452027842,"lng":-111.60700339685},{"id":"57678","name":"Doshie Wiegand","party":"Rep","address":"60 E 1150 N, Springville, UT 84663","precinct":"25SP03","hd":"62","v_score":"0","decile":"1","lat":40.182405979461,"lng":-111.609653850672},{"id":"58034","name":"Dr. Clearence Mayert","party":"","address":"1295 N 170 E, Springville, UT 84663","precinct":"25SP03","hd":"62","v_score":"0","decile":"1","lat":40.184356307315,"lng":-111.607464675524},{"id":"58163","name":"Marty West","party":"Rep","address":"1457 N 150 E, Springville, UT 84663","precinct":"25SP03","hd":"62","v_score":"4.152467179","decile":"7","lat":40.186574785494,"lng":-111.608396972865},{"id":"59157","name":"Ashby Herman","party":"Dem","address":"756 N 150 E, Springville, UT 84663","precinct":"25SP03","hd":"62","v_score":"1.121327652","decile":"3","lat":40.176723497016,"lng":-111.608320682799},{"id":"59290","name":"Lalla Goyette-Skiles","party":"","address":"1652 N 100 E, Springville, UT 84663","precinct":"25SP03","hd":"62","v_score":"1.121327652","decile":"3","lat":40.188980620261,"lng":-111.608800895458},{"id":"59965","name":"Nicolas Powlowski","party":"Rep","address":"792 N 200 E, Springville, UT 84663","precinct":"25SP03","hd":"62","v_score":"9.757278238","decile":"8","lat":40.177286689357,"lng":-111.606975562993},{"id":"60283","name":"Vesta Morissette","party":"Rep","address":"1335 N 150 E, Springville, UT 84663","precinct":"25SP03","hd":"62","v_score":"1.623113131","decile":"5","lat":40.184819592646,"lng":-111.60838851728},{"id":"60434","name":"Dr. Marcell Leuschke PhD","party":"","address":"1478 N 150 E, Springville, UT 84663","precinct":"25SP03","hd":"62","v_score":"0","decile":"1","lat":40.186905508639,"lng":-111.60825099141},{"id":"60672","name":"Caryl Lynch-Bergstrom","party":"Rep","address":"747 N 400 E, Springville, UT 84663","precinct":"25SP03","hd":"62","v_score":"0","decile":"1","lat":40.177033758192,"lng":-111.603179309566},{"id":"60775","name":"Artis Bernhard-Wehner","party":"","address":"1512 N 150 E, Springville, UT 84663","precinct":"25SP03","hd":"62","v_score":"0","decile":"1","lat":40.187354255494,"lng":-111.608257442657},{"id":"61238","name":"Mrs. Zenobia Blick MD","party":"Rep","address":"1149 N 400 E, Springville, UT 84663","precinct":"25SP03","hd":"62","v_score":"0","decile":"1","lat":40.182114279287,"lng":-111.604326557382},{"id":"61239","name":"Lawton Reichel","party":"Rep","address":"900 N Main St, Apt 12, Springville, UT 84663","precinct":"25SP03","hd":"62","v_score":"0","decile":"1","lat":40.178706633391,"lng":-111.610533842675},{"id":"61357","name":"Esco Prosacco MD","party":"Dem","address":"103 E 700 N, Unit 15, Springville, UT 84663","precinct":"25SP03","hd":"62","v_score":"3.93832808","decile":"6","lat":40.17630512763,"lng":-111.610472462771},{"id":"61391","name":"Shaylee Crooks","party":"Dem","address":"164 E 750 N, Springville, UT 84663","precinct":"25SP03","hd":"62","v_score":"2.315214949","decile":"5","lat":40.176569166215,"lng":-111.607543213222},{"id":"61954","name":"Tatsuo Jast","party":"Rep","address":"900 N Main St, Apt 4, Springville, UT 84663","precinct":"25SP03","hd":"62","v_score":"1.121327652","decile":"3","lat":40.178706633391,"lng":-111.610533842675},{"id":"62010","name":"Lavon Mante","party":"","address":"189 E 1400 N, Springville, UT 84663","precinct":"25SP03","hd":"62","v_score":"1.193887297","decile":"3","lat":40.185739609814,"lng":-111.607697869457},{"id":"62069","name":"Mr. Francis Raynor Jr.","party":"","address":"850 N Main St, Trlr 24, Springville, UT 84663","precinct":"25SP03","hd":"62","v_score":"1.121327652","decile":"3","lat":40.178207240342,"lng":-111.610531199047},{"id":"62513","name":"Myrtle Koss-Padberg","party":"Rep","address":"368 E 1075 N, Springville, UT 84663","precinct":"25SP03","hd":"62","v_score":"9.498154327","decile":"8","lat":40.181523579988,"lng":-111.604383080021},{"id":"63216","name":"Dr. Leopoldo Sporer MD","party":"Rep","address":"110 E 1250 N, Springville, UT 84663","precinct":"25SP03","hd":"62","v_score":"14.13332036","decile":"9","lat":40.18345173021,"lng":-111.608753371138},{"id":"63337","name":"Daniela Treutel","party":"","address":"1422 N Spring Mountain Dr, Springville, UT 84663","precinct":"25SP03","hd":"62","v_score":"2.315214949","decile":"5","lat":40.186197398229,"lng":-111.606776975687},{"id":"63830","name":"Chandler Reichel","party":"Rep","address":"1569 N 150 E, Springville, UT 84663","precinct":"25SP03","hd":"62","v_score":"1.121327652","decile":"3","lat":40.188219433013,"lng":-111.608617460232},{"id":"64747","name":"Kiara Cruickshank","party":"","address":"1375 N 200 E, Springville, UT 84663","precinct":"25SP03","hd":"62","v_score":"6.814370645","decile":"8","lat":40.185452027842,"lng":-111.60700339685},{"id":"64949","name":"Emilio Lesch","party":"Dem","address":"1485 Spring Mountain Dr, Springville, UT 84663","precinct":"25SP03","hd":"62","v_score":"4.210478549","decile":"7","lat":40.187139144195,"lng":-111.607936266417},{"id":"64984","name":"Erie Krajcik","party":"","address":"1569 N 150 E, Springville, UT 84663","precinct":"25SP03","hd":"62","v_score":"2.817000428","decile":"6","lat":40.188219433013,"lng":-111.608617460232},{"id":"65476","name":"Jamin Kshlerin","party":"Rep","address":"345 E 1230 N, Springville, UT 84663","precinct":"25SP03","hd":"62","v_score":"0","decile":"1","lat":40.183188513296,"lng":-111.605452985636},{"id":"65896","name":"Tawny Gulgowski","party":"","address":"1318 N Millpond Dr, Springville, UT 84663","precinct":"25SP03","hd":"62","v_score":"2.942907593","decile":"6","lat":40.184626250562,"lng":-111.60550933045},{"id":"66009","name":"Ms. Jettie Koelpin DVM","party":"Rep","address":"1515 N 150 E, Springville, UT 84663","precinct":"25SP03","hd":"62","v_score":"9.757278238","decile":"8","lat":40.187600214928,"lng":-111.60841024387},{"id":"66339","name":"Elyssa Baumbach","party":"","address":"240 E 1270 N, Springville, UT 84663","precinct":"25SP03","hd":"62","v_score":"1.121327652","decile":"3","lat":40.183732706779,"lng":-111.606896632624},{"id":"66518","name":"Mrs. Fleeta Mueller","party":"Rep","address":"1505 N 150 E, Springville, UT 84663","precinct":"25SP03","hd":"62","v_score":"2.315214949","decile":"5","lat":40.187399205722,"lng":-111.6084079597},{"id":"66813","name":"Deyanira Tremblay","party":"","address":"1422 Spring Mountain Dr, Springville, UT 84663","precinct":"25SP03","hd":"62","v_score":"3.93832808","decile":"6","lat":40.186197398229,"lng":-111.606776975687},{"id":"67110","name":"Haven Bartell","party":"Dem","address":"797 N 150 E, Springville, UT 84663","precinct":"25SP03","hd":"62","v_score":"29.11775183","decile":"10","lat":40.176873940922,"lng":-111.608472437518},{"id":"67112","name":"Charlton Jerde","party":"Rep","address":"797 N 150 E, Springville, UT 84663","precinct":"25SP03","hd":"62","v_score":"29.11775183","decile":"10","lat":40.176873940922,"lng":-111.608472437518},{"id":"67457","name":"Lera Fay","party":"Dem","address":"759 N 150 E, Springville, UT 84663","precinct":"25SP03","hd":"62","v_score":"1.121327652","decile":"3","lat":40.176706942949,"lng":-111.608470472858},{"id":"69653","name":"Davon Hansen","party":"Rep","address":"1149 N 400 E, Springville, UT 84663","precinct":"25SP03","hd":"62","v_score":"0","decile":"1","lat":40.182114279287,"lng":-111.604326557382},{"id":"69988","name":"Dr. Leonel Buckridge PhD","party":"","address":"708 N 200 E, Springville, UT 84663","precinct":"25SP03","hd":"62","v_score":"13.54291438","decile":"9","lat":40.175873156827,"lng":-111.606975460084},{"id":"70115","name":"Dr. London Lang Jr.","party":"Rep","address":"763 N 200 E, Springville, UT 84663","precinct":"25SP03","hd":"62","v_score":"1.121327652","decile":"3","lat":40.175430775016,"lng":-111.607196687307},{"id":"70166","name":"Dr. Mathews Kassulke MD","party":"Dem","address":"1512 N 150 E, Springville, UT 84663","precinct":"25SP03","hd":"62","v_score":"2.315214949","decile":"5","lat":40.187354255494,"lng":-111.608257442657},{"id":"71976","name":"Heather Schiller","party":"","address":"1149 N 400 E, Springville, UT 84663","precinct":"25SP03","hd":"62","v_score":"0","decile":"1","lat":40.182114279287,"lng":-111.604326557382},{"id":"72116","name":"Lavon Heller DVM","party":"Dem","address":"737 N 375 E, Springville, UT 84663","precinct":"25SP03","hd":"62","v_score":"23.14124903","decile":"10","lat":40.17673796999,"lng":-111.604118439436},{"id":"72158","name":"Macel Greenfelder","party":"","address":"900 N Main St, Apt 31, Springville, UT 84663","precinct":"25SP03","hd":"62","v_score":"1.193887297","decile":"3","lat":40.178706633391,"lng":-111.610533842675},{"id":"72187","name":"Jermain Greenholt","party":"","address":"103 E 700 N, Unit 16, Springville, UT 84663","precinct":"25SP03","hd":"62","v_score":"7.650280567","decile":"8","lat":40.17630512763,"lng":-111.610472462771},{"id":"72702","name":"Elzie Marquardt","party":"Dem","address":"1512 N 150 E, Springville, UT 84663","precinct":"25SP03","hd":"62","v_score":"2.315214949","decile":"5","lat":40.187354255494,"lng":-111.608257442657},{"id":"73092","name":"Kristin Hessel","party":"","address":"290 E 1230 N, Springville, UT 84663","precinct":"25SP03","hd":"62","v_score":"1.121327652","decile":"3","lat":40.183066140075,"lng":-111.606046233793},{"id":"73965","name":"Dafne Mraz","party":"Dem","address":"170 E 1270 N, Springville, UT 84663","precinct":"25SP03","hd":"62","v_score":"4.137918904","decile":"7","lat":40.18373071053,"lng":-111.60768789658},{"id":"74121","name":"Roselyn McClure MD","party":"","address":"1648 N 50 E, Springville, UT 84663","precinct":"25SP03","hd":"62","v_score":"5.191257514","decile":"7","lat":40.188917444266,"lng":-111.609754683985},{"id":"74393","name":"Phoenix Fadel","party":"Dem","address":"802 N 150 E, Springville, UT 84663","precinct":"25SP03","hd":"62","v_score":"1.121327652","decile":"3","lat":40.176917776271,"lng":-111.608322968412},{"id":"74752","name":"Roxanne Brakus-Brown","party":"","address":"1418 N 150 E, Springville, UT 84663","precinct":"25SP03","hd":"62","v_score":"1.193887297","decile":"3","lat":40.186005398477,"lng":-111.608244386815},{"id":"74774","name":"Ardith Jacobi MD","party":"","address":"1602 N 100 E, Springville, UT 84663","precinct":"25SP03","hd":"62","v_score":"2.817000428","decile":"6","lat":40.188612044485,"lng":-111.608800895505},{"id":"75269","name":"Odin Conroy","party":"Rep","address":"791 N 200 E, Springville, UT 84663","precinct":"25SP03","hd":"62","v_score":"2.315214949","decile":"5","lat":40.176690792443,"lng":-111.607132241168},{"id":"75310","name":"Mr. Erasmus Gulgowski","party":"","address":"791 N 200 E, Springville, UT 84663","precinct":"25SP03","hd":"62","v_score":"2.315214949","decile":"5","lat":40.176690792443,"lng":-111.607132241168},{"id":"75523","name":"Rosalie Hauck","party":"Rep","address":"103 E 700 N, Unit 7, Springville, UT 84663","precinct":"25SP03","hd":"62","v_score":"2.315214949","decile":"5","lat":40.17630512763,"lng":-111.610472462771},{"id":"76105","name":"Mr. Lucien Hoeger","party":"Dem","address":"1521 N 150 E, Springville, UT 84663","precinct":"25SP03","hd":"62","v_score":"1.121327652","decile":"3","lat":40.187754676929,"lng":-111.608420503687},{"id":"76313","name":"Miss Lala Bashirian","party":"Rep","address":"850 N Main St, Trlr 11, Springville, UT 84663","precinct":"25SP03","hd":"62","v_score":"2.315214949","decile":"5","lat":40.178207240342,"lng":-111.610531199047},{"id":"76485","name":"Kathy Weimann-Muller","party":"Rep","address":"1119 N 400 E, Springville, UT 84663","precinct":"25SP03","hd":"62","v_score":"1.121327652","decile":"3","lat":40.181869601883,"lng":-111.604200311638},{"id":"77056","name":"Buren Schimmel Sr.","party":"","address":"900 N Main St, Apt 15, Springville, UT 84663","precinct":"25SP03","hd":"62","v_score":"1.121327652","decile":"3","lat":40.178706633391,"lng":-111.610533842675},{"id":"77588","name":"Breonna Moen MD","party":"Rep","address":"1614 N 50 E, Springville, UT 84663","precinct":"25SP03","hd":"62","v_score":"5.191257514","decile":"7","lat":40.188684428117,"lng":-111.609734596418},{"id":"77718","name":"Marty Stehr-Bednar","party":"","address":"375 E 1150 N, Springville, UT 84663","precinct":"25SP03","hd":"62","v_score":"2.315214949","decile":"5","lat":40.182475855636,"lng":-111.604824306487},{"id":"77899","name":"Janelle Fadel","party":"Dem","address":"1437 N 150 E, Springville, UT 84663","precinct":"25SP03","hd":"62","v_score":"1.121327652","decile":"3","lat":40.186274898691,"lng":-111.608395609782},{"id":"78085","name":"Bertina Hane","party":"Dem","address":"1368 N 200 E, Springville, UT 84663","precinct":"25SP03","hd":"62","v_score":"2.315214949","decile":"5","lat":40.18541041137,"lng":-111.606851141781},{"id":"78386","name":"Dempsey Stehr","party":"Rep","address":"1258 N Millpond Dr, Springville, UT 84663","precinct":"25SP03","hd":"62","v_score":"1.121327652","decile":"3","lat":40.183591640225,"lng":-111.604941180546},{"id":"79209","name":"Dr. Merrill Ritchie","party":"Dem","address":"722 N 150 E, Springville, UT 84663","precinct":"25SP03","hd":"62","v_score":"2.315214949","decile":"5","lat":40.176270589524,"lng":-111.608311912699},{"id":"79288","name":"Ms. Mimi Bechtelar","party":"","address":"210 E 1270 N, Springville, UT 84663","precinct":"25SP03","hd":"62","v_score":"1.121327652","decile":"3","lat":40.183731433349,"lng":-111.607217543023},{"id":"79782","name":"Robbin Langosh","party":"Dem","address":"852 N 375 E, Springville, UT 84663","precinct":"25SP03","hd":"62","v_score":"1.121327652","decile":"3","lat":40.177874892181,"lng":-111.603951518771},{"id":"80011","name":"Raegan Wyman","party":"Dem","address":"375 E 1150 N, Springville, UT 84663","precinct":"25SP03","hd":"62","v_score":"2.315214949","decile":"5","lat":40.182475855636,"lng":-111.604824306487},{"id":"80536","name":"Jaidyn Huel-Hyatt","party":"","address":"230 E 1230 N, Springville, UT 84663","precinct":"25SP03","hd":"62","v_score":"1.121327652","decile":"3","lat":40.183057474948,"lng":-111.606708253231},{"id":"82027","name":"Makaila Ullrich DVM","party":"Dem","address":"1368 N 200 E, Springville, UT 84663","precinct":"25SP03","hd":"62","v_score":"0","decile":"1","lat":40.18541041137,"lng":-111.606851141781},{"id":"82231","name":"Dr. Spencer Heathcote","party":"","address":"771 N 200 E, Springville, UT 84663","precinct":"25SP03","hd":"62","v_score":"1.193887297","decile":"3","lat":40.175498093288,"lng":-111.607195392717},{"id":"82485","name":"Freeman Stanton","party":"Dem","address":"850 N Main St, Trlr 17, Springville, UT 84663","precinct":"25SP03","hd":"62","v_score":"0","decile":"1","lat":40.178207240342,"lng":-111.610531199047},{"id":"82600","name":"Vita Prosacco","party":"Dem","address":"1368 N 200 E, Springville, UT 84663","precinct":"25SP03","hd":"62","v_score":"0","decile":"1","lat":40.18541041137,"lng":-111.606851141781},{"id":"82759","name":"Jaunita Wilkinson DVM","party":"Rep","address":"900 N Main St, Apt 21, Springville, UT 84663","precinct":"25SP03","hd":"62","v_score":"0","decile":"1","lat":40.178706633391,"lng":-111.610533842675},{"id":"83201","name":"Mrs. Aniyah Kunde PhD","party":"Dem","address":"900 N Main St, Springville, UT 84663","precinct":"25SP03","hd":"62","v_score":"0","decile":"1","lat":40.178706633391,"lng":-111.610533842675},{"id":"83250","name":"Diamond Lindgren V","party":"Dem","address":"1292 N 150 E, Springville, UT 84663","precinct":"25SP03","hd":"62","v_score":"1.193887297","decile":"3","lat":40.184215259083,"lng":-111.608235435788},{"id":"83336","name":"Mr. Rubin Johnston PhD","party":"","address":"737 N 150 E, Springville, UT 84663","precinct":"25SP03","hd":"62","v_score":"5.83359168","decile":"7","lat":40.176507716079,"lng":-111.608467065341},{"id":"83417","name":"Marcia Hills-Schaden","party":"Dem","address":"1567 N 150 E, Springville, UT 84663","precinct":"25SP03","hd":"62","v_score":"2.817000428","decile":"6","lat":40.188200667562,"lng":-111.608602558261},{"id":"84393","name":"Bea Prosacco","party":"","address":"1538 N 50 E, Springville, UT 84663","precinct":"25SP03","hd":"62","v_score":"0","decile":"1","lat":40.188278835183,"lng":-111.609613866615},{"id":"84732","name":"Bradyn Fisher-Lakin","party":"Dem","address":"1475 Spring Mountain Dr, Bsmt, Springville, UT 84663","precinct":"25SP03","hd":"62","v_score":"14.80169278","decile":"9","lat":40.186995365968,"lng":-111.607767380654},{"id":"85394","name":"Mira Bogisich","party":"Rep","address":"1499 N 150 E, Springville, UT 84663","precinct":"25SP03","hd":"62","v_score":"0","decile":"1","lat":40.187204050875,"lng":-111.608405524072},{"id":"85974","name":"Landyn Armstrong Jr.","party":"","address":"322 E 1150 N, Springville, UT 84663","precinct":"25SP03","hd":"62","v_score":"1.623113131","decile":"5","lat":40.182353710526,"lng":-111.605557131148},{"id":"87340","name":"Ms. Virginia Mitchell PhD","party":"Rep","address":"205 E 1300 N, Springville, UT 84663","precinct":"25SP03","hd":"62","v_score":"0","decile":"1","lat":40.184543021442,"lng":-111.606406162108},{"id":"87670","name":"Ivan Streich","party":"Rep","address":"252 E 1075 N, Springville, UT 84663","precinct":"25SP03","hd":"62","v_score":"21.94954204","decile":"10","lat":40.181516885165,"lng":-111.605636703294},{"id":"87771","name":"Rosemary Bradtke","party":"","address":"1402 Spring Mountain Dr, Springville, UT 84663","precinct":"25SP03","hd":"62","v_score":"4.069929862","decile":"6","lat":40.185786197502,"lng":-111.60656780003},{"id":"88065","name":"Meryl Dibbert-Murray","party":"","address":"1612 N 100 E, Springville, UT 84663","precinct":"25SP03","hd":"62","v_score":"0","decile":"1","lat":40.18868575964,"lng":-111.608800895496},{"id":"88771","name":"Brenton Steuber","party":"Rep","address":"1618 N 50 E, Springville, UT 84663","precinct":"25SP03","hd":"62","v_score":"0","decile":"1","lat":40.188711841781,"lng":-111.609736959661},{"id":"89140","name":"Dariana Howell-Bogisich","party":"Rep","address":"1437 N 150 E, Springville, UT 84663","precinct":"25SP03","hd":"62","v_score":"1.193887297","decile":"4","lat":40.186274898691,"lng":-111.608395609782},{"id":"89347","name":"Arbie Keeling","party":"","address":"1336 N 150 E, Springville, UT 84663","precinct":"25SP03","hd":"62","v_score":"1.193887297","decile":"4","lat":40.184798746832,"lng":-111.608238412691},{"id":"91189","name":"Cassidy Reinger","party":"","address":"197 E 1400 N, Springville, UT 84663","precinct":"25SP03","hd":"62","v_score":"0","decile":"1","lat":40.185739954327,"lng":-111.607648259047},{"id":"91269","name":"Kiyoshi Mueller","party":"Rep","address":"736 N 200 E, Springville, UT 84663","precinct":"25SP03","hd":"62","v_score":"0","decile":"1","lat":40.176341813667,"lng":-111.606980054698},{"id":"91946","name":"Tiarra Kerluke DDS","party":"Rep","address":"1335 N 150 E, Springville, UT 84663","precinct":"25SP03","hd":"62","v_score":"1.623113131","decile":"5","lat":40.184819592646,"lng":-111.60838851728},{"id":"93783","name":"Delwin Kirlin","party":"","address":"1305 N 150 E, Springville, UT 84663","precinct":"25SP03","hd":"62","v_score":"2.817000428","decile":"6","lat":40.184444173192,"lng":-111.608386601923},{"id":"94452","name":"Kelvin Klocko-Fadel","party":"","address":"900 N Main St, Apt 5, Springville, UT 84663","precinct":"25SP03","hd":"62","v_score":"0","decile":"1","lat":40.178706633391,"lng":-111.610533842675},{"id":"94919","name":"Emilia Ritchie","party":"Rep","address":"1502 N 150 E, Springville, UT 84663","precinct":"25SP03","hd":"62","v_score":"1.193887297","decile":"4","lat":40.187325539893,"lng":-111.608257116347},{"id":"95229","name":"Dr. Marlon Crist I","party":"Rep","address":"103 E 700 N, Unit 2, Springville, UT 84663","precinct":"25SP03","hd":"62","v_score":"1.193887297","decile":"4","lat":40.17630512763,"lng":-111.610472462771},{"id":"95783","name":"Kayden Casper PhD","party":"","address":"709 N 375 E, Springville, UT 84663","precinct":"25SP03","hd":"62","v_score":"2.817000428","decile":"6","lat":40.176463221454,"lng":-111.604121081284},{"id":"95814","name":"Phebe Heller","party":"Dem","address":"375 E 1150 N, Springville, UT 84663","precinct":"25SP03","hd":"62","v_score":"1.193887297","decile":"4","lat":40.182475855636,"lng":-111.604824306487},{"id":"96565","name":"Rayford Nitzsche","party":"","address":"330 E 1270 N, Springville, UT 84663","precinct":"25SP03","hd":"62","v_score":"0","decile":"1","lat":40.183736527068,"lng":-111.605933901426},{"id":"97108","name":"Alan Stanton V","party":"Dem","address":"200 E 1230 N, Springville, UT 84663","precinct":"25SP03","hd":"62","v_score":"10.06767328","decile":"9","lat":40.183053142385,"lng":-111.607039262951},{"id":"98496","name":"Erie Fritsch","party":"Dem","address":"732 N 200 E, Springville, UT 84663","precinct":"25SP03","hd":"62","v_score":"13.99215518","decile":"9","lat":40.17627486269,"lng":-111.606979398324},{"id":"98513","name":"Mr. Lionel Gusikowski","party":"Dem","address":"103 E 700 N, Unit 13, Springville, UT 84663","precinct":"25SP03","hd":"62","v_score":"0","decile":"1","lat":40.17630512763,"lng":-111.610472462771},{"id":"98896","name":"Laura Roberts","party":"Rep","address":"1475 Spring Mountain Dr, Springville, UT 84663","precinct":"25SP03","hd":"62","v_score":"1.193887297","decile":"4","lat":40.186995365968,"lng":-111.607767380654},{"id":"99095","name":"Harley Heidenreich PhD","party":"Rep","address":"1496 Spring Mountain Dr, Springville, UT 84663","precinct":"25SP03","hd":"62","v_score":"1.193887297","decile":"4","lat":40.187313298931,"lng":-111.608197110402},{"id":"99191","name":"Renea Gorczany","party":"","address":"166 E 750 N, Springville, UT 84663","precinct":"25SP03","hd":"62","v_score":"1.193887297","decile":"4","lat":40.176569492344,"lng":-111.607518997999},{"id":"99380","name":"Oral Hauck-Leuschke","party":"","address":"230 E 1230 N, Springville, UT 84663","precinct":"25SP03","hd":"62","v_score":"0","decile":"1","lat":40.183057474948,"lng":-111.606708253231},{"id":"99576","name":"Mrs. Minerva VonRueden","party":"Dem","address":"1659 N 100 E, Springville, UT 84663","precinct":"25SP03","hd":"62","v_score":"0","decile":"1","lat":40.189024849365,"lng":-111.608950898878},{"id":"99590","name":"Ms. Chanelle Reynolds","party":"Dem","address":"837 N 375 E, Springville, UT 84663","precinct":"25SP03","hd":"62","v_score":"0","decile":"1","lat":40.177719605907,"lng":-111.604104533154},{"id":"99733","name":"Marland Schumm","party":"","address":"346 E 1075 N, Springville, UT 84663","precinct":"25SP03","hd":"62","v_score":"1.193887297","decile":"4","lat":40.18152231028,"lng":-111.604620836159},{"id":"99876","name":"Mr. Lane Beatty","party":"","address":"255 E 1230 N, Springville, UT 84663","precinct":"25SP03","hd":"62","v_score":"1.193887297","decile":"4","lat":40.183175515607,"lng":-111.606446014794},{"id":"99979","name":"Tabetha Cassin","party":"Rep","address":"1463 Spring Mountain Dr, Springville, UT 84663","precinct":"25SP03","hd":"62","v_score":"0","decile":"1","lat":40.186795123137,"lng":-111.607566289397},{"id":"100229","name":"Aili Kris","party":"Dem","address":"850 N Main St, Trlr 48, Springville, UT 84663","precinct":"25SP03","hd":"62","v_score":"0","decile":"1","lat":40.178207240342,"lng":-111.610531199047},{"id":"100668","name":"Monserrat Stoltenberg DVM","party":"","address":"375 E 1150 N, Springville, UT 84663","precinct":"25SP03","hd":"62","v_score":"1.193887297","decile":"4","lat":40.182475855636,"lng":-111.604824306487},{"id":"100746","name":"Peyton Walsh","party":"Rep","address":"1646 N 100 E, Springville, UT 84663","precinct":"25SP03","hd":"62","v_score":"1.193887297","decile":"4","lat":40.188936391168,"lng":-111.608800895464},{"id":"101008","name":"Dr. Arietta Feest DDS","party":"","address":"850 N Main St, Trlr 19, Springville, UT 84663","precinct":"25SP03","hd":"62","v_score":"0","decile":"2","lat":40.178207240342,"lng":-111.610531199047},{"id":"101400","name":"Althea Parker","party":"Rep","address":"1285 N 170 E, Springville, UT 84663","precinct":"25SP03","hd":"62","v_score":"1.193887297","decile":"4","lat":40.184292987579,"lng":-111.607470688475},{"id":"103379","name":"Elliot Borer","party":"","address":"200 E 1300 N, Springville, UT 84663","precinct":"25SP03","hd":"62","v_score":"3.711952487","decile":"6","lat":40.184430160557,"lng":-111.606733742509},{"id":"103573","name":"Carie Gorczany","party":"Dem","address":"375 E 1150 N, Springville, UT 84663","precinct":"25SP03","hd":"62","v_score":"0","decile":"2","lat":40.182475855636,"lng":-111.604824306487},{"id":"105178","name":"Lala Thiel","party":"Dem","address":"295 E 1300 N, Springville, UT 84663","precinct":"25SP03","hd":"62","v_score":"0","decile":"2","lat":40.184538881121,"lng":-111.605623652664},{"id":"106459","name":"Lowell Walter IV","party":"Rep","address":"1437 N 150 E, Springville, UT 84663","precinct":"25SP03","hd":"62","v_score":"0","decile":"2","lat":40.186274898691,"lng":-111.608395609782},{"id":"108040","name":"Dr. Rickie Kessler III","party":"Rep","address":"1422 Spring Mountain Dr, Springville, UT 84663","precinct":"25SP03","hd":"62","v_score":"0","decile":"2","lat":40.186197398229,"lng":-111.606776975687},{"id":"108924","name":"Bobbie D'Amore","party":"Dem","address":"103 E 700 N, Unit 1, Springville, UT 84663","precinct":"25SP03","hd":"62","v_score":"0","decile":"2","lat":40.17630512763,"lng":-111.610472462771},{"id":"109287","name":"Billy Reynolds","party":"Dem","address":"718 N 375 E, Springville, UT 84663","precinct":"25SP03","hd":"62","v_score":"1.193887297","decile":"4","lat":40.17656050408,"lng":-111.603970163321},{"id":"109555","name":"Kelsea Kuhlman","party":"Rep","address":"103 E 700 N, Unit 15, Springville, UT 84663","precinct":"25SP03","hd":"62","v_score":"1.193887297","decile":"4","lat":40.17630512763,"lng":-111.610472462771},{"id":"110866","name":"Miss Geri Larkin","party":"Dem","address":"1614 N 50 E, Springville, UT 84663","precinct":"25SP03","hd":"62","v_score":"4.069929862","decile":"7","lat":40.188684428117,"lng":-111.609734596418},{"id":"111176","name":"Sherrie Kirlin MD","party":"","address":"802 N 150 E, Springville, UT 84663","precinct":"25SP03","hd":"62","v_score":"4.069929862","decile":"7","lat":40.176917776271,"lng":-111.608322968412},{"id":"111285","name":"Kristoffer Connelly","party":"Rep","address":"215 E 1300 N, Springville, UT 84663","precinct":"25SP03","hd":"62","v_score":"1.193887297","decile":"4","lat":40.184542561407,"lng":-111.606319216614},{"id":"112172","name":"Dr. Braydon Gerhold DVM","party":"Rep","address":"200 E 1300 N, Springville, UT 84663","precinct":"25SP03","hd":"62","v_score":"0","decile":"2","lat":40.184430160557,"lng":-111.606733742509},{"id":"112404","name":"Dr. Letha Stark","party":"","address":"1618 N 50 E, Springville, UT 84663","precinct":"25SP03","hd":"62","v_score":"0","decile":"2","lat":40.188711841781,"lng":-111.609736959661},{"id":"112558","name":"Jonna Considine","party":"","address":"1637 N 100 E, Springville, UT 84663","precinct":"25SP03","hd":"62","v_score":"1.193887297","decile":"4","lat":40.188862676024,"lng":-111.608950898899},{"id":"113367","name":"Olevia Kunze DVM","party":"Rep","address":"850 N Main St, Trlr 35, Springville, UT 84663","precinct":"25SP03","hd":"62","v_score":"1.193887297","decile":"4","lat":40.178207240342,"lng":-111.610531199047},{"id":"114536","name":"Ms. Rosanne Hegmann","party":"Dem","address":"850 N Main St, Trlr 36, Springville, UT 84663","precinct":"25SP03","hd":"62","v_score":"0","decile":"2","lat":40.178207240342,"lng":-111.610531199047},{"id":"115177","name":"Loreen Huel DVM","party":"Dem","address":"1335 N 150 E, Springville, UT 84663","precinct":"25SP03","hd":"62","v_score":"1.193887297","decile":"4","lat":40.184819592646,"lng":-111.60838851728},{"id":"115831","name":"Ms. Ellamae Denesik","party":"Rep","address":"1414 N 150 E, Springville, UT 84663","precinct":"25SP03","hd":"62","v_score":"1.193887297","decile":"4","lat":40.185945421117,"lng":-111.608244114199},{"id":"115847","name":"Keyon Beer-Schowalter","party":"","address":"1622 N 100 E, Springville, UT 84663","precinct":"25SP03","hd":"62","v_score":"1.193887297","decile":"4","lat":40.188759474796,"lng":-111.608800895487},{"id":"115970","name":"Ross Muller","party":"Rep","address":"985 N 400 E, Springville, UT 84663","precinct":"25SP03","hd":"62","v_score":"1.193887297","decile":"4","lat":40.180503725602,"lng":-111.603517002436},{"id":"116776","name":"Marylyn Schuster","party":"Dem","address":"40 E 1150 N, Springville, UT 84663","precinct":"25SP03","hd":"62","v_score":"0","decile":"2","lat":40.182403667344,"lng":-111.609963099535},{"id":"117169","name":"Mrs. Brynlee Erdman","party":"Dem","address":"850 N Main St, Trlr 24, Springville, UT 84663","precinct":"25SP03","hd":"62","v_score":"0","decile":"2","lat":40.178207240342,"lng":-111.610531199047},{"id":"117535","name":"Josephine Schuster","party":"","address":"900 N Main St, Apt 25, Springville, UT 84663","precinct":"25SP03","hd":"62","v_score":"1.193887297","decile":"4","lat":40.178706633391,"lng":-111.610533842675},{"id":"117589","name":"Dr. West Jast","party":"","address":"850 N Main St, Trlr 17, Springville, UT 84663","precinct":"25SP03","hd":"62","v_score":"0","decile":"2","lat":40.178207240342,"lng":-111.610531199047},{"id":"117804","name":"Almira Gutkowski","party":"Rep","address":"900 N Main St, Apt 7, Springville, UT 84663","precinct":"25SP03","hd":"62","v_score":"0","decile":"2","lat":40.178706633391,"lng":-111.610533842675},{"id":"118072","name":"Deane Rosenbaum","party":"","address":"1517 N 150 E, Springville, UT 84663","precinct":"25SP03","hd":"62","v_score":"0","decile":"2","lat":40.187710900423,"lng":-111.608416247644},{"id":"118184","name":"Mrs. Elsa Wiza","party":"Rep","address":"1504 N 150 E, Springville, UT 84663","precinct":"25SP03","hd":"62","v_score":"0","decile":"2","lat":40.187331283014,"lng":-111.608257181609},{"id":"118732","name":"Oral Aufderhar","party":"Dem","address":"741 N 150 E, Springville, UT 84663","precinct":"25SP03","hd":"62","v_score":"1.193887297","decile":"4","lat":40.176524066641,"lng":-111.608467420786},{"id":"118783","name":"Rheta Schoen","party":"Dem","address":"273 E 1150 N, Springville, UT 84663","precinct":"25SP03","hd":"62","v_score":"0","decile":"2","lat":40.182468301962,"lng":-111.606241885158},{"id":"119078","name":"Marianita Emmerich-Quigley","party":"Rep","address":"799 N 400 E, Springville, UT 84663","precinct":"25SP03","hd":"62","v_score":"1.193887297","decile":"4","lat":40.178034371213,"lng":-111.603164743383},{"id":"119095","name":"Ken Murphy","party":"Rep","address":"160 E 750 N, Springville, UT 84663","precinct":"25SP03","hd":"62","v_score":"1.193887297","decile":"4","lat":40.176568513956,"lng":-111.607591643669},{"id":"119118","name":"Kaley Collier","party":"Rep","address":"900 N Main St, Apt 18, Springville, UT 84663","precinct":"25SP03","hd":"62","v_score":"0","decile":"2","lat":40.178706633391,"lng":-111.610533842675},{"id":"119588","name":"Danika Gusikowski","party":"","address":"1652 N 100 E, Springville, UT 84663","precinct":"25SP03","hd":"62","v_score":"1.193887297","decile":"4","lat":40.188980620261,"lng":-111.608800895458},{"id":"119822","name":"Dr. Cyrus Dach PhD","party":"","address":"1659 N 100 E, Springville, UT 84663","precinct":"25SP03","hd":"62","v_score":"0","decile":"2","lat":40.189024849365,"lng":-111.608950898878},{"id":"120690","name":"Nylah Dare","party":"","address":"189 E 1400 N, Springville, UT 84663","precinct":"25SP03","hd":"62","v_score":"1.193887297","decile":"4","lat":40.185739609814,"lng":-111.607697869457},{"id":"120970","name":"Sigurd Sipes-Moore","party":"Dem","address":"310 E 1270 N, Springville, UT 84663","precinct":"25SP03","hd":"62","v_score":"1.193887297","decile":"4","lat":40.183735678115,"lng":-111.606147841692},{"id":"122249","name":"Ms. Judi Gutmann DDS","party":"Dem","address":"103 E 700 N, Unit 15, Springville, UT 84663","precinct":"25SP03","hd":"62","v_score":"1.193887297","decile":"4","lat":40.17630512763,"lng":-111.610472462771},{"id":"122593","name":"Miss Leila Cole DDS","party":"","address":"1277 N 150 E, Springville, UT 84663","precinct":"25SP03","hd":"62","v_score":"1.193887297","decile":"4","lat":40.184093781702,"lng":-111.608384814257},{"id":"122984","name":"Jaheim Hegmann DDS","party":"Dem","address":"1418 N 150 E, Springville, UT 84663","precinct":"25SP03","hd":"62","v_score":"1.193887297","decile":"4","lat":40.186005398477,"lng":-111.608244386815},{"id":"123033","name":"Dr. Vic Bartell III","party":"Dem","address":"1660 N 50 E, Springville, UT 84663","precinct":"25SP03","hd":"62","v_score":"1.193887297","decile":"4","lat":40.188993530975,"lng":-111.609750532587},{"id":"123044","name":"Dr. Jorge Emmerich Jr.","party":"","address":"103 E 700 N, Unit 2, Springville, UT 84663","precinct":"25SP03","hd":"62","v_score":"1.193887297","decile":"4","lat":40.17630512763,"lng":-111.610472462771},{"id":"124500","name":"Adalynn Stamm-Orn","party":"Rep","address":"290 E 1270 N, Springville, UT 84663","precinct":"25SP03","hd":"62","v_score":"2.876042565","decile":"6","lat":40.183734829162,"lng":-111.606361781958},{"id":"124824","name":"Mr. Durward Zboncak","party":"Rep","address":"1542 N 50 E, Springville, UT 84663","precinct":"25SP03","hd":"62","v_score":"0","decile":"2","lat":40.188292849051,"lng":-111.609619705724},{"id":"126905","name":"Christy Shanahan-Davis","party":"Rep","address":"1280 N 170 E, Springville, UT 84663","precinct":"25SP03","hd":"62","v_score":"0","decile":"2","lat":40.184270956992,"lng":-111.607320874914},{"id":"126991","name":"Ailene Blick MD","party":"Rep","address":"211 E 1400 N, Springville, UT 84663","precinct":"25SP03","hd":"62","v_score":"0","decile":"2","lat":40.185740557225,"lng":-111.60756144083},{"id":"126992","name":"Cale Lindgren MD","party":"Dem","address":"211 E 1400 N, Springville, UT 84663","precinct":"25SP03","hd":"62","v_score":"0","decile":"2","lat":40.185740557225,"lng":-111.60756144083},{"id":"128180","name":"Winford Gusikowski","party":"","address":"200 E 1230 N, Springville, UT 84663","precinct":"25SP03","hd":"62","v_score":"0","decile":"2","lat":40.183053142385,"lng":-111.607039262951},{"id":"128190","name":"Windell Dare","party":"Rep","address":"900 N Main St, Apt 9, Springville, UT 84663","precinct":"25SP03","hd":"62","v_score":"0","decile":"2","lat":40.178706633391,"lng":-111.610533842675},{"id":"128858","name":"Roma Schoen","party":"","address":"796 N 200 E, Springville, UT 84663","precinct":"25SP03","hd":"62","v_score":"0","decile":"2","lat":40.177346377422,"lng":-111.606974892333},{"id":"128951","name":"Kadyn Schoen V","party":"Dem","address":"850 N Main St, Trlr 8, Springville, UT 84663","precinct":"25SP03","hd":"62","v_score":"2.876042565","decile":"6","lat":40.178207240342,"lng":-111.610531199047},{"id":"129368","name":"Lessie Ward","party":"","address":"794 N 150 E, Springville, UT 84663","precinct":"25SP03","hd":"62","v_score":"0","decile":"2","lat":40.176883988574,"lng":-111.608322570914},{"id":"129375","name":"Tad Flatley","party":"","address":"1481 N 150 E, Springville, UT 84663","precinct":"25SP03","hd":"62","v_score":"0","decile":"2","lat":40.186934169203,"lng":-111.608401434991},{"id":"129819","name":"Elfreda Wilderman","party":"","address":"799 N 400 E, Springville, UT 84663","precinct":"25SP03","hd":"62","v_score":"0","decile":"2","lat":40.178034371213,"lng":-111.603164743383},{"id":"130237","name":"Shoji Wisoky","party":"Dem","address":"1522 N 50 E, Springville, UT 84663","precinct":"25SP03","hd":"62","v_score":"0","decile":"2","lat":40.188231002306,"lng":-111.609586696957},{"id":"132156","name":"Ms. Mila Treutel PhD","party":"","address":"900 N Main St, Apt 17, Springville, UT 84663","precinct":"25SP03","hd":"62","v_score":"0","decile":"2","lat":40.178706633391,"lng":-111.610533842675},{"id":"132367","name":"Robert Leffler","party":"Dem","address":"1520 N 50 E, Springville, UT 84663","precinct":"25SP03","hd":"62","v_score":"0","decile":"2","lat":40.188224300192,"lng":-111.609582736618},{"id":"132902","name":"Marla Wunsch-Kutch","party":"Dem","address":"1612 N 100 E, Springville, UT 84663","precinct":"25SP03","hd":"62","v_score":"0","decile":"2","lat":40.18868575964,"lng":-111.608800895496},{"id":"133389","name":"Baxter Watsica","party":"Dem","address":"739 N 400 E, Springville, UT 84663","precinct":"25SP03","hd":"62","v_score":"0","decile":"2","lat":40.176879833728,"lng":-111.603181186714},{"id":"135364","name":"Mrs. Jazmyne Emard PhD","party":"Rep","address":"1455 Spring Mountain Dr, Springville, UT 84663","precinct":"25SP03","hd":"62","v_score":"4.079907534","decile":"7","lat":40.186661627917,"lng":-111.607432228558},{"id":"136210","name":"Miss Nola Wintheiser","party":"","address":"1654 N 50 E, Springville, UT 84663","precinct":"25SP03","hd":"62","v_score":"3.089388791","decile":"6","lat":40.18895236017,"lng":-111.609752871842},{"id":"137698","name":"Gisselle Wiegand","party":"Dem","address":"727 N 200 E, Springville, UT 84663","precinct":"25SP03","hd":"62","v_score":"2.315214949","decile":"5","lat":40.175139465003,"lng":-111.607199382584},{"id":"140244","name":"Con Hettinger-Hoeger","party":"Rep","address":"850 N Main St, Springville, UT 84663","precinct":"25SP03","hd":"62","v_score":"0","decile":"2","lat":40.178207240342,"lng":-111.610531199047},{"id":"140835","name":"Allyn Block","party":"Dem","address":"1567 N 150 E, Springville, UT 84663","precinct":"25SP03","hd":"62","v_score":"2.817000428","decile":"6","lat":40.188200667562,"lng":-111.608602558261},{"id":"141165","name":"Jacquelin Thiel","party":"Rep","address":"160 E 750 N, Springville, UT 84663","precinct":"25SP03","hd":"62","v_score":"1.193887297","decile":"4","lat":40.176568513956,"lng":-111.607591643669},{"id":"141798","name":"Shirleen Schimmel","party":"Rep","address":"164 E 750 N, Springville, UT 84663","precinct":"25SP03","hd":"62","v_score":"3.93832808","decile":"6","lat":40.176569166215,"lng":-111.607543213222},{"id":"141815","name":"Ms. Elfie Stamm MD","party":"Rep","address":"187 E 1400 N, Springville, UT 84663","precinct":"25SP03","hd":"62","v_score":"10.22509301","decile":"9","lat":40.185739523686,"lng":-111.607710272059},{"id":"141886","name":"Hayley Leuschke PhD","party":"Dem","address":"187 E 1400 N, Springville, UT 84663","precinct":"25SP03","hd":"62","v_score":"5.815909755","decile":"7","lat":40.185739523686,"lng":-111.607710272059},{"id":"142505","name":"Evertt Batz","party":"Dem","address":"1548 N 50 E, Springville, UT 84663","precinct":"25SP03","hd":"62","v_score":"3.781490609","decile":"6","lat":40.188313869852,"lng":-111.609628464388},{"id":"143229","name":"Mrs. Lainey Glover DDS","party":"","address":"1612 N 100 E, Springville, UT 84663","precinct":"25SP03","hd":"62","v_score":"8.347511332","decile":"8","lat":40.18868575964,"lng":-111.608800895496},{"id":"143371","name":"Kavon Howe","party":"Dem","address":"1612 N 100 E, Springville, UT 84663","precinct":"25SP03","hd":"62","v_score":"5.40460374","decile":"7","lat":40.18868575964,"lng":-111.608800895496},{"id":"145903","name":"Ramiro Gottlieb","party":"Rep","address":"1652 N 100 E, Springville, UT 84663","precinct":"25SP03","hd":"62","v_score":"3.781490609","decile":"6","lat":40.188980620261,"lng":-111.608800895458},{"id":"146813","name":"Forest Bailey","party":"","address":"170 E 800 N, Springville, UT 84663","precinct":"25SP03","hd":"62","v_score":"17.70459196","decile":"10","lat":40.177435993336,"lng":-111.60769438793},{"id":"146922","name":"Eloy Larkin","party":"","address":"156 E 750 N, Springville, UT 84663","precinct":"25SP03","hd":"62","v_score":"32.3393441","decile":"10","lat":40.176567861698,"lng":-111.607640074115},{"id":"147088","name":"Gustie Hackett DDS","party":"Dem","address":"767 N 200 E, Springville, UT 84663","precinct":"25SP03","hd":"62","v_score":"12.6804464","decile":"9","lat":40.175464434152,"lng":-111.607196040012},{"id":"147466","name":"Almeda Greenfelder","party":"Dem","address":"1295 N 170 E, Springville, UT 84663","precinct":"25SP03","hd":"62","v_score":"8.280646305","decile":"8","lat":40.184356307315,"lng":-111.607464675524},{"id":"147658","name":"Alwina Trantow","party":"Dem","address":"270 E 1230 N, Springville, UT 84663","precinct":"25SP03","hd":"62","v_score":"20.24953417","decile":"10","lat":40.183063251699,"lng":-111.606266906939},{"id":"147669","name":"Danita Sawayn","party":"","address":"1295 N 170 E, Springville, UT 84663","precinct":"25SP03","hd":"62","v_score":"8.280646305","decile":"8","lat":40.184356307315,"lng":-111.607464675524},{"id":"147784","name":"Mr. Shanon Stark","party":"","address":"881 N 400 E, Springville, UT 84663","precinct":"25SP03","hd":"62","v_score":"30.91198908","decile":"10","lat":40.179100120022,"lng":-111.603144099557},{"id":"147785","name":"Kody Schinner","party":"","address":"881 N 400 E, Springville, UT 84663","precinct":"25SP03","hd":"62","v_score":"22.70037759","decile":"10","lat":40.179100120022,"lng":-111.603144099557},{"id":"148122","name":"Lavern Hilpert","party":"","address":"864 N 375 E, Springville, UT 84663","precinct":"25SP03","hd":"62","v_score":"5.40460374","decile":"7","lat":40.177992631774,"lng":-111.60394923255},{"id":"148237","name":"Nelda Kling","party":"Rep","address":"270 E 1230 N, Springville, UT 84663","precinct":"25SP03","hd":"62","v_score":"8.421194992","decile":"8","lat":40.183063251699,"lng":-111.606266906939},{"id":"148559","name":"Eden Erdman","party":"Dem","address":"904 N 375 E, Springville, UT 84663","precinct":"25SP03","hd":"62","v_score":"5.40460374","decile":"7","lat":40.178385097086,"lng":-111.603941611815},{"id":"148883","name":"Mrs. Mareli Ward","party":"","address":"1458 N 150 E, Springville, UT 84663","precinct":"25SP03","hd":"62","v_score":"16.86575515","decile":"9","lat":40.186605172083,"lng":-111.608247112981},{"id":"148895","name":"Lott Pouros","party":"Dem","address":"135 E 1250 N, Springville, UT 84663","precinct":"25SP03","hd":"62","v_score":"14.12536527","decile":"9","lat":40.183574282305,"lng":-111.608647226783},{"id":"149027","name":"Mr. Milford Osinski III","party":"Dem","address":"226 E 1075 N, Springville, UT 84663","precinct":"25SP03","hd":"62","v_score":"37.31962512","decile":"10","lat":40.181515384601,"lng":-111.60591768782},{"id":"150106","name":"Joann Schmeler","party":"Dem","address":"225 E 1230 N, Springville, UT 84663","precinct":"25SP03","hd":"62","v_score":"25.84727217","decile":"10","lat":40.183171183044,"lng":-111.606777024513},{"id":"150187","name":"Manuelita Abshire","party":"","address":"729 N 375 E, Springville, UT 84663","precinct":"25SP03","hd":"62","v_score":"11.36410258","decile":"9","lat":40.176659470409,"lng":-111.604119194249},{"id":"150766","name":"Wyatt Renner","party":"Rep","address":"788 N 200 E, Springville, UT 84663","precinct":"25SP03","hd":"62","v_score":"5.40460374","decile":"7","lat":40.177227001292,"lng":-111.606976233653},{"id":"151437","name":"Mr. Rube Boehm III","party":"","address":"170 E 1270 N, Springville, UT 84663","precinct":"25SP03","hd":"62","v_score":"8.421194992","decile":"8","lat":40.18373071053,"lng":-111.60768789658},{"id":"151459","name":"Dr. Brook Koepp","party":"Rep","address":"900 N Main St, Apt 9, Springville, UT 84663","precinct":"25SP03","hd":"62","v_score":"1.193887297","decile":"4","lat":40.178706633391,"lng":-111.610533842675},{"id":"151560","name":"Pascal Koelpin DDS","party":"Dem","address":"1155 N 150 E, Springville, UT 84663","precinct":"25SP03","hd":"62","v_score":"29.79610911","decile":"10","lat":40.182899241503,"lng":-111.608293893783},{"id":"151703","name":"Alijah Lockman","party":"","address":"765 N 150 E, Springville, UT 84663","precinct":"25SP03","hd":"62","v_score":"3.781490609","decile":"6","lat":40.17673331105,"lng":-111.608470783068},{"id":"151931","name":"Joselin Robel-O'Hara","party":"","address":"850 N Main St, Trlr 22, Springville, UT 84663","precinct":"25SP03","hd":"62","v_score":"0","decile":"3","lat":40.178207240342,"lng":-111.610531199047},{"id":"152475","name":"Glendon Kunde","party":"Dem","address":"290 E 1075 N, Springville, UT 84663","precinct":"25SP03","hd":"62","v_score":"9.116556227","decile":"8","lat":40.181519078296,"lng":-111.605226033601},{"id":"152558","name":"Mammie Nitzsche","party":"","address":"103 E 700 N, Unit 1, Springville, UT 84663","precinct":"25SP03","hd":"62","v_score":"11.29723756","decile":"9","lat":40.17630512763,"lng":-111.610472462771},{"id":"152628","name":"Colette Stiedemann","party":"Dem","address":"744 N 200 E, Springville, UT 84663","precinct":"25SP03","hd":"62","v_score":"1.193887297","decile":"4","lat":40.176475715622,"lng":-111.606981367444},{"id":"152774","name":"Hardy Renner","party":"","address":"1458 N 150 E, Springville, UT 84663","precinct":"25SP03","hd":"62","v_score":"8.421194992","decile":"8","lat":40.186605172083,"lng":-111.608247112981},{"id":"152818","name":"Carlos Hudson","party":"Dem","address":"1662 N 50 E, Springville, UT 84663","precinct":"25SP03","hd":"62","v_score":"3.781490609","decile":"6","lat":40.189007254576,"lng":-111.609749752835},{"id":"152940","name":"Zenobia Larkin","party":"Rep","address":"744 N 200 E, Springville, UT 84663","precinct":"25SP03","hd":"62","v_score":"2.660162957","decile":"5","lat":40.176475715622,"lng":-111.606981367444},{"id":"153260","name":"Lexis Kuvalis-Grimes","party":"","address":"120 E 1250 N, Springville, UT 84663","precinct":"25SP03","hd":"62","v_score":"14.46680193","decile":"9","lat":40.183455248751,"lng":-111.608703407797},{"id":"153826","name":"Boone Bergnaum","party":"Dem","address":"170 E 1270 N, Springville, UT 84663","precinct":"25SP03","hd":"62","v_score":"8.421194992","decile":"8","lat":40.18373071053,"lng":-111.60768789658},{"id":"153872","name":"Ms. Tennille Botsford","party":"","address":"325 E 1150 N, Springville, UT 84663","precinct":"25SP03","hd":"62","v_score":"6.884189957","decile":"8","lat":40.182468536053,"lng":-111.60551967189},{"id":"154494","name":"Rishi Price","party":"Rep","address":"770 N 200 E, Springville, UT 84663","precinct":"25SP03","hd":"62","v_score":"16.63280648","decile":"9","lat":40.176958405,"lng":-111.606979251623},{"id":"155088","name":"Coolidge Connelly","party":"","address":"766 N 375 E, Springville, UT 84663","precinct":"25SP03","hd":"62","v_score":"16.72520646","decile":"9","lat":40.177031501569,"lng":-111.603965634439},{"id":"155435","name":"Ivette Wisoky","party":"Dem","address":"290 E 1230 N, Springville, UT 84663","precinct":"25SP03","hd":"62","v_score":"1.121327652","decile":"3","lat":40.183066140075,"lng":-111.606046233793},{"id":"156151","name":"Manford Hirthe","party":"","address":"1483 Spring Mountain Dr, Springville, UT 84663","precinct":"25SP03","hd":"62","v_score":"0","decile":"3","lat":40.187118906286,"lng":-111.607905608835},{"id":"156664","name":"Junia Wiza","party":"Dem","address":"1222 N Millpond Dr, Springville, UT 84663","precinct":"25SP03","hd":"62","v_score":"16.72520646","decile":"9","lat":40.183094895418,"lng":-111.604676227658},{"id":"156775","name":"Winifred Boehm","party":"","address":"1294 N Millpond Dr, Springville, UT 84663","precinct":"25SP03","hd":"62","v_score":"10.66687182","decile":"9","lat":40.184246607474,"lng":-111.605301766315},{"id":"156859","name":"Arnold Hickle","party":"","address":"801 N 150 E, Springville, UT 84663","precinct":"25SP03","hd":"62","v_score":"16.86575515","decile":"9","lat":40.176891519656,"lng":-111.608472644325},{"id":"156869","name":"Mr. Dion Kerluke","party":"","address":"379 E 925 N, Springville, UT 84663","precinct":"25SP03","hd":"62","v_score":"1.121327652","decile":"3","lat":40.179639969913,"lng":-111.603339390337},{"id":"157495","name":"Signa Crona","party":"","address":"310 E 1270 N, Springville, UT 84663","precinct":"25SP03","hd":"62","v_score":"23.97715895","decile":"10","lat":40.183735678115,"lng":-111.606147841692},{"id":"157659","name":"Evelyn Mayer DVM","party":"","address":"1336 N 150 E, Springville, UT 84663","precinct":"25SP03","hd":"62","v_score":"3.93832808","decile":"6","lat":40.184798746832,"lng":-111.608238412691},{"id":"157751","name":"Ramona Hahn","party":"Rep","address":"320 E 1075 N, Springville, UT 84663","precinct":"25SP03","hd":"62","v_score":"8.284004873","decile":"8","lat":40.181520809716,"lng":-111.604901820686},{"id":"159315","name":"Golden Grady","party":"Rep","address":"728 N 375 E, Springville, UT 84663","precinct":"25SP03","hd":"62","v_score":"35.064813","decile":"10","lat":40.176658628557,"lng":-111.603969219804},{"id":"159646","name":"Erie Heller","party":"Dem","address":"708 N 375 E, Springville, UT 84663","precinct":"25SP03","hd":"62","v_score":"16.9423657","decile":"9","lat":40.176462379603,"lng":-111.603971106838},{"id":"159698","name":"Stephania Durgan","party":"","address":"900 N Main St, Apt 27, Springville, UT 84663","precinct":"25SP03","hd":"62","v_score":"5.40460374","decile":"7","lat":40.178706633391,"lng":-111.610533842675},{"id":"160264","name":"Dr. Albion Gulgowski","party":"","address":"1190 N 150 E, Springville, UT 84663","precinct":"25SP03","hd":"62","v_score":"22.12059385","decile":"10","lat":40.183012534435,"lng":-111.608143902383},{"id":"160265","name":"Kasey Schinner","party":"","address":"1190 N 150 E, Springville, UT 84663","precinct":"25SP03","hd":"62","v_score":"26.85320151","decile":"10","lat":40.183012534435,"lng":-111.608143902383},{"id":"161370","name":"Dr. Nannette Brekke DVM","party":"","address":"850 N Main St, Trlr 16, Springville, UT 84663","precinct":"25SP03","hd":"62","v_score":"22.24650101","decile":"10","lat":40.178207240342,"lng":-111.610531199047},{"id":"161495","name":"Callie Predovic PhD","party":"Rep","address":"1222 N Millpond Dr, Springville, UT 84663","precinct":"25SP03","hd":"62","v_score":"18.60278813","decile":"10","lat":40.183094895418,"lng":-111.604676227658},{"id":"161747","name":"Reilly Metz","party":"Rep","address":"729 N 375 E, Springville, UT 84663","precinct":"25SP03","hd":"62","v_score":"22.12711585","decile":"10","lat":40.176659470409,"lng":-111.604119194249},{"id":"161777","name":"Arlo Russel IV","party":"Dem","address":"305 E 1230 N, Springville, UT 84663","precinct":"25SP03","hd":"62","v_score":"36.94239468","decile":"10","lat":40.183182736546,"lng":-111.605894331928},{"id":"162514","name":"Audra Larson DDS","party":"Rep","address":"1505 N 150 E, Springville, UT 84663","precinct":"25SP03","hd":"62","v_score":"8.363183621","decile":"8","lat":40.187399205722,"lng":-111.6084079597},{"id":"162517","name":"Harman Batz-Hagenes","party":"","address":"789 N 150 E, Springville, UT 84663","precinct":"25SP03","hd":"62","v_score":"18.98842511","decile":"10","lat":40.176838783454,"lng":-111.608472023906},{"id":"162643","name":"Pierce Corkery","party":"Rep","address":"1015 N 400 E, Springville, UT 84663","precinct":"25SP03","hd":"62","v_score":"1.121327652","decile":"3","lat":40.180861613912,"lng":-111.603694981743},{"id":"163833","name":"Brain King","party":"","address":"761 N 400 E, Springville, UT 84663","precinct":"25SP03","hd":"62","v_score":"26.85320151","decile":"10","lat":40.177303246286,"lng":-111.603175710351},{"id":"164386","name":"Ms. Elizabeth Roob DDS","party":"Dem","address":"186 E 1400 N, Springville, UT 84663","precinct":"25SP03","hd":"62","v_score":"11.23922619","decile":"9","lat":40.185624937043,"lng":-111.607708908642},{"id":"164521","name":"Ephraim Bogan","party":"","address":"200 E 1230 N, Springville, UT 84663","precinct":"25SP03","hd":"62","v_score":"32.2221159","decile":"10","lat":40.183053142385,"lng":-111.607039262951},{"id":"165475","name":"Ms. Jerri Jacobi","party":"Rep","address":"297 E 1150 N, Springville, UT 84663","precinct":"25SP03","hd":"62","v_score":"24.43071786","decile":"10","lat":40.182468301937,"lng":-111.605908078108},{"id":"165953","name":"Mr. Linton Lubowitz","party":"Dem","address":"1491 N 150 E, Springville, UT 84663","precinct":"25SP03","hd":"62","v_score":"5.40460374","decile":"7","lat":40.187084103465,"lng":-111.608403706703},{"id":"166214","name":"Henriette Kris","party":"","address":"320 E 1075 N, Springville, UT 84663","precinct":"25SP03","hd":"62","v_score":"27.9534092","decile":"10","lat":40.181520809716,"lng":-111.604901820686},{"id":"166264","name":"Anibal Jacobi","party":"Dem","address":"156 E 750 N, Springville, UT 84663","precinct":"25SP03","hd":"62","v_score":"26.85320151","decile":"10","lat":40.176567861698,"lng":-111.607640074115},{"id":"166683","name":"Miller Hessel","party":"","address":"292 E 1150 N, Springville, UT 84663","precinct":"25SP03","hd":"62","v_score":"5.407962308","decile":"7","lat":40.182353710558,"lng":-111.605978604696},{"id":"167356","name":"Dr. Rylan Swaniawski Jr.","party":"","address":"733 N 150 E, Springville, UT 84663","precinct":"25SP03","hd":"62","v_score":"2.315214949","decile":"5","lat":40.176491365518,"lng":-111.608466709896},{"id":"168482","name":"Mr. Thos Bradtke DVM","party":"","address":"1507 N 150 E, Springville, UT 84663","precinct":"25SP03","hd":"62","v_score":"8.280646305","decile":"8","lat":40.187439407563,"lng":-111.608408416534},{"id":"168613","name":"Bowman Dare-Effertz","party":"","address":"1292 N 150 E, Springville, UT 84663","precinct":"25SP03","hd":"62","v_score":"2.587603312","decile":"5","lat":40.184215259083,"lng":-111.608235435788},{"id":"169005","name":"Montie Feil","party":"Dem","address":"120 E 1250 N, Springville, UT 84663","precinct":"25SP03","hd":"62","v_score":"4.283276088","decile":"7","lat":40.183455248751,"lng":-111.608703407797},{"id":"169174","name":"Hilliard Oberbrunner","party":"","address":"249 E 1075 N, Springville, UT 84663","precinct":"25SP03","hd":"62","v_score":"35.064813","decile":"10","lat":40.181626870637,"lng":-111.606499699555},{"id":"169408","name":"Liz Simonis","party":"","address":"900 N Main St, Apt 9, Springville, UT 84663","precinct":"25SP03","hd":"62","v_score":"0","decile":"3","lat":40.178706633391,"lng":-111.610533842675},{"id":"169967","name":"Hildegarde Bechtelar","party":"","address":"1426 N Spring Mountain Dr, Springville, UT 84663","precinct":"25SP03","hd":"62","v_score":"1.193887297","decile":"4","lat":40.186264145839,"lng":-111.606844006106},{"id":"170264","name":"Mr. Haven O'Kon","party":"Dem","address":"1656 N 100 E, Springville, UT 84663","precinct":"25SP03","hd":"62","v_score":"11.29723756","decile":"9","lat":40.189010106323,"lng":-111.608800895454},{"id":"170271","name":"Alexia Hilll PhD","party":"Dem","address":"1295 N 170 E, Springville, UT 84663","precinct":"25SP03","hd":"62","v_score":"13.10113557","decile":"9","lat":40.184356307315,"lng":-111.607464675524},{"id":"170521","name":"Samantha Johns","party":"Rep","address":"1235 N 150 E, Springville, UT 84663","precinct":"25SP03","hd":"62","v_score":"25.06350144","decile":"10","lat":40.183363681356,"lng":-111.608297528831},{"id":"171070","name":"Little Osinski","party":"Rep","address":"712 N 200 E, Springville, UT 84663","precinct":"25SP03","hd":"62","v_score":"2.315214949","decile":"5","lat":40.175940107804,"lng":-111.606976116457},{"id":"171301","name":"Dr. River Gorczany V","party":"Rep","address":"103 E 700 N, Unit 6, Springville, UT 84663","precinct":"25SP03","hd":"62","v_score":"0","decile":"3","lat":40.17630512763,"lng":-111.610472462771},{"id":"171315","name":"Miss Chaya Bosco DVM","party":"Rep","address":"320 E 1075 N, Springville, UT 84663","precinct":"25SP03","hd":"62","v_score":"26.2609852","decile":"10","lat":40.181520809716,"lng":-111.604901820686},{"id":"171644","name":"Shanita Buckridge","party":"Rep","address":"1433 N Spring Mountain Dr, Springville, UT 84663","precinct":"25SP03","hd":"62","v_score":"14.25581744","decile":"9","lat":40.186294516062,"lng":-111.607063561252},{"id":"172075","name":"Dr. Alvan Haley","party":"Dem","address":"1280 N 170 E, Springville, UT 84663","precinct":"25SP03","hd":"62","v_score":"10.13721141","decile":"9","lat":40.184270956992,"lng":-111.607320874914},{"id":"172503","name":"Branden Leffler","party":"Rep","address":"193 E 1400 N, Springville, UT 84663","precinct":"25SP03","hd":"62","v_score":"3.93832808","decile":"6","lat":40.18573978207,"lng":-111.607673064252},{"id":"172691","name":"Julia Bogan","party":"Rep","address":"1336 N 150 E, Springville, UT 84663","precinct":"25SP03","hd":"62","v_score":"5.40460374","decile":"7","lat":40.184798746832,"lng":-111.608238412691},{"id":"172723","name":"Jayme Moore II","party":"","address":"1482 N Spring Mountain Dr, Springville, UT 84663","precinct":"25SP03","hd":"62","v_score":"4.568975008","decile":"7","lat":40.187197110778,"lng":-111.607795970732},{"id":"172924","name":"Marilee Cremin","party":"Dem","address":"275 E 1300 N, Springville, UT 84663","precinct":"25SP03","hd":"62","v_score":"13.84916389","decile":"9","lat":40.184539801192,"lng":-111.605797543651},{"id":"172938","name":"Wesley Fahey","party":"Rep","address":"168 E 800 N, Springville, UT 84663","precinct":"25SP03","hd":"62","v_score":"19.55230341","decile":"10","lat":40.177434125198,"lng":-111.607712602285},{"id":"173128","name":"Mrs. Porsche Walker PhD","party":"Rep","address":"1283 N 150 E, Springville, UT 84663","precinct":"25SP03","hd":"62","v_score":"3.781490609","decile":"6","lat":40.184168865592,"lng":-111.608385197329},{"id":"173376","name":"Elnora Smith-Heidenreich","party":"Dem","address":"163 E 750 N, Springville, UT 84663","precinct":"25SP03","hd":"62","v_score":"12.2514272","decile":"9","lat":40.176683413687,"lng":-111.607570071654},{"id":"173562","name":"Marilyn Collier-Gorczany","party":"Dem","address":"205 E 1230 N, Springville, UT 84663","precinct":"25SP03","hd":"62","v_score":"2.817000428","decile":"6","lat":40.183168294668,"lng":-111.60699769766},{"id":"175202","name":"Britt Tromp","party":"","address":"763 N 200 E, Springville, UT 84663","precinct":"25SP03","hd":"62","v_score":"0","decile":"3","lat":40.175430775016,"lng":-111.607196687307},{"id":"175239","name":"Mr. Darren Becker II","party":"","address":"761 N 400 E, Springville, UT 84663","precinct":"25SP03","hd":"62","v_score":"26.85320151","decile":"10","lat":40.177303246286,"lng":-111.603175710351},{"id":"175370","name":"Winfred Stokes","party":"","address":"103 E 700 N, Unit 2, Springville, UT 84663","precinct":"25SP03","hd":"62","v_score":"8.363183621","decile":"8","lat":40.17630512763,"lng":-111.610472462771},{"id":"176308","name":"Velia Bernhard DDS","party":"Rep","address":"397 E 925 N, Springville, UT 84663","precinct":"25SP03","hd":"62","v_score":"32.46978925","decile":"10","lat":40.17963231208,"lng":-111.603179458747},{"id":"176381","name":"Shay Olson","party":"","address":"1471 N 150 E, Springville, UT 84663","precinct":"25SP03","hd":"62","v_score":"3.089388791","decile":"6","lat":40.186784234941,"lng":-111.608399163279},{"id":"176592","name":"Mozelle Daugherty DVM","party":"Rep","address":"170 E 800 N, Springville, UT 84663","precinct":"25SP03","hd":"62","v_score":"9.487532797","decile":"8","lat":40.177435993336,"lng":-111.60769438793},{"id":"177372","name":"Mr. Halley Wolff DDS","party":"","address":"347 E 1075 N, Apt B, Springville, UT 84663","precinct":"25SP03","hd":"62","v_score":"2.315214949","decile":"5","lat":40.181635383159,"lng":-111.604905707302},{"id":"177733","name":"Rollie Herzog","party":"Dem","address":"1662 N 50 E, Springville, UT 84663","precinct":"25SP03","hd":"62","v_score":"1.46627566","decile":"4","lat":40.189007254576,"lng":-111.609749752835},{"id":"177747","name":"Rosalie Windler","party":"Rep","address":"712 N 200 E, Springville, UT 84663","precinct":"25SP03","hd":"62","v_score":"18.71237903","decile":"10","lat":40.175940107804,"lng":-111.606976116457},{"id":"178397","name":"Mr. Drake Harvey MD","party":"Rep","address":"1491 N 150 E, Springville, UT 84663","precinct":"25SP03","hd":"62","v_score":"5.40460374","decile":"7","lat":40.187084103465,"lng":-111.608403706703},{"id":"178484","name":"Dr. Brett Koepp","party":"Rep","address":"799 N 400 E, Springville, UT 84663","precinct":"25SP03","hd":"62","v_score":"1.193887297","decile":"4","lat":40.178034371213,"lng":-111.603164743383},{"id":"178497","name":"Lilia Nader","party":"Dem","address":"1283 N 150 E, Springville, UT 84663","precinct":"25SP03","hd":"62","v_score":"3.781490609","decile":"6","lat":40.184168865592,"lng":-111.608385197329},{"id":"178596","name":"Ms. Zadie O'Hara","party":"Rep","address":"392 E 1075 N, Springville, UT 84663","precinct":"25SP03","hd":"62","v_score":"5.40460374","decile":"7","lat":40.181524965123,"lng":-111.604123709689},{"id":"178915","name":"Marcelo Jaskolski","party":"Dem","address":"1654 N 50 E, Springville, UT 84663","precinct":"25SP03","hd":"62","v_score":"0","decile":"3","lat":40.18895236017,"lng":-111.609752871842},{"id":"179072","name":"Mrs. Ariel Koch MD","party":"","address":"708 N 375 E, Springville, UT 84663","precinct":"25SP03","hd":"62","v_score":"18.40864136","decile":"10","lat":40.176462379603,"lng":-111.603971106838},{"id":"179944","name":"Miss Patsy Skiles MD","party":"Rep","address":"795 N 200 E, Springville, UT 84663","precinct":"25SP03","hd":"62","v_score":"3.781490609","decile":"6","lat":40.177033998816,"lng":-111.607128384872},{"id":"179991","name":"Jailyn Miller","party":"","address":"744 N 200 E, Springville, UT 84663","precinct":"25SP03","hd":"62","v_score":"1.193887297","decile":"4","lat":40.176475715622,"lng":-111.606981367444},{"id":"180951","name":"Steve Jaskolski","party":"Dem","address":"779 N 375 E, Springville, UT 84663","precinct":"25SP03","hd":"62","v_score":"13.54291438","decile":"9","lat":40.177150092794,"lng":-111.604114476664},{"id":"181011","name":"Lavinia Cummings-Cormier","party":"","address":"900 N Main St, Apt 14, Springville, UT 84663","precinct":"25SP03","hd":"62","v_score":"6.724398202","decile":"8","lat":40.178706633391,"lng":-111.610533842675},{"id":"181100","name":"Dario Nitzsche DDS","party":"Dem","address":"850 N Main St, Trlr 37, Springville, UT 84663","precinct":"25SP03","hd":"62","v_score":"1.193887297","decile":"4","lat":40.178207240342,"lng":-111.610531199047},{"id":"181420","name":"Nola Abshire","party":"","address":"175 E 700 N, Springville, UT 84663","precinct":"25SP03","hd":"62","v_score":"2.315214949","decile":"5","lat":40.175944878263,"lng":-111.608427662436}]