[{"vid":"600104","name":"Ms. Adamaris Schinner DDS","party":"Rep","address":"185 W 100 N, Santaquin, UT 84655","precinct":"25SQ05","hd":"65","v_score":"3.781490609","decile":"6","lat":39.976957333628185,"lng":-111.78887050148042},{"vid":"763661","name":"Charlize Towne","party":"Dem","address":"271 S 100 W, Santaquin, UT 84655","precinct":"25SQ05","hd":"65","v_score":"29.77385784","decile":"10","lat":39.97111912919309,"lng":-111.78702305950475},{"vid":"765160","name":"Mr. Kahlil Rath V","party":"","address":"45 E 300 S, Santaquin, UT 84655","precinct":"25SQ05","hd":"65","v_score":"8.347511332","decile":"8","lat":39.97098591653333,"lng":-111.78441350049643},{"vid":"1237708","name":"Halsey Davis","party":"","address":"95 N 300 E, Santaquin, UT 84655","precinct":"25SQ05","hd":"65","v_score":"1.121327652","decile":"3","lat":39.97691528368759,"lng":-111.77938220978527},{"vid":"1241979","name":"Dr. Mervin Johnston","party":"Rep","address":"159 N 100 E, Santaquin, UT 84655","precinct":"25SQ05","hd":"65","v_score":"3.93832808","decile":"6","lat":39.978167090387835,"lng":-111.78357774227175},{"vid":"1247327","name":"Mrs. Hetty Satterfield","party":"Dem","address":"273 W 100 N, Santaquin, UT 84655","precinct":"25SQ05","hd":"65","v_score":"3.781490609","decile":"6","lat":39.9770639975854,"lng":-111.79098771436308},{"vid":"1257023","name":"Raven Hahn PhD","party":"","address":"112 N Center St, Santaquin, UT 84655","precinct":"25SQ05","hd":"65","v_score":"5.40460374","decile":"7","lat":39.97754806009992,"lng":-111.78484928509853},{"vid":"1279854","name":"Calla Stehr-Doyle","party":"Dem","address":"85 S 300 W, Santaquin, UT 84655","precinct":"25SQ05","hd":"65","v_score":"6.724398202","decile":"7","lat":39.9744714081674,"lng":-111.79139260409094},{"vid":"1281700","name":"Almer Bartoletti","party":"","address":"160 N 200 W, Santaquin, UT 84655","precinct":"25SQ05","hd":"65","v_score":"12.59867706","decile":"9","lat":39.978301007668094,"lng":-111.78908844680771},{"vid":"1290333","name":"Jo Renner","party":"","address":"289 W Spruce Way, Santaquin, UT 84655","precinct":"25SQ05","hd":"65","v_score":"1.193887297","decile":"3","lat":39.97654262073015,"lng":-111.79126420502774},{"vid":"1326137","name":"Rusty Eichmann","party":"Dem","address":"41 S 200 E, Apt 1, Santaquin, UT 84655","precinct":"25SQ05","hd":"65","v_score":"3.61989409","decile":"6","lat":39.97472828310003,"lng":-111.78068671233883},{"vid":"1330598","name":"Ona Kessler","party":"","address":"51 N 400 E, Santaquin, UT 84655","precinct":"25SQ05","hd":"65","v_score":"7.580602339","decile":"8","lat":39.976575645066056,"lng":-111.77727328745436},{"vid":"1353841","name":"Hezekiah Berge Sr.","party":"","address":"66 S 300 E, Santaquin, UT 84655","precinct":"25SQ05","hd":"65","v_score":"2.315214949","decile":"5","lat":39.9742751725361,"lng":-111.77939651815113},{"vid":"1368793","name":"Vinson Spinka","party":"Dem","address":"335 W Main St, Santaquin, UT 84655","precinct":"25SQ05","hd":"65","v_score":"4.210716443","decile":"7","lat":39.975410298251276,"lng":-111.79214691531773},{"vid":"1376723","name":"Artis Auer-Schaden","party":"","address":"32 N Center St, Unit A, Santaquin, UT 84655","precinct":"25SQ05","hd":"65","v_score":"2.660162957","decile":"5","lat":39.976114574367294,"lng":-111.78491689679839},{"vid":"1384241","name":"Mrs. Destany Predovic PhD","party":"","address":"151 N 400 E, Santaquin, UT 84655","precinct":"25SQ05","hd":"65","v_score":"2.315214949","decile":"5","lat":39.978079831386246,"lng":-111.77736320827532},{"vid":"1385526","name":"Hartwell Bechtelar","party":"","address":"80 W 300 S, Santaquin, UT 84655","precinct":"25SQ05","hd":"65","v_score":"0","decile":"1","lat":39.97108447763804,"lng":-111.78660698555696},{"vid":"1390223","name":"Miss Sydney Jacobson PhD","party":"Dem","address":"191 S 200 E, Santaquin, UT 84655","precinct":"25SQ05","hd":"65","v_score":"23.48004472","decile":"10","lat":39.97264057822231,"lng":-111.78072532085176},{"vid":"b0d90c50f6a39c35fd30424672a49774fd73f16d85c70a2ab4e7e06a49bf14f9","name":"Ocie D'Amore-Johnson","party":"","address":"273 S 200 E, Santaquin, UT 84655","precinct":"25SQ05","hd":"65","v_score":"15.53259879","decile":"9","lat":39.97094417643516,"lng":-111.78083543148838},{"vid":"c8afe65354b369f451b06db72f2206ffa71f44a71bb08639a9a364c18db1c41d","name":"Aubrey Abshire","party":"Rep","address":"272 W 100 S, Santaquin, UT 84655","precinct":"25SQ05","hd":"65","v_score":"8.363183621","decile":"8","lat":39.974223883784404,"lng":-111.79102750781921},{"vid":"1404390","name":"Earley Brown","party":"","address":"360 E 200 N, Santaquin, UT 84655","precinct":"25SQ05","hd":"65","v_score":"8.347511332","decile":"8","lat":39.978626319630116,"lng":-111.77773296221244},{"vid":"1407328","name":"Alycia Runolfsson","party":"Dem","address":"282 N 300 W, Santaquin, UT 84655","precinct":"25SQ05","hd":"65","v_score":"1.623113131","decile":"4","lat":39.9797562810484,"lng":-111.79139111146523},{"vid":"1414543","name":"Felipa Shields","party":"","address":"135 S Center St, Santaquin, UT 84655","precinct":"25SQ05","hd":"65","v_score":"2.817000428","decile":"6","lat":39.97329086614146,"lng":-111.78482623055542},{"vid":"1417960","name":"Ms. Kirsten Wilkinson MD","party":"Rep","address":"234 N 300 W, Santaquin, UT 84655","precinct":"25SQ05","hd":"65","v_score":"1.193887297","decile":"3","lat":39.979304635605715,"lng":-111.79138552538149},{"vid":"1436504","name":"Kamryn Cummings","party":"Dem","address":"440 E Main St, Trlr 11, Santaquin, UT 84655","precinct":"25SQ05","hd":"65","v_score":"3.781490609","decile":"6","lat":39.97442344767459,"lng":-111.77597320757643},{"vid":"1447265","name":"Miss Chelsi Schiller DVM","party":"Rep","address":"51 N 400 E, Santaquin, UT 84655","precinct":"25SQ05","hd":"65","v_score":"13.28237143","decile":"9","lat":39.976575645066056,"lng":-111.77727328745436},{"vid":"1448427","name":"Dale Barrows","party":"","address":"113 E 200 N, Santaquin, UT 84655","precinct":"25SQ05","hd":"65","v_score":"16.75150098","decile":"9","lat":39.97944090074536,"lng":-111.7827731370821},{"vid":"84598e8931303a5583cf7b720ab88e15c42bb53280b31c951cbd172dcd9d2f79","name":"Jeremiah Runte","party":"Rep","address":"61 S 300 W, Santaquin, UT 84655","precinct":"25SQ05","hd":"65","v_score":"8.985747318","decile":"8","lat":39.974716871333314,"lng":-111.79083991112081},{"vid":"1451845","name":"Mr. Talon Lueilwitz PhD","party":"Dem","address":"117 N 300 W, Santaquin, UT 84655","precinct":"25SQ05","hd":"65","v_score":"5.40460374","decile":"7","lat":39.97779132088262,"lng":-111.79194015673633},{"vid":"1461185","name":"Mrs. Melodee Batz MD","party":"","address":"160 S 100 W, Santaquin, UT 84655","precinct":"25SQ05","hd":"65","v_score":"0","decile":"1","lat":39.972992491543536,"lng":-111.787745828711},{"vid":"1468961","name":"Randy Rice","party":"Rep","address":"87 S 100 E, Santaquin, UT 84655","precinct":"25SQ05","hd":"65","v_score":"1.121327652","decile":"3","lat":40.37500765760228,"lng":-111.79564532985616},{"vid":"1473277","name":"Dr. Olena Legros DVM","party":"","address":"85 S 300 W, Santaquin, UT 84655","precinct":"25SQ05","hd":"65","v_score":"1.193887297","decile":"3","lat":39.9744714081674,"lng":-111.79139260409094},{"vid":"1475917","name":"Myla Schroeder","party":"Rep","address":"511 W 200 N, Santaquin, UT 84655","precinct":"25SQ05","hd":"65","v_score":"8.363183621","decile":"8","lat":39.97968501537028,"lng":-111.7961811121758},{"vid":"b69b2146fba9b102b60e843caa6fb785329cb8b26180846e511f3d9ca8cbf4e1","name":"Jorge Spinka","party":"","address":"135 S Center St, Santaquin, UT 84655","precinct":"25SQ05","hd":"65","v_score":"11.1324014","decile":"9","lat":39.97329086614146,"lng":-111.78482623055542},{"vid":"1505541","name":"Vannie Barton PhD","party":"Dem","address":"225 N 300 E, Santaquin, UT 84655","precinct":"25SQ05","hd":"65","v_score":"19.3272208","decile":"10","lat":39.97939887972959,"lng":-111.77940421635378},{"vid":"1505542","name":"Clovis Gaylord-O'Hara","party":"Rep","address":"225 N 300 E, Santaquin, UT 84655","precinct":"25SQ05","hd":"65","v_score":"19.3272208","decile":"10","lat":39.97939887972959,"lng":-111.77940421635378},{"vid":"1508518","name":"Miss Dessie Nicolas","party":"Rep","address":"41 N 300 W, Santaquin, UT 84655","precinct":"25SQ05","hd":"65","v_score":"0","decile":"1","lat":39.97617602678523,"lng":-111.79192035247756},{"vid":"08fea5cf34bc351c12a9cd3b022be43cd96742a9199b54d54d96be7c6188e06b","name":"Celesta Thiel","party":"","address":"46 E 100 N, Santaquin, UT 84655","precinct":"25SQ05","hd":"65","v_score":"10.97556393","decile":"9","lat":39.97687195126457,"lng":-111.78426872764592},{"vid":"1514387","name":"Dr. Gilda Dooley PhD","party":"Rep","address":"184 N 100 E, Santaquin, UT 84655","precinct":"25SQ05","hd":"65","v_score":"5.40460374","decile":"7","lat":39.9784970314038,"lng":-111.78292798512885},{"vid":"1514547","name":"Melvina Wisozk","party":"Rep","address":"66 S 300 E, Santaquin, UT 84655","precinct":"25SQ05","hd":"65","v_score":"1.121327652","decile":"3","lat":39.9742751725361,"lng":-111.77939651815113},{"vid":"b8e8ae58d5201bc8e9464f7d65daf576500db91a7460e696ffd3e8a718ef2347","name":"Dr. Carli Konopelski MD","party":"Rep","address":"160 S 100 W, Santaquin, UT 84655","precinct":"25SQ05","hd":"65","v_score":"15.70505459","decile":"9","lat":39.972992491543536,"lng":-111.787745828711},{"vid":"1517388","name":"Mr. Sonny Padberg","party":"Dem","address":"250 N 350 W, Santaquin, UT 84655","precinct":"25SQ05","hd":"65","v_score":"13.46861423","decile":"9","lat":39.97978138501712,"lng":-111.79316631505799},{"vid":"1541693","name":"Jinnie Wiegand-Klein","party":"Dem","address":"140 E 200 S, Santaquin, UT 84655","precinct":"25SQ05","hd":"65","v_score":"2.587603312","decile":"5","lat":39.9720870319607,"lng":-111.78247335543774},{"vid":"1542471","name":"Austin Heathcote","party":"Rep","address":"350 S 300 W, Santaquin, UT 84655","precinct":"25SQ05","hd":"65","v_score":"0","decile":"1","lat":39.96998562221939,"lng":-111.79140637725551},{"vid":"1542527","name":"Leslee Gerlach-Bernier","party":"","address":"63 E 200 N, Santaquin, UT 84655","precinct":"25SQ05","hd":"65","v_score":"19.3272208","decile":"10","lat":39.97931451808477,"lng":-111.78394455692126},{"vid":"1543345","name":"Fumiko Larson","party":"Rep","address":"354 S 300 W, Santaquin, UT 84655","precinct":"25SQ05","hd":"65","v_score":"7.650280567","decile":"8","lat":39.970158688186054,"lng":-111.79203347175175},{"vid":"1556543","name":"Jule Leuschke","party":"","address":"146 N 100 E, Santaquin, UT 84655","precinct":"25SQ05","hd":"65","v_score":"11.1324014","decile":"9","lat":39.977914422275504,"lng":-111.78291061902611},{"vid":"b30fdf9b73403a08aa95e54005293ffd5b83215d94d2de6ce976c2b57d060ce9","name":"Jordyn Kreiger","party":"","address":"272 W 100 S, Santaquin, UT 84655","precinct":"25SQ05","hd":"65","v_score":"8.363183621","decile":"8","lat":39.974223883784404,"lng":-111.79102750781921},{"vid":"1567689","name":"Tyrique Waters","party":"Dem","address":"375 E 200 S, Santaquin, UT 84655","precinct":"25SQ05","hd":"65","v_score":"2.315214949","decile":"5","lat":39.97275504869163,"lng":-111.77748566266227},{"vid":"d908f87e8d6adb6cc23809bb4b7adb118de9ce91848cda76aafcb5a15a80d454","name":"Joanna Lockman","party":"Rep","address":"230 E 100 N, Santaquin, UT 84655","precinct":"25SQ05","hd":"65","v_score":"6.027167436","decile":"7","lat":39.976996121992855,"lng":-111.7804940901857},{"vid":"1578781","name":"Sierra Swift","party":"Dem","address":"210 W 200 N, Santaquin, UT 84655","precinct":"25SQ05","hd":"65","v_score":"14.14899265","decile":"9","lat":39.9793340344039,"lng":-111.7900103296072},{"vid":"1622896","name":"Mrs. Alyssa Bailey PhD","party":"","address":"190 W 200 N, Santaquin, UT 84655","precinct":"25SQ05","hd":"65","v_score":"1.193887297","decile":"3","lat":40.11282359897467,"lng":-111.65780154435762},{"vid":"1627958","name":"January Botsford-Nader","party":"Rep","address":"423 S 600 W, Santaquin, UT 84655","precinct":"25SQ05","hd":"65","v_score":"0","decile":"1","lat":39.96888709226551,"lng":-111.79756527193885},{"vid":"63a9aa65a8c99c9593d7f2e43c953f5527dbf8fe63d1c62a2c953fb9835534cb","name":"Mr. Attilio Kuhn","party":"Rep","address":"440 W Main St, Trlr 15, Santaquin, UT 84655","precinct":"25SQ05","hd":"65","v_score":"2.315214949","decile":"5","lat":39.97682427566856,"lng":-111.79489450298476},{"vid":"1629200","name":"Merrill Jenkins-McDermott","party":"Dem","address":"44 E 200 N, Santaquin, UT 84655","precinct":"25SQ05","hd":"65","v_score":"8.173821515","decile":"8","lat":39.97863560869924,"lng":-111.78446617357243},{"vid":"637d1d6a837b7a8902ed96129524326270cd1b3b0d3b1cd25f907435cb8cb356","name":"Miss Rona Hilpert DVM","party":"Dem","address":"37 N 300 W, Santaquin, UT 84655","precinct":"25SQ05","hd":"65","v_score":"14.90236525","decile":"9","lat":39.97617606974071,"lng":-111.79180470031362},{"vid":"69b4916db112ade812ebd4c56b1ea0b7f699aae0c2326d74fc25dea0bad18970","name":"Dr. Randell Carroll II","party":"Dem","address":"174 E 200 S, Santaquin, UT 84655","precinct":"25SQ05","hd":"65","v_score":"6.74007049","decile":"8","lat":39.97209331870918,"lng":-111.78172372426889},{"vid":"1674606","name":"Anabella Murray","party":"Rep","address":"440 E Main St, Trlr 37, Santaquin, UT 84655","precinct":"25SQ05","hd":"65","v_score":"2.587603312","decile":"5","lat":39.97442344767459,"lng":-111.77597320757643},{"vid":"1674674","name":"Cali Schaden","party":"Dem","address":"186 E 200 S, Santaquin, UT 84655","precinct":"25SQ05","hd":"65","v_score":"18.5581759","decile":"10","lat":39.97200197051736,"lng":-111.78160700672866},{"vid":"1676323","name":"Marie Tromp","party":"Rep","address":"43 N 300 W, Santaquin, UT 84655","precinct":"25SQ05","hd":"65","v_score":"0","decile":"1","lat":39.97617601866222,"lng":-111.79197817811038},{"vid":"1701908","name":"Corwin Howe","party":"Dem","address":"296 N 300 W, Santaquin, UT 84655","precinct":"25SQ05","hd":"65","v_score":"2.315214949","decile":"5","lat":39.98020418687293,"lng":-111.79139726330794},{"vid":"1707516","name":"Oliva Bailey","party":"","address":"268 W 100 S, Santaquin, UT 84655","precinct":"25SQ05","hd":"65","v_score":"0","decile":"1","lat":39.974223883784404,"lng":-111.79102750781921},{"vid":"1717384","name":"Denisha Rodriguez","party":"","address":"174 E 200 S, Santaquin, UT 84655","precinct":"25SQ05","hd":"65","v_score":"0","decile":"1","lat":39.97209331870918,"lng":-111.78172372426889},{"vid":"1726157","name":"Dr. Gabriel Eichmann","party":"","address":"377 W Main St, Santaquin, UT 84655","precinct":"25SQ05","hd":"65","v_score":"5.40460374","decile":"7","lat":39.97541558844574,"lng":-111.79282593028145},{"vid":"1727891","name":"Viney Gottlieb","party":"Rep","address":"350 S 300 W, Santaquin, UT 84655","precinct":"25SQ05","hd":"65","v_score":"0","decile":"1","lat":39.96998562221939,"lng":-111.79140637725551},{"vid":"c0597ad7215bc66d5323563da36be2efd0c396cd2bb4bb37827ee4b00a3173eb","name":"Jens Weissnat","party":"Dem","address":"41 S 200 E, Apt 1, Santaquin, UT 84655","precinct":"25SQ05","hd":"65","v_score":"0","decile":"1","lat":39.97472828310003,"lng":-111.78068671233883},{"vid":"1735335","name":"Miss Nedra Lemke DDS","party":"Rep","address":"24 E 100 S, Santaquin, UT 84655","precinct":"25SQ05","hd":"65","v_score":"0","decile":"1","lat":39.97363637055043,"lng":-111.78463901913491},{"vid":"1738739","name":"Mr. Darian Schuppe III","party":"","address":"440 E Main St, Trlr 7, Santaquin, UT 84655","precinct":"25SQ05","hd":"65","v_score":"0","decile":"1","lat":39.97442344767459,"lng":-111.77597320757643},{"vid":"1759551","name":"Dr. Donny Herman","party":"Rep","address":"50 S 300 W, Santaquin, UT 84655","precinct":"25SQ05","hd":"65","v_score":"2.660162957","decile":"5","lat":39.97499724685294,"lng":-111.79194173094403},{"vid":"6fe1b52deb4ae89f94290defffd1465970a518936f05ac897e6a3aaee999c819","name":"Abelardo Jast","party":"Rep","address":"218 N Madison Ave, Santaquin, UT 84655","precinct":"25SQ05","hd":"65","v_score":"17.27544997","decile":"9","lat":39.979143084902795,"lng":-111.7974934729348},{"vid":"8a51c72589207ecee980a748e4da503c496e9cbb81f040dd1fa56c86d809667c","name":"Kylah Pfeffer","party":"Rep","address":"666 W Frost St, Santaquin, UT 84655","precinct":"25SQ05","hd":"65","v_score":"4.210716443","decile":"7","lat":39.97918635763082,"lng":-111.79918962296028},{"vid":"1769527","name":"Darold Thiel","party":"Dem","address":"230 S 200 W, Santaquin, UT 84655","precinct":"25SQ05","hd":"65","v_score":"1.193887297","decile":"3","lat":39.97171040868558,"lng":-111.78990558885978},{"vid":"1778795","name":"Allyson Orn-Rempel","party":"Dem","address":"340 W 200 N, Santaquin, UT 84655","precinct":"25SQ05","hd":"65","v_score":"3.089388791","decile":"6","lat":39.97918205918183,"lng":-111.79249609334329},{"vid":"b5399fa3c9620e201ea2b2c6a756bf7fd0bd0adffe2e5691e26256f9c425c8e7","name":"Aria Dickens-Fisher","party":"Rep","address":"180 S 300 E, Santaquin, UT 84655","precinct":"25SQ05","hd":"65","v_score":"0","decile":"1","lat":39.97295284822714,"lng":-111.77940507065162},{"vid":"1786493","name":"Nathanael Thiel","party":"Rep","address":"35 E 300 S, Santaquin, UT 84655","precinct":"25SQ05","hd":"65","v_score":"7.493443096","decile":"8","lat":39.97096362134372,"lng":-111.78488476352169},{"vid":"1787303","name":"Artie Reichel","party":"Rep","address":"155 E 300 S, Santaquin, UT 84655","precinct":"25SQ05","hd":"65","v_score":"4.192796624","decile":"7","lat":39.971136833812686,"lng":-111.78200226722464},{"vid":"1792623","name":"Jaelyn Hilpert-Schoen","party":"Dem","address":"37 N 300 W, Santaquin, UT 84655","precinct":"25SQ05","hd":"65","v_score":"14.90236525","decile":"9","lat":39.97617606974071,"lng":-111.79180470031362},{"vid":"1796075","name":"Mignon Fritsch PhD","party":"","address":"189 N 300 W, Santaquin, UT 84655","precinct":"25SQ05","hd":"65","v_score":"8.363183621","decile":"8","lat":39.978635656609434,"lng":-111.79191357594638},{"vid":"1798238","name":"Laurene Kilback","party":"Dem","address":"280 W 200 N, Santaquin, UT 84655","precinct":"25SQ05","hd":"65","v_score":"13.4109596","decile":"9","lat":40.11270344381335,"lng":-111.65946540433751},{"vid":"1799830","name":"Jacques Medhurst","party":"Rep","address":"189 N 300 W, Santaquin, UT 84655","precinct":"25SQ05","hd":"65","v_score":"17.42538181","decile":"9","lat":39.978635656609434,"lng":-111.79191357594638},{"vid":"1815562","name":"Oswaldo Stanton","party":"Rep","address":"440 W Main St, Trlr 11, Santaquin, UT 84655","precinct":"25SQ05","hd":"65","v_score":"1.46627566","decile":"4","lat":39.97682427566856,"lng":-111.79489450298476},{"vid":"1830999","name":"Adolf Lemke","party":"Dem","address":"201 N Cardinal St, Santaquin, UT 84655","precinct":"25SQ05","hd":"65","v_score":"1.193887297","decile":"3","lat":39.97897746892689,"lng":-111.79734539117842},{"vid":"1837220","name":"Mrs. Estela Waters PhD","party":"Rep","address":"345 W 200 N, Santaquin, UT 84655","precinct":"25SQ05","hd":"65","v_score":"2.315214949","decile":"5","lat":39.97862669107175,"lng":-111.79278882177537},{"vid":"1842957","name":"Bret Kshlerin-Thompson","party":"","address":"345 W 200 N, Santaquin, UT 84655","precinct":"25SQ05","hd":"65","v_score":"2.315214949","decile":"5","lat":39.97862669107175,"lng":-111.79278882177537},{"vid":"1843768","name":"Dr. Chet Sporer","party":"","address":"232 N Halford Ave, Santaquin, UT 84655","precinct":"25SQ05","hd":"65","v_score":"9.99960731","decile":"9","lat":39.97940003685772,"lng":-111.7989139139582},{"vid":"1847428","name":"Genesis Kautzer-Lebsack","party":"Dem","address":"268 W 100 S, Santaquin, UT 84655","precinct":"25SQ05","hd":"65","v_score":"1.46627566","decile":"4","lat":39.974223883784404,"lng":-111.79102750781921},{"vid":"1852247","name":"Nealie Rosenbaum DVM","party":"Dem","address":"440 E Main St, # 49, Santaquin, UT 84655","precinct":"25SQ05","hd":"65","v_score":"1.121327652","decile":"3","lat":39.97442344767459,"lng":-111.77597320757643},{"vid":"1854774","name":"Sydney Smitham-Bradtke","party":"Dem","address":"410 W 30 S, Santaquin, UT 84655","precinct":"25SQ05","hd":"65","v_score":"1.193887297","decile":"3","lat":39.97540324222885,"lng":-111.7933029485506},{"vid":"1855470","name":"Rossie Harvey","party":"","address":"460 W 500 S, Apt 1, Santaquin, UT 84655","precinct":"25SQ05","hd":"65","v_score":"2.315214949","decile":"5","lat":39.96819412648732,"lng":-111.79413043355365},{"vid":"1862299","name":"Orvel Hermann","party":"Rep","address":"45 N 300 W, Santaquin, UT 84655","precinct":"25SQ05","hd":"65","v_score":"0","decile":"1","lat":39.97617598286597,"lng":-111.79203604668268},{"vid":"1872467","name":"Bret Sipes","party":"Rep","address":"274 W 100 S, Santaquin, UT 84655","precinct":"25SQ05","hd":"65","v_score":"10.11031313","decile":"9","lat":39.97433887082952,"lng":-111.7910537057417},{"vid":"1876183","name":"Cheyenne Block","party":"Dem","address":"89 S 300 W, Apt 1, Santaquin, UT 84655","precinct":"25SQ05","hd":"65","v_score":"5.687348376","decile":"7","lat":39.97432734165861,"lng":-111.79139868321505},{"vid":"1876422","name":"Jeanmarie Buckridge","party":"Dem","address":"222 W 100 S, Santaquin, UT 84655","precinct":"25SQ05","hd":"65","v_score":"4.079907534","decile":"7","lat":39.97468581647875,"lng":-111.79010957287697},{"vid":"31b3d1ff80444d0cdcdcbacc6ad2932b33d0ac29c693af707acb0e3ed660bc84","name":"Sienna Harris","party":"Rep","address":"311 W 300 N, Santaquin, UT 84655","precinct":"25SQ05","hd":"65","v_score":"15.00969335","decile":"9","lat":39.98039186372426,"lng":-111.79184434363046},{"vid":"1878336","name":"Yehuda Hackett","party":"Rep","address":"38 N 200 W, Santaquin, UT 84655","precinct":"25SQ05","hd":"65","v_score":"1.46627566","decile":"4","lat":40.388302204501,"lng":-111.8517767556332},{"vid":"1889655","name":"Parker Schumm","party":"Rep","address":"91 S 300 W, Santaquin, UT 84655","precinct":"25SQ05","hd":"65","v_score":"5.273794831","decile":"7","lat":39.974322349124776,"lng":-111.79124243081256},{"vid":"1891822","name":"Edson Kilback","party":"","address":"35 E 200 N, Santaquin, UT 84655","precinct":"25SQ05","hd":"65","v_score":"5.61909958","decile":"7","lat":39.97931145296486,"lng":-111.78453902442669},{"vid":"1893210","name":"Darrius Ankunding","party":"","address":"332 E 200 S, Santaquin, UT 84655","precinct":"25SQ05","hd":"65","v_score":"8.216702423","decile":"8","lat":39.97198875572898,"lng":-111.77840412503217},{"vid":"1894311","name":"Aurilla Mayer-Schowalter","party":"","address":"112 N Center St, Santaquin, UT 84655","precinct":"25SQ05","hd":"65","v_score":"5.40460374","decile":"7","lat":39.97754806009992,"lng":-111.78484928509853},{"vid":"1901506","name":"Mrs. Nichol Mayert","party":"Rep","address":"255 N 100 W, Santaquin, UT 84655","precinct":"25SQ05","hd":"65","v_score":"15.61526831","decile":"9","lat":39.97981289138597,"lng":-111.78780116305886},{"vid":"1922277","name":"Jamey Adams","party":"Rep","address":"114 N 200 E, Santaquin, UT 84655","precinct":"25SQ05","hd":"65","v_score":"1.46627566","decile":"4","lat":39.97758453656512,"lng":-111.78079048733743},{"vid":"1930950","name":"Dr. Ignacio Leuschke I","party":"Rep","address":"84 E 300 N, Santaquin, UT 84655","precinct":"25SQ05","hd":"65","v_score":"1.121327652","decile":"3","lat":39.980291742180206,"lng":-111.78365409529796},{"vid":"1931358","name":"Falon Zboncak","party":"Rep","address":"86 N 300 W, Santaquin, UT 84655","precinct":"25SQ05","hd":"65","v_score":"7.367763134","decile":"8","lat":39.97698750263351,"lng":-111.79141910566443},{"vid":"1933939","name":"Miss Karyme Turcotte DDS","party":"","address":"440 E Main St, Trlr 52, Santaquin, UT 84655","precinct":"25SQ05","hd":"65","v_score":"14.90880107","decile":"9","lat":39.97442344767459,"lng":-111.77597320757643},{"vid":"1934437","name":"Dante White","party":"","address":"440 E Main St, Trlr 22, Santaquin, UT 84655","precinct":"25SQ05","hd":"65","v_score":"3.781490609","decile":"6","lat":39.97442344767459,"lng":-111.77597320757643},{"vid":"1934442","name":"Lula Carter-Ondricka","party":"Dem","address":"440 E Main St, Trlr 22, Santaquin, UT 84655","precinct":"25SQ05","hd":"65","v_score":"0","decile":"1","lat":39.97442344767459,"lng":-111.77597320757643},{"vid":"1936245","name":"Darl Powlowski","party":"Dem","address":"248 N 300 W, Santaquin, UT 84655","precinct":"25SQ05","hd":"65","v_score":"1.46627566","decile":"4","lat":39.9796435354136,"lng":-111.79131133118655},{"vid":"18a5fada8f133951be9d511b1eab5c988311105025b71327d4d1b1c61b1bdaab","name":"Calhoun Rice","party":"Rep","address":"321 W 300 N, Santaquin, UT 84655","precinct":"25SQ05","hd":"65","v_score":"8.35914475","decile":"8","lat":39.98035208728325,"lng":-111.79237279651628},{"vid":"1939365","name":"Jameson Flatley","party":"","address":"348 W 200 N, Santaquin, UT 84655","precinct":"25SQ05","hd":"65","v_score":"6.550708384","decile":"7","lat":39.979048161166446,"lng":-111.79325629787756},{"vid":"1942665","name":"Barrett Mosciski","party":"Dem","address":"440 W Main St, Trlr 20, Santaquin, UT 84655","precinct":"25SQ05","hd":"65","v_score":"2.660162957","decile":"5","lat":39.97682427566856,"lng":-111.79489450298476},{"vid":"1942794","name":"Faustino Reynolds","party":"Rep","address":"282 N 300 W, Santaquin, UT 84655","precinct":"25SQ05","hd":"65","v_score":"1.121327652","decile":"3","lat":39.9797562810484,"lng":-111.79139111146523},{"vid":"1947705","name":"Catrina Gutkowski","party":"","address":"150 W 200 N, Santaquin, UT 84655","precinct":"25SQ05","hd":"65","v_score":"2.660162957","decile":"5","lat":39.9793355697168,"lng":-111.78850637387157},{"vid":"1950903","name":"Tristin Robel","party":"","address":"235 W 300 N, Apt 1, Santaquin, UT 84655","precinct":"25SQ05","hd":"65","v_score":"3.781490609","decile":"6","lat":39.98015992134405,"lng":-111.79031138446378},{"vid":"1955813","name":"Erla Skiles","party":"Rep","address":"287 W 300 N, Santaquin, UT 84655","precinct":"25SQ05","hd":"65","v_score":"1.121327652","decile":"3","lat":39.98033860654872,"lng":-111.7913201707886},{"vid":"1956602","name":"Mr. Chas Tillman PhD","party":"Rep","address":"158 S 200 E, Santaquin, UT 84655","precinct":"25SQ05","hd":"65","v_score":"21.63734481","decile":"10","lat":39.973279366384325,"lng":-111.78154634562783},{"vid":"1958517","name":"Mr. Ham Metz","party":"","address":"150 E 300 N, Santaquin, UT 84655","precinct":"25SQ05","hd":"65","v_score":"9.640097175","decile":"8","lat":39.9801159910128,"lng":-111.7823063902471},{"vid":"1961603","name":"Toivo Feil","party":"","address":"189 N 200 E, Santaquin, UT 84655","precinct":"25SQ05","hd":"65","v_score":"1.121327652","decile":"3","lat":39.97833220963489,"lng":-111.78152461268614},{"vid":"1963233","name":"Leafy Cummings","party":"Rep","address":"67 S 300 W, Santaquin, UT 84655","precinct":"25SQ05","hd":"65","v_score":"1.193887297","decile":"3","lat":39.974567811433594,"lng":-111.79068973825076},{"vid":"1965724","name":"Norton Russel","party":"","address":"440 E Main St, Trlr 15, Santaquin, UT 84655","precinct":"25SQ05","hd":"65","v_score":"2.315214949","decile":"5","lat":39.97442344767459,"lng":-111.77597320757643},{"vid":"1968183","name":"Pheobe Haley","party":"Rep","address":"440 W Main St, Trlr 22, Santaquin, UT 84655","precinct":"25SQ05","hd":"65","v_score":"1.121327652","decile":"3","lat":39.97682427566856,"lng":-111.79489450298476},{"vid":"1968897","name":"Dr. Tyrel D'Amore","party":"","address":"192 N 100 W, Santaquin, UT 84655","precinct":"25SQ05","hd":"65","v_score":"19.3272208","decile":"10","lat":39.97852065872006,"lng":-111.78699136388724},{"vid":"1970002","name":"Gwyneth Nicolas PhD","party":"","address":"55 N 200 W, Santaquin, UT 84655","precinct":"25SQ05","hd":"65","v_score":"6.74007049","decile":"8","lat":39.976681301962,"lng":-111.78993802019751},{"vid":"1970201","name":"Mr. Justin Hartmann III","party":"Rep","address":"111 W 100 S, # B, Santaquin, UT 84655","precinct":"25SQ05","hd":"65","v_score":"0","decile":"1","lat":39.973669415428645,"lng":-111.78769680656795},{"vid":"1970207","name":"Ms. Arden Hettinger","party":"","address":"265 N 300 E, Santaquin, UT 84655","precinct":"25SQ05","hd":"65","v_score":"16.67870344","decile":"9","lat":39.97982311090738,"lng":-111.77927131923131},{"vid":"1971809","name":"Malvin Koch","party":"","address":"282 W 200 S, Santaquin, UT 84655","precinct":"25SQ05","hd":"65","v_score":"3.93832808","decile":"6","lat":39.97260299794243,"lng":-111.79050073080752},{"vid":"1972146","name":"Enos Bailey","party":"","address":"88 N 300 E, Santaquin, UT 84655","precinct":"25SQ05","hd":"65","v_score":"2.660162957","decile":"5","lat":39.97699300885762,"lng":-111.77843476851288},{"vid":"1972455","name":"Deric Kassulke III","party":"Dem","address":"187 E 100 N, Santaquin, UT 84655","precinct":"25SQ05","hd":"65","v_score":"0","decile":"1","lat":39.97752717744126,"lng":-111.78167482675211},{"vid":"1972780","name":"Tabetha Huels","party":"","address":"144 S 200 W, Santaquin, UT 84655","precinct":"25SQ05","hd":"65","v_score":"19.24455128","decile":"10","lat":39.9733371876058,"lng":-111.78993195351507},{"vid":"1973747","name":"Jaime Stark","party":"Dem","address":"90 N 300 W, Santaquin, UT 84655","precinct":"25SQ05","hd":"65","v_score":"1.46627566","decile":"4","lat":39.977031414049236,"lng":-111.79141986294422},{"vid":"1973795","name":"Mabelle Jast","party":"","address":"36 N 200 W, Santaquin, UT 84655","precinct":"25SQ05","hd":"65","v_score":"2.315214949","decile":"5","lat":39.976290392549444,"lng":-111.78915131088564},{"vid":"8a07ff5abdfe3f5c062baffad723b50fd33b9add2e7230e6478e9775dfd40a18","name":"Sasha O'Connell MD","party":"Dem","address":"187 N 200 E, Santaquin, UT 84655","precinct":"25SQ05","hd":"65","v_score":"11.45021068","decile":"9","lat":39.97813735530085,"lng":-111.78152381516185},{"vid":"2012101","name":"Jaimie Schaden","party":"Rep","address":"125 E 100 N, Apt D, Santaquin, UT 84655","precinct":"25SQ05","hd":"65","v_score":"2.315214949","decile":"5","lat":39.97766420514019,"lng":-111.78278218445166},{"vid":"bb7d2950137440edbaf2901c79548e231a74b224c96d7a2f5a9009d2c7673abf","name":"Tanja Mraz","party":"Rep","address":"180 S 200 E, Santaquin, UT 84655","precinct":"25SQ05","hd":"65","v_score":"2.817000428","decile":"6","lat":39.972761751255526,"lng":-111.78141294652679},{"vid":"2027601","name":"Mr. Jennings Steuber","party":"","address":"171 N 100 E, Santaquin, UT 84655","precinct":"25SQ05","hd":"65","v_score":"8.421194992","decile":"8","lat":39.97837425223299,"lng":-111.78359643082291},{"vid":"2027615","name":"Anika Dooley","party":"Rep","address":"222 W 100 S, Santaquin, UT 84655","precinct":"25SQ05","hd":"65","v_score":"4.137918904","decile":"7","lat":39.97468581647875,"lng":-111.79010957287697},{"vid":"49dfadaf235fb42d0cf82aa6bb78ec7c6683cba854ffbfa68ab3fa3313b41ec0","name":"Patti Larson","party":"Dem","address":"638 W Frost St, Santaquin, UT 84655","precinct":"25SQ05","hd":"65","v_score":"2.660162957","decile":"5","lat":39.978852132585565,"lng":-111.7986169363152},{"vid":"2053621","name":"Skylar McCullough","party":"","address":"41 E 100 S, Santaquin, UT 84655","precinct":"25SQ05","hd":"65","v_score":"1.121327652","decile":"3","lat":39.974400866058524,"lng":-111.7843413027174},{"vid":"5ed3c87a37228ae3ca11f4936129aeddda6bef1ce54b817682b3a7bd1e39f4ad","name":"Odis Schumm-Olson","party":"","address":"189 N 200 E, Santaquin, UT 84655","precinct":"25SQ05","hd":"65","v_score":"0","decile":"1","lat":39.97833220963489,"lng":-111.78152461268614},{"vid":"2061754","name":"Thompson Koch","party":"Rep","address":"113 N 300 W, Santaquin, UT 84655","precinct":"25SQ05","hd":"65","v_score":"2.958579882","decile":"6","lat":39.97735919137967,"lng":-111.79184293671044},{"vid":"c92c9440e1080a621a77ae0850066c5a972d29aaa085a20a67e1c34c27d081dc","name":"Debbie Hartmann PhD","party":"","address":"158 S 200 E, Santaquin, UT 84655","precinct":"25SQ05","hd":"65","v_score":"12.65668843","decile":"9","lat":39.973279366384325,"lng":-111.78154634562783},{"vid":"2084247","name":"Jaleel Wiza","party":"Dem","address":"269 W Spruce Way, Santaquin, UT 84655","precinct":"25SQ05","hd":"65","v_score":"0","decile":"1","lat":39.9765350376097,"lng":-111.79092722414747},{"vid":"2088646","name":"Dondre Rosenbaum","party":"Dem","address":"125 W 300 N, Santaquin, UT 84655","precinct":"25SQ05","hd":"65","v_score":"3.781490609","decile":"6","lat":39.980277638891714,"lng":-111.787993982559},{"vid":"2088796","name":"Jovan Champlin","party":"","address":"219 E 200 N, Santaquin, UT 84655","precinct":"25SQ05","hd":"65","v_score":"2.315214949","decile":"5","lat":39.97922297813088,"lng":-111.78047403745295},{"vid":"a5fc68b8fac2cf0123c577c32ca0637accb8bdc200bc475a8578a57bbb920541","name":"Sherman Cremin","party":"","address":"123 E 100 S, Santaquin, UT 84655","precinct":"25SQ05","hd":"65","v_score":"0","decile":"1","lat":39.97427230779243,"lng":-111.78258091737423},{"vid":"2094469","name":"Mr. Isam Rippin IV","party":"Rep","address":"113 E 200 N, Santaquin, UT 84655","precinct":"25SQ05","hd":"65","v_score":"16.75150098","decile":"9","lat":39.97944090074536,"lng":-111.7827731370821},{"vid":"604639287a3dca29117a7e422a96bdc752c08defd1d78ccca9b4bb39639462b5","name":"Darla O'Connell","party":"Dem","address":"284 N 300 W, Santaquin, UT 84655","precinct":"25SQ05","hd":"65","v_score":"2.315214949","decile":"5","lat":39.97986617926564,"lng":-111.7913532043569},{"vid":"2100104","name":"Kip Cummings","party":"","address":"76 S 300 W, Santaquin, UT 84655","precinct":"25SQ05","hd":"65","v_score":"2.660162957","decile":"5","lat":39.97466024108913,"lng":-111.79195359304015},{"vid":"2111529","name":"Taryn Lubowitz PhD","party":"","address":"161 N 400 E, Santaquin, UT 84655","precinct":"25SQ05","hd":"65","v_score":"3.93832808","decile":"6","lat":39.97830109400911,"lng":-111.77730905831764},{"vid":"2126073","name":"Fronie Crist","party":"","address":"87 S 100 E, Santaquin, UT 84655","precinct":"25SQ05","hd":"65","v_score":"2.587603312","decile":"5","lat":40.37500765760228,"lng":-111.79564532985616},{"vid":"2134291","name":"Stephan Frami","party":"Dem","address":"150 W 200 N, Santaquin, UT 84655","precinct":"25SQ05","hd":"65","v_score":"4.409183253","decile":"7","lat":39.9793355697168,"lng":-111.78850637387157},{"vid":"f996906c972b8f51120224c7cc0061b34f917f89e69b975f3c410aab3504639f","name":"Mahalie Bartell","party":"Dem","address":"41 E 100 S, Santaquin, UT 84655","precinct":"25SQ05","hd":"65","v_score":"1.623113131","decile":"5","lat":39.974400866058524,"lng":-111.7843413027174},{"vid":"bcf46e20b39a4860d0faf99982dae8c9878e54a9ce2d1375fcc7357ec8940d4e","name":"Austin Rowe","party":"Dem","address":"44 E 200 N, Santaquin, UT 84655","precinct":"25SQ05","hd":"65","v_score":"8.489090786","decile":"8","lat":39.97863560869924,"lng":-111.78446617357243},{"vid":"7c6eca7ab9a29a6d629f73c526da3976a609be3505fe12035c0f7dbb12cd606a","name":"Racheal Kozey","party":"","address":"136 N 200 W, Santaquin, UT 84655","precinct":"25SQ05","hd":"65","v_score":"2.315214949","decile":"5","lat":39.97777411912262,"lng":-111.78911363266802},{"vid":"2160779","name":"Alek Bahringer-Luettgen","party":"Dem","address":"52 E 100 N, Santaquin, UT 84655","precinct":"25SQ05","hd":"65","v_score":"2.660162957","decile":"5","lat":39.97686138445531,"lng":-111.78403348097156},{"vid":"2164121","name":"Gary Schumm","party":"Dem","address":"638 W Frost St, Santaquin, UT 84655","precinct":"25SQ05","hd":"65","v_score":"2.660162957","decile":"5","lat":39.978852132585565,"lng":-111.7986169363152},{"vid":"2166325","name":"Manervia Tremblay","party":"","address":"191 N 100 W, Santaquin, UT 84655","precinct":"25SQ05","hd":"65","v_score":"3.781490609","decile":"6","lat":39.9786498695491,"lng":-111.78776899698082},{"vid":"241e133403cbf386b92d36baa8ef02d5f9d4de2ff9dc99208414633f0dd1c566","name":"Kamryn Murazik","party":"","address":"69 E 100 N, Santaquin, UT 84655","precinct":"25SQ05","hd":"65","v_score":"5.546183193","decile":"7","lat":39.97767591887334,"lng":-111.78396435830541},{"vid":"6c6a717ebfbef7d33f0f34daa40273f316feba3ff35424834de1f7e8582e215f","name":"Loris Walter","party":"","address":"32 N Center St, Apt B, Santaquin, UT 84655","precinct":"25SQ05","hd":"65","v_score":"5.40460374","decile":"7","lat":39.976114574367294,"lng":-111.78491689679839},{"vid":"2172345","name":"Althea Hegmann","party":"","address":"53 E 200 N, Santaquin, UT 84655","precinct":"25SQ05","hd":"65","v_score":"11.04973188","decile":"9","lat":39.97931693146737,"lng":-111.7842113806355},{"vid":"2174123","name":"Zayden McDermott","party":"Dem","address":"230 N Halford Ave, Santaquin, UT 84655","precinct":"25SQ05","hd":"65","v_score":"3.93832808","decile":"6","lat":39.979355111715456,"lng":-111.79896088198785},{"vid":"ed8096d3528aa4d5c66dc27c07d1521228a32b45bad8831ec5768d0e6e5fd952","name":"Leonia Bosco","party":"","address":"130 W 100 S, Santaquin, UT 84655","precinct":"25SQ05","hd":"65","v_score":"0","decile":"1","lat":39.97428874671357,"lng":-111.78798184757717},{"vid":"61258688015570ebd6a821cb82703fb63c42b5127458669468cd3b4e8b115fe7","name":"Hymen Kshlerin","party":"Dem","address":"258 W 100 S, Santaquin, UT 84655","precinct":"25SQ05","hd":"65","v_score":"1.193887297","decile":"3","lat":39.97434448536998,"lng":-111.79086649556386},{"vid":"2193944","name":"Jayce Buckridge","party":"Rep","address":"350 E 100 S, Santaquin, UT 84655","precinct":"25SQ05","hd":"65","v_score":"7.849871391","decile":"8","lat":39.9735752396796,"lng":-111.77789510201269},{"vid":"66dc4dd8b69889fe41a563db6febcf56edb9e2fb5f81f35e353b24135ea786e7","name":"Junius Halvorson","party":"","address":"337 W 200 N, Santaquin, UT 84655","precinct":"25SQ05","hd":"65","v_score":"2.315214949","decile":"5","lat":39.97862693199941,"lng":-111.79249958455578},{"vid":"38d3d0f5a03f2b753d4f87f6f4d33c8336cc8c4f7cd893340ba0a00cec2f8f18","name":"Lazaro Reinger-Zulauf","party":"Rep","address":"340 E 300 N, Santaquin, UT 84655","precinct":"25SQ05","hd":"65","v_score":"2.958579882","decile":"6","lat":39.98026190944628,"lng":-111.77805667838959},{"vid":"ebc13736494d01edb1ac70163b81d40c95caf61742eea616621bd8f1a7eeb5d7","name":"Betsey Schmidt","party":"","address":"210 N 350 W, Santaquin, UT 84655","precinct":"25SQ05","hd":"65","v_score":"1.193887297","decile":"3","lat":39.97933402573061,"lng":-111.79316323042296},{"vid":"2211428","name":"Tana Blanda-Howe","party":"Dem","address":"45 E 300 S, Santaquin, UT 84655","precinct":"25SQ05","hd":"65","v_score":"1.193887297","decile":"3","lat":39.97098591653333,"lng":-111.78441350049643},{"vid":"2211537","name":"Lindsay Fritsch MD","party":"","address":"114 N 200 E, Santaquin, UT 84655","precinct":"25SQ05","hd":"65","v_score":"0","decile":"1","lat":39.97758453656512,"lng":-111.78079048733743},{"vid":"4468647b26d79203395fbd57762af8f5470d570b6dad1b03967f9b7547906e0c","name":"Mr. Gaylen Lynch","party":"Rep","address":"261 S 300 E, Apt C, Santaquin, UT 84655","precinct":"25SQ05","hd":"65","v_score":"6.027167436","decile":"7","lat":39.971333352372824,"lng":-111.77855684776334},{"vid":"2219824","name":"Ozzie Smitham","party":"","address":"60 S 200 W, Santaquin, UT 84655","precinct":"25SQ05","hd":"65","v_score":"2.315214949","decile":"5","lat":39.97467529754399,"lng":-111.78982035932358},{"vid":"2223129","name":"Shianne Sanford DDS","party":"Dem","address":"175 S 100 E, Santaquin, UT 84655","precinct":"25SQ05","hd":"65","v_score":"4.15282392","decile":"7","lat":39.97274652758626,"lng":-111.78282227043657},{"vid":"495726c0788655da609e8e18282958d0ff262a03dbbd4418ebb9ad1999f0b1ed","name":"Dr. Isreal Rempel I","party":"Dem","address":"232 E 100 N, Santaquin, UT 84655","precinct":"25SQ05","hd":"65","v_score":"5.273794831","decile":"7","lat":39.97701627228463,"lng":-111.78015124887618},{"vid":"2254577","name":"Ms. Esperanza Adams DDS","party":"Rep","address":"289 W Spruce Way, Santaquin, UT 84655","precinct":"25SQ05","hd":"65","v_score":"0","decile":"1","lat":39.97654262073015,"lng":-111.79126420502774},{"vid":"4ec8cc3034de796790f00608f99e0d1a5e4681a51ded8cb6ab29b75439bcf8dc","name":"Mr. Cleo Huel","party":"Rep","address":"261 S 100 W, Santaquin, UT 84655","precinct":"25SQ05","hd":"65","v_score":"0","decile":"1","lat":39.971346183208304,"lng":-111.78693769044735},{"vid":"684a7b6f9e08773dc4eecb01e2d50335fee1966c8610f025c8b81b1026692a77","name":"Nakita Herman PhD","party":"","address":"165 W 100 N, Unit 4, Santaquin, UT 84655","precinct":"25SQ05","hd":"65","v_score":"0","decile":"1","lat":39.97689020138252,"lng":-111.78855021902362},{"vid":"ed82672f9a692c8b12691d10382ebb18ecfe6ef2386ebf5d689cf7f5d0b65444","name":"Delpha Towne-O'Kon","party":"","address":"138 W Main St, Santaquin, UT 84655","precinct":"25SQ05","hd":"65","v_score":"1.121327652","decile":"3","lat":39.97607588614498,"lng":-111.78821931758186},{"vid":"cbd66a7efb05863d0ab98a180d77938fe68f0c46831de8d1c4e34da19ce8fc38","name":"Lesia Botsford","party":"","address":"460 W 500 S, Apt 4, Santaquin, UT 84655","precinct":"25SQ05","hd":"65","v_score":"1.121327652","decile":"3","lat":39.96819412648732,"lng":-111.79413043355365},{"vid":"ac91f518465d3bb3ab3d094db289ac91181b62069adb792429f8ccefa1445bb8","name":"Ms. Danica Schuppe DVM","party":"Dem","address":"145 E 100 N, Santaquin, UT 84655","precinct":"25SQ05","hd":"65","v_score":"0","decile":"1","lat":39.977639986548304,"lng":-111.78234228279362},{"vid":"2282092","name":"Miss Hope Herzog PhD","party":"","address":"358 E 200 S, Santaquin, UT 84655","precinct":"25SQ05","hd":"65","v_score":"2.315214949","decile":"5","lat":39.97191307646505,"lng":-111.77781999782437},{"vid":"019db9a9e132fd1a386923bb923b3cee4f60bffbe34ec169e793639bae425e25","name":"Ms. Kiera Hermiston","party":"Dem","address":"285 N 300 E, Santaquin, UT 84655","precinct":"25SQ05","hd":"65","v_score":"0","decile":"1","lat":39.980162721273736,"lng":-111.77926724141892},{"vid":"2295830","name":"Areli Weissnat","party":"Dem","address":"238 N 200 W, Santaquin, UT 84655","precinct":"25SQ05","hd":"65","v_score":"0","decile":"1","lat":39.9795702867417,"lng":-111.78902990357497},{"vid":"2295834","name":"Tracey Stark","party":"","address":"238 N 200 W, Santaquin, UT 84655","precinct":"25SQ05","hd":"65","v_score":"1.121327652","decile":"3","lat":39.9795702867417,"lng":-111.78902990357497},{"vid":"2300539","name":"Ozell Gutmann","party":"","address":"191 N 100 W, Santaquin, UT 84655","precinct":"25SQ05","hd":"65","v_score":"2.315214949","decile":"5","lat":39.9786498695491,"lng":-111.78776899698082},{"vid":"c068c8048c8d359f086a41786c5f51c6a7d72b97928a3d014c57e19f281634f1","name":"Ms. Eleanor Douglas PhD","party":"","address":"85 N 100 E, Santaquin, UT 84655","precinct":"25SQ05","hd":"65","v_score":"1.121327652","decile":"3","lat":39.97678681730064,"lng":-111.7835047935011},{"vid":"d70b76acd28a224b894768a2e02f778a2d705ab7062a2080d48cc85bea618b60","name":"Mr. Charlie Farrell","party":"","address":"150 E 200 N, Santaquin, UT 84655","precinct":"25SQ05","hd":"65","v_score":"0","decile":"1","lat":39.978455057835895,"lng":-111.7823598966004},{"vid":"be289bc93977e241ef950a16267b46a9dd62c169b9e0831ac8bf3ec6f8d31312","name":"Mintie Stracke","party":"Rep","address":"235 W 300 N, # 1, Santaquin, UT 84655","precinct":"25SQ05","hd":"65","v_score":"2.315214949","decile":"5","lat":39.98015992134405,"lng":-111.79031138446378},{"vid":"e1bde7f99535d3d9ed5287223e220cc275cedc632a4c5e6f2f03f515e7e60913","name":"Hale Satterfield-Rosenbaum","party":"Dem","address":"511 W 200 N, Santaquin, UT 84655","precinct":"25SQ05","hd":"65","v_score":"0","decile":"1","lat":39.97968501537028,"lng":-111.7961811121758},{"vid":"2318501","name":"Leanne Pagac","party":"Dem","address":"236 E 200 S, Santaquin, UT 84655","precinct":"25SQ05","hd":"65","v_score":"3.93832808","decile":"6","lat":39.97184407719061,"lng":-111.78006103897737},{"vid":"2336836","name":"Mr. Jere Pouros MD","party":"","address":"268 N Center St, Santaquin, UT 84655","precinct":"25SQ05","hd":"65","v_score":"1.193887297","decile":"3","lat":39.97988315231033,"lng":-111.78477884981407},{"vid":"2344447","name":"Kayden Cruickshank","party":"Dem","address":"41 N 300 W, Santaquin, UT 84655","precinct":"25SQ05","hd":"65","v_score":"0","decile":"1","lat":39.97617602678523,"lng":-111.79192035247756},{"vid":"2345948","name":"Dylon White","party":"","address":"227 N Halford Ave, Santaquin, UT 84655","precinct":"25SQ05","hd":"65","v_score":"2.315214949","decile":"5","lat":39.97934103913107,"lng":-111.79947702533237},{"vid":"2347590","name":"Efrem Schiller","party":"Rep","address":"440 E Main St, Trlr 6, Santaquin, UT 84655","precinct":"25SQ05","hd":"65","v_score":"3.93832808","decile":"6","lat":39.97442344767459,"lng":-111.77597320757643},{"vid":"2351385","name":"Marco Lowe II","party":"Dem","address":"35 E 300 S, # 2, Santaquin, UT 84655","precinct":"25SQ05","hd":"65","v_score":"1.121327652","decile":"3","lat":39.97096362134372,"lng":-111.78488476352169},{"vid":"2367674","name":"Debbie Cole","party":"","address":"155 E 300 S, Santaquin, UT 84655","precinct":"25SQ05","hd":"65","v_score":"0","decile":"1","lat":39.971136833812686,"lng":-111.78200226722464},{"vid":"2373410","name":"Newt Rogahn","party":"","address":"158 N 100 W, Santaquin, UT 84655","precinct":"25SQ05","hd":"65","v_score":"6.979934218","decile":"8","lat":39.978248976699135,"lng":-111.78699550422238},{"vid":"2373456","name":"Phil Swaniawski-Swaniawski","party":"Rep","address":"440 E Main St, Trlr 22, Santaquin, UT 84655","precinct":"25SQ05","hd":"65","v_score":"1.121327652","decile":"3","lat":39.97442344767459,"lng":-111.77597320757643},{"vid":"2376167","name":"Ronaldo Hyatt-O'Conner","party":"","address":"46 W 100 N, Santaquin, UT 84655","precinct":"25SQ05","hd":"65","v_score":"2.315214949","decile":"5","lat":39.977683841373405,"lng":-111.78614229748095},{"vid":"2378688","name":"Michell Murray","party":"Dem","address":"75 S 300 W, Santaquin, UT 84655","precinct":"25SQ05","hd":"65","v_score":"2.315214949","decile":"5","lat":39.974567811433594,"lng":-111.79068973825076},{"vid":"2380818","name":"Kali Ryan","party":"","address":"350 S 300 W, Santaquin, UT 84655","precinct":"25SQ05","hd":"65","v_score":"1.121327652","decile":"3","lat":39.96998562221939,"lng":-111.79140637725551},{"vid":"2386619","name":"Shanon Denesik","party":"","address":"62 E 200 N, Santaquin, UT 84655","precinct":"25SQ05","hd":"65","v_score":"2.744440783","decile":"5","lat":39.978428106452554,"lng":-111.78412223909021},{"vid":"2387264","name":"Miss Genevra Stehr DDS","party":"","address":"345 W 200 N, Santaquin, UT 84655","precinct":"25SQ05","hd":"65","v_score":"2.315214949","decile":"5","lat":39.97862669107175,"lng":-111.79278882177537},{"vid":"2387563","name":"Hildred Breitenberg","party":"Rep","address":"175 S 300 W, Santaquin, UT 84655","precinct":"25SQ05","hd":"65","v_score":"8.373412339","decile":"8","lat":39.972828396784976,"lng":-111.7907847159636},{"vid":"2391568","name":"Toya Altenwerth","party":"","address":"273 W 100 N, Santaquin, UT 84655","precinct":"25SQ05","hd":"65","v_score":"2.315214949","decile":"5","lat":39.9770639975854,"lng":-111.79098771436308},{"vid":"2392403","name":"Kip Feil","party":"Dem","address":"280 W 200 N, Santaquin, UT 84655","precinct":"25SQ05","hd":"65","v_score":"2.315214949","decile":"5","lat":40.11270344381335,"lng":-111.65946540433751},{"vid":"2407237","name":"Ms. Adalynn O'Kon MD","party":"","address":"223 N Madison Ave, Santaquin, UT 84655","precinct":"25SQ05","hd":"65","v_score":"3.93832808","decile":"6","lat":39.979281484275035,"lng":-111.79790169165442},{"vid":"2408474","name":"Miss Berdie Purdy PhD","party":"Dem","address":"53 E 200 N, Santaquin, UT 84655","precinct":"25SQ05","hd":"65","v_score":"6.027167436","decile":"7","lat":39.97931693146737,"lng":-111.7842113806355},{"vid":"2421626","name":"Dylan Graham DVM","party":"Dem","address":"440 W Main St, Trlr 9, Santaquin, UT 84655","precinct":"25SQ05","hd":"65","v_score":"2.315214949","decile":"5","lat":39.97682427566856,"lng":-111.79489450298476},{"vid":"2424888","name":"Yamilex Cormier","party":"","address":"440 W Main St, Trlr 19, Santaquin, UT 84655","precinct":"25SQ05","hd":"65","v_score":"2.315214949","decile":"5","lat":39.97682427566856,"lng":-111.79489450298476},{"vid":"2434386","name":"Meyer Marks","party":"Rep","address":"187 N 400 E, Santaquin, UT 84655","precinct":"25SQ05","hd":"65","v_score":"0","decile":"1","lat":39.97859758507507,"lng":-111.77719405442934},{"vid":"2439704","name":"Carleton Hermann-Simonis","party":"Rep","address":"440 W Main St, Trlr 14, Santaquin, UT 84655","precinct":"25SQ05","hd":"65","v_score":"2.315214949","decile":"5","lat":39.97682427566856,"lng":-111.79489450298476},{"vid":"2439717","name":"Dr. Khiry Ratke Sr.","party":"Rep","address":"440 W Main St, Trlr 14, Santaquin, UT 84655","precinct":"25SQ05","hd":"65","v_score":"2.315214949","decile":"5","lat":39.97682427566856,"lng":-111.79489450298476},{"vid":"2439868","name":"Stevie Collins","party":"Rep","address":"686 W Frost St, Santaquin, UT 84655","precinct":"25SQ05","hd":"65","v_score":"0","decile":"1","lat":39.97951609689496,"lng":-111.79962555688802},{"vid":"2440547","name":"Fidencio Ledner","party":"","address":"134 N 100 W, Santaquin, UT 84655","precinct":"25SQ05","hd":"65","v_score":"0","decile":"1","lat":39.97796514921234,"lng":-111.78702455448104},{"vid":"2443354","name":"Meryl Mante","party":"","address":"241 W Spruce Way, Santaquin, UT 84655","precinct":"25SQ05","hd":"65","v_score":"1.121327652","decile":"3","lat":39.97652715063482,"lng":-111.79042123315165},{"vid":"2446657","name":"Tarah Hartmann","party":"Dem","address":"44 E 200 N, Santaquin, UT 84655","precinct":"25SQ05","hd":"65","v_score":"2.315214949","decile":"5","lat":39.97863560869924,"lng":-111.78446617357243},{"vid":"2447034","name":"Thyra Jacobi","party":"","address":"60 S 200 W, Santaquin, UT 84655","precinct":"25SQ05","hd":"65","v_score":"2.315214949","decile":"5","lat":39.97467529754399,"lng":-111.78982035932358},{"vid":"2447062","name":"Cherie Feest","party":"","address":"440 W Main St, Trlr 23, Santaquin, UT 84655","precinct":"25SQ05","hd":"65","v_score":"1.121327652","decile":"3","lat":39.97682427566856,"lng":-111.79489450298476},{"vid":"2458012","name":"Jaxton Armstrong-Fisher","party":"","address":"185 W 100 N, Santaquin, UT 84655","precinct":"25SQ05","hd":"65","v_score":"3.93832808","decile":"6","lat":39.976957333628185,"lng":-111.78887050148042},{"vid":"2460167","name":"Dr. Elige Brown","party":"Rep","address":"440 E Main St, Trlr 27, Santaquin, UT 84655","precinct":"25SQ05","hd":"65","v_score":"0","decile":"1","lat":39.97442344767459,"lng":-111.77597320757643},{"vid":"2474364","name":"Mr. Calhoun Schaden I","party":"","address":"37 S 400 W, Santaquin, UT 84655","precinct":"25SQ05","hd":"65","v_score":"0","decile":"1","lat":39.97524463389165,"lng":-111.79282507778024},{"vid":"2483182","name":"Whitley Farrell","party":"Dem","address":"76 S 300 W, Santaquin, UT 84655","precinct":"25SQ05","hd":"65","v_score":"0","decile":"1","lat":39.97466024108913,"lng":-111.79195359304015},{"vid":"2486213","name":"Mrs. Lavinia Osinski MD","party":"Rep","address":"310 W 500 S, Santaquin, UT 84655","precinct":"25SQ05","hd":"65","v_score":"2.817000428","decile":"6","lat":39.968145618811164,"lng":-111.79183629927239},{"vid":"2494432","name":"Abram Spencer","party":"Rep","address":"111 N 200 W, Santaquin, UT 84655","precinct":"25SQ05","hd":"65","v_score":"1.193887297","decile":"3","lat":39.97756176965027,"lng":-111.78994861672462},{"vid":"2494563","name":"Dr. Tameka Orn DDS","party":"Dem","address":"410 W 30 S, Santaquin, UT 84655","precinct":"25SQ05","hd":"65","v_score":"3.781490609","decile":"6","lat":39.97540324222885,"lng":-111.7933029485506},{"vid":"2503277","name":"Dr. Aurthur Greenholt","party":"Dem","address":"45 S 300 E, Santaquin, UT 84655","precinct":"25SQ05","hd":"65","v_score":"0","decile":"1","lat":39.97499836674424,"lng":-111.77858037517964},{"vid":"2504298","name":"Lamarcus Rau-Dickinson","party":"Rep","address":"261 S 300 E, Santaquin, UT 84655","precinct":"25SQ05","hd":"65","v_score":"1.193887297","decile":"3","lat":39.971333352372824,"lng":-111.77855684776334},{"vid":"2513140","name":"Blanchie Keebler","party":"Dem","address":"158 S 400 E, Santaquin, UT 84655","precinct":"25SQ05","hd":"65","v_score":"0","decile":"1","lat":39.97307767415537,"lng":-111.77730572633793},{"vid":"2516324","name":"Mr. Con Schmeler I","party":"Dem","address":"230 S 200 W, Santaquin, UT 84655","precinct":"25SQ05","hd":"65","v_score":"1.193887297","decile":"4","lat":39.97171040868558,"lng":-111.78990558885978},{"vid":"2518678","name":"Severo Rosenbaum-Hansen","party":"Dem","address":"180 S 300 E, Santaquin, UT 84655","precinct":"25SQ05","hd":"65","v_score":"1.193887297","decile":"4","lat":39.97295284822714,"lng":-111.77940507065162},{"vid":"2521286","name":"Arvo Balistreri PhD","party":"Dem","address":"161 N 400 E, Santaquin, UT 84655","precinct":"25SQ05","hd":"65","v_score":"2.817000428","decile":"6","lat":39.97830109400911,"lng":-111.77730905831764},{"vid":"2526185","name":"Elsworth Pagac","party":"Dem","address":"225 N 100 W, Santaquin, UT 84655","precinct":"25SQ05","hd":"65","v_score":"0","decile":"1","lat":39.9796038586005,"lng":-111.78762514741874},{"vid":"2527453","name":"Nona Schroeder-Swift","party":"","address":"180 S 300 E, Santaquin, UT 84655","precinct":"25SQ05","hd":"65","v_score":"0","decile":"1","lat":39.97295284822714,"lng":-111.77940507065162},{"vid":"2542607","name":"Delilah Eichmann","party":"","address":"290 E Main St, Santaquin, UT 84655","precinct":"25SQ05","hd":"65","v_score":"1.193887297","decile":"4","lat":39.97538674212171,"lng":-111.77933367039687},{"vid":"2553468","name":"Odalys Harber","party":"Rep","address":"125 E 100 N, Apt B, Santaquin, UT 84655","precinct":"25SQ05","hd":"65","v_score":"0","decile":"1","lat":39.97766420514019,"lng":-111.78278218445166},{"vid":"2556666","name":"Jerica Smitham","party":"","address":"37 S 400 W, Santaquin, UT 84655","precinct":"25SQ05","hd":"65","v_score":"2.817000428","decile":"6","lat":39.97524463389165,"lng":-111.79282507778024},{"vid":"2562716","name":"Coen Keebler","party":"Rep","address":"155 N Center St, Santaquin, UT 84655","precinct":"25SQ05","hd":"65","v_score":"1.193887297","decile":"4","lat":39.9783005277772,"lng":-111.78561400688619},{"vid":"2562976","name":"Toma Boehm","party":"Rep","address":"155 N Center St, Santaquin, UT 84655","precinct":"25SQ05","hd":"65","v_score":"1.193887297","decile":"4","lat":39.9783005277772,"lng":-111.78561400688619},{"vid":"2573188","name":"Lorenza Von","party":"Rep","address":"150 E 100 S, Santaquin, UT 84655","precinct":"25SQ05","hd":"65","v_score":"0","decile":"1","lat":39.973357217814865,"lng":-111.78219985362202},{"vid":"2574297","name":"Dr. Lauren Nader MD","party":"","address":"201 N Cardinal St, Santaquin, UT 84655","precinct":"25SQ05","hd":"65","v_score":"1.193887297","decile":"4","lat":39.97897746892689,"lng":-111.79734539117842},{"vid":"2578160","name":"Sky Will","party":"Dem","address":"267 S 300 W, Santaquin, UT 84655","precinct":"25SQ05","hd":"65","v_score":"2.817000428","decile":"6","lat":39.971189731060875,"lng":-111.79060257264445},{"vid":"2579972","name":"Winnie Maggio-Schmeler","party":"","address":"65 W 100 N, Santaquin, UT 84655","precinct":"25SQ05","hd":"65","v_score":"1.193887297","decile":"4","lat":39.976824267346785,"lng":-111.78661757334046},{"vid":"2594070","name":"Angelo Marquardt","party":"Dem","address":"222 W 100 S, Santaquin, UT 84655","precinct":"25SQ05","hd":"65","v_score":"0","decile":"1","lat":39.97468581647875,"lng":-111.79010957287697},{"vid":"2596468","name":"Raina Sipes-Marvin","party":"","address":"286 W 200 S, Santaquin, UT 84655","precinct":"25SQ05","hd":"65","v_score":"2.817000428","decile":"6","lat":39.972589602483126,"lng":-111.7905773346562},{"vid":"2612767","name":"Kaye Schultz","party":"","address":"339 W Main St, Santaquin, UT 84655","precinct":"25SQ05","hd":"65","v_score":"0","decile":"1","lat":39.97541072849948,"lng":-111.79220499176019},{"vid":"2624824","name":"Jessy Jerde","party":"","address":"150 E 200 N, Santaquin, UT 84655","precinct":"25SQ05","hd":"65","v_score":"1.193887297","decile":"4","lat":39.978455057835895,"lng":-111.7823598966004},{"vid":"2633493","name":"Gerardo Schaden","party":"Rep","address":"290 E Main St, Santaquin, UT 84655","precinct":"25SQ05","hd":"65","v_score":"1.193887297","decile":"4","lat":39.97538674212171,"lng":-111.77933367039687},{"vid":"2648031","name":"Raheem Brakus","party":"Rep","address":"360 E 200 N, Santaquin, UT 84655","precinct":"25SQ05","hd":"65","v_score":"1.193887297","decile":"4","lat":39.978626319630116,"lng":-111.77773296221244},{"vid":"2649394","name":"Jaidyn Kerluke","party":"Rep","address":"130 N 100 E, Santaquin, UT 84655","precinct":"25SQ05","hd":"65","v_score":"0","decile":"1","lat":39.97769486802711,"lng":-111.7829097160396},{"vid":"2653866","name":"Rona Jones","party":"Dem","address":"324 W Main St, Santaquin, UT 84655","precinct":"25SQ05","hd":"65","v_score":"0","decile":"1","lat":39.975891509180336,"lng":-111.79202837542947},{"vid":"2658885","name":"Loren Ebert-Ullrich","party":"Rep","address":"250 N 350 W, Santaquin, UT 84655","precinct":"25SQ05","hd":"65","v_score":"4.905839784","decile":"7","lat":39.97978138501712,"lng":-111.79316631505799},{"vid":"2660986","name":"Myrtis Strosin","party":"Dem","address":"41 E 100 S, Santaquin, UT 84655","precinct":"25SQ05","hd":"65","v_score":"0","decile":"1","lat":39.974400866058524,"lng":-111.7843413027174},{"vid":"2661022","name":"Dr. Cindi Wisozk MD","party":"Rep","address":"88 N 300 E, Santaquin, UT 84655","precinct":"25SQ05","hd":"65","v_score":"0","decile":"1","lat":39.97699300885762,"lng":-111.77843476851288},{"vid":"2664060","name":"Kelsey Bode","party":"Rep","address":"237 S 200 E, Santaquin, UT 84655","precinct":"25SQ05","hd":"65","v_score":"0","decile":"1","lat":39.97181382109976,"lng":-111.7807866721924},{"vid":"2664951","name":"Missy Klein","party":"","address":"236 N 300 W, Santaquin, UT 84655","precinct":"25SQ05","hd":"65","v_score":"1.193887297","decile":"4","lat":39.97941784258572,"lng":-111.79138694615693},{"vid":"2665788","name":"Montie King-Stamm","party":"","address":"222 W 100 S, Santaquin, UT 84655","precinct":"25SQ05","hd":"65","v_score":"1.193887297","decile":"4","lat":39.97468581647875,"lng":-111.79010957287697},{"vid":"2666692","name":"York Littel IV","party":"Dem","address":"86 N 300 W, Santaquin, UT 84655","precinct":"25SQ05","hd":"65","v_score":"0","decile":"1","lat":39.97698750263351,"lng":-111.79141910566443},{"vid":"2667907","name":"Jahir Marks","party":"","address":"196 W 100 N, Santaquin, UT 84655","precinct":"25SQ05","hd":"65","v_score":"0","decile":"1","lat":39.97755456648855,"lng":-111.78911520220447},{"vid":"2667912","name":"Adrain Kemmer V","party":"Dem","address":"55 N 200 W, Santaquin, UT 84655","precinct":"25SQ05","hd":"65","v_score":"0","decile":"1","lat":39.976681301962,"lng":-111.78993802019751},{"vid":"2667927","name":"Thelma Hagenes","party":"","address":"35 E 300 S, Apt 1, Santaquin, UT 84655","precinct":"25SQ05","hd":"65","v_score":"1.193887297","decile":"4","lat":39.97096362134372,"lng":-111.78488476352169},{"vid":"2668596","name":"Lonnie Hermann","party":"Dem","address":"290 E Main St, Santaquin, UT 84655","precinct":"25SQ05","hd":"65","v_score":"4.905839784","decile":"7","lat":39.97538674212171,"lng":-111.77933367039687},{"vid":"2671543","name":"Felicitas McGlynn","party":"","address":"245 W 100 N, Santaquin, UT 84655","precinct":"25SQ05","hd":"65","v_score":"0","decile":"2","lat":39.976989021615644,"lng":-111.79047304222803},{"vid":"2674598","name":"Sada Kemmer-Hudson","party":"Rep","address":"160 S 200 W, Santaquin, UT 84655","precinct":"25SQ05","hd":"65","v_score":"4.905839784","decile":"7","lat":39.97301414941932,"lng":-111.78990308651272},{"vid":"2676379","name":"Bartholomew Swaniawski-Heathcote","party":"Rep","address":"237 E 200 N, Santaquin, UT 84655","precinct":"25SQ05","hd":"65","v_score":"0","decile":"2","lat":39.97928594007645,"lng":-111.7802166363474},{"vid":"2677513","name":"Darryn Moore","party":"Rep","address":"180 N 300 W, Santaquin, UT 84655","precinct":"25SQ05","hd":"65","v_score":"0","decile":"2","lat":39.978418092681885,"lng":-111.79125032210402},{"vid":"2683324","name":"Pranav Beatty","party":"Rep","address":"80 E 200 S, Santaquin, UT 84655","precinct":"25SQ05","hd":"65","v_score":"0","decile":"2","lat":39.97201079992631,"lng":-111.78356549014958},{"vid":"2683960","name":"Landin Kertzmann","party":"Rep","address":"344 E 200 S, Santaquin, UT 84655","precinct":"25SQ05","hd":"65","v_score":"1.193887297","decile":"4","lat":39.97173127930049,"lng":-111.77806070451034},{"vid":"2685468","name":"Mr. Marcelo Lockman","party":"Dem","address":"236 N 300 W, Santaquin, UT 84655","precinct":"25SQ05","hd":"65","v_score":"0","decile":"2","lat":39.97941784258572,"lng":-111.79138694615693},{"vid":"2686779","name":"Virgle Nikolaus","party":"Dem","address":"328 W Main St, Santaquin, UT 84655","precinct":"25SQ05","hd":"65","v_score":"0","decile":"2","lat":39.97589150064429,"lng":-111.79208624436109},{"vid":"2688121","name":"Ayesha O'Reilly DDS","party":"","address":"41 E 100 S, Santaquin, UT 84655","precinct":"25SQ05","hd":"65","v_score":"0","decile":"2","lat":39.974400866058524,"lng":-111.7843413027174},{"vid":"2688479","name":"Kael Johnson","party":"Rep","address":"61 W 200 S, Santaquin, UT 84655","precinct":"25SQ05","hd":"65","v_score":"0","decile":"2","lat":39.97189973712203,"lng":-111.78655740861443},{"vid":"2689062","name":"Dr. Sonny Feest","party":"","address":"268 W 100 S, Santaquin, UT 84655","precinct":"25SQ05","hd":"65","v_score":"0","decile":"2","lat":39.974223883784404,"lng":-111.79102750781921},{"vid":"2689756","name":"Mrs. Josie Reinger MD","party":"Dem","address":"112 N Center St, Santaquin, UT 84655","precinct":"25SQ05","hd":"65","v_score":"1.193887297","decile":"4","lat":39.97754806009992,"lng":-111.78484928509853},{"vid":"2692651","name":"Mr. Nile Stanton","party":"Rep","address":"290 W Main St, Santaquin, UT 84655","precinct":"25SQ05","hd":"65","v_score":"0","decile":"2","lat":39.975917407694865,"lng":-111.79114800309485},{"vid":"2692986","name":"Mr. Stanislaus O'Connell MD","party":"Rep","address":"45 S 400 W, Santaquin, UT 84655","precinct":"25SQ05","hd":"65","v_score":"1.193887297","decile":"4","lat":39.975199477252616,"lng":-111.79255648546285},{"vid":"2693309","name":"Dr. Clotilde Murphy DDS","party":"","address":"294 W 200 S, Santaquin, UT 84655","precinct":"25SQ05","hd":"65","v_score":"1.193887297","decile":"4","lat":39.97259016221902,"lng":-111.79071039149913},{"vid":"2695772","name":"Dr. Lex Gleichner II","party":"Rep","address":"355 E 200 N, Santaquin, UT 84655","precinct":"25SQ05","hd":"65","v_score":"0","decile":"2","lat":39.979279853062785,"lng":-111.77776648931514},{"vid":"2695793","name":"Jerome Von","party":"","address":"355 E 200 N, Santaquin, UT 84655","precinct":"25SQ05","hd":"65","v_score":"0","decile":"2","lat":39.979279853062785,"lng":-111.77776648931514},{"vid":"2705475","name":"Alden Doyle","party":"Rep","address":"311 W 300 N, Santaquin, UT 84655","precinct":"25SQ05","hd":"65","v_score":"6.462591196","decile":"7","lat":39.98039186372426,"lng":-111.79184434363046},{"vid":"2710515","name":"Kathie Volkman","party":"Rep","address":"324 W Main St, Santaquin, UT 84655","precinct":"25SQ05","hd":"65","v_score":"0","decile":"2","lat":39.975891509180336,"lng":-111.79202837542947},{"vid":"2713825","name":"Terrie Simonis","party":"","address":"185 E 200 S, Santaquin, UT 84655","precinct":"25SQ05","hd":"65","v_score":"0","decile":"2","lat":39.97254660152528,"lng":-111.78141624298456},{"vid":"2714651","name":"Noma Wehner-O'Hara","party":"Rep","address":"111 N 200 W, Santaquin, UT 84655","precinct":"25SQ05","hd":"65","v_score":"1.193887297","decile":"4","lat":39.97756176965027,"lng":-111.78994861672462},{"vid":"2714722","name":"Dr. Maebelle Tillman DDS","party":"Dem","address":"210 N 350 W, Santaquin, UT 84655","precinct":"25SQ05","hd":"65","v_score":"1.193887297","decile":"4","lat":39.97933402573061,"lng":-111.79316323042296},{"vid":"2716255","name":"Shannon Howe","party":"Rep","address":"298 W 200 S, Santaquin, UT 84655","precinct":"25SQ05","hd":"65","v_score":"0","decile":"2","lat":39.97260459995762,"lng":-111.79078954898867},{"vid":"2726810","name":"Melanie Braun","party":"Dem","address":"185 S Center St, Santaquin, UT 84655","precinct":"25SQ05","hd":"65","v_score":"0","decile":"2","lat":39.97263418151384,"lng":-111.78482530690763},{"vid":"2729252","name":"Britny O'Reilly","party":"Dem","address":"370 E 100 S, Santaquin, UT 84655","precinct":"25SQ05","hd":"65","v_score":"1.193887297","decile":"4","lat":39.97366619447382,"lng":-111.77748859709898},{"vid":"2729272","name":"Kendal Kling","party":"","address":"375 E 200 N, Santaquin, UT 84655","precinct":"25SQ05","hd":"65","v_score":"0","decile":"2","lat":39.97909926480281,"lng":-111.77720196014283},{"vid":"2732164","name":"Barnie Abernathy PhD","party":"","address":"35 E 300 S, Santaquin, UT 84655","precinct":"25SQ05","hd":"65","v_score":"1.193887297","decile":"4","lat":39.97096362134372,"lng":-111.78488476352169},{"vid":"2735651","name":"Dr. Burdette Mante","party":"","address":"268 N Center St, Santaquin, UT 84655","precinct":"25SQ05","hd":"65","v_score":"1.193887297","decile":"4","lat":39.97988315231033,"lng":-111.78477884981407},{"vid":"2741163","name":"Juwan Dietrich","party":"Dem","address":"210 N 350 W, Santaquin, UT 84655","precinct":"25SQ05","hd":"65","v_score":"0","decile":"2","lat":39.97933402573061,"lng":-111.79316323042296},{"vid":"2753755","name":"Jacalyn Hermann","party":"Rep","address":"41 S 200 E, Apt 4, Santaquin, UT 84655","precinct":"25SQ05","hd":"65","v_score":"0","decile":"2","lat":39.97472828310003,"lng":-111.78068671233883},{"vid":"2775513","name":"Gwenda Donnelly","party":"Dem","address":"226 E 200 S, Santaquin, UT 84655","precinct":"25SQ05","hd":"65","v_score":"1.193887297","decile":"4","lat":39.97195767465581,"lng":-111.78053830682965},{"vid":"2777969","name":"Mr. Diamond Champlin Jr.","party":"Dem","address":"125 W 300 N, Santaquin, UT 84655","precinct":"25SQ05","hd":"65","v_score":"1.193887297","decile":"4","lat":39.980277638891714,"lng":-111.787993982559},{"vid":"2785088","name":"Blaise Marks V","party":"Dem","address":"440 W Main St, Trlr 20, Santaquin, UT 84655","precinct":"25SQ05","hd":"65","v_score":"1.193887297","decile":"4","lat":39.97682427566856,"lng":-111.79489450298476},{"vid":"2790866","name":"Shyann Bradtke","party":"Rep","address":"45 S 400 W, Santaquin, UT 84655","precinct":"25SQ05","hd":"65","v_score":"1.193887297","decile":"4","lat":39.975199477252616,"lng":-111.79255648546285},{"vid":"2794113","name":"Butler Gutkowski","party":"","address":"88 N 300 E, Santaquin, UT 84655","precinct":"25SQ05","hd":"65","v_score":"1.193887297","decile":"4","lat":39.97699300885762,"lng":-111.77843476851288},{"vid":"2794571","name":"Magdalene Cummerata","party":"","address":"260 W 200 N, Santaquin, UT 84655","precinct":"25SQ05","hd":"65","v_score":"0","decile":"2","lat":39.97925110434998,"lng":-111.79092792782778},{"vid":"2794709","name":"Remy Dicki","party":"Rep","address":"88 E 100 S, Santaquin, UT 84655","precinct":"25SQ05","hd":"65","v_score":"1.193887297","decile":"4","lat":39.9735872137053,"lng":-111.78342967116683},{"vid":"2799012","name":"Dr. Frazier Hessel","party":"Dem","address":"332 E 200 S, Santaquin, UT 84655","precinct":"25SQ05","hd":"65","v_score":"0","decile":"2","lat":39.97198875572898,"lng":-111.77840412503217},{"vid":"2803115","name":"Jaden Dooley","party":"","address":"114 E 100 S, Santaquin, UT 84655","precinct":"25SQ05","hd":"65","v_score":"1.193887297","decile":"4","lat":39.97362628513148,"lng":-111.78292439433166},{"vid":"2810142","name":"Miss Dianna Hirthe MD","party":"","address":"235 W 300 N, Santaquin, UT 84655","precinct":"25SQ05","hd":"65","v_score":"0","decile":"2","lat":39.98015992134405,"lng":-111.79031138446378},{"vid":"2811829","name":"Todd Sauer","party":"Dem","address":"67 S 300 W, Santaquin, UT 84655","precinct":"25SQ05","hd":"65","v_score":"1.193887297","decile":"4","lat":39.974567811433594,"lng":-111.79068973825076},{"vid":"2816893","name":"Mr. Coleton Schimmel","party":"","address":"88 E 100 S, Santaquin, UT 84655","precinct":"25SQ05","hd":"65","v_score":"0","decile":"2","lat":39.9735872137053,"lng":-111.78342967116683},{"vid":"2819785","name":"Dr. Nautica Barton","party":"Rep","address":"250 N 350 W, Santaquin, UT 84655","precinct":"25SQ05","hd":"65","v_score":"0","decile":"2","lat":39.97978138501712,"lng":-111.79316631505799},{"vid":"2820868","name":"Madden Rice","party":"","address":"440 E Main St, # 49, Santaquin, UT 84655","precinct":"25SQ05","hd":"65","v_score":"0","decile":"2","lat":39.97442344767459,"lng":-111.77597320757643},{"vid":"2827341","name":"Seamus Ebert III","party":"Rep","address":"262 W 100 S, Santaquin, UT 84655","precinct":"25SQ05","hd":"65","v_score":"0","decile":"2","lat":39.97434448536998,"lng":-111.79086649556386},{"vid":"2839700","name":"Edrie Koch-Cronin","party":"Rep","address":"124 E 100 S, Santaquin, UT 84655","precinct":"25SQ05","hd":"65","v_score":"0","decile":"2","lat":39.97362308730534,"lng":-111.78257127431898},{"vid":"2842700","name":"Rashaan Wyman","party":"","address":"290 E 200 S, Santaquin, UT 84655","precinct":"25SQ05","hd":"65","v_score":"1.193887297","decile":"4","lat":39.97193317813767,"lng":-111.77932578247004},{"vid":"2845343","name":"Merl Mann","party":"Rep","address":"440 E Main St, Trlr 44, Santaquin, UT 84655","precinct":"25SQ05","hd":"65","v_score":"1.193887297","decile":"4","lat":39.97442344767459,"lng":-111.77597320757643},{"vid":"2852719","name":"Tamala Grant","party":"Rep","address":"367 W Main St, Santaquin, UT 84655","precinct":"25SQ05","hd":"65","v_score":"1.193887297","decile":"4","lat":39.9754142159195,"lng":-111.79265159243762},{"vid":"2856388","name":"Dr. Nolan Schinner","party":"","address":"440 W Main St, Trlr 22, Santaquin, UT 84655","precinct":"25SQ05","hd":"65","v_score":"1.193887297","decile":"4","lat":39.97682427566856,"lng":-111.79489450298476},{"vid":"2861270","name":"Saverio O'Conner","party":"Rep","address":"290 S 200 E, Santaquin, UT 84655","precinct":"25SQ05","hd":"65","v_score":"1.193887297","decile":"4","lat":39.971070862068494,"lng":-111.78143116220478},{"vid":"2862353","name":"Britany Pouros","party":"Dem","address":"170 E 300 N, Santaquin, UT 84655","precinct":"25SQ05","hd":"65","v_score":"1.193887297","decile":"4","lat":39.98011279087461,"lng":-111.78195323663743},{"vid":"2871657","name":"Laureen Deckow-Schmeler","party":"Dem","address":"203 N Madison Ave, Santaquin, UT 84655","precinct":"25SQ05","hd":"65","v_score":"1.193887297","decile":"4","lat":39.97898674901927,"lng":-111.79821112610718},{"vid":"2880332","name":"Melva Eichmann","party":"","address":"440 E Main St, Trlr 42, Santaquin, UT 84655","precinct":"25SQ05","hd":"65","v_score":"1.193887297","decile":"4","lat":39.97442344767459,"lng":-111.77597320757643},{"vid":"2881238","name":"Dr. Caiden Bernier MD","party":"","address":"440 W Main St, Santaquin, UT 84655","precinct":"25SQ05","hd":"65","v_score":"1.193887297","decile":"4","lat":39.97682427566856,"lng":-111.79489450298476},{"vid":"2882130","name":"Jaxson Hintz DDS","party":"","address":"440 E Main St, Trlr 22, Santaquin, UT 84655","precinct":"25SQ05","hd":"65","v_score":"1.193887297","decile":"4","lat":39.97442344767459,"lng":-111.77597320757643},{"vid":"2884425","name":"Dr. Hermine Breitenberg DDS","party":"Rep","address":"324 W Main St, Santaquin, UT 84655","precinct":"25SQ05","hd":"65","v_score":"1.193887297","decile":"4","lat":39.975891509180336,"lng":-111.79202837542947},{"vid":"2886431","name":"Miss Marlyn Okuneva PhD","party":"Rep","address":"93 N 100 E, Santaquin, UT 84655","precinct":"25SQ05","hd":"65","v_score":"1.193887297","decile":"4","lat":39.977029151478995,"lng":-111.78344222386528},{"vid":"2886987","name":"Madalyn Weimann","party":"Rep","address":"290 N 300 W, Santaquin, UT 84655","precinct":"25SQ05","hd":"65","v_score":"1.193887297","decile":"4","lat":39.97998158824553,"lng":-111.79139411579088},{"vid":"2887722","name":"Ms. Marcela Trantow","party":"Dem","address":"50 S 300 W, Santaquin, UT 84655","precinct":"25SQ05","hd":"65","v_score":"1.193887297","decile":"4","lat":39.97499724685294,"lng":-111.79194173094403},{"vid":"2888373","name":"Brody Botsford","party":"Dem","address":"227 N Halford Ave, Santaquin, UT 84655","precinct":"25SQ05","hd":"65","v_score":"1.193887297","decile":"4","lat":39.97934103913107,"lng":-111.79947702533237},{"vid":"2889014","name":"Dr. Della Rutherford","party":"Dem","address":"243 N Halford Ave, Santaquin, UT 84655","precinct":"25SQ05","hd":"65","v_score":"1.193887297","decile":"4","lat":39.97952199167896,"lng":-111.7992911977794},{"vid":"2893821","name":"Miss Jaelyn Collins PhD","party":"","address":"219 E 200 N, Santaquin, UT 84655","precinct":"25SQ05","hd":"65","v_score":"0","decile":"2","lat":39.97922297813088,"lng":-111.78047403745295},{"vid":"2899675","name":"Jeane Spencer","party":"","address":"460 W 500 S, Apt 4, Santaquin, UT 84655","precinct":"25SQ05","hd":"65","v_score":"0","decile":"2","lat":39.96819412648732,"lng":-111.79413043355365},{"vid":"2901338","name":"Dr. Corbin Predovic III","party":"Dem","address":"153 E Main St, Apt F, Santaquin, UT 84655","precinct":"25SQ05","hd":"65","v_score":"0","decile":"2","lat":39.97632017194619,"lng":-111.78223793610717},{"vid":"2901712","name":"Mr. Bret Roberts","party":"","address":"213 S 200 E, Santaquin, UT 84655","precinct":"25SQ05","hd":"65","v_score":"0","decile":"2","lat":39.97203194309779,"lng":-111.7807500319781},{"vid":"2903868","name":"Joellen Streich","party":"","address":"290 N 300 W, Santaquin, UT 84655","precinct":"25SQ05","hd":"65","v_score":"0","decile":"2","lat":39.97998158824553,"lng":-111.79139411579088},{"vid":"2905913","name":"Cash Kling","party":"","address":"240 W 100 N, Santaquin, UT 84655","precinct":"25SQ05","hd":"65","v_score":"0","decile":"2","lat":39.97756329825691,"lng":-111.7903110520871},{"vid":"2911382","name":"Kylan Sipes","party":"","address":"440 E Main St, Trlr 15, Santaquin, UT 84655","precinct":"25SQ05","hd":"65","v_score":"0","decile":"2","lat":39.97442344767459,"lng":-111.77597320757643},{"vid":"2928115","name":"Anthony Roberts","party":"Dem","address":"50 S 100 E, Apt 1, Santaquin, UT 84655","precinct":"25SQ05","hd":"65","v_score":"0","decile":"2","lat":39.974571128279294,"lng":-111.78374382775503},{"vid":"2933427","name":"Pansy Keeling-Gerlach","party":"Dem","address":"60 N 100 E, Santaquin, UT 84655","precinct":"25SQ05","hd":"65","v_score":"0","decile":"2","lat":39.97664982516594,"lng":-111.78280051180307},{"vid":"2944739","name":"Ovid Greenfelder","party":"","address":"70 W 100 N, Santaquin, UT 84655","precinct":"25SQ05","hd":"65","v_score":"0","decile":"2","lat":39.97769082988641,"lng":-111.78673619329854},{"vid":"2946180","name":"Eric Connelly I","party":"","address":"287 W 300 N, Santaquin, UT 84655","precinct":"25SQ05","hd":"65","v_score":"0","decile":"2","lat":39.98033860654872,"lng":-111.7913201707886},{"vid":"2965515","name":"Ela Predovic","party":"","address":"440 E Main St, Trlr 44, Santaquin, UT 84655","precinct":"25SQ05","hd":"65","v_score":"0","decile":"2","lat":39.97442344767459,"lng":-111.77597320757643},{"vid":"2966026","name":"Odessa McCullough","party":"","address":"116 E 200 N, Santaquin, UT 84655","precinct":"25SQ05","hd":"65","v_score":"0","decile":"2","lat":39.978663493658914,"lng":-111.78292815953034},{"vid":"2966133","name":"Marge Padberg DVM","party":"Dem","address":"342 W 200 N, Santaquin, UT 84655","precinct":"25SQ05","hd":"65","v_score":"0","decile":"2","lat":39.979181190610184,"lng":-111.79279026878163},{"vid":"2971236","name":"Eliza Schinner","party":"","address":"342 W 200 N, Santaquin, UT 84655","precinct":"25SQ05","hd":"65","v_score":"0","decile":"2","lat":39.979181190610184,"lng":-111.79279026878163},{"vid":"2971685","name":"Brynlee Champlin","party":"Rep","address":"50 E 200 N, Santaquin, UT 84655","precinct":"25SQ05","hd":"65","v_score":"0","decile":"2","lat":39.978587585470216,"lng":-111.78425638551256},{"vid":"2975862","name":"Perry Schuppe","party":"","address":"60 N 100 E, Santaquin, UT 84655","precinct":"25SQ05","hd":"65","v_score":"0","decile":"2","lat":39.97664982516594,"lng":-111.78280051180307},{"vid":"2976609","name":"Dr. Irven Shields IV","party":"Rep","address":"120 N 300 W, Santaquin, UT 84655","precinct":"25SQ05","hd":"65","v_score":"0","decile":"2","lat":39.977701898746155,"lng":-111.79128905810073},{"vid":"2983079","name":"Harlow Schroeder","party":"Rep","address":"288 S Center St, Santaquin, UT 84655","precinct":"25SQ05","hd":"65","v_score":"0","decile":"2","lat":39.97101616518176,"lng":-111.78575193341926},{"vid":"2984426","name":"Ms. Tennie Wintheiser","party":"Dem","address":"231 N Halford Ave, Santaquin, UT 84655","precinct":"25SQ05","hd":"65","v_score":"0","decile":"2","lat":39.97938676287517,"lng":-111.79943136884303},{"vid":"2985499","name":"Lawrence Raynor","party":"Dem","address":"159 N 100 E, Santaquin, UT 84655","precinct":"25SQ05","hd":"65","v_score":"0","decile":"2","lat":39.978167090387835,"lng":-111.78357774227175},{"vid":"2986381","name":"Edris Donnelly","party":"Rep","address":"327 W Main St, Santaquin, UT 84655","precinct":"25SQ05","hd":"65","v_score":"0","decile":"2","lat":39.97540938268301,"lng":-111.79203066056391},{"vid":"3006665","name":"Dr. Aurora Sipes DVM","party":"","address":"213 S 200 E, Santaquin, UT 84655","precinct":"25SQ05","hd":"65","v_score":"19.3272208","decile":"10","lat":39.97203194309779,"lng":-111.7807500319781},{"vid":"3027507","name":"Melbourne Harber","party":"","address":"95 W 100 N, Santaquin, UT 84655","precinct":"25SQ05","hd":"65","v_score":"4.833280139","decile":"7","lat":39.976967770043125,"lng":-111.78690556543513},{"vid":"9b58eea496ed1af5315fa2f30ccb1dca827043977ab30cb9c2888588b05a59de","name":"Lafayette Ondricka","party":"","address":"420 E 100 S, Santaquin, UT 84655","precinct":"25SQ05","hd":"65","v_score":"9.545544167","decile":"8","lat":39.9731064821139,"lng":-111.77654330018682},{"vid":"3102873","name":"Felicia Weimann","party":"Dem","address":"380 W Main St, Santaquin, UT 84655","precinct":"25SQ05","hd":"65","v_score":"16.36864091","decile":"9","lat":39.97619830781473,"lng":-111.7930587129668},{"vid":"6c2e8b0c663ff33120946198f54af0adef3942fe76d7b1477ac23c673d387946","name":"Evalyn Brown DDS","party":"Rep","address":"375 E 200 S, Santaquin, UT 84655","precinct":"25SQ05","hd":"65","v_score":"1.121327652","decile":"3","lat":39.97275504869163,"lng":-111.77748566266227},{"vid":"3171200","name":"Brook Muller","party":"Dem","address":"186 N 300 E, Santaquin, UT 84655","precinct":"25SQ05","hd":"65","v_score":"31.69165621","decile":"10","lat":39.97858067965272,"lng":-111.77856920229347},{"vid":"3386678","name":"Toriano Konopelski I","party":"","address":"174 E Main St, Santaquin, UT 84655","precinct":"25SQ05","hd":"65","v_score":"1.121327652","decile":"3","lat":39.97537688041488,"lng":-111.78166164439456},{"vid":"3450676","name":"Domenica Streich","party":"Rep","address":"188 E 200 N, Santaquin, UT 84655","precinct":"25SQ05","hd":"65","v_score":"14.5342701","decile":"9","lat":39.97860773969826,"lng":-111.78164346411016},{"vid":"4007886","name":"Queenie Altenwerth DDS","party":"Rep","address":"260 W 200 N, Santaquin, UT 84655","precinct":"25SQ05","hd":"65","v_score":"5.83359168","decile":"7","lat":39.97925110434998,"lng":-111.79092792782778},{"vid":"4009151","name":"Breonna Fay","party":"Rep","address":"267 S 300 W, Santaquin, UT 84655","precinct":"25SQ05","hd":"65","v_score":"3.93832808","decile":"6","lat":39.971189731060875,"lng":-111.79060257264445},{"vid":"4445567","name":"Dr. Rasheed Kirlin","party":"Rep","address":"440 E Main St, Trlr 52, Santaquin, UT 84655","precinct":"25SQ05","hd":"65","v_score":"14.90880107","decile":"9","lat":39.97442344767459,"lng":-111.77597320757643},{"vid":"9f9c9e1a9e014dcf024d073f17cc3b5d764e72718018d66277c162718d5fd811","name":"Mr. Ari Volkman","party":"Dem","address":"53 S 200 E, Apt 5, Santaquin, UT 84655","precinct":"25SQ05","hd":"65","v_score":"23.21890296","decile":"10","lat":39.97453645945464,"lng":-111.78068965378237},{"vid":"4505170","name":"Kayleen Howe-Gibson","party":"Dem","address":"342 W 200 N, Santaquin, UT 84655","precinct":"25SQ05","hd":"65","v_score":"15.61526831","decile":"9","lat":39.979181190610184,"lng":-111.79279026878163},{"vid":"4505404","name":"Jay Nader-Glover","party":"","address":"80 W 100 N, Santaquin, UT 84655","precinct":"25SQ05","hd":"65","v_score":"2.315214949","decile":"5","lat":39.97762561080439,"lng":-111.78703686373605},{"vid":"5221375","name":"Shon Stark Jr.","party":"Rep","address":"153 E Main St, Apt D, Santaquin, UT 84655","precinct":"25SQ05","hd":"65","v_score":"19.3272208","decile":"10","lat":39.97632017194619,"lng":-111.78223793610717},{"vid":"5302787","name":"Mr. Emry Dibbert PhD","party":"Dem","address":"186 N 300 E, Santaquin, UT 84655","precinct":"25SQ05","hd":"65","v_score":"23.48004472","decile":"10","lat":39.97858067965272,"lng":-111.77856920229347},{"vid":"5406051","name":"Jenniffer Shanahan","party":"","address":"260 W 200 N, Santaquin, UT 84655","precinct":"25SQ05","hd":"65","v_score":"0","decile":"3","lat":39.97925110434998,"lng":-111.79092792782778},{"vid":"5910896","name":"Jeramiah Johns","party":"Dem","address":"239 W 100 S, Santaquin, UT 84655","precinct":"25SQ05","hd":"65","v_score":"0","decile":"3","lat":39.97368104481753,"lng":-111.79020381174746},{"vid":"6071112","name":"Bernard Hartmann","party":"","address":"343 W Main St, Santaquin, UT 84655","precinct":"25SQ05","hd":"65","v_score":"7.24185597","decile":"8","lat":39.9754111858706,"lng":-111.79226310269793},{"vid":"6079530","name":"Reece Schroeder-Greenfelder","party":"Rep","address":"153 E Main St, Apt D, Santaquin, UT 84655","precinct":"25SQ05","hd":"65","v_score":"7.650280567","decile":"8","lat":39.97632017194619,"lng":-111.78223793610717},{"vid":"6080912","name":"Elinor Quitzon","party":"","address":"136 N 200 E, Santaquin, UT 84655","precinct":"25SQ05","hd":"65","v_score":"0","decile":"3","lat":39.97789140095644,"lng":-111.78065615009578},{"vid":"6094125","name":"Mordechai Williamson-O'Hara","party":"Dem","address":"60 S 200 W, Santaquin, UT 84655","precinct":"25SQ05","hd":"65","v_score":"15.66769105","decile":"9","lat":39.97467529754399,"lng":-111.78982035932358},{"vid":"6169182","name":"Shaunna Weber","party":"Dem","address":"344 E 100 N, Santaquin, UT 84655","precinct":"25SQ05","hd":"65","v_score":"23.48004472","decile":"10","lat":39.976835140002635,"lng":-111.77785295844944},{"vid":"6184975","name":"Vela Brown","party":"","address":"110 E 200 S, Santaquin, UT 84655","precinct":"25SQ05","hd":"65","v_score":"3.781490609","decile":"6","lat":39.97208733225414,"lng":-111.78278583297201},{"vid":"6186748","name":"Mr. Kristopher Wisozk","party":"Dem","address":"250 W 300 S, Santaquin, UT 84655","precinct":"25SQ05","hd":"65","v_score":"1.193887297","decile":"4","lat":39.97093627132869,"lng":-111.79019086019706},{"vid":"6186992","name":"Miss Ronna Hand","party":"","address":"80 W 300 S, Santaquin, UT 84655","precinct":"25SQ05","hd":"65","v_score":"1.121327652","decile":"3","lat":39.97108447763804,"lng":-111.78660698555696},{"vid":"6204023","name":"Dr. Taft Gerhold","party":"Dem","address":"155 N 200 W, Santaquin, UT 84655","precinct":"25SQ05","hd":"65","v_score":"19.3272208","decile":"10","lat":40.3657415516173,"lng":-111.74461949292028},{"vid":"6204024","name":"Rikki Brown","party":"","address":"155 N 200 W, Santaquin, UT 84655","precinct":"25SQ05","hd":"65","v_score":"22.42992014","decile":"10","lat":40.3657415516173,"lng":-111.74461949292028},{"vid":"6207065","name":"Pleas Becker-Hagenes","party":"","address":"275 E 300 S, Santaquin, UT 84655","precinct":"25SQ05","hd":"65","v_score":"23.48004472","decile":"10","lat":39.970912629667104,"lng":-111.77960517325576},{"vid":"6210422","name":"Agusta Volkman","party":"Dem","address":"230 S 200 W, Santaquin, UT 84655","precinct":"25SQ05","hd":"65","v_score":"12.07513611","decile":"9","lat":39.97171040868558,"lng":-111.78990558885978},{"vid":"6212035","name":"Shoji Kassulke","party":"Rep","address":"44 N 300 E, Santaquin, UT 84655","precinct":"25SQ05","hd":"65","v_score":"19.76809223","decile":"10","lat":39.97629807909294,"lng":-111.7785566296524},{"vid":"6212036","name":"Jameson Emard MD","party":"","address":"44 N 300 E, Santaquin, UT 84655","precinct":"25SQ05","hd":"65","v_score":"19.76809223","decile":"10","lat":39.97629807909294,"lng":-111.7785566296524},{"vid":"6214379","name":"Sally Abernathy","party":"Dem","address":"69 E 100 N, Santaquin, UT 84655","precinct":"25SQ05","hd":"65","v_score":"18.57420493","decile":"10","lat":39.97767591887334,"lng":-111.78396435830541},{"vid":"6214919","name":"Kian Moen I","party":"Dem","address":"196 W 100 N, Santaquin, UT 84655","precinct":"25SQ05","hd":"65","v_score":"23.30333885","decile":"10","lat":39.97755456648855,"lng":-111.78911520220447},{"vid":"6215106","name":"Rossie Brekke-Hoeger","party":"","address":"46 W 100 N, Santaquin, UT 84655","precinct":"25SQ05","hd":"65","v_score":"11.37977487","decile":"9","lat":39.977683841373405,"lng":-111.78614229748095},{"vid":"6215107","name":"Clark Bogan","party":"Dem","address":"46 W 100 N, Santaquin, UT 84655","precinct":"25SQ05","hd":"65","v_score":"14.48247422","decile":"9","lat":39.977683841373405,"lng":-111.78614229748095},{"vid":"6215566","name":"Miss Sally Bayer","party":"Rep","address":"81 N 100 W, Santaquin, UT 84655","precinct":"25SQ05","hd":"65","v_score":"28.74874861","decile":"10","lat":39.97707057409727,"lng":-111.78775257865202},{"vid":"6215576","name":"Brett Murphy","party":"","address":"245 S Center St, Santaquin, UT 84655","precinct":"25SQ05","hd":"65","v_score":"0","decile":"3","lat":40.37184488953669,"lng":-111.79826097364796},{"vid":"6216075","name":"Dr. Jerrie Ruecker","party":"Rep","address":"140 E Main St, Santaquin, UT 84655","precinct":"25SQ05","hd":"65","v_score":"20.17106915","decile":"10","lat":39.97528590683231,"lng":-111.78210183469413},{"vid":"6220170","name":"Cheryll Hilll DVM","party":"Dem","address":"273 S 200 E, Santaquin, UT 84655","precinct":"25SQ05","hd":"65","v_score":"2.817000428","decile":"6","lat":39.97094417643516,"lng":-111.78083543148838},{"vid":"6220349","name":"Sanjuana Lang","party":"Dem","address":"312 S 300 W, Santaquin, UT 84655","precinct":"25SQ05","hd":"65","v_score":"19.3272208","decile":"10","lat":39.97032003272577,"lng":-111.79210421378842},{"vid":"6221700","name":"Dalia Kunze","party":"","address":"45 E 100 N, Santaquin, UT 84655","precinct":"25SQ05","hd":"65","v_score":"19.3272208","decile":"10","lat":39.9776807091327,"lng":-111.78449406949596},{"vid":"6221983","name":"Ms. Jaliyah Turner DDS","party":"Rep","address":"180 S 300 E, Santaquin, UT 84655","precinct":"25SQ05","hd":"65","v_score":"3.781490609","decile":"6","lat":39.97295284822714,"lng":-111.77940507065162},{"vid":"6222268","name":"Dr. Brandon Leffler DDS","party":"Dem","address":"174 E 200 S, Santaquin, UT 84655","precinct":"25SQ05","hd":"65","v_score":"19.24455128","decile":"10","lat":39.97209331870918,"lng":-111.78172372426889},{"vid":"6222293","name":"Nikhil Sanford DDS","party":"Dem","address":"57 E 100 S, Santaquin, UT 84655","precinct":"25SQ05","hd":"65","v_score":"1.193887297","decile":"4","lat":39.97463694916901,"lng":-111.78399699905326},{"vid":"6223369","name":"Journey Hartmann-Gibson","party":"","address":"265 E 100 S, Santaquin, UT 84655","precinct":"25SQ05","hd":"65","v_score":"11.30609121","decile":"9","lat":39.97440624554869,"lng":-111.7798675305464},{"vid":"6227775","name":"Berniece Skiles","party":"","address":"145 E 100 N, Santaquin, UT 84655","precinct":"25SQ05","hd":"65","v_score":"8.421194992","decile":"8","lat":39.977639986548304,"lng":-111.78234228279362},{"vid":"6227954","name":"Lorenz Wolff","party":"Dem","address":"61 W 200 S, Santaquin, UT 84655","precinct":"25SQ05","hd":"65","v_score":"0","decile":"3","lat":39.97189973712203,"lng":-111.78655740861443},{"vid":"6228653","name":"Maxine Rau","party":"","address":"290 S 200 E, Santaquin, UT 84655","precinct":"25SQ05","hd":"65","v_score":"10.95090578","decile":"9","lat":39.971070862068494,"lng":-111.78143116220478},{"vid":"6229389","name":"Leota Pollich","party":"Rep","address":"175 S 100 E, Santaquin, UT 84655","precinct":"25SQ05","hd":"65","v_score":"2.315214949","decile":"5","lat":39.97274652758626,"lng":-111.78282227043657},{"vid":"8df3b7b871c586db283de79df06ff5d02f2ef222ab9a1ee66da934bcfcbaa365","name":"Dr. Birtha Grimes","party":"Rep","address":"68 N 300 E, Santaquin, UT 84655","precinct":"25SQ05","hd":"65","v_score":"2.587603312","decile":"5","lat":39.97665918774789,"lng":-111.77855420797405},{"vid":"e9aae94399dc90e17e5fa15c947ddb3a0c460db27ac84eaf5ac2ccada0cffbe0","name":"Trace Hackett","party":"Dem","address":"148 W Main St, Santaquin, UT 84655","precinct":"25SQ05","hd":"65","v_score":"11.30609121","decile":"9","lat":39.97607501009929,"lng":-111.78857248610356},{"vid":"7da9ac8547e6ec7b723831857af2470f91e9ec687b29b2e5852a1e242ad20123","name":"Lum Stoltenberg","party":"","address":"238 W 200 N, Santaquin, UT 84655","precinct":"25SQ05","hd":"65","v_score":"2.587603312","decile":"5","lat":39.97934390104649,"lng":-111.79043275584179},{"vid":"6234345","name":"Dannie Hodkiewicz","party":"","address":"53 E 200 N, Santaquin, UT 84655","precinct":"25SQ05","hd":"65","v_score":"14.6048469","decile":"9","lat":39.97931693146737,"lng":-111.7842113806355},{"vid":"6239510","name":"Arlene Padberg","party":"","address":"65 W 100 N, Santaquin, UT 84655","precinct":"25SQ05","hd":"65","v_score":"7.934314529","decile":"8","lat":39.976824267346785,"lng":-111.78661757334046},{"vid":"6252856","name":"Carlene Donnelly PhD","party":"Dem","address":"260 E 100 S, Santaquin, UT 84655","precinct":"25SQ05","hd":"65","v_score":"23.48004472","decile":"10","lat":39.973500610699375,"lng":-111.77987850382692},{"vid":"6253094","name":"Cleola O'Hara","party":"","address":"355 E 200 N, Santaquin, UT 84655","precinct":"25SQ05","hd":"65","v_score":"7.24185597","decile":"8","lat":39.979279853062785,"lng":-111.77776648931514},{"vid":"6253352","name":"Azaria Konopelski","party":"","address":"260 E 100 S, Santaquin, UT 84655","precinct":"25SQ05","hd":"65","v_score":"23.48004472","decile":"10","lat":39.973500610699375,"lng":-111.77987850382692},{"vid":"6254328","name":"Yadira Dietrich","party":"Dem","address":"255 N 100 W, Santaquin, UT 84655","precinct":"25SQ05","hd":"65","v_score":"26.42295231","decile":"10","lat":39.97981289138597,"lng":-111.78780116305886},{"vid":"6259562","name":"Flint Prosacco","party":"","address":"53 E 200 N, Santaquin, UT 84655","precinct":"25SQ05","hd":"65","v_score":"16.22796003","decile":"9","lat":39.97931693146737,"lng":-111.7842113806355},{"vid":"6260486","name":"Pricilla Ward","party":"Rep","address":"385 E 100 S, Santaquin, UT 84655","precinct":"25SQ05","hd":"65","v_score":"0","decile":"3","lat":39.9742629139051,"lng":-111.77746444122133},{"vid":"6260658","name":"Clemon Rath","party":"","address":"111 N 200 W, Santaquin, UT 84655","precinct":"25SQ05","hd":"65","v_score":"19.3272208","decile":"10","lat":39.97756176965027,"lng":-111.78994861672462},{"vid":"6263087","name":"Billie Bode","party":"Rep","address":"385 E 100 S, Santaquin, UT 84655","precinct":"25SQ05","hd":"65","v_score":"20.46345346","decile":"10","lat":39.9742629139051,"lng":-111.77746444122133},{"vid":"6266809","name":"Pablo Hoeger","party":"Dem","address":"237 S 200 E, Santaquin, UT 84655","precinct":"25SQ05","hd":"65","v_score":"2.315214949","decile":"5","lat":39.97181382109976,"lng":-111.7807866721924},{"vid":"6266861","name":"Arlie Bartell","party":"Rep","address":"50 E 200 S, Santaquin, UT 84655","precinct":"25SQ05","hd":"65","v_score":"2.315214949","decile":"5","lat":39.97197413612413,"lng":-111.78388139781093},{"vid":"5a25fe603bd3a37cf39eaebf92379c2e3103f7b8a695d917a8995c455900cee5","name":"Aaden Hane V","party":"Dem","address":"88 N 300 E, Santaquin, UT 84655","precinct":"25SQ05","hd":"65","v_score":"5.40460374","decile":"7","lat":39.97699300885762,"lng":-111.77843476851288},{"vid":"6276751","name":"Darryll Klocko","party":"Rep","address":"76 E 100 N, Santaquin, UT 84655","precinct":"25SQ05","hd":"65","v_score":"23.53845692","decile":"10","lat":39.97703128215545,"lng":-111.78367764858572},{"vid":"3540d14823fb4d3f54f08e172575aee8fada57ab48c93f0d0515bc064977cd08","name":"Asha Roberts DVM","party":"Dem","address":"360 E 200 N, Santaquin, UT 84655","precinct":"25SQ05","hd":"65","v_score":"6.896907962","decile":"8","lat":39.978626319630116,"lng":-111.77773296221244},{"vid":"6282022","name":"Nichelle Pouros","party":"Rep","address":"57 S 400 W, Santaquin, UT 84655","precinct":"25SQ05","hd":"65","v_score":"2.817000428","decile":"6","lat":39.975043630463034,"lng":-111.79256010820872},{"vid":"6301855","name":"Corbett Trantow","party":"","address":"203 N Madison Ave, Santaquin, UT 84655","precinct":"25SQ05","hd":"65","v_score":"3.781490609","decile":"6","lat":39.97898674901927,"lng":-111.79821112610718},{"vid":"6302553","name":"Marjory Hills DDS","party":"","address":"370 E 100 S, Santaquin, UT 84655","precinct":"25SQ05","hd":"65","v_score":"8.363183621","decile":"8","lat":39.97366619447382,"lng":-111.77748859709898},{"vid":"6307630","name":"Mrs. Ola Rohan MD","party":"","address":"605 W 200 N, Santaquin, UT 84655","precinct":"25SQ05","hd":"65","v_score":"2.587603312","decile":"5","lat":39.97998390021811,"lng":-111.79800314813832},{"vid":"6308158","name":"Lynwood Bednar-McClure","party":"Rep","address":"222 W 100 S, Santaquin, UT 84655","precinct":"25SQ05","hd":"65","v_score":"15.09172736","decile":"9","lat":39.97468581647875,"lng":-111.79010957287697},{"vid":"6310327","name":"Manerva Lind-Orn","party":"Dem","address":"159 S 300 E, Santaquin, UT 84655","precinct":"25SQ05","hd":"65","v_score":"25.35762639","decile":"10","lat":39.972991277236794,"lng":-111.77832919391928},{"vid":"6317766","name":"Ms. Alyssia Shanahan PhD","party":"","address":"440 E Main St, Trlr 11, Santaquin, UT 84655","precinct":"25SQ05","hd":"65","v_score":"6.884189957","decile":"8","lat":39.97442344767459,"lng":-111.77597320757643},{"vid":"6318186","name":"Huston Watsica","party":"Rep","address":"395 E 100 S, Santaquin, UT 84655","precinct":"25SQ05","hd":"65","v_score":"0","decile":"3","lat":39.97429078922146,"lng":-111.77716847885421},{"vid":"6318457","name":"Zaida Corkery DVM","party":"","address":"213 S 200 E, Santaquin, UT 84655","precinct":"25SQ05","hd":"65","v_score":"15.61526831","decile":"9","lat":39.97203194309779,"lng":-111.7807500319781},{"vid":"6318462","name":"Aryana Wehner","party":"Dem","address":"342 E 200 N, Santaquin, UT 84655","precinct":"25SQ05","hd":"65","v_score":"23.48004472","decile":"10","lat":39.97837103848678,"lng":-111.77794773340685},{"vid":"6333729","name":"Ms. Jerusha Reichel","party":"Rep","address":"261 N 100 E, Santaquin, UT 84655","precinct":"25SQ05","hd":"65","v_score":"22.28615742","decile":"10","lat":39.97984146087435,"lng":-111.78348436814717},{"vid":"6335466","name":"Jeanie Bode PhD","party":"","address":"231 E 300 S, Santaquin, UT 84655","precinct":"25SQ05","hd":"65","v_score":"16.22796003","decile":"9","lat":39.97088799292221,"lng":-111.78054199662117},{"vid":"6335467","name":"Lugenia Rutherford-Marquardt","party":"","address":"231 E 300 S, Santaquin, UT 84655","precinct":"25SQ05","hd":"65","v_score":"16.22796003","decile":"9","lat":39.97088799292221,"lng":-111.78054199662117},{"vid":"6335871","name":"Vincenzo Koelpin","party":"","address":"250 E 300 N, Santaquin, UT 84655","precinct":"25SQ05","hd":"65","v_score":"16.36864091","decile":"9","lat":39.980252403217754,"lng":-111.78020504646327},{"vid":"9452ea89df127f6505be3c0c8031dfc15fa7be3683fc1c5ded0b3a6754c799e5","name":"Viney Muller","party":"Dem","address":"378 E 200 S, Santaquin, UT 84655","precinct":"25SQ05","hd":"65","v_score":"14.90236525","decile":"9","lat":39.972017477664906,"lng":-111.77739538179654},{"vid":"e3fd50c19bb0fed8c25a706a58337ed3b1b63cf0accdd71c66f92c792564632e","name":"Miss Giana Wolf","party":"Dem","address":"240 W 100 N, Santaquin, UT 84655","precinct":"25SQ05","hd":"65","v_score":"17.86094514","decile":"10","lat":39.97756329825691,"lng":-111.7903110520871},{"vid":"6336952","name":"Anika Fisher-Sawayn","party":"Dem","address":"140 S 100 W, Santaquin, UT 84655","precinct":"25SQ05","hd":"65","v_score":"10.60886045","decile":"9","lat":39.973334425397084,"lng":-111.78776869586555},{"vid":"6336966","name":"Marcell Robel","party":"Dem","address":"251 W 100 S, Santaquin, UT 84655","precinct":"25SQ05","hd":"65","v_score":"23.48004472","decile":"10","lat":39.973546852716005,"lng":-111.79053949959274},{"vid":"6336967","name":"Thora Considine-Reinger","party":"Rep","address":"59 S 200 W, Santaquin, UT 84655","precinct":"25SQ05","hd":"65","v_score":"11.37977487","decile":"9","lat":39.974712577022125,"lng":-111.78904564349607},{"vid":"6336984","name":"Darell Tillman II","party":"Rep","address":"69 E 100 N, Santaquin, UT 84655","precinct":"25SQ05","hd":"65","v_score":"18.57420493","decile":"10","lat":39.97767591887334,"lng":-111.78396435830541},{"vid":"6337000","name":"Theodora Stracke","party":"Dem","address":"70 W 200 N, Santaquin, UT 84655","precinct":"25SQ05","hd":"65","v_score":"23.48004472","decile":"10","lat":39.97918464039108,"lng":-111.7866623469313},{"vid":"6337001","name":"Bose Weimann","party":"Dem","address":"70 W 200 N, Santaquin, UT 84655","precinct":"25SQ05","hd":"65","v_score":"23.48004472","decile":"10","lat":39.97918464039108,"lng":-111.7866623469313},{"vid":"49d3c64436b764b995f29d21185371a4a28b8a99e8ff613f833e085a78d144fb","name":"Kiana Shanahan","party":"Rep","address":"75 S 100 W, Santaquin, UT 84655","precinct":"25SQ05","hd":"65","v_score":"14.32268247","decile":"9","lat":39.97439622426527,"lng":-111.78699022176917},{"vid":"6337010","name":"Elsie Monahan DVM","party":"","address":"75 S 100 W, Santaquin, UT 84655","precinct":"25SQ05","hd":"65","v_score":"14.32268247","decile":"9","lat":39.97439622426527,"lng":-111.78699022176917},{"vid":"141e4742015209c6b4d8451f15339e8bf2eff8c428a96399fc2974ab0c13c072","name":"Jacky Gutkowski","party":"Rep","address":"423 S 600 W, Santaquin, UT 84655","precinct":"25SQ05","hd":"65","v_score":"24.14771006","decile":"10","lat":39.96888709226551,"lng":-111.79756527193885},{"vid":"b2821950275c9e43b957443e21c680c2c3cd769519d0475cf5c2cc487acc874a","name":"Soledad Lakin","party":"","address":"25 W 200 S, Santaquin, UT 84655","precinct":"25SQ05","hd":"65","v_score":"5.546183193","decile":"7","lat":39.972038716778655,"lng":-111.78584579702297},{"vid":"f2d6e4f7b4b12e9fb443069b134c8fc6d037c435e34d10a9714554d285761142","name":"Adamaris Block","party":"Dem","address":"370 E 100 S, Santaquin, UT 84655","precinct":"25SQ05","hd":"65","v_score":"6.74007049","decile":"8","lat":39.97366619447382,"lng":-111.77748859709898},{"vid":"6b4ce43a1701869965acb1a19a79f3d0daeafaf184d3b102fb8ab1cd4aa3cdd2","name":"Kenya Bayer","party":"","address":"290 N 300 W, Santaquin, UT 84655","precinct":"25SQ05","hd":"65","v_score":"0","decile":"3","lat":39.97998158824553,"lng":-111.79139411579088},{"vid":"6355616","name":"Dr. Macy Romaguera","party":"Dem","address":"350 S 300 W, Santaquin, UT 84655","precinct":"25SQ05","hd":"65","v_score":"2.315214949","decile":"5","lat":39.96998562221939,"lng":-111.79140637725551},{"vid":"995328ace842ff31aa5b444f59a1d1a7a6ee883adb72ffe279621ed562e1dd18","name":"Ms. Merilyn Bashirian","party":"Rep","address":"150 W 200 N, Santaquin, UT 84655","precinct":"25SQ05","hd":"65","v_score":"5.40460374","decile":"7","lat":39.9793355697168,"lng":-111.78850637387157},{"vid":"6360088","name":"Leonor Gislason","party":"","address":"184 N 100 E, Santaquin, UT 84655","precinct":"25SQ05","hd":"65","v_score":"6.724398202","decile":"8","lat":39.9784970314038,"lng":-111.78292798512885},