[{"vid":"600104","name":"Ms. Adamaris Schinner DDS","party":"Rep","address":"185 W 100 N, Santaquin, UT 84655","precinct":"25SQ05","hd":"65","v_score":"3.781490609","decile":"6","lat":39.976957333628185,"lng":-111.78887050148042,"phone":"(265) 627-2455","sd":"27","ssbd":"14","lsbd":"School Board Nebo 1"},{"vid":"763661","name":"Charlize Towne","party":"Dem","address":"271 S 100 W, Santaquin, UT 84655","precinct":"25SQ05","hd":"65","v_score":"29.77385784","decile":"10","lat":39.97111912919309,"lng":-111.78702305950475,"phone":"(137) 964-5809","sd":"27","ssbd":"14","lsbd":"School Board Nebo 1"},{"vid":"765160","name":"Mr. Kahlil Rath V","party":"","address":"45 E 300 S, Santaquin, UT 84655","precinct":"25SQ05","hd":"65","v_score":"8.347511332","decile":"8","lat":39.97098591653333,"lng":-111.78441350049643,"phone":"(669) 122-8104","sd":"27","ssbd":"14","lsbd":"School Board Nebo 1"},{"vid":"1237708","name":"Halsey Davis","party":"","address":"95 N 300 E, Santaquin, UT 84655","precinct":"25SQ05","hd":"65","v_score":"1.121327652","decile":"3","lat":39.97691528368759,"lng":-111.77938220978527,"phone":"(981) 573-0417","sd":"27","ssbd":"14","lsbd":"School Board Nebo 1"},{"vid":"1241979","name":"Dr. Mervin Johnston","party":"Rep","address":"159 N 100 E, Santaquin, UT 84655","precinct":"25SQ05","hd":"65","v_score":"3.93832808","decile":"6","lat":39.978167090387835,"lng":-111.78357774227175,"phone":"(548) 150-8129","sd":"27","ssbd":"14","lsbd":"School Board Nebo 1"},{"vid":"1247327","name":"Mrs. Hetty Satterfield","party":"Dem","address":"273 W 100 N, Santaquin, UT 84655","precinct":"25SQ05","hd":"65","v_score":"3.781490609","decile":"6","lat":39.9770639975854,"lng":-111.79098771436308,"phone":"(400) 777-3108","sd":"27","ssbd":"14","lsbd":"School Board Nebo 1"},{"vid":"1257023","name":"Raven Hahn PhD","party":"","address":"112 N Center St, Santaquin, UT 84655","precinct":"25SQ05","hd":"65","v_score":"5.40460374","decile":"7","lat":39.97754806009992,"lng":-111.78484928509853,"phone":"(472) 020-8696","sd":"27","ssbd":"14","lsbd":"School Board Nebo 1"},{"vid":"1279854","name":"Calla Stehr-Doyle","party":"Dem","address":"85 S 300 W, Santaquin, UT 84655","precinct":"25SQ05","hd":"65","v_score":"6.724398202","decile":"7","lat":39.9744714081674,"lng":-111.79139260409094,"phone":"(741) 408-3198","sd":"27","ssbd":"14","lsbd":"School Board Nebo 1"},{"vid":"1281700","name":"Almer Bartoletti","party":"","address":"160 N 200 W, Santaquin, UT 84655","precinct":"25SQ05","hd":"65","v_score":"12.59867706","decile":"9","lat":39.978301007668094,"lng":-111.78908844680771,"phone":"(514) 926-4506","sd":"27","ssbd":"14","lsbd":"School Board Nebo 1"},{"vid":"1290333","name":"Jo Renner","party":"","address":"289 W Spruce Way, Santaquin, UT 84655","precinct":"25SQ05","hd":"65","v_score":"1.193887297","decile":"3","lat":39.97654262073015,"lng":-111.79126420502774,"phone":"(172) 536-5511","sd":"27","ssbd":"14","lsbd":"School Board Nebo 1"},{"vid":"1326137","name":"Rusty Eichmann","party":"Dem","address":"41 S 200 E, Apt 1, Santaquin, UT 84655","precinct":"25SQ05","hd":"65","v_score":"3.61989409","decile":"6","lat":39.97472828310003,"lng":-111.78068671233883,"phone":"(978) 056-2663","sd":"27","ssbd":"14","lsbd":"School Board Nebo 1"},{"vid":"1330598","name":"Ona Kessler","party":"","address":"51 N 400 E, Santaquin, UT 84655","precinct":"25SQ05","hd":"65","v_score":"7.580602339","decile":"8","lat":39.976575645066056,"lng":-111.77727328745436,"phone":"(276) 015-8579","sd":"27","ssbd":"14","lsbd":"School Board Nebo 1"},{"vid":"1353841","name":"Hezekiah Berge Sr.","party":"","address":"66 S 300 E, Santaquin, UT 84655","precinct":"25SQ05","hd":"65","v_score":"2.315214949","decile":"5","lat":39.9742751725361,"lng":-111.77939651815113,"phone":"(480) 698-1751","sd":"27","ssbd":"14","lsbd":"School Board Nebo 1"},{"vid":"1368793","name":"Vinson Spinka","party":"Dem","address":"335 W Main St, Santaquin, UT 84655","precinct":"25SQ05","hd":"65","v_score":"4.210716443","decile":"7","lat":39.975410298251276,"lng":-111.79214691531773,"phone":"(106) 477-0300","sd":"27","ssbd":"14","lsbd":"School Board Nebo 1"},{"vid":"1376723","name":"Artis Auer-Schaden","party":"","address":"32 N Center St, Unit A, Santaquin, UT 84655","precinct":"25SQ05","hd":"65","v_score":"2.660162957","decile":"5","lat":39.976114574367294,"lng":-111.78491689679839,"phone":"(309) 908-0785","sd":"27","ssbd":"14","lsbd":"School Board Nebo 1"},{"vid":"1384241","name":"Mrs. Destany Predovic PhD","party":"","address":"151 N 400 E, Santaquin, UT 84655","precinct":"25SQ05","hd":"65","v_score":"2.315214949","decile":"5","lat":39.978079831386246,"lng":-111.77736320827532,"phone":"(431) 864-1621","sd":"27","ssbd":"14","lsbd":"School Board Nebo 1"},{"vid":"1385526","name":"Hartwell Bechtelar","party":"","address":"80 W 300 S, Santaquin, UT 84655","precinct":"25SQ05","hd":"65","v_score":"0","decile":"1","lat":39.97108447763804,"lng":-111.78660698555696,"phone":"(426) 495-8230","sd":"27","ssbd":"14","lsbd":"School Board Nebo 1"},{"vid":"1390223","name":"Miss Sydney Jacobson PhD","party":"Dem","address":"191 S 200 E, Santaquin, UT 84655","precinct":"25SQ05","hd":"65","v_score":"23.48004472","decile":"10","lat":39.97264057822231,"lng":-111.78072532085176,"phone":"(248) 562-5441","sd":"27","ssbd":"14","lsbd":"School Board Nebo 1"},{"vid":"b0d90c50f6a39c35fd30424672a49774fd73f16d85c70a2ab4e7e06a49bf14f9","name":"Ocie D'Amore-Johnson","party":"","address":"273 S 200 E, Santaquin, UT 84655","precinct":"25SQ05","hd":"65","v_score":"15.53259879","decile":"9","lat":39.97094417643516,"lng":-111.78083543148838,"phone":"(949) 821-7213","sd":"27","ssbd":"14","lsbd":"School Board Nebo 1"},{"vid":"c8afe65354b369f451b06db72f2206ffa71f44a71bb08639a9a364c18db1c41d","name":"Aubrey Abshire","party":"Rep","address":"272 W 100 S, Santaquin, UT 84655","precinct":"25SQ05","hd":"65","v_score":"8.363183621","decile":"8","lat":39.974223883784404,"lng":-111.79102750781921,"phone":"(962) 281-8463","sd":"27","ssbd":"14","lsbd":"School Board Nebo 1"},{"vid":"1404390","name":"Earley Brown","party":"","address":"360 E 200 N, Santaquin, UT 84655","precinct":"25SQ05","hd":"65","v_score":"8.347511332","decile":"8","lat":39.978626319630116,"lng":-111.77773296221244,"phone":"(478) 888-5293","sd":"27","ssbd":"14","lsbd":"School Board Nebo 1"},{"vid":"1407328","name":"Alycia Runolfsson","party":"Dem","address":"282 N 300 W, Santaquin, UT 84655","precinct":"25SQ05","hd":"65","v_score":"1.623113131","decile":"4","lat":39.9797562810484,"lng":-111.79139111146523,"phone":"(640) 866-1339","sd":"27","ssbd":"14","lsbd":"School Board Nebo 1"},{"vid":"1414543","name":"Felipa Shields","party":"","address":"135 S Center St, Santaquin, UT 84655","precinct":"25SQ05","hd":"65","v_score":"2.817000428","decile":"6","lat":39.97329086614146,"lng":-111.78482623055542,"phone":"(709) 335-9218","sd":"27","ssbd":"14","lsbd":"School Board Nebo 1"},{"vid":"1417960","name":"Ms. Kirsten Wilkinson MD","party":"Rep","address":"234 N 300 W, Santaquin, UT 84655","precinct":"25SQ05","hd":"65","v_score":"1.193887297","decile":"3","lat":39.979304635605715,"lng":-111.79138552538149,"phone":"(147) 101-4752","sd":"27","ssbd":"14","lsbd":"School Board Nebo 1"},{"vid":"1436504","name":"Kamryn Cummings","party":"Dem","address":"440 E Main St, Trlr 11, Santaquin, UT 84655","precinct":"25SQ05","hd":"65","v_score":"3.781490609","decile":"6","lat":39.97442344767459,"lng":-111.77597320757643,"phone":"(911) 055-6526","sd":"27","ssbd":"14","lsbd":"School Board Nebo 1"},{"vid":"1447265","name":"Miss Chelsi Schiller DVM","party":"Rep","address":"51 N 400 E, Santaquin, UT 84655","precinct":"25SQ05","hd":"65","v_score":"13.28237143","decile":"9","lat":39.976575645066056,"lng":-111.77727328745436,"phone":"(987) 400-9454","sd":"27","ssbd":"14","lsbd":"School Board Nebo 1"},{"vid":"1448427","name":"Dale Barrows","party":"","address":"113 E 200 N, Santaquin, UT 84655","precinct":"25SQ05","hd":"65","v_score":"16.75150098","decile":"9","lat":39.97944090074536,"lng":-111.7827731370821,"phone":"(961) 467-5906","sd":"27","ssbd":"14","lsbd":"School Board Nebo 1"},{"vid":"84598e8931303a5583cf7b720ab88e15c42bb53280b31c951cbd172dcd9d2f79","name":"Jeremiah Runte","party":"Rep","address":"61 S 300 W, Santaquin, UT 84655","precinct":"25SQ05","hd":"65","v_score":"8.985747318","decile":"8","lat":39.974716871333314,"lng":-111.79083991112081,"phone":"(219) 669-3773","sd":"27","ssbd":"14","lsbd":"School Board Nebo 1"},{"vid":"1451845","name":"Mr. Talon Lueilwitz PhD","party":"Dem","address":"117 N 300 W, Santaquin, UT 84655","precinct":"25SQ05","hd":"65","v_score":"5.40460374","decile":"7","lat":39.97779132088262,"lng":-111.79194015673633,"phone":"(355) 130-3633","sd":"27","ssbd":"14","lsbd":"School Board Nebo 1"},{"vid":"1461185","name":"Mrs. Melodee Batz MD","party":"","address":"160 S 100 W, Santaquin, UT 84655","precinct":"25SQ05","hd":"65","v_score":"0","decile":"1","lat":39.972992491543536,"lng":-111.787745828711,"phone":"(523) 838-7594","sd":"27","ssbd":"14","lsbd":"School Board Nebo 1"},{"vid":"1468961","name":"Randy Rice","party":"Rep","address":"87 S 100 E, Santaquin, UT 84655","precinct":"25SQ05","hd":"65","v_score":"1.121327652","decile":"3","lat":40.37500765760228,"lng":-111.79564532985616,"phone":"(933) 326-9245","sd":"27","ssbd":"14","lsbd":"School Board Nebo 1"},{"vid":"1473277","name":"Dr. Olena Legros DVM","party":"","address":"85 S 300 W, Santaquin, UT 84655","precinct":"25SQ05","hd":"65","v_score":"1.193887297","decile":"3","lat":39.9744714081674,"lng":-111.79139260409094,"phone":"(297) 359-6341","sd":"27","ssbd":"14","lsbd":"School Board Nebo 1"},{"vid":"1475917","name":"Myla Schroeder","party":"Rep","address":"511 W 200 N, Santaquin, UT 84655","precinct":"25SQ05","hd":"65","v_score":"8.363183621","decile":"8","lat":39.97968501537028,"lng":-111.7961811121758,"phone":"(120) 476-9443","sd":"27","ssbd":"14","lsbd":"School Board Nebo 1"},{"vid":"b69b2146fba9b102b60e843caa6fb785329cb8b26180846e511f3d9ca8cbf4e1","name":"Jorge Spinka","party":"","address":"135 S Center St, Santaquin, UT 84655","precinct":"25SQ05","hd":"65","v_score":"11.1324014","decile":"9","lat":39.97329086614146,"lng":-111.78482623055542,"phone":"(802) 327-6828","sd":"27","ssbd":"14","lsbd":"School Board Nebo 1"},{"vid":"1505541","name":"Vannie Barton PhD","party":"Dem","address":"225 N 300 E, Santaquin, UT 84655","precinct":"25SQ05","hd":"65","v_score":"19.3272208","decile":"10","lat":39.97939887972959,"lng":-111.77940421635378,"phone":"(243) 963-2011","sd":"27","ssbd":"14","lsbd":"School Board Nebo 1"},{"vid":"1505542","name":"Clovis Gaylord-O'Hara","party":"Rep","address":"225 N 300 E, Santaquin, UT 84655","precinct":"25SQ05","hd":"65","v_score":"19.3272208","decile":"10","lat":39.97939887972959,"lng":-111.77940421635378,"phone":"(534) 195-8102","sd":"27","ssbd":"14","lsbd":"School Board Nebo 1"},{"vid":"1508518","name":"Miss Dessie Nicolas","party":"Rep","address":"41 N 300 W, Santaquin, UT 84655","precinct":"25SQ05","hd":"65","v_score":"0","decile":"1","lat":39.97617602678523,"lng":-111.79192035247756,"phone":"(199) 266-9924","sd":"27","ssbd":"14","lsbd":"School Board Nebo 1"},{"vid":"08fea5cf34bc351c12a9cd3b022be43cd96742a9199b54d54d96be7c6188e06b","name":"Celesta Thiel","party":"","address":"46 E 100 N, Santaquin, UT 84655","precinct":"25SQ05","hd":"65","v_score":"10.97556393","decile":"9","lat":39.97687195126457,"lng":-111.78426872764592,"phone":"(301) 891-4970","sd":"27","ssbd":"14","lsbd":"School Board Nebo 1"},{"vid":"1514387","name":"Dr. Gilda Dooley PhD","party":"Rep","address":"184 N 100 E, Santaquin, UT 84655","precinct":"25SQ05","hd":"65","v_score":"5.40460374","decile":"7","lat":39.9784970314038,"lng":-111.78292798512885,"phone":"(598) 584-7281","sd":"27","ssbd":"14","lsbd":"School Board Nebo 1"},{"vid":"1514547","name":"Melvina Wisozk","party":"Rep","address":"66 S 300 E, Santaquin, UT 84655","precinct":"25SQ05","hd":"65","v_score":"1.121327652","decile":"3","lat":39.9742751725361,"lng":-111.77939651815113,"phone":"(245) 729-1012","sd":"27","ssbd":"14","lsbd":"School Board Nebo 1"},{"vid":"b8e8ae58d5201bc8e9464f7d65daf576500db91a7460e696ffd3e8a718ef2347","name":"Dr. Carli Konopelski MD","party":"Rep","address":"160 S 100 W, Santaquin, UT 84655","precinct":"25SQ05","hd":"65","v_score":"15.70505459","decile":"9","lat":39.972992491543536,"lng":-111.787745828711,"phone":"(329) 448-9440","sd":"27","ssbd":"14","lsbd":"School Board Nebo 1"},{"vid":"1517388","name":"Mr. Sonny Padberg","party":"Dem","address":"250 N 350 W, Santaquin, UT 84655","precinct":"25SQ05","hd":"65","v_score":"13.46861423","decile":"9","lat":39.97978138501712,"lng":-111.79316631505799,"phone":"(758) 204-9795","sd":"27","ssbd":"14","lsbd":"School Board Nebo 1"},{"vid":"1541693","name":"Jinnie Wiegand-Klein","party":"Dem","address":"140 E 200 S, Santaquin, UT 84655","precinct":"25SQ05","hd":"65","v_score":"2.587603312","decile":"5","lat":39.9720870319607,"lng":-111.78247335543774,"phone":"(992) 239-9508","sd":"27","ssbd":"14","lsbd":"School Board Nebo 1"},{"vid":"1542471","name":"Austin Heathcote","party":"Rep","address":"350 S 300 W, Santaquin, UT 84655","precinct":"25SQ05","hd":"65","v_score":"0","decile":"1","lat":39.96998562221939,"lng":-111.79140637725551,"phone":"(948) 551-3324","sd":"27","ssbd":"14","lsbd":"School Board Nebo 1"},{"vid":"1542527","name":"Leslee Gerlach-Bernier","party":"","address":"63 E 200 N, Santaquin, UT 84655","precinct":"25SQ05","hd":"65","v_score":"19.3272208","decile":"10","lat":39.97931451808477,"lng":-111.78394455692126,"phone":"(533) 610-5489","sd":"27","ssbd":"14","lsbd":"School Board Nebo 1"},{"vid":"1543345","name":"Fumiko Larson","party":"Rep","address":"354 S 300 W, Santaquin, UT 84655","precinct":"25SQ05","hd":"65","v_score":"7.650280567","decile":"8","lat":39.970158688186054,"lng":-111.79203347175175,"phone":"(549) 877-5175","sd":"27","ssbd":"14","lsbd":"School Board Nebo 1"},{"vid":"1556543","name":"Jule Leuschke","party":"","address":"146 N 100 E, Santaquin, UT 84655","precinct":"25SQ05","hd":"65","v_score":"11.1324014","decile":"9","lat":39.977914422275504,"lng":-111.78291061902611,"phone":"(167) 740-9842","sd":"27","ssbd":"14","lsbd":"School Board Nebo 1"},{"vid":"b30fdf9b73403a08aa95e54005293ffd5b83215d94d2de6ce976c2b57d060ce9","name":"Jordyn Kreiger","party":"","address":"272 W 100 S, Santaquin, UT 84655","precinct":"25SQ05","hd":"65","v_score":"8.363183621","decile":"8","lat":39.974223883784404,"lng":-111.79102750781921,"phone":"(919) 927-3238","sd":"27","ssbd":"14","lsbd":"School Board Nebo 1"},{"vid":"1567689","name":"Tyrique Waters","party":"Dem","address":"375 E 200 S, Santaquin, UT 84655","precinct":"25SQ05","hd":"65","v_score":"2.315214949","decile":"5","lat":39.97275504869163,"lng":-111.77748566266227,"phone":"(869) 093-5664","sd":"27","ssbd":"14","lsbd":"School Board Nebo 1"},{"vid":"d908f87e8d6adb6cc23809bb4b7adb118de9ce91848cda76aafcb5a15a80d454","name":"Joanna Lockman","party":"Rep","address":"230 E 100 N, Santaquin, UT 84655","precinct":"25SQ05","hd":"65","v_score":"6.027167436","decile":"7","lat":39.976996121992855,"lng":-111.7804940901857,"phone":"(384) 258-5782","sd":"27","ssbd":"14","lsbd":"School Board Nebo 1"},{"vid":"1578781","name":"Sierra Swift","party":"Dem","address":"210 W 200 N, Santaquin, UT 84655","precinct":"25SQ05","hd":"65","v_score":"14.14899265","decile":"9","lat":39.9793340344039,"lng":-111.7900103296072,"phone":"(864) 801-1857","sd":"27","ssbd":"14","lsbd":"School Board Nebo 1"},{"vid":"1622896","name":"Mrs. Alyssa Bailey PhD","party":"","address":"190 W 200 N, Santaquin, UT 84655","precinct":"25SQ05","hd":"65","v_score":"1.193887297","decile":"3","lat":40.11282359897467,"lng":-111.65780154435762,"phone":"(720) 500-8410","sd":"27","ssbd":"14","lsbd":"School Board Nebo 1"},{"vid":"1627958","name":"January Botsford-Nader","party":"Rep","address":"423 S 600 W, Santaquin, UT 84655","precinct":"25SQ05","hd":"65","v_score":"0","decile":"1","lat":39.96888709226551,"lng":-111.79756527193885,"phone":"(585) 414-0403","sd":"27","ssbd":"14","lsbd":"School Board Nebo 1"},{"vid":"63a9aa65a8c99c9593d7f2e43c953f5527dbf8fe63d1c62a2c953fb9835534cb","name":"Mr. Attilio Kuhn","party":"Rep","address":"440 W Main St, Trlr 15, Santaquin, UT 84655","precinct":"25SQ05","hd":"65","v_score":"2.315214949","decile":"5","lat":39.97682427566856,"lng":-111.79489450298476,"phone":"(441) 824-7546","sd":"27","ssbd":"14","lsbd":"School Board Nebo 1"},{"vid":"1629200","name":"Merrill Jenkins-McDermott","party":"Dem","address":"44 E 200 N, Santaquin, UT 84655","precinct":"25SQ05","hd":"65","v_score":"8.173821515","decile":"8","lat":39.97863560869924,"lng":-111.78446617357243,"phone":"(356) 124-0994","sd":"27","ssbd":"14","lsbd":"School Board Nebo 1"},{"vid":"637d1d6a837b7a8902ed96129524326270cd1b3b0d3b1cd25f907435cb8cb356","name":"Miss Rona Hilpert DVM","party":"Dem","address":"37 N 300 W, Santaquin, UT 84655","precinct":"25SQ05","hd":"65","v_score":"14.90236525","decile":"9","lat":39.97617606974071,"lng":-111.79180470031362,"phone":"(385) 228-0369","sd":"27","ssbd":"14","lsbd":"School Board Nebo 1"},{"vid":"69b4916db112ade812ebd4c56b1ea0b7f699aae0c2326d74fc25dea0bad18970","name":"Dr. Randell Carroll II","party":"Dem","address":"174 E 200 S, Santaquin, UT 84655","precinct":"25SQ05","hd":"65","v_score":"6.74007049","decile":"8","lat":39.97209331870918,"lng":-111.78172372426889,"phone":"(508) 840-7938","sd":"27","ssbd":"14","lsbd":"School Board Nebo 1"},{"vid":"1674606","name":"Anabella Murray","party":"Rep","address":"440 E Main St, Trlr 37, Santaquin, UT 84655","precinct":"25SQ05","hd":"65","v_score":"2.587603312","decile":"5","lat":39.97442344767459,"lng":-111.77597320757643,"phone":"(669) 286-2279","sd":"27","ssbd":"14","lsbd":"School Board Nebo 1"},{"vid":"1674674","name":"Cali Schaden","party":"Dem","address":"186 E 200 S, Santaquin, UT 84655","precinct":"25SQ05","hd":"65","v_score":"18.5581759","decile":"10","lat":39.97200197051736,"lng":-111.78160700672866,"phone":"(948) 247-6593","sd":"27","ssbd":"14","lsbd":"School Board Nebo 1"},{"vid":"1676323","name":"Marie Tromp","party":"Rep","address":"43 N 300 W, Santaquin, UT 84655","precinct":"25SQ05","hd":"65","v_score":"0","decile":"1","lat":39.97617601866222,"lng":-111.79197817811038,"phone":"(732) 113-5617","sd":"27","ssbd":"14","lsbd":"School Board Nebo 1"},{"vid":"1701908","name":"Corwin Howe","party":"Dem","address":"296 N 300 W, Santaquin, UT 84655","precinct":"25SQ05","hd":"65","v_score":"2.315214949","decile":"5","lat":39.98020418687293,"lng":-111.79139726330794,"phone":"(973) 384-4006","sd":"27","ssbd":"14","lsbd":"School Board Nebo 1"},{"vid":"1707516","name":"Oliva Bailey","party":"","address":"268 W 100 S, Santaquin, UT 84655","precinct":"25SQ05","hd":"65","v_score":"0","decile":"1","lat":39.974223883784404,"lng":-111.79102750781921,"phone":"(984) 751-7821","sd":"27","ssbd":"14","lsbd":"School Board Nebo 1"},{"vid":"1717384","name":"Denisha Rodriguez","party":"","address":"174 E 200 S, Santaquin, UT 84655","precinct":"25SQ05","hd":"65","v_score":"0","decile":"1","lat":39.97209331870918,"lng":-111.78172372426889,"phone":"(935) 952-1833","sd":"27","ssbd":"14","lsbd":"School Board Nebo 1"},{"vid":"1726157","name":"Dr. Gabriel Eichmann","party":"","address":"377 W Main St, Santaquin, UT 84655","precinct":"25SQ05","hd":"65","v_score":"5.40460374","decile":"7","lat":39.97541558844574,"lng":-111.79282593028145,"phone":"(166) 580-7439","sd":"27","ssbd":"14","lsbd":"School Board Nebo 1"},{"vid":"1727891","name":"Viney Gottlieb","party":"Rep","address":"350 S 300 W, Santaquin, UT 84655","precinct":"25SQ05","hd":"65","v_score":"0","decile":"1","lat":39.96998562221939,"lng":-111.79140637725551,"phone":"(411) 063-2481","sd":"27","ssbd":"14","lsbd":"School Board Nebo 1"},{"vid":"c0597ad7215bc66d5323563da36be2efd0c396cd2bb4bb37827ee4b00a3173eb","name":"Jens Weissnat","party":"Dem","address":"41 S 200 E, Apt 1, Santaquin, UT 84655","precinct":"25SQ05","hd":"65","v_score":"0","decile":"1","lat":39.97472828310003,"lng":-111.78068671233883,"phone":"(169) 688-4776","sd":"27","ssbd":"14","lsbd":"School Board Nebo 1"},{"vid":"1735335","name":"Miss Nedra Lemke DDS","party":"Rep","address":"24 E 100 S, Santaquin, UT 84655","precinct":"25SQ05","hd":"65","v_score":"0","decile":"1","lat":39.97363637055043,"lng":-111.78463901913491,"phone":"(973) 444-3175","sd":"27","ssbd":"14","lsbd":"School Board Nebo 1"},{"vid":"1738739","name":"Mr. Darian Schuppe III","party":"","address":"440 E Main St, Trlr 7, Santaquin, UT 84655","precinct":"25SQ05","hd":"65","v_score":"0","decile":"1","lat":39.97442344767459,"lng":-111.77597320757643,"phone":"(445) 949-9973","sd":"27","ssbd":"14","lsbd":"School Board Nebo 1"},{"vid":"1759551","name":"Dr. Donny Herman","party":"Rep","address":"50 S 300 W, Santaquin, UT 84655","precinct":"25SQ05","hd":"65","v_score":"2.660162957","decile":"5","lat":39.97499724685294,"lng":-111.79194173094403,"phone":"(460) 017-4299","sd":"27","ssbd":"14","lsbd":"School Board Nebo 1"},{"vid":"6fe1b52deb4ae89f94290defffd1465970a518936f05ac897e6a3aaee999c819","name":"Abelardo Jast","party":"Rep","address":"218 N Madison Ave, Santaquin, UT 84655","precinct":"25SQ05","hd":"65","v_score":"17.27544997","decile":"9","lat":39.979143084902795,"lng":-111.7974934729348,"phone":"(435) 275-1441","sd":"27","ssbd":"14","lsbd":"School Board Nebo 1"},{"vid":"8a51c72589207ecee980a748e4da503c496e9cbb81f040dd1fa56c86d809667c","name":"Kylah Pfeffer","party":"Rep","address":"666 W Frost St, Santaquin, UT 84655","precinct":"25SQ05","hd":"65","v_score":"4.210716443","decile":"7","lat":39.97918635763082,"lng":-111.79918962296028,"phone":"(609) 732-3051","sd":"27","ssbd":"14","lsbd":"School Board Nebo 1"},{"vid":"1769527","name":"Darold Thiel","party":"Dem","address":"230 S 200 W, Santaquin, UT 84655","precinct":"25SQ05","hd":"65","v_score":"1.193887297","decile":"3","lat":39.97171040868558,"lng":-111.78990558885978,"phone":"(845) 846-7822","sd":"27","ssbd":"14","lsbd":"School Board Nebo 1"},{"vid":"1778795","name":"Allyson Orn-Rempel","party":"Dem","address":"340 W 200 N, Santaquin, UT 84655","precinct":"25SQ05","hd":"65","v_score":"3.089388791","decile":"6","lat":39.97918205918183,"lng":-111.79249609334329,"phone":"(757) 953-9369","sd":"27","ssbd":"14","lsbd":"School Board Nebo 1"},{"vid":"b5399fa3c9620e201ea2b2c6a756bf7fd0bd0adffe2e5691e26256f9c425c8e7","name":"Aria Dickens-Fisher","party":"Rep","address":"180 S 300 E, Santaquin, UT 84655","precinct":"25SQ05","hd":"65","v_score":"0","decile":"1","lat":39.97295284822714,"lng":-111.77940507065162,"phone":"(523) 579-1420","sd":"27","ssbd":"14","lsbd":"School Board Nebo 1"},{"vid":"1786493","name":"Nathanael Thiel","party":"Rep","address":"35 E 300 S, Santaquin, UT 84655","precinct":"25SQ05","hd":"65","v_score":"7.493443096","decile":"8","lat":39.97096362134372,"lng":-111.78488476352169,"phone":"(599) 446-0571","sd":"27","ssbd":"14","lsbd":"School Board Nebo 1"},{"vid":"1787303","name":"Artie Reichel","party":"Rep","address":"155 E 300 S, Santaquin, UT 84655","precinct":"25SQ05","hd":"65","v_score":"4.192796624","decile":"7","lat":39.971136833812686,"lng":-111.78200226722464,"phone":"(646) 837-6880","sd":"27","ssbd":"14","lsbd":"School Board Nebo 1"},{"vid":"1792623","name":"Jaelyn Hilpert-Schoen","party":"Dem","address":"37 N 300 W, Santaquin, UT 84655","precinct":"25SQ05","hd":"65","v_score":"14.90236525","decile":"9","lat":39.97617606974071,"lng":-111.79180470031362,"phone":"(516) 496-1315","sd":"27","ssbd":"14","lsbd":"School Board Nebo 1"},{"vid":"1796075","name":"Mignon Fritsch PhD","party":"","address":"189 N 300 W, Santaquin, UT 84655","precinct":"25SQ05","hd":"65","v_score":"8.363183621","decile":"8","lat":39.978635656609434,"lng":-111.79191357594638,"phone":"(419) 850-8886","sd":"27","ssbd":"14","lsbd":"School Board Nebo 1"},{"vid":"1798238","name":"Laurene Kilback","party":"Dem","address":"280 W 200 N, Santaquin, UT 84655","precinct":"25SQ05","hd":"65","v_score":"13.4109596","decile":"9","lat":40.11270344381335,"lng":-111.65946540433751,"phone":"(981) 842-9897","sd":"27","ssbd":"14","lsbd":"School Board Nebo 1"},{"vid":"1799830","name":"Jacques Medhurst","party":"Rep","address":"189 N 300 W, Santaquin, UT 84655","precinct":"25SQ05","hd":"65","v_score":"17.42538181","decile":"9","lat":39.978635656609434,"lng":-111.79191357594638,"phone":"(359) 055-1786","sd":"27","ssbd":"14","lsbd":"School Board Nebo 1"},{"vid":"1815562","name":"Oswaldo Stanton","party":"Rep","address":"440 W Main St, Trlr 11, Santaquin, UT 84655","precinct":"25SQ05","hd":"65","v_score":"1.46627566","decile":"4","lat":39.97682427566856,"lng":-111.79489450298476,"phone":"(344) 803-9789","sd":"27","ssbd":"14","lsbd":"School Board Nebo 1"},{"vid":"1830999","name":"Adolf Lemke","party":"Dem","address":"201 N Cardinal St, Santaquin, UT 84655","precinct":"25SQ05","hd":"65","v_score":"1.193887297","decile":"3","lat":39.97897746892689,"lng":-111.79734539117842,"phone":"(686) 714-3868","sd":"27","ssbd":"14","lsbd":"School Board Nebo 1"},{"vid":"1837220","name":"Mrs. Estela Waters PhD","party":"Rep","address":"345 W 200 N, Santaquin, UT 84655","precinct":"25SQ05","hd":"65","v_score":"2.315214949","decile":"5","lat":39.97862669107175,"lng":-111.79278882177537,"phone":"(745) 772-6719","sd":"27","ssbd":"14","lsbd":"School Board Nebo 1"},{"vid":"1842957","name":"Bret Kshlerin-Thompson","party":"","address":"345 W 200 N, Santaquin, UT 84655","precinct":"25SQ05","hd":"65","v_score":"2.315214949","decile":"5","lat":39.97862669107175,"lng":-111.79278882177537,"phone":"(919) 183-4705","sd":"27","ssbd":"14","lsbd":"School Board Nebo 1"},{"vid":"1843768","name":"Dr. Chet Sporer","party":"","address":"232 N Halford Ave, Santaquin, UT 84655","precinct":"25SQ05","hd":"65","v_score":"9.99960731","decile":"9","lat":39.97940003685772,"lng":-111.7989139139582,"phone":"(257) 798-8704","sd":"27","ssbd":"14","lsbd":"School Board Nebo 1"},{"vid":"1847428","name":"Genesis Kautzer-Lebsack","party":"Dem","address":"268 W 100 S, Santaquin, UT 84655","precinct":"25SQ05","hd":"65","v_score":"1.46627566","decile":"4","lat":39.974223883784404,"lng":-111.79102750781921,"phone":"(859) 041-9571","sd":"27","ssbd":"14","lsbd":"School Board Nebo 1"},{"vid":"1852247","name":"Nealie Rosenbaum DVM","party":"Dem","address":"440 E Main St, # 49, Santaquin, UT 84655","precinct":"25SQ05","hd":"65","v_score":"1.121327652","decile":"3","lat":39.97442344767459,"lng":-111.77597320757643,"phone":"(109) 454-8807","sd":"27","ssbd":"14","lsbd":"School Board Nebo 1"},{"vid":"1854774","name":"Sydney Smitham-Bradtke","party":"Dem","address":"410 W 30 S, Santaquin, UT 84655","precinct":"25SQ05","hd":"65","v_score":"1.193887297","decile":"3","lat":39.97540324222885,"lng":-111.7933029485506,"phone":"(953) 208-2372","sd":"27","ssbd":"14","lsbd":"School Board Nebo 1"},{"vid":"1855470","name":"Rossie Harvey","party":"","address":"460 W 500 S, Apt 1, Santaquin, UT 84655","precinct":"25SQ05","hd":"65","v_score":"2.315214949","decile":"5","lat":39.96819412648732,"lng":-111.79413043355365,"phone":"(617) 790-4747","sd":"27","ssbd":"14","lsbd":"School Board Nebo 1"},{"vid":"1862299","name":"Orvel Hermann","party":"Rep","address":"45 N 300 W, Santaquin, UT 84655","precinct":"25SQ05","hd":"65","v_score":"0","decile":"1","lat":39.97617598286597,"lng":-111.79203604668268,"phone":"(431) 386-2460","sd":"27","ssbd":"14","lsbd":"School Board Nebo 1"},{"vid":"1872467","name":"Bret Sipes","party":"Rep","address":"274 W 100 S, Santaquin, UT 84655","precinct":"25SQ05","hd":"65","v_score":"10.11031313","decile":"9","lat":39.97433887082952,"lng":-111.7910537057417,"phone":"(407) 629-7038","sd":"27","ssbd":"14","lsbd":"School Board Nebo 1"},{"vid":"1876183","name":"Cheyenne Block","party":"Dem","address":"89 S 300 W, Apt 1, Santaquin, UT 84655","precinct":"25SQ05","hd":"65","v_score":"5.687348376","decile":"7","lat":39.97432734165861,"lng":-111.79139868321505,"phone":"(472) 073-7317","sd":"27","ssbd":"14","lsbd":"School Board Nebo 1"},{"vid":"1876422","name":"Jeanmarie Buckridge","party":"Dem","address":"222 W 100 S, Santaquin, UT 84655","precinct":"25SQ05","hd":"65","v_score":"4.079907534","decile":"7","lat":39.97468581647875,"lng":-111.79010957287697,"phone":"(781) 661-1244","sd":"27","ssbd":"14","lsbd":"School Board Nebo 1"},{"vid":"31b3d1ff80444d0cdcdcbacc6ad2932b33d0ac29c693af707acb0e3ed660bc84","name":"Sienna Harris","party":"Rep","address":"311 W 300 N, Santaquin, UT 84655","precinct":"25SQ05","hd":"65","v_score":"15.00969335","decile":"9","lat":39.98039186372426,"lng":-111.79184434363046,"phone":"(641) 753-9983","sd":"27","ssbd":"14","lsbd":"School Board Nebo 1"},{"vid":"1878336","name":"Yehuda Hackett","party":"Rep","address":"38 N 200 W, Santaquin, UT 84655","precinct":"25SQ05","hd":"65","v_score":"1.46627566","decile":"4","lat":40.388302204501,"lng":-111.8517767556332,"phone":"(117) 188-5043","sd":"27","ssbd":"14","lsbd":"School Board Nebo 1"},{"vid":"1889655","name":"Parker Schumm","party":"Rep","address":"91 S 300 W, Santaquin, UT 84655","precinct":"25SQ05","hd":"65","v_score":"5.273794831","decile":"7","lat":39.974322349124776,"lng":-111.79124243081256,"phone":"(721) 327-2339","sd":"27","ssbd":"14","lsbd":"School Board Nebo 1"},{"vid":"1891822","name":"Edson Kilback","party":"","address":"35 E 200 N, Santaquin, UT 84655","precinct":"25SQ05","hd":"65","v_score":"5.61909958","decile":"7","lat":39.97931145296486,"lng":-111.78453902442669,"phone":"(399) 367-6786","sd":"27","ssbd":"14","lsbd":"School Board Nebo 1"},{"vid":"1893210","name":"Darrius Ankunding","party":"","address":"332 E 200 S, Santaquin, UT 84655","precinct":"25SQ05","hd":"65","v_score":"8.216702423","decile":"8","lat":39.97198875572898,"lng":-111.77840412503217,"phone":"(568) 411-2563","sd":"27","ssbd":"14","lsbd":"School Board Nebo 1"},{"vid":"1894311","name":"Aurilla Mayer-Schowalter","party":"","address":"112 N Center St, Santaquin, UT 84655","precinct":"25SQ05","hd":"65","v_score":"5.40460374","decile":"7","lat":39.97754806009992,"lng":-111.78484928509853,"phone":"(869) 743-3160","sd":"27","ssbd":"14","lsbd":"School Board Nebo 1"},{"vid":"1901506","name":"Mrs. Nichol Mayert","party":"Rep","address":"255 N 100 W, Santaquin, UT 84655","precinct":"25SQ05","hd":"65","v_score":"15.61526831","decile":"9","lat":39.97981289138597,"lng":-111.78780116305886,"phone":"(486) 639-5031","sd":"27","ssbd":"14","lsbd":"School Board Nebo 1"},{"vid":"1922277","name":"Jamey Adams","party":"Rep","address":"114 N 200 E, Santaquin, UT 84655","precinct":"25SQ05","hd":"65","v_score":"1.46627566","decile":"4","lat":39.97758453656512,"lng":-111.78079048733743,"phone":"(645) 317-6802","sd":"27","ssbd":"14","lsbd":"School Board Nebo 1"},{"vid":"1930950","name":"Dr. Ignacio Leuschke I","party":"Rep","address":"84 E 300 N, Santaquin, UT 84655","precinct":"25SQ05","hd":"65","v_score":"1.121327652","decile":"3","lat":39.980291742180206,"lng":-111.78365409529796,"phone":"(717) 216-1957","sd":"27","ssbd":"14","lsbd":"School Board Nebo 1"},{"vid":"1931358","name":"Falon Zboncak","party":"Rep","address":"86 N 300 W, Santaquin, UT 84655","precinct":"25SQ05","hd":"65","v_score":"7.367763134","decile":"8","lat":39.97698750263351,"lng":-111.79141910566443,"phone":"(726) 204-0236","sd":"27","ssbd":"14","lsbd":"School Board Nebo 1"},{"vid":"1933939","name":"Miss Karyme Turcotte DDS","party":"","address":"440 E Main St, Trlr 52, Santaquin, UT 84655","precinct":"25SQ05","hd":"65","v_score":"14.90880107","decile":"9","lat":39.97442344767459,"lng":-111.77597320757643,"phone":"(717) 217-3055","sd":"27","ssbd":"14","lsbd":"School Board Nebo 1"},{"vid":"1934437","name":"Dante White","party":"","address":"440 E Main St, Trlr 22, Santaquin, UT 84655","precinct":"25SQ05","hd":"65","v_score":"3.781490609","decile":"6","lat":39.97442344767459,"lng":-111.77597320757643,"phone":"(805) 384-0366","sd":"27","ssbd":"14","lsbd":"School Board Nebo 1"},{"vid":"1934442","name":"Lula Carter-Ondricka","party":"Dem","address":"440 E Main St, Trlr 22, Santaquin, UT 84655","precinct":"25SQ05","hd":"65","v_score":"0","decile":"1","lat":39.97442344767459,"lng":-111.77597320757643,"phone":"(332) 870-8305","sd":"27","ssbd":"14","lsbd":"School Board Nebo 1"},{"vid":"1936245","name":"Darl Powlowski","party":"Dem","address":"248 N 300 W, Santaquin, UT 84655","precinct":"25SQ05","hd":"65","v_score":"1.46627566","decile":"4","lat":39.9796435354136,"lng":-111.79131133118655,"phone":"(979) 713-4909","sd":"27","ssbd":"14","lsbd":"School Board Nebo 1"},{"vid":"18a5fada8f133951be9d511b1eab5c988311105025b71327d4d1b1c61b1bdaab","name":"Calhoun Rice","party":"Rep","address":"321 W 300 N, Santaquin, UT 84655","precinct":"25SQ05","hd":"65","v_score":"8.35914475","decile":"8","lat":39.98035208728325,"lng":-111.79237279651628,"phone":"(365) 180-6912","sd":"27","ssbd":"14","lsbd":"School Board Nebo 1"},{"vid":"1939365","name":"Jameson Flatley","party":"","address":"348 W 200 N, Santaquin, UT 84655","precinct":"25SQ05","hd":"65","v_score":"6.550708384","decile":"7","lat":39.979048161166446,"lng":-111.79325629787756,"phone":"(811) 013-7979","sd":"27","ssbd":"14","lsbd":"School Board Nebo 1"},{"vid":"1942665","name":"Barrett Mosciski","party":"Dem","address":"440 W Main St, Trlr 20, Santaquin, UT 84655","precinct":"25SQ05","hd":"65","v_score":"2.660162957","decile":"5","lat":39.97682427566856,"lng":-111.79489450298476,"phone":"(179) 011-8391","sd":"27","ssbd":"14","lsbd":"School Board Nebo 1"},{"vid":"1942794","name":"Faustino Reynolds","party":"Rep","address":"282 N 300 W, Santaquin, UT 84655","precinct":"25SQ05","hd":"65","v_score":"1.121327652","decile":"3","lat":39.9797562810484,"lng":-111.79139111146523,"phone":"(674) 371-0620","sd":"27","ssbd":"14","lsbd":"School Board Nebo 1"},{"vid":"1947705","name":"Catrina Gutkowski","party":"","address":"150 W 200 N, Santaquin, UT 84655","precinct":"25SQ05","hd":"65","v_score":"2.660162957","decile":"5","lat":39.9793355697168,"lng":-111.78850637387157,"phone":"(503) 060-6388","sd":"27","ssbd":"14","lsbd":"School Board Nebo 1"},{"vid":"1950903","name":"Tristin Robel","party":"","address":"235 W 300 N, Apt 1, Santaquin, UT 84655","precinct":"25SQ05","hd":"65","v_score":"3.781490609","decile":"6","lat":39.98015992134405,"lng":-111.79031138446378,"phone":"(593) 510-4801","sd":"27","ssbd":"14","lsbd":"School Board Nebo 1"},{"vid":"1955813","name":"Erla Skiles","party":"Rep","address":"287 W 300 N, Santaquin, UT 84655","precinct":"25SQ05","hd":"65","v_score":"1.121327652","decile":"3","lat":39.98033860654872,"lng":-111.7913201707886,"phone":"(833) 668-1964","sd":"27","ssbd":"14","lsbd":"School Board Nebo 1"},{"vid":"1956602","name":"Mr. Chas Tillman PhD","party":"Rep","address":"158 S 200 E, Santaquin, UT 84655","precinct":"25SQ05","hd":"65","v_score":"21.63734481","decile":"10","lat":39.973279366384325,"lng":-111.78154634562783,"phone":"(591) 784-7611","sd":"27","ssbd":"14","lsbd":"School Board Nebo 1"},{"vid":"1958517","name":"Mr. Ham Metz","party":"","address":"150 E 300 N, Santaquin, UT 84655","precinct":"25SQ05","hd":"65","v_score":"9.640097175","decile":"8","lat":39.9801159910128,"lng":-111.7823063902471,"phone":"(329) 669-6970","sd":"27","ssbd":"14","lsbd":"School Board Nebo 1"},{"vid":"1961603","name":"Toivo Feil","party":"","address":"189 N 200 E, Santaquin, UT 84655","precinct":"25SQ05","hd":"65","v_score":"1.121327652","decile":"3","lat":39.97833220963489,"lng":-111.78152461268614,"phone":"(840) 549-1898","sd":"27","ssbd":"14","lsbd":"School Board Nebo 1"},{"vid":"1963233","name":"Leafy Cummings","party":"Rep","address":"67 S 300 W, Santaquin, UT 84655","precinct":"25SQ05","hd":"65","v_score":"1.193887297","decile":"3","lat":39.974567811433594,"lng":-111.79068973825076,"phone":"(434) 745-1027","sd":"27","ssbd":"14","lsbd":"School Board Nebo 1"},{"vid":"1965724","name":"Norton Russel","party":"","address":"440 E Main St, Trlr 15, Santaquin, UT 84655","precinct":"25SQ05","hd":"65","v_score":"2.315214949","decile":"5","lat":39.97442344767459,"lng":-111.77597320757643,"phone":"(304) 896-6140","sd":"27","ssbd":"14","lsbd":"School Board Nebo 1"},{"vid":"1968183","name":"Pheobe Haley","party":"Rep","address":"440 W Main St, Trlr 22, Santaquin, UT 84655","precinct":"25SQ05","hd":"65","v_score":"1.121327652","decile":"3","lat":39.97682427566856,"lng":-111.79489450298476,"phone":"(318) 428-3021","sd":"27","ssbd":"14","lsbd":"School Board Nebo 1"},{"vid":"1968897","name":"Dr. Tyrel D'Amore","party":"","address":"192 N 100 W, Santaquin, UT 84655","precinct":"25SQ05","hd":"65","v_score":"19.3272208","decile":"10","lat":39.97852065872006,"lng":-111.78699136388724,"phone":"(679) 404-7524","sd":"27","ssbd":"14","lsbd":"School Board Nebo 1"},{"vid":"1970002","name":"Gwyneth Nicolas PhD","party":"","address":"55 N 200 W, Santaquin, UT 84655","precinct":"25SQ05","hd":"65","v_score":"6.74007049","decile":"8","lat":39.976681301962,"lng":-111.78993802019751,"phone":"(764) 944-5465","sd":"27","ssbd":"14","lsbd":"School Board Nebo 1"},{"vid":"1970201","name":"Mr. Justin Hartmann III","party":"Rep","address":"111 W 100 S, # B, Santaquin, UT 84655","precinct":"25SQ05","hd":"65","v_score":"0","decile":"1","lat":39.973669415428645,"lng":-111.78769680656795,"phone":"(974) 067-7590","sd":"27","ssbd":"14","lsbd":"School Board Nebo 1"},{"vid":"1970207","name":"Ms. Arden Hettinger","party":"","address":"265 N 300 E, Santaquin, UT 84655","precinct":"25SQ05","hd":"65","v_score":"16.67870344","decile":"9","lat":39.97982311090738,"lng":-111.77927131923131,"phone":"(511) 128-9717","sd":"27","ssbd":"14","lsbd":"School Board Nebo 1"},{"vid":"1971809","name":"Malvin Koch","party":"","address":"282 W 200 S, Santaquin, UT 84655","precinct":"25SQ05","hd":"65","v_score":"3.93832808","decile":"6","lat":39.97260299794243,"lng":-111.79050073080752,"phone":"(194) 551-1855","sd":"27","ssbd":"14","lsbd":"School Board Nebo 1"},{"vid":"1972146","name":"Enos Bailey","party":"","address":"88 N 300 E, Santaquin, UT 84655","precinct":"25SQ05","hd":"65","v_score":"2.660162957","decile":"5","lat":39.97699300885762,"lng":-111.77843476851288,"phone":"(271) 904-9377","sd":"27","ssbd":"14","lsbd":"School Board Nebo 1"},{"vid":"1972455","name":"Deric Kassulke III","party":"Dem","address":"187 E 100 N, Santaquin, UT 84655","precinct":"25SQ05","hd":"65","v_score":"0","decile":"1","lat":39.97752717744126,"lng":-111.78167482675211,"phone":"(547) 132-4497","sd":"27","ssbd":"14","lsbd":"School Board Nebo 1"},{"vid":"1972780","name":"Tabetha Huels","party":"","address":"144 S 200 W, Santaquin, UT 84655","precinct":"25SQ05","hd":"65","v_score":"19.24455128","decile":"10","lat":39.9733371876058,"lng":-111.78993195351507,"phone":"(289) 054-1123","sd":"27","ssbd":"14","lsbd":"School Board Nebo 1"},{"vid":"1973747","name":"Jaime Stark","party":"Dem","address":"90 N 300 W, Santaquin, UT 84655","precinct":"25SQ05","hd":"65","v_score":"1.46627566","decile":"4","lat":39.977031414049236,"lng":-111.79141986294422,"phone":"(559) 905-8357","sd":"27","ssbd":"14","lsbd":"School Board Nebo 1"},{"vid":"1973795","name":"Mabelle Jast","party":"","address":"36 N 200 W, Santaquin, UT 84655","precinct":"25SQ05","hd":"65","v_score":"2.315214949","decile":"5","lat":39.976290392549444,"lng":-111.78915131088564,"phone":"(750) 661-9641","sd":"27","ssbd":"14","lsbd":"School Board Nebo 1"},{"vid":"8a07ff5abdfe3f5c062baffad723b50fd33b9add2e7230e6478e9775dfd40a18","name":"Sasha O'Connell MD","party":"Dem","address":"187 N 200 E, Santaquin, UT 84655","precinct":"25SQ05","hd":"65","v_score":"11.45021068","decile":"9","lat":39.97813735530085,"lng":-111.78152381516185,"phone":"(667) 438-7334","sd":"27","ssbd":"14","lsbd":"School Board Nebo 1"},{"vid":"2012101","name":"Jaimie Schaden","party":"Rep","address":"125 E 100 N, Apt D, Santaquin, UT 84655","precinct":"25SQ05","hd":"65","v_score":"2.315214949","decile":"5","lat":39.97766420514019,"lng":-111.78278218445166,"phone":"(754) 611-0193","sd":"27","ssbd":"14","lsbd":"School Board Nebo 1"},{"vid":"bb7d2950137440edbaf2901c79548e231a74b224c96d7a2f5a9009d2c7673abf","name":"Tanja Mraz","party":"Rep","address":"180 S 200 E, Santaquin, UT 84655","precinct":"25SQ05","hd":"65","v_score":"2.817000428","decile":"6","lat":39.972761751255526,"lng":-111.78141294652679,"phone":"(880) 436-6011","sd":"27","ssbd":"14","lsbd":"School Board Nebo 1"},{"vid":"2027601","name":"Mr. Jennings Steuber","party":"","address":"171 N 100 E, Santaquin, UT 84655","precinct":"25SQ05","hd":"65","v_score":"8.421194992","decile":"8","lat":39.97837425223299,"lng":-111.78359643082291,"phone":"(751) 749-8636","sd":"27","ssbd":"14","lsbd":"School Board Nebo 1"},{"vid":"2027615","name":"Anika Dooley","party":"Rep","address":"222 W 100 S, Santaquin, UT 84655","precinct":"25SQ05","hd":"65","v_score":"4.137918904","decile":"7","lat":39.97468581647875,"lng":-111.79010957287697,"phone":"(845) 610-0280","sd":"27","ssbd":"14","lsbd":"School Board Nebo 1"},{"vid":"49dfadaf235fb42d0cf82aa6bb78ec7c6683cba854ffbfa68ab3fa3313b41ec0","name":"Patti Larson","party":"Dem","address":"638 W Frost St, Santaquin, UT 84655","precinct":"25SQ05","hd":"65","v_score":"2.660162957","decile":"5","lat":39.978852132585565,"lng":-111.7986169363152,"phone":"(772) 644-6034","sd":"27","ssbd":"14","lsbd":"School Board Nebo 1"},{"vid":"2053621","name":"Skylar McCullough","party":"","address":"41 E 100 S, Santaquin, UT 84655","precinct":"25SQ05","hd":"65","v_score":"1.121327652","decile":"3","lat":39.974400866058524,"lng":-111.7843413027174,"phone":"(558) 011-6352","sd":"27","ssbd":"14","lsbd":"School Board Nebo 1"},{"vid":"5ed3c87a37228ae3ca11f4936129aeddda6bef1ce54b817682b3a7bd1e39f4ad","name":"Odis Schumm-Olson","party":"","address":"189 N 200 E, Santaquin, UT 84655","precinct":"25SQ05","hd":"65","v_score":"0","decile":"1","lat":39.97833220963489,"lng":-111.78152461268614,"phone":"(630) 827-8383","sd":"27","ssbd":"14","lsbd":"School Board Nebo 1"},{"vid":"2061754","name":"Thompson Koch","party":"Rep","address":"113 N 300 W, Santaquin, UT 84655","precinct":"25SQ05","hd":"65","v_score":"2.958579882","decile":"6","lat":39.97735919137967,"lng":-111.79184293671044,"phone":"(780) 568-4403","sd":"27","ssbd":"14","lsbd":"School Board Nebo 1"},{"vid":"c92c9440e1080a621a77ae0850066c5a972d29aaa085a20a67e1c34c27d081dc","name":"Debbie Hartmann PhD","party":"","address":"158 S 200 E, Santaquin, UT 84655","precinct":"25SQ05","hd":"65","v_score":"12.65668843","decile":"9","lat":39.973279366384325,"lng":-111.78154634562783,"phone":"(684) 718-9190","sd":"27","ssbd":"14","lsbd":"School Board Nebo 1"},{"vid":"2084247","name":"Jaleel Wiza","party":"Dem","address":"269 W Spruce Way, Santaquin, UT 84655","precinct":"25SQ05","hd":"65","v_score":"0","decile":"1","lat":39.9765350376097,"lng":-111.79092722414747,"phone":"(331) 949-0669","sd":"27","ssbd":"14","lsbd":"School Board Nebo 1"},{"vid":"2088646","name":"Dondre Rosenbaum","party":"Dem","address":"125 W 300 N, Santaquin, UT 84655","precinct":"25SQ05","hd":"65","v_score":"3.781490609","decile":"6","lat":39.980277638891714,"lng":-111.787993982559,"phone":"(205) 173-6714","sd":"27","ssbd":"14","lsbd":"School Board Nebo 1"},{"vid":"2088796","name":"Jovan Champlin","party":"","address":"219 E 200 N, Santaquin, UT 84655","precinct":"25SQ05","hd":"65","v_score":"2.315214949","decile":"5","lat":39.97922297813088,"lng":-111.78047403745295,"phone":"(173) 955-4864","sd":"27","ssbd":"14","lsbd":"School Board Nebo 1"},{"vid":"a5fc68b8fac2cf0123c577c32ca0637accb8bdc200bc475a8578a57bbb920541","name":"Sherman Cremin","party":"","address":"123 E 100 S, Santaquin, UT 84655","precinct":"25SQ05","hd":"65","v_score":"0","decile":"1","lat":39.97427230779243,"lng":-111.78258091737423,"phone":"(363) 988-7553","sd":"27","ssbd":"14","lsbd":"School Board Nebo 1"},{"vid":"2094469","name":"Mr. Isam Rippin IV","party":"Rep","address":"113 E 200 N, Santaquin, UT 84655","precinct":"25SQ05","hd":"65","v_score":"16.75150098","decile":"9","lat":39.97944090074536,"lng":-111.7827731370821,"phone":"(537) 944-4359","sd":"27","ssbd":"14","lsbd":"School Board Nebo 1"},{"vid":"604639287a3dca29117a7e422a96bdc752c08defd1d78ccca9b4bb39639462b5","name":"Darla O'Connell","party":"Dem","address":"284 N 300 W, Santaquin, UT 84655","precinct":"25SQ05","hd":"65","v_score":"2.315214949","decile":"5","lat":39.97986617926564,"lng":-111.7913532043569,"phone":"(884) 163-0965","sd":"27","ssbd":"14","lsbd":"School Board Nebo 1"},{"vid":"2100104","name":"Kip Cummings","party":"","address":"76 S 300 W, Santaquin, UT 84655","precinct":"25SQ05","hd":"65","v_score":"2.660162957","decile":"5","lat":39.97466024108913,"lng":-111.79195359304015,"phone":"(763) 472-5992","sd":"27","ssbd":"14","lsbd":"School Board Nebo 1"},{"vid":"2111529","name":"Taryn Lubowitz PhD","party":"","address":"161 N 400 E, Santaquin, UT 84655","precinct":"25SQ05","hd":"65","v_score":"3.93832808","decile":"6","lat":39.97830109400911,"lng":-111.77730905831764,"phone":"(787) 268-7920","sd":"27","ssbd":"14","lsbd":"School Board Nebo 1"},{"vid":"2126073","name":"Fronie Crist","party":"","address":"87 S 100 E, Santaquin, UT 84655","precinct":"25SQ05","hd":"65","v_score":"2.587603312","decile":"5","lat":40.37500765760228,"lng":-111.79564532985616,"phone":"(106) 590-4523","sd":"27","ssbd":"14","lsbd":"School Board Nebo 1"},{"vid":"2134291","name":"Stephan Frami","party":"Dem","address":"150 W 200 N, Santaquin, UT 84655","precinct":"25SQ05","hd":"65","v_score":"4.409183253","decile":"7","lat":39.9793355697168,"lng":-111.78850637387157,"phone":"(673) 536-3242","sd":"27","ssbd":"14","lsbd":"School Board Nebo 1"},{"vid":"f996906c972b8f51120224c7cc0061b34f917f89e69b975f3c410aab3504639f","name":"Mahalie Bartell","party":"Dem","address":"41 E 100 S, Santaquin, UT 84655","precinct":"25SQ05","hd":"65","v_score":"1.623113131","decile":"5","lat":39.974400866058524,"lng":-111.7843413027174,"phone":"(809) 621-8628","sd":"27","ssbd":"14","lsbd":"School Board Nebo 1"},{"vid":"bcf46e20b39a4860d0faf99982dae8c9878e54a9ce2d1375fcc7357ec8940d4e","name":"Austin Rowe","party":"Dem","address":"44 E 200 N, Santaquin, UT 84655","precinct":"25SQ05","hd":"65","v_score":"8.489090786","decile":"8","lat":39.97863560869924,"lng":-111.78446617357243,"phone":"(901) 840-5462","sd":"27","ssbd":"14","lsbd":"School Board Nebo 1"},{"vid":"7c6eca7ab9a29a6d629f73c526da3976a609be3505fe12035c0f7dbb12cd606a","name":"Racheal Kozey","party":"","address":"136 N 200 W, Santaquin, UT 84655","precinct":"25SQ05","hd":"65","v_score":"2.315214949","decile":"5","lat":39.97777411912262,"lng":-111.78911363266802,"phone":"(804) 223-4494","sd":"27","ssbd":"14","lsbd":"School Board Nebo 1"},{"vid":"2160779","name":"Alek Bahringer-Luettgen","party":"Dem","address":"52 E 100 N, Santaquin, UT 84655","precinct":"25SQ05","hd":"65","v_score":"2.660162957","decile":"5","lat":39.97686138445531,"lng":-111.78403348097156,"phone":"(145) 518-1868","sd":"27","ssbd":"14","lsbd":"School Board Nebo 1"},{"vid":"2164121","name":"Gary Schumm","party":"Dem","address":"638 W Frost St, Santaquin, UT 84655","precinct":"25SQ05","hd":"65","v_score":"2.660162957","decile":"5","lat":39.978852132585565,"lng":-111.7986169363152,"phone":"(745) 464-4191","sd":"27","ssbd":"14","lsbd":"School Board Nebo 1"},{"vid":"2166325","name":"Manervia Tremblay","party":"","address":"191 N 100 W, Santaquin, UT 84655","precinct":"25SQ05","hd":"65","v_score":"3.781490609","decile":"6","lat":39.9786498695491,"lng":-111.78776899698082,"phone":"(234) 575-5151","sd":"27","ssbd":"14","lsbd":"School Board Nebo 1"},{"vid":"241e133403cbf386b92d36baa8ef02d5f9d4de2ff9dc99208414633f0dd1c566","name":"Kamryn Murazik","party":"","address":"69 E 100 N, Santaquin, UT 84655","precinct":"25SQ05","hd":"65","v_score":"5.546183193","decile":"7","lat":39.97767591887334,"lng":-111.78396435830541,"phone":"(193) 573-3045","sd":"27","ssbd":"14","lsbd":"School Board Nebo 1"},{"vid":"6c6a717ebfbef7d33f0f34daa40273f316feba3ff35424834de1f7e8582e215f","name":"Loris Walter","party":"","address":"32 N Center St, Apt B, Santaquin, UT 84655","precinct":"25SQ05","hd":"65","v_score":"5.40460374","decile":"7","lat":39.976114574367294,"lng":-111.78491689679839,"phone":"(233) 569-1239","sd":"27","ssbd":"14","lsbd":"School Board Nebo 1"},{"vid":"2172345","name":"Althea Hegmann","party":"","address":"53 E 200 N, Santaquin, UT 84655","precinct":"25SQ05","hd":"65","v_score":"11.04973188","decile":"9","lat":39.97931693146737,"lng":-111.7842113806355,"phone":"(656) 433-4583","sd":"27","ssbd":"14","lsbd":"School Board Nebo 1"},{"vid":"2174123","name":"Zayden McDermott","party":"Dem","address":"230 N Halford Ave, Santaquin, UT 84655","precinct":"25SQ05","hd":"65","v_score":"3.93832808","decile":"6","lat":39.979355111715456,"lng":-111.79896088198785,"phone":"(357) 674-3874","sd":"27","ssbd":"14","lsbd":"School Board Nebo 1"},{"vid":"ed8096d3528aa4d5c66dc27c07d1521228a32b45bad8831ec5768d0e6e5fd952","name":"Leonia Bosco","party":"","address":"130 W 100 S, Santaquin, UT 84655","precinct":"25SQ05","hd":"65","v_score":"0","decile":"1","lat":39.97428874671357,"lng":-111.78798184757717,"phone":"(584) 524-5968","sd":"27","ssbd":"14","lsbd":"School Board Nebo 1"},{"vid":"61258688015570ebd6a821cb82703fb63c42b5127458669468cd3b4e8b115fe7","name":"Hymen Kshlerin","party":"Dem","address":"258 W 100 S, Santaquin, UT 84655","precinct":"25SQ05","hd":"65","v_score":"1.193887297","decile":"3","lat":39.97434448536998,"lng":-111.79086649556386,"phone":"(482) 760-9035","sd":"27","ssbd":"14","lsbd":"School Board Nebo 1"},{"vid":"2193944","name":"Jayce Buckridge","party":"Rep","address":"350 E 100 S, Santaquin, UT 84655","precinct":"25SQ05","hd":"65","v_score":"7.849871391","decile":"8","lat":39.9735752396796,"lng":-111.77789510201269,"phone":"(710) 788-8019","sd":"27","ssbd":"14","lsbd":"School Board Nebo 1"},{"vid":"66dc4dd8b69889fe41a563db6febcf56edb9e2fb5f81f35e353b24135ea786e7","name":"Junius Halvorson","party":"","address":"337 W 200 N, Santaquin, UT 84655","precinct":"25SQ05","hd":"65","v_score":"2.315214949","decile":"5","lat":39.97862693199941,"lng":-111.79249958455578,"phone":"(248) 414-6170","sd":"27","ssbd":"14","lsbd":"School Board Nebo 1"},{"vid":"38d3d0f5a03f2b753d4f87f6f4d33c8336cc8c4f7cd893340ba0a00cec2f8f18","name":"Lazaro Reinger-Zulauf","party":"Rep","address":"340 E 300 N, Santaquin, UT 84655","precinct":"25SQ05","hd":"65","v_score":"2.958579882","decile":"6","lat":39.98026190944628,"lng":-111.77805667838959,"phone":"(899) 547-4148","sd":"27","ssbd":"14","lsbd":"School Board Nebo 1"},{"vid":"ebc13736494d01edb1ac70163b81d40c95caf61742eea616621bd8f1a7eeb5d7","name":"Betsey Schmidt","party":"","address":"210 N 350 W, Santaquin, UT 84655","precinct":"25SQ05","hd":"65","v_score":"1.193887297","decile":"3","lat":39.97933402573061,"lng":-111.79316323042296,"phone":"(115) 542-6528","sd":"27","ssbd":"14","lsbd":"School Board Nebo 1"},{"vid":"2211428","name":"Tana Blanda-Howe","party":"Dem","address":"45 E 300 S, Santaquin, UT 84655","precinct":"25SQ05","hd":"65","v_score":"1.193887297","decile":"3","lat":39.97098591653333,"lng":-111.78441350049643,"phone":"(999) 514-9718","sd":"27","ssbd":"14","lsbd":"School Board Nebo 1"},{"vid":"2211537","name":"Lindsay Fritsch MD","party":"","address":"114 N 200 E, Santaquin, UT 84655","precinct":"25SQ05","hd":"65","v_score":"0","decile":"1","lat":39.97758453656512,"lng":-111.78079048733743,"phone":"(874) 005-1150","sd":"27","ssbd":"14","lsbd":"School Board Nebo 1"},{"vid":"4468647b26d79203395fbd57762af8f5470d570b6dad1b03967f9b7547906e0c","name":"Mr. Gaylen Lynch","party":"Rep","address":"261 S 300 E, Apt C, Santaquin, UT 84655","precinct":"25SQ05","hd":"65","v_score":"6.027167436","decile":"7","lat":39.971333352372824,"lng":-111.77855684776334,"phone":"(671) 761-1173","sd":"27","ssbd":"14","lsbd":"School Board Nebo 1"},{"vid":"2219824","name":"Ozzie Smitham","party":"","address":"60 S 200 W, Santaquin, UT 84655","precinct":"25SQ05","hd":"65","v_score":"2.315214949","decile":"5","lat":39.97467529754399,"lng":-111.78982035932358,"phone":"(215) 999-0075","sd":"27","ssbd":"14","lsbd":"School Board Nebo 1"},{"vid":"2223129","name":"Shianne Sanford DDS","party":"Dem","address":"175 S 100 E, Santaquin, UT 84655","precinct":"25SQ05","hd":"65","v_score":"4.15282392","decile":"7","lat":39.97274652758626,"lng":-111.78282227043657,"phone":"(838) 727-6312","sd":"27","ssbd":"14","lsbd":"School Board Nebo 1"},{"vid":"495726c0788655da609e8e18282958d0ff262a03dbbd4418ebb9ad1999f0b1ed","name":"Dr. Isreal Rempel I","party":"Dem","address":"232 E 100 N, Santaquin, UT 84655","precinct":"25SQ05","hd":"65","v_score":"5.273794831","decile":"7","lat":39.97701627228463,"lng":-111.78015124887618,"phone":"(320) 916-5720","sd":"27","ssbd":"14","lsbd":"School Board Nebo 1"},{"vid":"2254577","name":"Ms. Esperanza Adams DDS","party":"Rep","address":"289 W Spruce Way, Santaquin, UT 84655","precinct":"25SQ05","hd":"65","v_score":"0","decile":"1","lat":39.97654262073015,"lng":-111.79126420502774,"phone":"(448) 361-8412","sd":"27","ssbd":"14","lsbd":"School Board Nebo 1"},{"vid":"4ec8cc3034de796790f00608f99e0d1a5e4681a51ded8cb6ab29b75439bcf8dc","name":"Mr. Cleo Huel","party":"Rep","address":"261 S 100 W, Santaquin, UT 84655","precinct":"25SQ05","hd":"65","v_score":"0","decile":"1","lat":39.971346183208304,"lng":-111.78693769044735,"phone":"(226) 989-5856","sd":"27","ssbd":"14","lsbd":"School Board Nebo 1"},{"vid":"684a7b6f9e08773dc4eecb01e2d50335fee1966c8610f025c8b81b1026692a77","name":"Nakita Herman PhD","party":"","address":"165 W 100 N, Unit 4, Santaquin, UT 84655","precinct":"25SQ05","hd":"65","v_score":"0","decile":"1","lat":39.97689020138252,"lng":-111.78855021902362,"phone":"(283) 345-3737","sd":"27","ssbd":"14","lsbd":"School Board Nebo 1"},{"vid":"ed82672f9a692c8b12691d10382ebb18ecfe6ef2386ebf5d689cf7f5d0b65444","name":"Delpha Towne-O'Kon","party":"","address":"138 W Main St, Santaquin, UT 84655","precinct":"25SQ05","hd":"65","v_score":"1.121327652","decile":"3","lat":39.97607588614498,"lng":-111.78821931758186,"phone":"(828) 663-5529","sd":"27","ssbd":"14","lsbd":"School Board Nebo 1"},{"vid":"cbd66a7efb05863d0ab98a180d77938fe68f0c46831de8d1c4e34da19ce8fc38","name":"Lesia Botsford","party":"","address":"460 W 500 S, Apt 4, Santaquin, UT 84655","precinct":"25SQ05","hd":"65","v_score":"1.121327652","decile":"3","lat":39.96819412648732,"lng":-111.79413043355365,"phone":"(363) 973-5272","sd":"27","ssbd":"14","lsbd":"School Board Nebo 1"},{"vid":"ac91f518465d3bb3ab3d094db289ac91181b62069adb792429f8ccefa1445bb8","name":"Ms. Danica Schuppe DVM","party":"Dem","address":"145 E 100 N, Santaquin, UT 84655","precinct":"25SQ05","hd":"65","v_score":"0","decile":"1","lat":39.977639986548304,"lng":-111.78234228279362,"phone":"(429) 798-1191","sd":"27","ssbd":"14","lsbd":"School Board Nebo 1"},{"vid":"2282092","name":"Miss Hope Herzog PhD","party":"","address":"358 E 200 S, Santaquin, UT 84655","precinct":"25SQ05","hd":"65","v_score":"2.315214949","decile":"5","lat":39.97191307646505,"lng":-111.77781999782437,"phone":"(287) 026-2758","sd":"27","ssbd":"14","lsbd":"School Board Nebo 1"},{"vid":"019db9a9e132fd1a386923bb923b3cee4f60bffbe34ec169e793639bae425e25","name":"Ms. Kiera Hermiston","party":"Dem","address":"285 N 300 E, Santaquin, UT 84655","precinct":"25SQ05","hd":"65","v_score":"0","decile":"1","lat":39.980162721273736,"lng":-111.77926724141892,"phone":"(882) 263-6479","sd":"27","ssbd":"14","lsbd":"School Board Nebo 1"},{"vid":"2295830","name":"Areli Weissnat","party":"Dem","address":"238 N 200 W, Santaquin, UT 84655","precinct":"25SQ05","hd":"65","v_score":"0","decile":"1","lat":39.9795702867417,"lng":-111.78902990357497,"phone":"(398) 882-7703","sd":"27","ssbd":"14","lsbd":"School Board Nebo 1"},{"vid":"2295834","name":"Tracey Stark","party":"","address":"238 N 200 W, Santaquin, UT 84655","precinct":"25SQ05","hd":"65","v_score":"1.121327652","decile":"3","lat":39.9795702867417,"lng":-111.78902990357497,"phone":"(606) 654-3538","sd":"27","ssbd":"14","lsbd":"School Board Nebo 1"},{"vid":"2300539","name":"Ozell Gutmann","party":"","address":"191 N 100 W, Santaquin, UT 84655","precinct":"25SQ05","hd":"65","v_score":"2.315214949","decile":"5","lat":39.9786498695491,"lng":-111.78776899698082,"phone":"(537) 439-3682","sd":"27","ssbd":"14","lsbd":"School Board Nebo 1"},{"vid":"c068c8048c8d359f086a41786c5f51c6a7d72b97928a3d014c57e19f281634f1","name":"Ms. Eleanor Douglas PhD","party":"","address":"85 N 100 E, Santaquin, UT 84655","precinct":"25SQ05","hd":"65","v_score":"1.121327652","decile":"3","lat":39.97678681730064,"lng":-111.7835047935011,"phone":"(103) 673-3872","sd":"27","ssbd":"14","lsbd":"School Board Nebo 1"},{"vid":"d70b76acd28a224b894768a2e02f778a2d705ab7062a2080d48cc85bea618b60","name":"Mr. Charlie Farrell","party":"","address":"150 E 200 N, Santaquin, UT 84655","precinct":"25SQ05","hd":"65","v_score":"0","decile":"1","lat":39.978455057835895,"lng":-111.7823598966004,"phone":"(468) 985-7238","sd":"27","ssbd":"14","lsbd":"School Board Nebo 1"},{"vid":"be289bc93977e241ef950a16267b46a9dd62c169b9e0831ac8bf3ec6f8d31312","name":"Mintie Stracke","party":"Rep","address":"235 W 300 N, # 1, Santaquin, UT 84655","precinct":"25SQ05","hd":"65","v_score":"2.315214949","decile":"5","lat":39.98015992134405,"lng":-111.79031138446378,"phone":"(595) 467-1191","sd":"27","ssbd":"14","lsbd":"School Board Nebo 1"},{"vid":"e1bde7f99535d3d9ed5287223e220cc275cedc632a4c5e6f2f03f515e7e60913","name":"Hale Satterfield-Rosenbaum","party":"Dem","address":"511 W 200 N, Santaquin, UT 84655","precinct":"25SQ05","hd":"65","v_score":"0","decile":"1","lat":39.97968501537028,"lng":-111.7961811121758,"phone":"(501) 467-8382","sd":"27","ssbd":"14","lsbd":"School Board Nebo 1"},{"vid":"2318501","name":"Leanne Pagac","party":"Dem","address":"236 E 200 S, Santaquin, UT 84655","precinct":"25SQ05","hd":"65","v_score":"3.93832808","decile":"6","lat":39.97184407719061,"lng":-111.78006103897737,"phone":"(224) 439-9856","sd":"27","ssbd":"14","lsbd":"School Board Nebo 1"},{"vid":"2336836","name":"Mr. Jere Pouros MD","party":"","address":"268 N Center St, Santaquin, UT 84655","precinct":"25SQ05","hd":"65","v_score":"1.193887297","decile":"3","lat":39.97988315231033,"lng":-111.78477884981407,"phone":"(236) 578-5396","sd":"27","ssbd":"14","lsbd":"School Board Nebo 1"},{"vid":"2344447","name":"Kayden Cruickshank","party":"Dem","address":"41 N 300 W, Santaquin, UT 84655","precinct":"25SQ05","hd":"65","v_score":"0","decile":"1","lat":39.97617602678523,"lng":-111.79192035247756,"phone":"(847) 273-8361","sd":"27","ssbd":"14","lsbd":"School Board Nebo 1"},{"vid":"2345948","name":"Dylon White","party":"","address":"227 N Halford Ave, Santaquin, UT 84655","precinct":"25SQ05","hd":"65","v_score":"2.315214949","decile":"5","lat":39.97934103913107,"lng":-111.79947702533237,"phone":"(404) 126-0594","sd":"27","ssbd":"14","lsbd":"School Board Nebo 1"},{"vid":"2347590","name":"Efrem Schiller","party":"Rep","address":"440 E Main St, Trlr 6, Santaquin, UT 84655","precinct":"25SQ05","hd":"65","v_score":"3.93832808","decile":"6","lat":39.97442344767459,"lng":-111.77597320757643,"phone":"(967) 519-4835","sd":"27","ssbd":"14","lsbd":"School Board Nebo 1"},{"vid":"2351385","name":"Marco Lowe II","party":"Dem","address":"35 E 300 S, # 2, Santaquin, UT 84655","precinct":"25SQ05","hd":"65","v_score":"1.121327652","decile":"3","lat":39.97096362134372,"lng":-111.78488476352169,"phone":"(606) 922-2346","sd":"27","ssbd":"14","lsbd":"School Board Nebo 1"},{"vid":"2367674","name":"Debbie Cole","party":"","address":"155 E 300 S, Santaquin, UT 84655","precinct":"25SQ05","hd":"65","v_score":"0","decile":"1","lat":39.971136833812686,"lng":-111.78200226722464,"phone":"(371) 752-8611","sd":"27","ssbd":"14","lsbd":"School Board Nebo 1"},{"vid":"2373410","name":"Newt Rogahn","party":"","address":"158 N 100 W, Santaquin, UT 84655","precinct":"25SQ05","hd":"65","v_score":"6.979934218","decile":"8","lat":39.978248976699135,"lng":-111.78699550422238,"phone":"(958) 303-9189","sd":"27","ssbd":"14","lsbd":"School Board Nebo 1"},{"vid":"2373456","name":"Phil Swaniawski-Swaniawski","party":"Rep","address":"440 E Main St, Trlr 22, Santaquin, UT 84655","precinct":"25SQ05","hd":"65","v_score":"1.121327652","decile":"3","lat":39.97442344767459,"lng":-111.77597320757643,"phone":"(363) 991-0457","sd":"27","ssbd":"14","lsbd":"School Board Nebo 1"},{"vid":"2376167","name":"Ronaldo Hyatt-O'Conner","party":"","address":"46 W 100 N, Santaquin, UT 84655","precinct":"25SQ05","hd":"65","v_score":"2.315214949","decile":"5","lat":39.977683841373405,"lng":-111.78614229748095,"phone":"(864) 074-4582","sd":"27","ssbd":"14","lsbd":"School Board Nebo 1"},{"vid":"2378688","name":"Michell Murray","party":"Dem","address":"75 S 300 W, Santaquin, UT 84655","precinct":"25SQ05","hd":"65","v_score":"2.315214949","decile":"5","lat":39.974567811433594,"lng":-111.79068973825076,"phone":"(982) 868-0932","sd":"27","ssbd":"14","lsbd":"School Board Nebo 1"},{"vid":"2380818","name":"Kali Ryan","party":"","address":"350 S 300 W, Santaquin, UT 84655","precinct":"25SQ05","hd":"65","v_score":"1.121327652","decile":"3","lat":39.96998562221939,"lng":-111.79140637725551,"phone":"(480) 965-4441","sd":"27","ssbd":"14","lsbd":"School Board Nebo 1"},{"vid":"2386619","name":"Shanon Denesik","party":"","address":"62 E 200 N, Santaquin, UT 84655","precinct":"25SQ05","hd":"65","v_score":"2.744440783","decile":"5","lat":39.978428106452554,"lng":-111.78412223909021,"phone":"(303) 726-1732","sd":"27","ssbd":"14","lsbd":"School Board Nebo 1"},{"vid":"2387264","name":"Miss Genevra Stehr DDS","party":"","address":"345 W 200 N, Santaquin, UT 84655","precinct":"25SQ05","hd":"65","v_score":"2.315214949","decile":"5","lat":39.97862669107175,"lng":-111.79278882177537,"phone":"(519) 525-3658","sd":"27","ssbd":"14","lsbd":"School Board Nebo 1"},{"vid":"2387563","name":"Hildred Breitenberg","party":"Rep","address":"175 S 300 W, Santaquin, UT 84655","precinct":"25SQ05","hd":"65","v_score":"8.373412339","decile":"8","lat":39.972828396784976,"lng":-111.7907847159636,"phone":"(559) 863-6050","sd":"27","ssbd":"14","lsbd":"School Board Nebo 1"},{"vid":"2391568","name":"Toya Altenwerth","party":"","address":"273 W 100 N, Santaquin, UT 84655","precinct":"25SQ05","hd":"65","v_score":"2.315214949","decile":"5","lat":39.9770639975854,"lng":-111.79098771436308,"phone":"(866) 284-3114","sd":"27","ssbd":"14","lsbd":"School Board Nebo 1"},{"vid":"2392403","name":"Kip Feil","party":"Dem","address":"280 W 200 N, Santaquin, UT 84655","precinct":"25SQ05","hd":"65","v_score":"2.315214949","decile":"5","lat":40.11270344381335,"lng":-111.65946540433751,"phone":"(293) 769-3597","sd":"27","ssbd":"14","lsbd":"School Board Nebo 1"},{"vid":"2407237","name":"Ms. Adalynn O'Kon MD","party":"","address":"223 N Madison Ave, Santaquin, UT 84655","precinct":"25SQ05","hd":"65","v_score":"3.93832808","decile":"6","lat":39.979281484275035,"lng":-111.79790169165442,"phone":"(846) 662-6927","sd":"27","ssbd":"14","lsbd":"School Board Nebo 1"},{"vid":"2408474","name":"Miss Berdie Purdy PhD","party":"Dem","address":"53 E 200 N, Santaquin, UT 84655","precinct":"25SQ05","hd":"65","v_score":"6.027167436","decile":"7","lat":39.97931693146737,"lng":-111.7842113806355,"phone":"(176) 949-0526","sd":"27","ssbd":"14","lsbd":"School Board Nebo 1"},{"vid":"2421626","name":"Dylan Graham DVM","party":"Dem","address":"440 W Main St, Trlr 9, Santaquin, UT 84655","precinct":"25SQ05","hd":"65","v_score":"2.315214949","decile":"5","lat":39.97682427566856,"lng":-111.79489450298476,"phone":"(760) 885-1997","sd":"27","ssbd":"14","lsbd":"School Board Nebo 1"},{"vid":"2424888","name":"Yamilex Cormier","party":"","address":"440 W Main St, Trlr 19, Santaquin, UT 84655","precinct":"25SQ05","hd":"65","v_score":"2.315214949","decile":"5","lat":39.97682427566856,"lng":-111.79489450298476,"phone":"(587) 195-4210","sd":"27","ssbd":"14","lsbd":"School Board Nebo 1"},{"vid":"2434386","name":"Meyer Marks","party":"Rep","address":"187 N 400 E, Santaquin, UT 84655","precinct":"25SQ05","hd":"65","v_score":"0","decile":"1","lat":39.97859758507507,"lng":-111.77719405442934,"phone":"(171) 098-2774","sd":"27","ssbd":"14","lsbd":"School Board Nebo 1"},{"vid":"2439704","name":"Carleton Hermann-Simonis","party":"Rep","address":"440 W Main St, Trlr 14, Santaquin, UT 84655","precinct":"25SQ05","hd":"65","v_score":"2.315214949","decile":"5","lat":39.97682427566856,"lng":-111.79489450298476,"phone":"(718) 251-6685","sd":"27","ssbd":"14","lsbd":"School Board Nebo 1"},{"vid":"2439717","name":"Dr. Khiry Ratke Sr.","party":"Rep","address":"440 W Main St, Trlr 14, Santaquin, UT 84655","precinct":"25SQ05","hd":"65","v_score":"2.315214949","decile":"5","lat":39.97682427566856,"lng":-111.79489450298476,"phone":"(624) 238-9972","sd":"27","ssbd":"14","lsbd":"School Board Nebo 1"},{"vid":"2439868","name":"Stevie Collins","party":"Rep","address":"686 W Frost St, Santaquin, UT 84655","precinct":"25SQ05","hd":"65","v_score":"0","decile":"1","lat":39.97951609689496,"lng":-111.79962555688802,"phone":"(412) 973-9753","sd":"27","ssbd":"14","lsbd":"School Board Nebo 1"},{"vid":"2440547","name":"Fidencio Ledner","party":"","address":"134 N 100 W, Santaquin, UT 84655","precinct":"25SQ05","hd":"65","v_score":"0","decile":"1","lat":39.97796514921234,"lng":-111.78702455448104,"phone":"(507) 032-6884","sd":"27","ssbd":"14","lsbd":"School Board Nebo 1"},{"vid":"2443354","name":"Meryl Mante","party":"","address":"241 W Spruce Way, Santaquin, UT 84655","precinct":"25SQ05","hd":"65","v_score":"1.121327652","decile":"3","lat":39.97652715063482,"lng":-111.79042123315165,"phone":"(107) 294-4653","sd":"27","ssbd":"14","lsbd":"School Board Nebo 1"},{"vid":"2446657","name":"Tarah Hartmann","party":"Dem","address":"44 E 200 N, Santaquin, UT 84655","precinct":"25SQ05","hd":"65","v_score":"2.315214949","decile":"5","lat":39.97863560869924,"lng":-111.78446617357243,"phone":"(736) 728-7339","sd":"27","ssbd":"14","lsbd":"School Board Nebo 1"},{"vid":"2447034","name":"Thyra Jacobi","party":"","address":"60 S 200 W, Santaquin, UT 84655","precinct":"25SQ05","hd":"65","v_score":"2.315214949","decile":"5","lat":39.97467529754399,"lng":-111.78982035932358,"phone":"(629) 300-8846","sd":"27","ssbd":"14","lsbd":"School Board Nebo 1"},{"vid":"2447062","name":"Cherie Feest","party":"","address":"440 W Main St, Trlr 23, Santaquin, UT 84655","precinct":"25SQ05","hd":"65","v_score":"1.121327652","decile":"3","lat":39.97682427566856,"lng":-111.79489450298476,"phone":"(498) 067-8399","sd":"27","ssbd":"14","lsbd":"School Board Nebo 1"},{"vid":"2458012","name":"Jaxton Armstrong-Fisher","party":"","address":"185 W 100 N, Santaquin, UT 84655","precinct":"25SQ05","hd":"65","v_score":"3.93832808","decile":"6","lat":39.976957333628185,"lng":-111.78887050148042,"phone":"(981) 880-0130","sd":"27","ssbd":"14","lsbd":"School Board Nebo 1"},{"vid":"2460167","name":"Dr. Elige Brown","party":"Rep","address":"440 E Main St, Trlr 27, Santaquin, UT 84655","precinct":"25SQ05","hd":"65","v_score":"0","decile":"1","lat":39.97442344767459,"lng":-111.77597320757643,"phone":"(213) 061-9884","sd":"27","ssbd":"14","lsbd":"School Board Nebo 1"},{"vid":"2474364","name":"Mr. Calhoun Schaden I","party":"","address":"37 S 400 W, Santaquin, UT 84655","precinct":"25SQ05","hd":"65","v_score":"0","decile":"1","lat":39.97524463389165,"lng":-111.79282507778024,"phone":"(609) 450-7028","sd":"27","ssbd":"14","lsbd":"School Board Nebo 1"},{"vid":"2483182","name":"Whitley Farrell","party":"Dem","address":"76 S 300 W, Santaquin, UT 84655","precinct":"25SQ05","hd":"65","v_score":"0","decile":"1","lat":39.97466024108913,"lng":-111.79195359304015,"phone":"(836) 222-6604","sd":"27","ssbd":"14","lsbd":"School Board Nebo 1"},{"vid":"2486213","name":"Mrs. Lavinia Osinski MD","party":"Rep","address":"310 W 500 S, Santaquin, UT 84655","precinct":"25SQ05","hd":"65","v_score":"2.817000428","decile":"6","lat":39.968145618811164,"lng":-111.79183629927239,"phone":"(684) 302-3940","sd":"27","ssbd":"14","lsbd":"School Board Nebo 1"},{"vid":"2494432","name":"Abram Spencer","party":"Rep","address":"111 N 200 W, Santaquin, UT 84655","precinct":"25SQ05","hd":"65","v_score":"1.193887297","decile":"3","lat":39.97756176965027,"lng":-111.78994861672462,"phone":"(973) 698-1173","sd":"27","ssbd":"14","lsbd":"School Board Nebo 1"},{"vid":"2494563","name":"Dr. Tameka Orn DDS","party":"Dem","address":"410 W 30 S, Santaquin, UT 84655","precinct":"25SQ05","hd":"65","v_score":"3.781490609","decile":"6","lat":39.97540324222885,"lng":-111.7933029485506,"phone":"(596) 318-1929","sd":"27","ssbd":"14","lsbd":"School Board Nebo 1"},{"vid":"2503277","name":"Dr. Aurthur Greenholt","party":"Dem","address":"45 S 300 E, Santaquin, UT 84655","precinct":"25SQ05","hd":"65","v_score":"0","decile":"1","lat":39.97499836674424,"lng":-111.77858037517964,"phone":"(139) 536-6354","sd":"27","ssbd":"14","lsbd":"School Board Nebo 1"},{"vid":"2504298","name":"Lamarcus Rau-Dickinson","party":"Rep","address":"261 S 300 E, Santaquin, UT 84655","precinct":"25SQ05","hd":"65","v_score":"1.193887297","decile":"3","lat":39.971333352372824,"lng":-111.77855684776334,"phone":"(138) 379-9107","sd":"27","ssbd":"14","lsbd":"School Board Nebo 1"},{"vid":"2513140","name":"Blanchie Keebler","party":"Dem","address":"158 S 400 E, Santaquin, UT 84655","precinct":"25SQ05","hd":"65","v_score":"0","decile":"1","lat":39.97307767415537,"lng":-111.77730572633793,"phone":"(442) 506-9085","sd":"27","ssbd":"14","lsbd":"School Board Nebo 1"},{"vid":"2516324","name":"Mr. Con Schmeler I","party":"Dem","address":"230 S 200 W, Santaquin, UT 84655","precinct":"25SQ05","hd":"65","v_score":"1.193887297","decile":"4","lat":39.97171040868558,"lng":-111.78990558885978,"phone":"(314) 650-6430","sd":"27","ssbd":"14","lsbd":"School Board Nebo 1"},{"vid":"2518678","name":"Severo Rosenbaum-Hansen","party":"Dem","address":"180 S 300 E, Santaquin, UT 84655","precinct":"25SQ05","hd":"65","v_score":"1.193887297","decile":"4","lat":39.97295284822714,"lng":-111.77940507065162,"phone":"(115) 126-8295","sd":"27","ssbd":"14","lsbd":"School Board Nebo 1"},{"vid":"2521286","name":"Arvo Balistreri PhD","party":"Dem","address":"161 N 400 E, Santaquin, UT 84655","precinct":"25SQ05","hd":"65","v_score":"2.817000428","decile":"6","lat":39.97830109400911,"lng":-111.77730905831764,"phone":"(997) 107-4042","sd":"27","ssbd":"14","lsbd":"School Board Nebo 1"},{"vid":"2526185","name":"Elsworth Pagac","party":"Dem","address":"225 N 100 W, Santaquin, UT 84655","precinct":"25SQ05","hd":"65","v_score":"0","decile":"1","lat":39.9796038586005,"lng":-111.78762514741874,"phone":"(921) 878-8105","sd":"27","ssbd":"14","lsbd":"School Board Nebo 1"},{"vid":"2527453","name":"Nona Schroeder-Swift","party":"","address":"180 S 300 E, Santaquin, UT 84655","precinct":"25SQ05","hd":"65","v_score":"0","decile":"1","lat":39.97295284822714,"lng":-111.77940507065162,"phone":"(856) 887-8331","sd":"27","ssbd":"14","lsbd":"School Board Nebo 1"},{"vid":"2542607","name":"Delilah Eichmann","party":"","address":"290 E Main St, Santaquin, UT 84655","precinct":"25SQ05","hd":"65","v_score":"1.193887297","decile":"4","lat":39.97538674212171,"lng":-111.77933367039687,"phone":"(242) 467-6209","sd":"27","ssbd":"14","lsbd":"School Board Nebo 1"},{"vid":"2553468","name":"Odalys Harber","party":"Rep","address":"125 E 100 N, Apt B, Santaquin, UT 84655","precinct":"25SQ05","hd":"65","v_score":"0","decile":"1","lat":39.97766420514019,"lng":-111.78278218445166,"phone":"(850) 486-6716","sd":"27","ssbd":"14","lsbd":"School Board Nebo 1"},{"vid":"2556666","name":"Jerica Smitham","party":"","address":"37 S 400 W, Santaquin, UT 84655","precinct":"25SQ05","hd":"65","v_score":"2.817000428","decile":"6","lat":39.97524463389165,"lng":-111.79282507778024,"phone":"(702) 854-3128","sd":"27","ssbd":"14","lsbd":"School Board Nebo 1"},{"vid":"2562716","name":"Coen Keebler","party":"Rep","address":"155 N Center St, Santaquin, UT 84655","precinct":"25SQ05","hd":"65","v_score":"1.193887297","decile":"4","lat":39.9783005277772,"lng":-111.78561400688619,"phone":"(734) 778-9139","sd":"27","ssbd":"14","lsbd":"School Board Nebo 1"},{"vid":"2562976","name":"Toma Boehm","party":"Rep","address":"155 N Center St, Santaquin, UT 84655","precinct":"25SQ05","hd":"65","v_score":"1.193887297","decile":"4","lat":39.9783005277772,"lng":-111.78561400688619,"phone":"(675) 030-9618","sd":"27","ssbd":"14","lsbd":"School Board Nebo 1"},{"vid":"2573188","name":"Lorenza Von","party":"Rep","address":"150 E 100 S, Santaquin, UT 84655","precinct":"25SQ05","hd":"65","v_score":"0","decile":"1","lat":39.973357217814865,"lng":-111.78219985362202,"phone":"(765) 212-1198","sd":"27","ssbd":"14","lsbd":"School Board Nebo 1"},{"vid":"2574297","name":"Dr. Lauren Nader MD","party":"","address":"201 N Cardinal St, Santaquin, UT 84655","precinct":"25SQ05","hd":"65","v_score":"1.193887297","decile":"4","lat":39.97897746892689,"lng":-111.79734539117842,"phone":"(601) 827-2272","sd":"27","ssbd":"14","lsbd":"School Board Nebo 1"},{"vid":"2578160","name":"Sky Will","party":"Dem","address":"267 S 300 W, Santaquin, UT 84655","precinct":"25SQ05","hd":"65","v_score":"2.817000428","decile":"6","lat":39.971189731060875,"lng":-111.79060257264445,"phone":"(833) 770-8010","sd":"27","ssbd":"14","lsbd":"School Board Nebo 1"},{"vid":"2579972","name":"Winnie Maggio-Schmeler","party":"","address":"65 W 100 N, Santaquin, UT 84655","precinct":"25SQ05","hd":"65","v_score":"1.193887297","decile":"4","lat":39.976824267346785,"lng":-111.78661757334046,"phone":"(716) 893-9509","sd":"27","ssbd":"14","lsbd":"School Board Nebo 1"},{"vid":"2594070","name":"Angelo Marquardt","party":"Dem","address":"222 W 100 S, Santaquin, UT 84655","precinct":"25SQ05","hd":"65","v_score":"0","decile":"1","lat":39.97468581647875,"lng":-111.79010957287697,"phone":"(137) 848-6867","sd":"27","ssbd":"14","lsbd":"School Board Nebo 1"},{"vid":"2596468","name":"Raina Sipes-Marvin","party":"","address":"286 W 200 S, Santaquin, UT 84655","precinct":"25SQ05","hd":"65","v_score":"2.817000428","decile":"6","lat":39.972589602483126,"lng":-111.7905773346562,"phone":"(273) 234-5794","sd":"27","ssbd":"14","lsbd":"School Board Nebo 1"},{"vid":"2612767","name":"Kaye Schultz","party":"","address":"339 W Main St, Santaquin, UT 84655","precinct":"25SQ05","hd":"65","v_score":"0","decile":"1","lat":39.97541072849948,"lng":-111.79220499176019,"phone":"(177) 828-1634","sd":"27","ssbd":"14","lsbd":"School Board Nebo 1"},{"vid":"2624824","name":"Jessy Jerde","party":"","address":"150 E 200 N, Santaquin, UT 84655","precinct":"25SQ05","hd":"65","v_score":"1.193887297","decile":"4","lat":39.978455057835895,"lng":-111.7823598966004,"phone":"(620) 608-2158","sd":"27","ssbd":"14","lsbd":"School Board Nebo 1"},{"vid":"2633493","name":"Gerardo Schaden","party":"Rep","address":"290 E Main St, Santaquin, UT 84655","precinct":"25SQ05","hd":"65","v_score":"1.193887297","decile":"4","lat":39.97538674212171,"lng":-111.77933367039687,"phone":"(842) 046-9202","sd":"27","ssbd":"14","lsbd":"School Board Nebo 1"},{"vid":"2648031","name":"Raheem Brakus","party":"Rep","address":"360 E 200 N, Santaquin, UT 84655","precinct":"25SQ05","hd":"65","v_score":"1.193887297","decile":"4","lat":39.978626319630116,"lng":-111.77773296221244,"phone":"(223) 062-2159","sd":"27","ssbd":"14","lsbd":"School Board Nebo 1"},{"vid":"2649394","name":"Jaidyn Kerluke","party":"Rep","address":"130 N 100 E, Santaquin, UT 84655","precinct":"25SQ05","hd":"65","v_score":"0","decile":"1","lat":39.97769486802711,"lng":-111.7829097160396,"phone":"(133) 361-2984","sd":"27","ssbd":"14","lsbd":"School Board Nebo 1"},{"vid":"2653866","name":"Rona Jones","party":"Dem","address":"324 W Main St, Santaquin, UT 84655","precinct":"25SQ05","hd":"65","v_score":"0","decile":"1","lat":39.975891509180336,"lng":-111.79202837542947,"phone":"(656) 230-4737","sd":"27","ssbd":"14","lsbd":"School Board Nebo 1"},{"vid":"2658885","name":"Loren Ebert-Ullrich","party":"Rep","address":"250 N 350 W, Santaquin, UT 84655","precinct":"25SQ05","hd":"65","v_score":"4.905839784","decile":"7","lat":39.97978138501712,"lng":-111.79316631505799,"phone":"(105) 851-1759","sd":"27","ssbd":"14","lsbd":"School Board Nebo 1"},{"vid":"2660986","name":"Myrtis Strosin","party":"Dem","address":"41 E 100 S, Santaquin, UT 84655","precinct":"25SQ05","hd":"65","v_score":"0","decile":"1","lat":39.974400866058524,"lng":-111.7843413027174,"phone":"(659) 384-4777","sd":"27","ssbd":"14","lsbd":"School Board Nebo 1"},{"vid":"2661022","name":"Dr. Cindi Wisozk MD","party":"Rep","address":"88 N 300 E, Santaquin, UT 84655","precinct":"25SQ05","hd":"65","v_score":"0","decile":"1","lat":39.97699300885762,"lng":-111.77843476851288,"phone":"(741) 644-9964","sd":"27","ssbd":"14","lsbd":"School Board Nebo 1"},{"vid":"2664060","name":"Kelsey Bode","party":"Rep","address":"237 S 200 E, Santaquin, UT 84655","precinct":"25SQ05","hd":"65","v_score":"0","decile":"1","lat":39.97181382109976,"lng":-111.7807866721924,"phone":"(381) 413-8254","sd":"27","ssbd":"14","lsbd":"School Board Nebo 1"},{"vid":"2664951","name":"Missy Klein","party":"","address":"236 N 300 W, Santaquin, UT 84655","precinct":"25SQ05","hd":"65","v_score":"1.193887297","decile":"4","lat":39.97941784258572,"lng":-111.79138694615693,"phone":"(735) 329-2191","sd":"27","ssbd":"14","lsbd":"School Board Nebo 1"},{"vid":"2665788","name":"Montie King-Stamm","party":"","address":"222 W 100 S, Santaquin, UT 84655","precinct":"25SQ05","hd":"65","v_score":"1.193887297","decile":"4","lat":39.97468581647875,"lng":-111.79010957287697,"phone":"(199) 396-6877","sd":"27","ssbd":"14","lsbd":"School Board Nebo 1"},{"vid":"2666692","name":"York Littel IV","party":"Dem","address":"86 N 300 W, Santaquin, UT 84655","precinct":"25SQ05","hd":"65","v_score":"0","decile":"1","lat":39.97698750263351,"lng":-111.79141910566443,"phone":"(652) 433-6096","sd":"27","ssbd":"14","lsbd":"School Board Nebo 1"},{"vid":"2667907","name":"Jahir Marks","party":"","address":"196 W 100 N, Santaquin, UT 84655","precinct":"25SQ05","hd":"65","v_score":"0","decile":"1","lat":39.97755456648855,"lng":-111.78911520220447,"phone":"(207) 705-9687","sd":"27","ssbd":"14","lsbd":"School Board Nebo 1"},{"vid":"2667912","name":"Adrain Kemmer V","party":"Dem","address":"55 N 200 W, Santaquin, UT 84655","precinct":"25SQ05","hd":"65","v_score":"0","decile":"1","lat":39.976681301962,"lng":-111.78993802019751,"phone":"(746) 004-3613","sd":"27","ssbd":"14","lsbd":"School Board Nebo 1"},{"vid":"2667927","name":"Thelma Hagenes","party":"","address":"35 E 300 S, Apt 1, Santaquin, UT 84655","precinct":"25SQ05","hd":"65","v_score":"1.193887297","decile":"4","lat":39.97096362134372,"lng":-111.78488476352169,"phone":"(953) 358-2921","sd":"27","ssbd":"14","lsbd":"School Board Nebo 1"},{"vid":"2668596","name":"Lonnie Hermann","party":"Dem","address":"290 E Main St, Santaquin, UT 84655","precinct":"25SQ05","hd":"65","v_score":"4.905839784","decile":"7","lat":39.97538674212171,"lng":-111.77933367039687,"phone":"(476) 664-2759","sd":"27","ssbd":"14","lsbd":"School Board Nebo 1"},{"vid":"2671543","name":"Felicitas McGlynn","party":"","address":"245 W 100 N, Santaquin, UT 84655","precinct":"25SQ05","hd":"65","v_score":"0","decile":"2","lat":39.976989021615644,"lng":-111.79047304222803,"phone":"(791) 052-6794","sd":"27","ssbd":"14","lsbd":"School Board Nebo 1"},{"vid":"2674598","name":"Sada Kemmer-Hudson","party":"Rep","address":"160 S 200 W, Santaquin, UT 84655","precinct":"25SQ05","hd":"65","v_score":"4.905839784","decile":"7","lat":39.97301414941932,"lng":-111.78990308651272,"phone":"(277) 338-4697","sd":"27","ssbd":"14","lsbd":"School Board Nebo 1"},{"vid":"2676379","name":"Bartholomew Swaniawski-Heathcote","party":"Rep","address":"237 E 200 N, Santaquin, UT 84655","precinct":"25SQ05","hd":"65","v_score":"0","decile":"2","lat":39.97928594007645,"lng":-111.7802166363474,"phone":"(637) 304-2204","sd":"27","ssbd":"14","lsbd":"School Board Nebo 1"},{"vid":"2677513","name":"Darryn Moore","party":"Rep","address":"180 N 300 W, Santaquin, UT 84655","precinct":"25SQ05","hd":"65","v_score":"0","decile":"2","lat":39.978418092681885,"lng":-111.79125032210402,"phone":"(716) 282-5115","sd":"27","ssbd":"14","lsbd":"School Board Nebo 1"},{"vid":"2683324","name":"Pranav Beatty","party":"Rep","address":"80 E 200 S, Santaquin, UT 84655","precinct":"25SQ05","hd":"65","v_score":"0","decile":"2","lat":39.97201079992631,"lng":-111.78356549014958,"phone":"(664) 858-9189","sd":"27","ssbd":"14","lsbd":"School Board Nebo 1"},{"vid":"2683960","name":"Landin Kertzmann","party":"Rep","address":"344 E 200 S, Santaquin, UT 84655","precinct":"25SQ05","hd":"65","v_score":"1.193887297","decile":"4","lat":39.97173127930049,"lng":-111.77806070451034,"phone":"(928) 002-2309","sd":"27","ssbd":"14","lsbd":"School Board Nebo 1"},{"vid":"2685468","name":"Mr. Marcelo Lockman","party":"Dem","address":"236 N 300 W, Santaquin, UT 84655","precinct":"25SQ05","hd":"65","v_score":"0","decile":"2","lat":39.97941784258572,"lng":-111.79138694615693,"phone":"(904) 633-2791","sd":"27","ssbd":"14","lsbd":"School Board Nebo 1"},{"vid":"2686779","name":"Virgle Nikolaus","party":"Dem","address":"328 W Main St, Santaquin, UT 84655","precinct":"25SQ05","hd":"65","v_score":"0","decile":"2","lat":39.97589150064429,"lng":-111.79208624436109,"phone":"(649) 313-7208","sd":"27","ssbd":"14","lsbd":"School Board Nebo 1"},{"vid":"2688121","name":"Ayesha O'Reilly DDS","party":"","address":"41 E 100 S, Santaquin, UT 84655","precinct":"25SQ05","hd":"65","v_score":"0","decile":"2","lat":39.974400866058524,"lng":-111.7843413027174,"phone":"(939) 406-1348","sd":"27","ssbd":"14","lsbd":"School Board Nebo 1"},{"vid":"2688479","name":"Kael Johnson","party":"Rep","address":"61 W 200 S, Santaquin, UT 84655","precinct":"25SQ05","hd":"65","v_score":"0","decile":"2","lat":39.97189973712203,"lng":-111.78655740861443,"phone":"(846) 588-0392","sd":"27","ssbd":"14","lsbd":"School Board Nebo 1"},{"vid":"2689062","name":"Dr. Sonny Feest","party":"","address":"268 W 100 S, Santaquin, UT 84655","precinct":"25SQ05","hd":"65","v_score":"0","decile":"2","lat":39.974223883784404,"lng":-111.79102750781921,"phone":"(226) 167-7386","sd":"27","ssbd":"14","lsbd":"School Board Nebo 1"},{"vid":"2689756","name":"Mrs. Josie Reinger MD","party":"Dem","address":"112 N Center St, Santaquin, UT 84655","precinct":"25SQ05","hd":"65","v_score":"1.193887297","decile":"4","lat":39.97754806009992,"lng":-111.78484928509853,"phone":"(930) 610-2376","sd":"27","ssbd":"14","lsbd":"School Board Nebo 1"},{"vid":"2692651","name":"Mr. Nile Stanton","party":"Rep","address":"290 W Main St, Santaquin, UT 84655","precinct":"25SQ05","hd":"65","v_score":"0","decile":"2","lat":39.975917407694865,"lng":-111.79114800309485,"phone":"(427) 819-4365","sd":"27","ssbd":"14","lsbd":"School Board Nebo 1"},{"vid":"2692986","name":"Mr. Stanislaus O'Connell MD","party":"Rep","address":"45 S 400 W, Santaquin, UT 84655","precinct":"25SQ05","hd":"65","v_score":"1.193887297","decile":"4","lat":39.975199477252616,"lng":-111.79255648546285,"phone":"(145) 780-0750","sd":"27","ssbd":"14","lsbd":"School Board Nebo 1"},{"vid":"2693309","name":"Dr. Clotilde Murphy DDS","party":"","address":"294 W 200 S, Santaquin, UT 84655","precinct":"25SQ05","hd":"65","v_score":"1.193887297","decile":"4","lat":39.97259016221902,"lng":-111.79071039149913,"phone":"(986) 934-4618","sd":"27","ssbd":"14","lsbd":"School Board Nebo 1"},{"vid":"2695772","name":"Dr. Lex Gleichner II","party":"Rep","address":"355 E 200 N, Santaquin, UT 84655","precinct":"25SQ05","hd":"65","v_score":"0","decile":"2","lat":39.979279853062785,"lng":-111.77776648931514,"phone":"(170) 353-2003","sd":"27","ssbd":"14","lsbd":"School Board Nebo 1"},{"vid":"2695793","name":"Jerome Von","party":"","address":"355 E 200 N, Santaquin, UT 84655","precinct":"25SQ05","hd":"65","v_score":"0","decile":"2","lat":39.979279853062785,"lng":-111.77776648931514,"phone":"(347) 568-8141","sd":"27","ssbd":"14","lsbd":"School Board Nebo 1"},{"vid":"2705475","name":"Alden Doyle","party":"Rep","address":"311 W 300 N, Santaquin, UT 84655","precinct":"25SQ05","hd":"65","v_score":"6.462591196","decile":"7","lat":39.98039186372426,"lng":-111.79184434363046,"phone":"(644) 066-5362","sd":"27","ssbd":"14","lsbd":"School Board Nebo 1"},{"vid":"2710515","name":"Kathie Volkman","party":"Rep","address":"324 W Main St, Santaquin, UT 84655","precinct":"25SQ05","hd":"65","v_score":"0","decile":"2","lat":39.975891509180336,"lng":-111.79202837542947,"phone":"(446) 417-0512","sd":"27","ssbd":"14","lsbd":"School Board Nebo 1"},{"vid":"2713825","name":"Terrie Simonis","party":"","address":"185 E 200 S, Santaquin, UT 84655","precinct":"25SQ05","hd":"65","v_score":"0","decile":"2","lat":39.97254660152528,"lng":-111.78141624298456,"phone":"(740) 511-5899","sd":"27","ssbd":"14","lsbd":"School Board Nebo 1"},{"vid":"2714651","name":"Noma Wehner-O'Hara","party":"Rep","address":"111 N 200 W, Santaquin, UT 84655","precinct":"25SQ05","hd":"65","v_score":"1.193887297","decile":"4","lat":39.97756176965027,"lng":-111.78994861672462,"phone":"(427) 729-6065","sd":"27","ssbd":"14","lsbd":"School Board Nebo 1"},{"vid":"2714722","name":"Dr. Maebelle Tillman DDS","party":"Dem","address":"210 N 350 W, Santaquin, UT 84655","precinct":"25SQ05","hd":"65","v_score":"1.193887297","decile":"4","lat":39.97933402573061,"lng":-111.79316323042296,"phone":"(375) 240-6394","sd":"27","ssbd":"14","lsbd":"School Board Nebo 1"},{"vid":"2716255","name":"Shannon Howe","party":"Rep","address":"298 W 200 S, Santaquin, UT 84655","precinct":"25SQ05","hd":"65","v_score":"0","decile":"2","lat":39.97260459995762,"lng":-111.79078954898867,"phone":"(703) 402-4718","sd":"27","ssbd":"14","lsbd":"School Board Nebo 1"},{"vid":"2726810","name":"Melanie Braun","party":"Dem","address":"185 S Center St, Santaquin, UT 84655","precinct":"25SQ05","hd":"65","v_score":"0","decile":"2","lat":39.97263418151384,"lng":-111.78482530690763,"phone":"(986) 462-0793","sd":"27","ssbd":"14","lsbd":"School Board Nebo 1"},{"vid":"2729252","name":"Britny O'Reilly","party":"Dem","address":"370 E 100 S, Santaquin, UT 84655","precinct":"25SQ05","hd":"65","v_score":"1.193887297","decile":"4","lat":39.97366619447382,"lng":-111.77748859709898,"phone":"(593) 625-3407","sd":"27","ssbd":"14","lsbd":"School Board Nebo 1"},{"vid":"2729272","name":"Kendal Kling","party":"","address":"375 E 200 N, Santaquin, UT 84655","precinct":"25SQ05","hd":"65","v_score":"0","decile":"2","lat":39.97909926480281,"lng":-111.77720196014283,"phone":"(720) 924-1340","sd":"27","ssbd":"14","lsbd":"School Board Nebo 1"},{"vid":"2732164","name":"Barnie Abernathy PhD","party":"","address":"35 E 300 S, Santaquin, UT 84655","precinct":"25SQ05","hd":"65","v_score":"1.193887297","decile":"4","lat":39.97096362134372,"lng":-111.78488476352169,"phone":"(329) 241-0851","sd":"27","ssbd":"14","lsbd":"School Board Nebo 1"},{"vid":"2735651","name":"Dr. Burdette Mante","party":"","address":"268 N Center St, Santaquin, UT 84655","precinct":"25SQ05","hd":"65","v_score":"1.193887297","decile":"4","lat":39.97988315231033,"lng":-111.78477884981407,"phone":"(651) 306-3065","sd":"27","ssbd":"14","lsbd":"School Board Nebo 1"},{"vid":"2741163","name":"Juwan Dietrich","party":"Dem","address":"210 N 350 W, Santaquin, UT 84655","precinct":"25SQ05","hd":"65","v_score":"0","decile":"2","lat":39.97933402573061,"lng":-111.79316323042296,"phone":"(757) 231-1893","sd":"27","ssbd":"14","lsbd":"School Board Nebo 1"},{"vid":"2753755","name":"Jacalyn Hermann","party":"Rep","address":"41 S 200 E, Apt 4, Santaquin, UT 84655","precinct":"25SQ05","hd":"65","v_score":"0","decile":"2","lat":39.97472828310003,"lng":-111.78068671233883,"phone":"(439) 797-6217","sd":"27","ssbd":"14","lsbd":"School Board Nebo 1"},{"vid":"2775513","name":"Gwenda Donnelly","party":"Dem","address":"226 E 200 S, Santaquin, UT 84655","precinct":"25SQ05","hd":"65","v_score":"1.193887297","decile":"4","lat":39.97195767465581,"lng":-111.78053830682965,"phone":"(318) 285-4223","sd":"27","ssbd":"14","lsbd":"School Board Nebo 1"},{"vid":"2777969","name":"Mr. Diamond Champlin Jr.","party":"Dem","address":"125 W 300 N, Santaquin, UT 84655","precinct":"25SQ05","hd":"65","v_score":"1.193887297","decile":"4","lat":39.980277638891714,"lng":-111.787993982559,"phone":"(933) 348-6387","sd":"27","ssbd":"14","lsbd":"School Board Nebo 1"},{"vid":"2785088","name":"Blaise Marks V","party":"Dem","address":"440 W Main St, Trlr 20, Santaquin, UT 84655","precinct":"25SQ05","hd":"65","v_score":"1.193887297","decile":"4","lat":39.97682427566856,"lng":-111.79489450298476,"phone":"(591) 843-1884","sd":"27","ssbd":"14","lsbd":"School Board Nebo 1"},{"vid":"2790866","name":"Shyann Bradtke","party":"Rep","address":"45 S 400 W, Santaquin, UT 84655","precinct":"25SQ05","hd":"65","v_score":"1.193887297","decile":"4","lat":39.975199477252616,"lng":-111.79255648546285,"phone":"(985) 968-9864","sd":"27","ssbd":"14","lsbd":"School Board Nebo 1"},{"vid":"2794113","name":"Butler Gutkowski","party":"","address":"88 N 300 E, Santaquin, UT 84655","precinct":"25SQ05","hd":"65","v_score":"1.193887297","decile":"4","lat":39.97699300885762,"lng":-111.77843476851288,"phone":"(982) 735-0052","sd":"27","ssbd":"14","lsbd":"School Board Nebo 1"},{"vid":"2794571","name":"Magdalene Cummerata","party":"","address":"260 W 200 N, Santaquin, UT 84655","precinct":"25SQ05","hd":"65","v_score":"0","decile":"2","lat":39.97925110434998,"lng":-111.79092792782778,"phone":"(266) 366-0525","sd":"27","ssbd":"14","lsbd":"School Board Nebo 1"},{"vid":"2794709","name":"Remy Dicki","party":"Rep","address":"88 E 100 S, Santaquin, UT 84655","precinct":"25SQ05","hd":"65","v_score":"1.193887297","decile":"4","lat":39.9735872137053,"lng":-111.78342967116683,"phone":"(932) 580-1199","sd":"27","ssbd":"14","lsbd":"School Board Nebo 1"},{"vid":"2799012","name":"Dr. Frazier Hessel","party":"Dem","address":"332 E 200 S, Santaquin, UT 84655","precinct":"25SQ05","hd":"65","v_score":"0","decile":"2","lat":39.97198875572898,"lng":-111.77840412503217,"phone":"(351) 824-2717","sd":"27","ssbd":"14","lsbd":"School Board Nebo 1"},{"vid":"2803115","name":"Jaden Dooley","party":"","address":"114 E 100 S, Santaquin, UT 84655","precinct":"25SQ05","hd":"65","v_score":"1.193887297","decile":"4","lat":39.97362628513148,"lng":-111.78292439433166,"phone":"(654) 217-6429","sd":"27","ssbd":"14","lsbd":"School Board Nebo 1"},{"vid":"2810142","name":"Miss Dianna Hirthe MD","party":"","address":"235 W 300 N, Santaquin, UT 84655","precinct":"25SQ05","hd":"65","v_score":"0","decile":"2","lat":39.98015992134405,"lng":-111.79031138446378,"phone":"(559) 912-3469","sd":"27","ssbd":"14","lsbd":"School Board Nebo 1"},{"vid":"2811829","name":"Todd Sauer","party":"Dem","address":"67 S 300 W, Santaquin, UT 84655","precinct":"25SQ05","hd":"65","v_score":"1.193887297","decile":"4","lat":39.974567811433594,"lng":-111.79068973825076,"phone":"(998) 738-2474","sd":"27","ssbd":"14","lsbd":"School Board Nebo 1"},{"vid":"2816893","name":"Mr. Coleton Schimmel","party":"","address":"88 E 100 S, Santaquin, UT 84655","precinct":"25SQ05","hd":"65","v_score":"0","decile":"2","lat":39.9735872137053,"lng":-111.78342967116683,"phone":"(106) 102-1795","sd":"27","ssbd":"14","lsbd":"School Board Nebo 1"},{"vid":"2819785","name":"Dr. Nautica Barton","party":"Rep","address":"250 N 350 W, Santaquin, UT 84655","precinct":"25SQ05","hd":"65","v_score":"0","decile":"2","lat":39.97978138501712,"lng":-111.79316631505799,"phone":"(975) 073-2705","sd":"27","ssbd":"14","lsbd":"School Board Nebo 1"},{"vid":"2820868","name":"Madden Rice","party":"","address":"440 E Main St, # 49, Santaquin, UT 84655","precinct":"25SQ05","hd":"65","v_score":"0","decile":"2","lat":39.97442344767459,"lng":-111.77597320757643,"phone":"(136) 607-3014","sd":"27","ssbd":"14","lsbd":"School Board Nebo 1"},{"vid":"2827341","name":"Seamus Ebert III","party":"Rep","address":"262 W 100 S, Santaquin, UT 84655","precinct":"25SQ05","hd":"65","v_score":"0","decile":"2","lat":39.97434448536998,"lng":-111.79086649556386,"phone":"(541) 589-2712","sd":"27","ssbd":"14","lsbd":"School Board Nebo 1"},{"vid":"2839700","name":"Edrie Koch-Cronin","party":"Rep","address":"124 E 100 S, Santaquin, UT 84655","precinct":"25SQ05","hd":"65","v_score":"0","decile":"2","lat":39.97362308730534,"lng":-111.78257127431898,"phone":"(639) 600-8254","sd":"27","ssbd":"14","lsbd":"School Board Nebo 1"},{"vid":"2842700","name":"Rashaan Wyman","party":"","address":"290 E 200 S, Santaquin, UT 84655","precinct":"25SQ05","hd":"65","v_score":"1.193887297","decile":"4","lat":39.97193317813767,"lng":-111.77932578247004,"phone":"(383) 075-6935","sd":"27","ssbd":"14","lsbd":"School Board Nebo 1"},{"vid":"2845343","name":"Merl Mann","party":"Rep","address":"440 E Main St, Trlr 44, Santaquin, UT 84655","precinct":"25SQ05","hd":"65","v_score":"1.193887297","decile":"4","lat":39.97442344767459,"lng":-111.77597320757643,"phone":"(212) 622-1286","sd":"27","ssbd":"14","lsbd":"School Board Nebo 1"},{"vid":"2852719","name":"Tamala Grant","party":"Rep","address":"367 W Main St, Santaquin, UT 84655","precinct":"25SQ05","hd":"65","v_score":"1.193887297","decile":"4","lat":39.9754142159195,"lng":-111.79265159243762,"phone":"(594) 937-3230","sd":"27","ssbd":"14","lsbd":"School Board Nebo 1"},{"vid":"2856388","name":"Dr. Nolan Schinner","party":"","address":"440 W Main St, Trlr 22, Santaquin, UT 84655","precinct":"25SQ05","hd":"65","v_score":"1.193887297","decile":"4","lat":39.97682427566856,"lng":-111.79489450298476,"phone":"(915) 568-0125","sd":"27","ssbd":"14","lsbd":"School Board Nebo 1"},{"vid":"2861270","name":"Saverio O'Conner","party":"Rep","address":"290 S 200 E, Santaquin, UT 84655","precinct":"25SQ05","hd":"65","v_score":"1.193887297","decile":"4","lat":39.971070862068494,"lng":-111.78143116220478,"phone":"(784) 364-1174","sd":"27","ssbd":"14","lsbd":"School Board Nebo 1"},{"vid":"2862353","name":"Britany Pouros","party":"Dem","address":"170 E 300 N, Santaquin, UT 84655","precinct":"25SQ05","hd":"65","v_score":"1.193887297","decile":"4","lat":39.98011279087461,"lng":-111.78195323663743,"phone":"(604) 996-6809","sd":"27","ssbd":"14","lsbd":"School Board Nebo 1"},{"vid":"2871657","name":"Laureen Deckow-Schmeler","party":"Dem","address":"203 N Madison Ave, Santaquin, UT 84655","precinct":"25SQ05","hd":"65","v_score":"1.193887297","decile":"4","lat":39.97898674901927,"lng":-111.79821112610718,"phone":"(544) 994-9164","sd":"27","ssbd":"14","lsbd":"School Board Nebo 1"},{"vid":"2880332","name":"Melva Eichmann","party":"","address":"440 E Main St, Trlr 42, Santaquin, UT 84655","precinct":"25SQ05","hd":"65","v_score":"1.193887297","decile":"4","lat":39.97442344767459,"lng":-111.77597320757643,"phone":"(238) 297-5672","sd":"27","ssbd":"14","lsbd":"School Board Nebo 1"},{"vid":"2881238","name":"Dr. Caiden Bernier MD","party":"","address":"440 W Main St, Santaquin, UT 84655","precinct":"25SQ05","hd":"65","v_score":"1.193887297","decile":"4","lat":39.97682427566856,"lng":-111.79489450298476,"phone":"(652) 391-0122","sd":"27","ssbd":"14","lsbd":"School Board Nebo 1"},{"vid":"2882130","name":"Jaxson Hintz DDS","party":"","address":"440 E Main St, Trlr 22, Santaquin, UT 84655","precinct":"25SQ05","hd":"65","v_score":"1.193887297","decile":"4","lat":39.97442344767459,"lng":-111.77597320757643,"phone":"(857) 640-2213","sd":"27","ssbd":"14","lsbd":"School Board Nebo 1"},{"vid":"2884425","name":"Dr. Hermine Breitenberg DDS","party":"Rep","address":"324 W Main St, Santaquin, UT 84655","precinct":"25SQ05","hd":"65","v_score":"1.193887297","decile":"4","lat":39.975891509180336,"lng":-111.79202837542947,"phone":"(372) 114-2308","sd":"27","ssbd":"14","lsbd":"School Board Nebo 1"},{"vid":"2886431","name":"Miss Marlyn Okuneva PhD","party":"Rep","address":"93 N 100 E, Santaquin, UT 84655","precinct":"25SQ05","hd":"65","v_score":"1.193887297","decile":"4","lat":39.977029151478995,"lng":-111.78344222386528,"phone":"(378) 724-3179","sd":"27","ssbd":"14","lsbd":"School Board Nebo 1"},{"vid":"2886987","name":"Madalyn Weimann","party":"Rep","address":"290 N 300 W, Santaquin, UT 84655","precinct":"25SQ05","hd":"65","v_score":"1.193887297","decile":"4","lat":39.97998158824553,"lng":-111.79139411579088,"phone":"(273) 618-7122","sd":"27","ssbd":"14","lsbd":"School Board Nebo 1"},{"vid":"2887722","name":"Ms. Marcela Trantow","party":"Dem","address":"50 S 300 W, Santaquin, UT 84655","precinct":"25SQ05","hd":"65","v_score":"1.193887297","decile":"4","lat":39.97499724685294,"lng":-111.79194173094403,"phone":"(933) 889-6498","sd":"27","ssbd":"14","lsbd":"School Board Nebo 1"},{"vid":"2888373","name":"Brody Botsford","party":"Dem","address":"227 N Halford Ave, Santaquin, UT 84655","precinct":"25SQ05","hd":"65","v_score":"1.193887297","decile":"4","lat":39.97934103913107,"lng":-111.79947702533237,"phone":"(823) 796-1709","sd":"27","ssbd":"14","lsbd":"School Board Nebo 1"},{"vid":"2889014","name":"Dr. Della Rutherford","party":"Dem","address":"243 N Halford Ave, Santaquin, UT 84655","precinct":"25SQ05","hd":"65","v_score":"1.193887297","decile":"4","lat":39.97952199167896,"lng":-111.7992911977794,"phone":"(361) 211-1246","sd":"27","ssbd":"14","lsbd":"School Board Nebo 1"},{"vid":"2893821","name":"Miss Jaelyn Collins PhD","party":"","address":"219 E 200 N, Santaquin, UT 84655","precinct":"25SQ05","hd":"65","v_score":"0","decile":"2","lat":39.97922297813088,"lng":-111.78047403745295,"phone":"(508) 918-1763","sd":"27","ssbd":"14","lsbd":"School Board Nebo 1"},{"vid":"2899675","name":"Jeane Spencer","party":"","address":"460 W 500 S, Apt 4, Santaquin, UT 84655","precinct":"25SQ05","hd":"65","v_score":"0","decile":"2","lat":39.96819412648732,"lng":-111.79413043355365,"phone":"(301) 960-2806","sd":"27","ssbd":"14","lsbd":"School Board Nebo 1"},{"vid":"2901338","name":"Dr. Corbin Predovic III","party":"Dem","address":"153 E Main St, Apt F, Santaquin, UT 84655","precinct":"25SQ05","hd":"65","v_score":"0","decile":"2","lat":39.97632017194619,"lng":-111.78223793610717,"phone":"(628) 073-1537","sd":"27","ssbd":"14","lsbd":"School Board Nebo 1"},{"vid":"2901712","name":"Mr. Bret Roberts","party":"","address":"213 S 200 E, Santaquin, UT 84655","precinct":"25SQ05","hd":"65","v_score":"0","decile":"2","lat":39.97203194309779,"lng":-111.7807500319781,"phone":"(993) 698-2686","sd":"27","ssbd":"14","lsbd":"School Board Nebo 1"},{"vid":"2903868","name":"Joellen Streich","party":"","address":"290 N 300 W, Santaquin, UT 84655","precinct":"25SQ05","hd":"65","v_score":"0","decile":"2","lat":39.97998158824553,"lng":-111.79139411579088,"phone":"(532) 535-7988","sd":"27","ssbd":"14","lsbd":"School Board Nebo 1"},{"vid":"2905913","name":"Cash Kling","party":"","address":"240 W 100 N, Santaquin, UT 84655","precinct":"25SQ05","hd":"65","v_score":"0","decile":"2","lat":39.97756329825691,"lng":-111.7903110520871,"phone":"(600) 549-6042","sd":"27","ssbd":"14","lsbd":"School Board Nebo 1"},{"vid":"2911382","name":"Kylan Sipes","party":"","address":"440 E Main St, Trlr 15, Santaquin, UT 84655","precinct":"25SQ05","hd":"65","v_score":"0","decile":"2","lat":39.97442344767459,"lng":-111.77597320757643,"phone":"(832) 173-1136","sd":"27","ssbd":"14","lsbd":"School Board Nebo 1"},{"vid":"2928115","name":"Anthony Roberts","party":"Dem","address":"50 S 100 E, Apt 1, Santaquin, UT 84655","precinct":"25SQ05","hd":"65","v_score":"0","decile":"2","lat":39.974571128279294,"lng":-111.78374382775503,"phone":"(669) 149-7042","sd":"27","ssbd":"14","lsbd":"School Board Nebo 1"},{"vid":"2933427","name":"Pansy Keeling-Gerlach","party":"Dem","address":"60 N 100 E, Santaquin, UT 84655","precinct":"25SQ05","hd":"65","v_score":"0","decile":"2","lat":39.97664982516594,"lng":-111.78280051180307,"phone":"(858) 228-9151","sd":"27","ssbd":"14","lsbd":"School Board Nebo 1"},