[{"id":"46","name":"Ms. Adamaris Schinner DDS","party":"Rep","address":"185 W 100 N, Santaquin, UT 84655","precinct":"25SQ05","hd":"65","v_score":"3.781490609","decile":"6","lat":39.977171747969,"lng":-111.789141338324},{"id":"196","name":"Charlize Towne","party":"Dem","address":"271 S 100 W, Santaquin, UT 84655","precinct":"25SQ05","hd":"65","v_score":"29.77385784","decile":"10","lat":39.97122660022,"lng":-111.787311157638},{"id":"202","name":"Mr. Kahlil Rath V","party":"","address":"45 E 300 S, Santaquin, UT 84655","precinct":"25SQ05","hd":"65","v_score":"8.347511332","decile":"8","lat":39.970783946947,"lng":-111.784559889196},{"id":"985","name":"Halsey Davis","party":"","address":"95 N 300 E, Santaquin, UT 84655","precinct":"25SQ05","hd":"65","v_score":"1.121327652","decile":"3","lat":39.977102037975,"lng":-111.779034630242},{"id":"1153","name":"Dr. Mervin Johnston","party":"Rep","address":"159 N 100 E, Santaquin, UT 84655","precinct":"25SQ05","hd":"65","v_score":"3.93832808","decile":"6","lat":39.97818133652,"lng":-111.783232255049},{"id":"1231","name":"Mrs. Hetty Satterfield","party":"Dem","address":"273 W 100 N, Santaquin, UT 84655","precinct":"25SQ05","hd":"65","v_score":"3.781490609","decile":"6","lat":39.977197606621,"lng":-111.791002023186},{"id":"1644","name":"Raven Hahn PhD","party":"","address":"112 N Center St, Santaquin, UT 84655","precinct":"25SQ05","hd":"65","v_score":"5.40460374","decile":"7","lat":39.977471533861,"lng":-111.785159278894},{"id":"2280","name":"Calla Stehr-Doyle","party":"Dem","address":"85 S 300 W, Santaquin, UT 84655","precinct":"25SQ05","hd":"65","v_score":"6.724398202","decile":"7","lat":39.974279087564,"lng":-111.791439690172},{"id":"2365","name":"Almer Bartoletti","party":"","address":"160 N 200 W, Santaquin, UT 84655","precinct":"25SQ05","hd":"65","v_score":"12.59867706","decile":"9","lat":39.978371521674,"lng":-111.789416561049},{"id":"2594","name":"Bryn Skiles","party":"","address":"454 W Main St, Santaquin, UT 84655","precinct":"25SQ05","hd":"65","v_score":"0","decile":"1","lat":39.975992012518,"lng":-111.794599702194},{"id":"4060","name":"Rusty Eichmann","party":"Dem","address":"41 S 200 E, Apt 1, Santaquin, UT 84655","precinct":"25SQ05","hd":"65","v_score":"3.61989409","decile":"6","lat":39.974918772203,"lng":-111.781013927125},{"id":"4172","name":"Ona Kessler","party":"","address":"51 N 400 E, Santaquin, UT 84655","precinct":"25SQ05","hd":"65","v_score":"7.580602339","decile":"8","lat":39.976411504611,"lng":-111.776969450341},{"id":"5181","name":"Hezekiah Berge Sr.","party":"","address":"66 S 300 E, Santaquin, UT 84655","precinct":"25SQ05","hd":"65","v_score":"2.315214949","decile":"5","lat":39.974545420358,"lng":-111.779044337965},{"id":"5719","name":"Vinson Spinka","party":"Dem","address":"335 W Main St, Santaquin, UT 84655","precinct":"25SQ05","hd":"65","v_score":"4.210716443","decile":"7","lat":39.975567067007,"lng":-111.792091513286},{"id":"5918","name":"Artis Auer-Schaden","party":"","address":"32 N Center St, Unit A, Santaquin, UT 84655","precinct":"25SQ05","hd":"65","v_score":"2.660162957","decile":"5","lat":39.976136413054,"lng":-111.78516972496},{"id":"6305","name":"Mrs. Destany Predovic PhD","party":"","address":"151 N 400 E, Santaquin, UT 84655","precinct":"25SQ05","hd":"65","v_score":"2.315214949","decile":"5","lat":39.978022510715,"lng":-111.77698082751},{"id":"6396","name":"Hartwell Bechtelar","party":"","address":"80 W 300 S, Santaquin, UT 84655","precinct":"25SQ05","hd":"65","v_score":"0","decile":"1","lat":39.970795451863,"lng":-111.786953371545},{"id":"6681","name":"Miss Sydney Jacobson PhD","party":"Dem","address":"191 S 200 E, Santaquin, UT 84655","precinct":"25SQ05","hd":"65","v_score":"23.48004472","decile":"10","lat":39.972556396789,"lng":-111.781017635952},{"id":"6857","name":"Ocie D'Amore-Johnson","party":"","address":"273 S 200 E, Santaquin, UT 84655","precinct":"25SQ05","hd":"65","v_score":"15.53259879","decile":"9","lat":39.971200783193,"lng":-111.781035527451},{"id":"7338","name":"Aubrey Abshire","party":"Rep","address":"272 W 100 S, Santaquin, UT 84655","precinct":"25SQ05","hd":"65","v_score":"8.363183621","decile":"8","lat":39.974057503138,"lng":-111.791124659456},{"id":"7543","name":"Earley Brown","party":"","address":"360 E 200 N, Santaquin, UT 84655","precinct":"25SQ05","hd":"65","v_score":"8.347511332","decile":"8","lat":39.978771877832,"lng":-111.777726460492},{"id":"7623","name":"Alycia Runolfsson","party":"Dem","address":"282 N 300 W, Santaquin, UT 84655","precinct":"25SQ05","hd":"65","v_score":"1.623113131","decile":"4","lat":39.980243208164,"lng":-111.791542771233},{"id":"7998","name":"Felipa Shields","party":"","address":"135 S Center St, Santaquin, UT 84655","precinct":"25SQ05","hd":"65","v_score":"2.817000428","decile":"6","lat":39.973402376184,"lng":-111.785185399091},{"id":"8293","name":"Ms. Kirsten Wilkinson MD","party":"Rep","address":"234 N 300 W, Santaquin, UT 84655","precinct":"25SQ05","hd":"65","v_score":"1.193887297","decile":"3","lat":39.979466189949,"lng":-111.791534548918},{"id":"9026","name":"Kamryn Cummings","party":"Dem","address":"440 E Main St, Trlr 11, Santaquin, UT 84655","precinct":"25SQ05","hd":"65","v_score":"3.781490609","decile":"6","lat":39.97554081492,"lng":-111.776139901168},{"id":"9463","name":"Miss Chelsi Schiller DVM","party":"Rep","address":"51 N 400 E, Santaquin, UT 84655","precinct":"25SQ05","hd":"65","v_score":"13.28237143","decile":"9","lat":39.976411504611,"lng":-111.776969450341},{"id":"9510","name":"Dale Barrows","party":"","address":"113 E 200 N, Santaquin, UT 84655","precinct":"25SQ05","hd":"65","v_score":"16.75150098","decile":"9","lat":39.978904992391,"lng":-111.782839335933},{"id":"9539","name":"Jeremiah Runte","party":"Rep","address":"61 S 300 W, Santaquin, UT 84655","precinct":"25SQ05","hd":"65","v_score":"8.985747318","decile":"8","lat":39.97464555905,"lng":-111.791447879432},{"id":"9687","name":"Mr. Talon Lueilwitz PhD","party":"Dem","address":"117 N 300 W, Santaquin, UT 84655","precinct":"25SQ05","hd":"65","v_score":"5.40460374","decile":"7","lat":39.977563339457,"lng":-111.79166668611},{"id":"10012","name":"Mrs. Melodee Batz MD","party":"","address":"160 S 100 W, Santaquin, UT 84655","precinct":"25SQ05","hd":"65","v_score":"0","decile":"1","lat":39.973011778793,"lng":-111.787435091937},{"id":"10422","name":"Randy Rice","party":"Rep","address":"87 S 100 E, Santaquin, UT 84655","precinct":"25SQ05","hd":"65","v_score":"1.121327652","decile":"3","lat":39.974205604604,"lng":-111.783102541206},{"id":"10588","name":"Dr. Olena Legros DVM","party":"","address":"85 S 300 W, Santaquin, UT 84655","precinct":"25SQ05","hd":"65","v_score":"1.193887297","decile":"3","lat":39.974279087564,"lng":-111.791439690172},{"id":"10697","name":"Myla Schroeder","party":"Rep","address":"511 W 200 N, Santaquin, UT 84655","precinct":"25SQ05","hd":"65","v_score":"8.363183621","decile":"8","lat":40.000327443094,"lng":-111.855368854025},{"id":"11743","name":"Jorge Spinka","party":"","address":"135 S Center St, Santaquin, UT 84655","precinct":"25SQ05","hd":"65","v_score":"11.1324014","decile":"9","lat":39.973402376184,"lng":-111.785185399091},{"id":"11806","name":"Vicy Kuphal","party":"","address":"476 W Main St, Santaquin, UT 84655","precinct":"25SQ05","hd":"65","v_score":"6.74007049","decile":"8","lat":39.976049067358,"lng":-111.794745695414},{"id":"11970","name":"Tomeka Krajcik DVM","party":"","address":"161 S Center St, Santaquin, UT 84655","precinct":"25SQ05","hd":"65","v_score":"6.896907962","decile":"8","lat":39.9729982033,"lng":-111.785193171697},{"id":"12192","name":"Vannie Barton PhD","party":"Dem","address":"225 N 300 E, Santaquin, UT 84655","precinct":"25SQ05","hd":"65","v_score":"19.3272208","decile":"10","lat":39.979282140518,"lng":-111.779030073834},{"id":"12193","name":"Clovis Gaylord-O'Hara","party":"Rep","address":"225 N 300 E, Santaquin, UT 84655","precinct":"25SQ05","hd":"65","v_score":"19.3272208","decile":"10","lat":39.979282140518,"lng":-111.779030073834},{"id":"12293","name":"Miss Dessie Nicolas","party":"Rep","address":"41 N 300 W, Santaquin, UT 84655","precinct":"25SQ05","hd":"65","v_score":"0","decile":"1","lat":39.976299610873,"lng":-111.791637793403},{"id":"12466","name":"Celesta Thiel","party":"","address":"46 E 100 N, Santaquin, UT 84655","precinct":"25SQ05","hd":"65","v_score":"10.97556393","decile":"9","lat":39.977175900617,"lng":-111.784279983913},{"id":"12622","name":"Dr. Gilda Dooley PhD","party":"Rep","address":"184 N 100 E, Santaquin, UT 84655","precinct":"25SQ05","hd":"65","v_score":"5.40460374","decile":"7","lat":39.978577607619,"lng":-111.783079392617},{"id":"12635","name":"Melvina Wisozk","party":"Rep","address":"66 S 300 E, Santaquin, UT 84655","precinct":"25SQ05","hd":"65","v_score":"1.121327652","decile":"3","lat":39.974545420358,"lng":-111.779044337965},{"id":"12696","name":"Dr. Carli Konopelski MD","party":"Rep","address":"160 S 100 W, Santaquin, UT 84655","precinct":"25SQ05","hd":"65","v_score":"15.70505459","decile":"9","lat":39.973011778793,"lng":-111.787435091937},{"id":"12770","name":"Mr. Sonny Padberg","party":"Dem","address":"250 N 350 W, Santaquin, UT 84655","precinct":"25SQ05","hd":"65","v_score":"13.46861423","decile":"9","lat":39.97975283468,"lng":-111.793319466155},{"id":"13251","name":"Ms. Perla Kunze","party":"","address":"178 E Main St, Santaquin, UT 84655","precinct":"25SQ05","hd":"65","v_score":"1.623113131","decile":"4","lat":39.975535778475,"lng":-111.781565177303},{"id":"13813","name":"Jinnie Wiegand-Klein","party":"Dem","address":"140 E 200 S, Santaquin, UT 84655","precinct":"25SQ05","hd":"65","v_score":"2.587603312","decile":"5","lat":39.972320748011,"lng":-111.782320902558},{"id":"13874","name":"Austin Heathcote","party":"Rep","address":"350 S 300 W, Santaquin, UT 84655","precinct":"25SQ05","hd":"65","v_score":"0","decile":"1","lat":39.969900368104,"lng":-111.791099269029},{"id":"13878","name":"Leslee Gerlach-Bernier","party":"","address":"63 E 200 N, Santaquin, UT 84655","precinct":"25SQ05","hd":"65","v_score":"19.3272208","decile":"10","lat":39.978909730042,"lng":-111.783933363469},{"id":"13933","name":"Fumiko Larson","party":"Rep","address":"354 S 300 W, Santaquin, UT 84655","precinct":"25SQ05","hd":"65","v_score":"7.650280567","decile":"8","lat":39.969837086037,"lng":-111.791098755939},{"id":"14331","name":"Dr. Amiyah Hand","party":"Rep","address":"158 S 300 E, Santaquin, UT 84655","precinct":"25SQ05","hd":"65","v_score":"4.210716443","decile":"7","lat":39.973041157255,"lng":-111.77905405495},{"id":"14649","name":"Jule Leuschke","party":"","address":"146 N 100 E, Santaquin, UT 84655","precinct":"25SQ05","hd":"65","v_score":"11.1324014","decile":"9","lat":39.9779973667,"lng":-111.783084255045},{"id":"14760","name":"Jordyn Kreiger","party":"","address":"272 W 100 S, Santaquin, UT 84655","precinct":"25SQ05","hd":"65","v_score":"8.363183621","decile":"8","lat":39.974057503138,"lng":-111.791124659456},{"id":"15289","name":"Tyrique Waters","party":"Dem","address":"375 E 200 S, Santaquin, UT 84655","precinct":"25SQ05","hd":"65","v_score":"2.315214949","decile":"5","lat":39.972426339032,"lng":-111.777496157266},{"id":"15485","name":"Joanna Lockman","party":"Rep","address":"230 E 100 N, Santaquin, UT 84655","precinct":"25SQ05","hd":"65","v_score":"6.027167436","decile":"7","lat":39.977168870745,"lng":-111.780409350359},{"id":"15934","name":"Sierra Swift","party":"Dem","address":"210 W 200 N, Santaquin, UT 84655","precinct":"25SQ05","hd":"65","v_score":"14.14899265","decile":"9","lat":39.978902564606,"lng":-111.789761291575},{"id":"17914","name":"Mrs. Alyssa Bailey PhD","party":"","address":"190 W 200 N, Santaquin, UT 84655","precinct":"25SQ05","hd":"65","v_score":"1.193887297","decile":"3","lat":39.978899329736,"lng":-111.789250921489},{"id":"18051","name":"Lurena Gaylord","party":"Rep","address":"212 N Center St, Santaquin, UT 84655","precinct":"25SQ05","hd":"65","v_score":"2.315214949","decile":"5","lat":39.979104827983,"lng":-111.7851496149},{"id":"18199","name":"January Botsford-Nader","party":"Rep","address":"423 S 600 W, Santaquin, UT 84655","precinct":"25SQ05","hd":"65","v_score":"0","decile":"1","lat":39.988660193437,"lng":-111.857272395865},{"id":"18251","name":"Marius Barrows Sr.","party":"","address":"212 N Center St, Santaquin, UT 84655","precinct":"25SQ05","hd":"65","v_score":"2.315214949","decile":"5","lat":39.979104827983,"lng":-111.7851496149},{"id":"18266","name":"Mr. Attilio Kuhn","party":"Rep","address":"440 W Main St, Trlr 15, Santaquin, UT 84655","precinct":"25SQ05","hd":"65","v_score":"2.315214949","decile":"5","lat":39.975956018993,"lng":-111.794506912132},{"id":"18340","name":"Merrill Jenkins-McDermott","party":"Dem","address":"44 E 200 N, Santaquin, UT 84655","precinct":"25SQ05","hd":"65","v_score":"8.173821515","decile":"8","lat":39.978796770285,"lng":-111.784309871928},{"id":"18836","name":"Miss Rona Hilpert DVM","party":"Dem","address":"37 N 300 W, Santaquin, UT 84655","precinct":"25SQ05","hd":"65","v_score":"14.90236525","decile":"9","lat":39.976237062566,"lng":-111.791636084441},{"id":"20726","name":"Dr. Randell Carroll II","party":"Dem","address":"174 E 200 S, Santaquin, UT 84655","precinct":"25SQ05","hd":"65","v_score":"6.74007049","decile":"8","lat":39.97232074796,"lng":-111.781643687915},{"id":"21062","name":"Anabella Murray","party":"Rep","address":"440 E Main St, Trlr 37, Santaquin, UT 84655","precinct":"25SQ05","hd":"65","v_score":"2.587603312","decile":"5","lat":39.97554081492,"lng":-111.776139901168},{"id":"21072","name":"Cali Schaden","party":"Dem","address":"186 E 200 S, Santaquin, UT 84655","precinct":"25SQ05","hd":"65","v_score":"18.5581759","decile":"10","lat":39.972320747942,"lng":-111.781404670982},{"id":"21154","name":"Marie Tromp","party":"Rep","address":"43 N 300 W, Santaquin, UT 84655","precinct":"25SQ05","hd":"65","v_score":"0","decile":"1","lat":39.976330885027,"lng":-111.791638647884},{"id":"22430","name":"Corwin Howe","party":"Dem","address":"296 N 300 W, Santaquin, UT 84655","precinct":"25SQ05","hd":"65","v_score":"2.315214949","decile":"5","lat":39.980469838477,"lng":-111.791545169408},{"id":"22811","name":"Oliva Bailey","party":"","address":"268 W 100 S, Santaquin, UT 84655","precinct":"25SQ05","hd":"65","v_score":"0","decile":"1","lat":39.974056659065,"lng":-111.791077391594},{"id":"23281","name":"Denisha Rodriguez","party":"","address":"174 E 200 S, Santaquin, UT 84655","precinct":"25SQ05","hd":"65","v_score":"0","decile":"1","lat":39.97232074796,"lng":-111.781643687915},{"id":"23701","name":"Dr. Gabriel Eichmann","party":"","address":"377 W Main St, Santaquin, UT 84655","precinct":"25SQ05","hd":"65","v_score":"5.40460374","decile":"7","lat":39.975578407149,"lng":-111.792674770422},{"id":"23758","name":"Viney Gottlieb","party":"Rep","address":"350 S 300 W, Santaquin, UT 84655","precinct":"25SQ05","hd":"65","v_score":"0","decile":"1","lat":39.969900368104,"lng":-111.791099269029},{"id":"23996","name":"Jens Weissnat","party":"Dem","address":"41 S 200 E, Apt 1, Santaquin, UT 84655","precinct":"25SQ05","hd":"65","v_score":"0","decile":"1","lat":39.974918772203,"lng":-111.781013927125},{"id":"24159","name":"Miss Nedra Lemke DDS","party":"Rep","address":"24 E 100 S, Santaquin, UT 84655","precinct":"25SQ05","hd":"65","v_score":"0","decile":"1","lat":39.973925040635,"lng":-111.784735294255},{"id":"24320","name":"Mr. Darian Schuppe III","party":"","address":"440 E Main St, Trlr 7, Santaquin, UT 84655","precinct":"25SQ05","hd":"65","v_score":"0","decile":"1","lat":39.97554081492,"lng":-111.776139901168},{"id":"25360","name":"Dr. Donny Herman","party":"Rep","address":"50 S 300 W, Santaquin, UT 84655","precinct":"25SQ05","hd":"65","v_score":"2.660162957","decile":"5","lat":39.974811563089,"lng":-111.791601142444},{"id":"26016","name":"Darold Thiel","party":"Dem","address":"230 S 200 W, Santaquin, UT 84655","precinct":"25SQ05","hd":"65","v_score":"1.193887297","decile":"3","lat":39.97185164283,"lng":-111.789616280075},{"id":"26562","name":"Allyson Orn-Rempel","party":"Dem","address":"340 W 200 N, Santaquin, UT 84655","precinct":"25SQ05","hd":"65","v_score":"3.089388791","decile":"6","lat":39.978929828417,"lng":-111.793029553255},{"id":"26906","name":"Aria Dickens-Fisher","party":"Rep","address":"180 S 300 E, Santaquin, UT 84655","precinct":"25SQ05","hd":"65","v_score":"0","decile":"1","lat":39.972703207899,"lng":-111.779056871238},{"id":"27064","name":"Nathanael Thiel","party":"Rep","address":"35 E 300 S, Santaquin, UT 84655","precinct":"25SQ05","hd":"65","v_score":"7.493443096","decile":"8","lat":39.970784842567,"lng":-111.784708560266},{"id":"27093","name":"Artie Reichel","party":"Rep","address":"155 E 300 S, Santaquin, UT 84655","precinct":"25SQ05","hd":"65","v_score":"4.192796624","decile":"7","lat":39.970785108319,"lng":-111.782048107272},{"id":"27274","name":"Jaelyn Hilpert-Schoen","party":"Dem","address":"37 N 300 W, Santaquin, UT 84655","precinct":"25SQ05","hd":"65","v_score":"14.90236525","decile":"9","lat":39.976237062566,"lng":-111.791636084441},{"id":"27474","name":"Mignon Fritsch PhD","party":"","address":"189 N 300 W, Santaquin, UT 84655","precinct":"25SQ05","hd":"65","v_score":"8.363183621","decile":"8","lat":39.978649518857,"lng":-111.791675890881},{"id":"27619","name":"Laurene Kilback","party":"Dem","address":"280 W 200 N, Santaquin, UT 84655","precinct":"25SQ05","hd":"65","v_score":"13.4109596","decile":"9","lat":39.978912949922,"lng":-111.791166555611},{"id":"27701","name":"Jacques Medhurst","party":"Rep","address":"189 N 300 W, Santaquin, UT 84655","precinct":"25SQ05","hd":"65","v_score":"17.42538181","decile":"9","lat":39.978649518857,"lng":-111.791675890881},{"id":"28022","name":"Astrid Friesen","party":"Dem","address":"160 N Center St, Santaquin, UT 84655","precinct":"25SQ05","hd":"65","v_score":"3.93832808","decile":"6","lat":39.978213285431,"lng":-111.785155180724},{"id":"28606","name":"Oswaldo Stanton","party":"Rep","address":"440 W Main St, Trlr 11, Santaquin, UT 84655","precinct":"25SQ05","hd":"65","v_score":"1.46627566","decile":"4","lat":39.975956018993,"lng":-111.794506912132},{"id":"29475","name":"Hansel Murphy","party":"Rep","address":"27 W Main St, Apt 3, Santaquin, UT 84655","precinct":"25SQ05","hd":"65","v_score":"2.587603312","decile":"5","lat":39.9755492117,"lng":-111.785844690392},{"id":"30054","name":"Mrs. Estela Waters PhD","party":"Rep","address":"345 W 200 N, Santaquin, UT 84655","precinct":"25SQ05","hd":"65","v_score":"2.315214949","decile":"5","lat":39.978808912133,"lng":-111.792407547343},{"id":"30483","name":"Bret Kshlerin-Thompson","party":"","address":"345 W 200 N, Santaquin, UT 84655","precinct":"25SQ05","hd":"65","v_score":"2.315214949","decile":"5","lat":39.978808912133,"lng":-111.792407547343},{"id":"30860","name":"Genesis Kautzer-Lebsack","party":"Dem","address":"268 W 100 S, Santaquin, UT 84655","precinct":"25SQ05","hd":"65","v_score":"1.46627566","decile":"4","lat":39.974056659065,"lng":-111.791077391594},{"id":"31134","name":"Nealie Rosenbaum DVM","party":"Dem","address":"440 E Main St, # 49, Santaquin, UT 84655","precinct":"25SQ05","hd":"65","v_score":"1.121327652","decile":"3","lat":39.97554081492,"lng":-111.776139901168},{"id":"31346","name":"Sydney Smitham-Bradtke","party":"Dem","address":"410 W 30 S, Santaquin, UT 84655","precinct":"25SQ05","hd":"65","v_score":"1.193887297","decile":"3","lat":39.975200595596,"lng":-111.793209922671},{"id":"31400","name":"Rossie Harvey","party":"","address":"460 W 500 S, Apt 1, Santaquin, UT 84655","precinct":"25SQ05","hd":"65","v_score":"2.315214949","decile":"5","lat":39.983279450931,"lng":-111.795998121519},{"id":"31760","name":"Orvel Hermann","party":"Rep","address":"45 N 300 W, Santaquin, UT 84655","precinct":"25SQ05","hd":"65","v_score":"0","decile":"1","lat":39.976362159181,"lng":-111.791639502365},{"id":"32264","name":"Bret Sipes","party":"Rep","address":"274 W 100 S, Santaquin, UT 84655","precinct":"25SQ05","hd":"65","v_score":"10.11031313","decile":"9","lat":39.974057925174,"lng":-111.791148293387},{"id":"32783","name":"Cheyenne Block","party":"Dem","address":"89 S 300 W, Apt 1, Santaquin, UT 84655","precinct":"25SQ05","hd":"65","v_score":"5.687348376","decile":"7","lat":39.974218008983,"lng":-111.791438325296},{"id":"32803","name":"Jeanmarie Buckridge","party":"Dem","address":"222 W 100 S, Santaquin, UT 84655","precinct":"25SQ05","hd":"65","v_score":"4.079907534","decile":"7","lat":39.974055339791,"lng":-111.790039309962},{"id":"32955","name":"Sienna Harris","party":"Rep","address":"311 W 300 N, Santaquin, UT 84655","precinct":"25SQ05","hd":"65","v_score":"15.00969335","decile":"9","lat":39.980504477384,"lng":-111.791793626091},{"id":"32997","name":"Yehuda Hackett","party":"Rep","address":"38 N 200 W, Santaquin, UT 84655","precinct":"25SQ05","hd":"65","v_score":"1.46627566","decile":"4","lat":39.976230623674,"lng":-111.789432164686},{"id":"33670","name":"Parker Schumm","party":"Rep","address":"91 S 300 W, Santaquin, UT 84655","precinct":"25SQ05","hd":"65","v_score":"5.273794831","decile":"7","lat":39.974187469693,"lng":-111.791437642857},{"id":"33897","name":"Edson Kilback","party":"","address":"35 E 200 N, Santaquin, UT 84655","precinct":"25SQ05","hd":"65","v_score":"5.61909958","decile":"7","lat":39.978912116151,"lng":-111.784483351997},{"id":"34032","name":"Darrius Ankunding","party":"","address":"332 E 200 S, Santaquin, UT 84655","precinct":"25SQ05","hd":"65","v_score":"8.216702423","decile":"8","lat":39.972311747709,"lng":-111.778298680367},{"id":"34097","name":"Aurilla Mayer-Schowalter","party":"","address":"112 N Center St, Santaquin, UT 84655","precinct":"25SQ05","hd":"65","v_score":"5.40460374","decile":"7","lat":39.977471533861,"lng":-111.785159278894},{"id":"34565","name":"Mrs. Nichol Mayert","party":"Rep","address":"255 N 100 W, Santaquin, UT 84655","precinct":"25SQ05","hd":"65","v_score":"15.61526831","decile":"9","lat":39.979769883089,"lng":-111.787411230703},{"id":"35041","name":"Yuridia Stroman-Nikolaus","party":"","address":"220 N 350 W, Santaquin, UT 84655","precinct":"25SQ05","hd":"65","v_score":"5.40460374","decile":"7","lat":39.979261684729,"lng":-111.793309180356},{"id":"35154","name":"Horacio Heidenreich","party":"","address":"448 W Main St, Santaquin, UT 84655","precinct":"25SQ05","hd":"65","v_score":"3.781490609","decile":"6","lat":39.97597660951,"lng":-111.794560104282},{"id":"36178","name":"Jamey Adams","party":"Rep","address":"114 N 200 E, Santaquin, UT 84655","precinct":"25SQ05","hd":"65","v_score":"1.46627566","decile":"4","lat":39.977499372209,"lng":-111.781011583302},{"id":"36770","name":"Dr. Ignacio Leuschke I","party":"Rep","address":"84 E 300 N, Santaquin, UT 84655","precinct":"25SQ05","hd":"65","v_score":"1.121327652","decile":"3","lat":39.98046792879,"lng":-111.784710924203},{"id":"36793","name":"Falon Zboncak","party":"Rep","address":"86 N 300 W, Santaquin, UT 84655","precinct":"25SQ05","hd":"65","v_score":"7.367763134","decile":"8","lat":39.97701740588,"lng":-111.791507837375},{"id":"36934","name":"Miss Karyme Turcotte DDS","party":"","address":"440 E Main St, Trlr 52, Santaquin, UT 84655","precinct":"25SQ05","hd":"65","v_score":"14.90880107","decile":"9","lat":39.97554081492,"lng":-111.776139901168},{"id":"36979","name":"Dante White","party":"","address":"440 E Main St, Trlr 22, Santaquin, UT 84655","precinct":"25SQ05","hd":"65","v_score":"3.781490609","decile":"6","lat":39.97554081492,"lng":-111.776139901168},{"id":"36981","name":"Lula Carter-Ondricka","party":"Dem","address":"440 E Main St, Trlr 22, Santaquin, UT 84655","precinct":"25SQ05","hd":"65","v_score":"0","decile":"1","lat":39.97554081492,"lng":-111.776139901168},{"id":"37057","name":"Darl Powlowski","party":"Dem","address":"248 N 300 W, Santaquin, UT 84655","precinct":"25SQ05","hd":"65","v_score":"1.46627566","decile":"4","lat":39.979692820262,"lng":-111.791536947093},{"id":"37089","name":"Calhoun Rice","party":"Rep","address":"321 W 300 N, Santaquin, UT 84655","precinct":"25SQ05","hd":"65","v_score":"8.35914475","decile":"8","lat":39.980506008085,"lng":-111.791890059808},{"id":"37187","name":"Jameson Flatley","party":"","address":"348 W 200 N, Santaquin, UT 84655","precinct":"25SQ05","hd":"65","v_score":"6.550708384","decile":"7","lat":39.978932575427,"lng":-111.79330013169},{"id":"37434","name":"Barrett Mosciski","party":"Dem","address":"440 W Main St, Trlr 20, Santaquin, UT 84655","precinct":"25SQ05","hd":"65","v_score":"2.660162957","decile":"5","lat":39.975956018993,"lng":-111.794506912132},{"id":"37442","name":"Faustino Reynolds","party":"Rep","address":"282 N 300 W, Santaquin, UT 84655","precinct":"25SQ05","hd":"65","v_score":"1.121327652","decile":"3","lat":39.980243208164,"lng":-111.791542771233},{"id":"37771","name":"Catrina Gutkowski","party":"","address":"150 W 200 N, Santaquin, UT 84655","precinct":"25SQ05","hd":"65","v_score":"2.660162957","decile":"5","lat":39.978906164798,"lng":-111.788435833161},{"id":"37969","name":"Tristin Robel","party":"","address":"235 W 300 N, Apt 1, Santaquin, UT 84655","precinct":"25SQ05","hd":"65","v_score":"3.781490609","decile":"6","lat":39.980490188346,"lng":-111.790245738295},{"id":"38324","name":"Erla Skiles","party":"Rep","address":"287 W 300 N, Santaquin, UT 84655","precinct":"25SQ05","hd":"65","v_score":"1.121327652","decile":"3","lat":39.980499072671,"lng":-111.79130296341},{"id":"38372","name":"Mr. Chas Tillman PhD","party":"Rep","address":"158 S 200 E, Santaquin, UT 84655","precinct":"25SQ05","hd":"65","v_score":"21.63734481","decile":"10","lat":39.973038398999,"lng":-111.781171251766},{"id":"38458","name":"Mr. Ham Metz","party":"","address":"150 E 300 N, Santaquin, UT 84655","precinct":"25SQ05","hd":"65","v_score":"9.640097175","decile":"8","lat":39.980474747057,"lng":-111.782079108687},{"id":"38572","name":"Toivo Feil","party":"","address":"189 N 200 E, Santaquin, UT 84655","precinct":"25SQ05","hd":"65","v_score":"1.121327652","decile":"3","lat":39.978630791991,"lng":-111.781142171721},{"id":"38652","name":"Leafy Cummings","party":"Rep","address":"67 S 300 W, Santaquin, UT 84655","precinct":"25SQ05","hd":"65","v_score":"1.193887297","decile":"3","lat":39.974553941178,"lng":-111.791445832117},{"id":"38797","name":"Norton Russel","party":"","address":"440 E Main St, Trlr 15, Santaquin, UT 84655","precinct":"25SQ05","hd":"65","v_score":"2.315214949","decile":"5","lat":39.97554081492,"lng":-111.776139901168},{"id":"38994","name":"Pheobe Haley","party":"Rep","address":"440 W Main St, Trlr 22, Santaquin, UT 84655","precinct":"25SQ05","hd":"65","v_score":"1.121327652","decile":"3","lat":39.975956018993,"lng":-111.794506912132},{"id":"39107","name":"Dr. Tyrel D'Amore","party":"","address":"192 N 100 W, Santaquin, UT 84655","precinct":"25SQ05","hd":"65","v_score":"19.3272208","decile":"10","lat":39.978707665919,"lng":-111.787267863421},{"id":"39300","name":"Gwyneth Nicolas PhD","party":"","address":"55 N 200 W, Santaquin, UT 84655","precinct":"25SQ05","hd":"65","v_score":"6.74007049","decile":"8","lat":39.976496094311,"lng":-111.789580229742},{"id":"39342","name":"Mr. Justin Hartmann III","party":"Rep","address":"111 W 100 S, # B, Santaquin, UT 84655","precinct":"25SQ05","hd":"65","v_score":"0","decile":"1","lat":39.973948583269,"lng":-111.787634856801},{"id":"39343","name":"Ms. Arden Hettinger","party":"","address":"265 N 300 E, Santaquin, UT 84655","precinct":"25SQ05","hd":"65","v_score":"16.67870344","decile":"9","lat":39.979922310754,"lng":-111.779019803643},{"id":"39727","name":"Malvin Koch","party":"","address":"282 W 200 S, Santaquin, UT 84655","precinct":"25SQ05","hd":"65","v_score":"3.93832808","decile":"6","lat":39.972419126125,"lng":-111.790672992756},{"id":"39811","name":"Enos Bailey","party":"","address":"88 N 300 E, Santaquin, UT 84655","precinct":"25SQ05","hd":"65","v_score":"2.660162957","decile":"5","lat":39.977005205798,"lng":-111.778886696921},{"id":"39872","name":"Deric Kassulke III","party":"Dem","address":"187 E 100 N, Santaquin, UT 84655","precinct":"25SQ05","hd":"65","v_score":"0","decile":"1","lat":39.97728768483,"lng":-111.781400944035},{"id":"39955","name":"Tabetha Huels","party":"","address":"144 S 200 W, Santaquin, UT 84655","precinct":"25SQ05","hd":"65","v_score":"19.24455128","decile":"10","lat":39.973261173892,"lng":-111.789600260382},{"id":"40180","name":"Jaime Stark","party":"Dem","address":"90 N 300 W, Santaquin, UT 84655","precinct":"25SQ05","hd":"65","v_score":"1.46627566","decile":"4","lat":39.977081257277,"lng":-111.791509581941},{"id":"40193","name":"Mabelle Jast","party":"","address":"36 N 200 W, Santaquin, UT 84655","precinct":"25SQ05","hd":"65","v_score":"2.315214949","decile":"5","lat":39.976199260977,"lng":-111.789432338927},{"id":"41936","name":"Sasha O'Connell MD","party":"Dem","address":"187 N 200 E, Santaquin, UT 84655","precinct":"25SQ05","hd":"65","v_score":"11.45021068","decile":"9","lat":39.978600252851,"lng":-111.781142683554},{"id":"42575","name":"Jaimie Schaden","party":"Rep","address":"125 E 100 N, Apt D, Santaquin, UT 84655","precinct":"25SQ05","hd":"65","v_score":"2.315214949","decile":"5","lat":39.977292968367,"lng":-111.782618778019},{"id":"42735","name":"Tanja Mraz","party":"Rep","address":"180 S 200 E, Santaquin, UT 84655","precinct":"25SQ05","hd":"65","v_score":"2.817000428","decile":"6","lat":39.972706510849,"lng":-111.781168439197},{"id":"43714","name":"Mr. Jennings Steuber","party":"","address":"171 N 100 E, Santaquin, UT 84655","precinct":"25SQ05","hd":"65","v_score":"8.421194992","decile":"8","lat":39.978364570494,"lng":-111.783230719546},{"id":"43718","name":"Anika Dooley","party":"Rep","address":"222 W 100 S, Santaquin, UT 84655","precinct":"25SQ05","hd":"65","v_score":"4.137918904","decile":"7","lat":39.974055339791,"lng":-111.790039309962},{"id":"45270","name":"Skylar McCullough","party":"","address":"41 E 100 S, Santaquin, UT 84655","precinct":"25SQ05","hd":"65","v_score":"1.121327652","decile":"3","lat":39.97403513158,"lng":-111.784388988361},{"id":"45791","name":"Odis Schumm-Olson","party":"","address":"189 N 200 E, Santaquin, UT 84655","precinct":"25SQ05","hd":"65","v_score":"0","decile":"1","lat":39.978630791991,"lng":-111.781142171721},{"id":"46280","name":"Thompson Koch","party":"Rep","address":"113 N 300 W, Santaquin, UT 84655","precinct":"25SQ05","hd":"65","v_score":"2.958579882","decile":"6","lat":39.977502996157,"lng":-111.791666174734},{"id":"47818","name":"Debbie Hartmann PhD","party":"","address":"158 S 200 E, Santaquin, UT 84655","precinct":"25SQ05","hd":"65","v_score":"12.65668843","decile":"9","lat":39.973038398999,"lng":-111.781171251766},{"id":"48294","name":"Dondre Rosenbaum","party":"Dem","address":"125 W 300 N, Santaquin, UT 84655","precinct":"25SQ05","hd":"65","v_score":"3.781490609","decile":"6","lat":39.980470478975,"lng":-111.78789702653},{"id":"48313","name":"Jovan Champlin","party":"","address":"219 E 200 N, Santaquin, UT 84655","precinct":"25SQ05","hd":"65","v_score":"2.315214949","decile":"5","lat":39.978897338526,"lng":-111.780630595387},{"id":"48583","name":"Sherman Cremin","party":"","address":"123 E 100 S, Santaquin, UT 84655","precinct":"25SQ05","hd":"65","v_score":"0","decile":"1","lat":39.974021537454,"lng":-111.782672411927},{"id":"48817","name":"Mr. Isam Rippin IV","party":"Rep","address":"113 E 200 N, Santaquin, UT 84655","precinct":"25SQ05","hd":"65","v_score":"16.75150098","decile":"9","lat":39.978904992391,"lng":-111.782839335933},{"id":"49222","name":"Darla O'Connell","party":"Dem","address":"284 N 300 W, Santaquin, UT 84655","precinct":"25SQ05","hd":"65","v_score":"2.315214949","decile":"5","lat":39.980275583923,"lng":-111.791543113829},{"id":"49229","name":"Kip Cummings","party":"","address":"76 S 300 W, Santaquin, UT 84655","precinct":"25SQ05","hd":"65","v_score":"2.660162957","decile":"5","lat":39.974406281255,"lng":-111.791592085919},{"id":"49940","name":"Taryn Lubowitz PhD","party":"","address":"161 N 400 E, Santaquin, UT 84655","precinct":"25SQ05","hd":"65","v_score":"3.93832808","decile":"6","lat":39.978177042606,"lng":-111.776982535024},{"id":"50945","name":"Fronie Crist","party":"","address":"87 S 100 E, Santaquin, UT 84655","precinct":"25SQ05","hd":"65","v_score":"2.587603312","decile":"5","lat":39.974205604604,"lng":-111.783102541206},{"id":"51630","name":"Stephan Frami","party":"Dem","address":"150 W 200 N, Santaquin, UT 84655","precinct":"25SQ05","hd":"65","v_score":"4.409183253","decile":"7","lat":39.978906164798,"lng":-111.788435833161},{"id":"52027","name":"Mahalie Bartell","party":"Dem","address":"41 E 100 S, Santaquin, UT 84655","precinct":"25SQ05","hd":"65","v_score":"1.623113131","decile":"5","lat":39.97403513158,"lng":-111.784388988361},{"id":"52035","name":"Mrs. Mima Beer","party":"","address":"220 N 350 W, Santaquin, UT 84655","precinct":"25SQ05","hd":"65","v_score":"0","decile":"1","lat":39.979261684729,"lng":-111.793309180356},{"id":"52304","name":"Austin Rowe","party":"Dem","address":"44 E 200 N, Santaquin, UT 84655","precinct":"25SQ05","hd":"65","v_score":"8.489090786","decile":"8","lat":39.978796770285,"lng":-111.784309871928},{"id":"52769","name":"Racheal Kozey","party":"","address":"136 N 200 W, Santaquin, UT 84655","precinct":"25SQ05","hd":"65","v_score":"2.315214949","decile":"5","lat":39.977922718558,"lng":-111.789420367266},{"id":"52833","name":"Merlene Thompson PhD","party":"Dem","address":"188 S Center St, Santaquin, UT 84655","precinct":"25SQ05","hd":"65","v_score":"1.193887297","decile":"3","lat":39.972564628823,"lng":-111.785351053859},{"id":"53436","name":"Alek Bahringer-Luettgen","party":"Dem","address":"52 E 100 N, Santaquin, UT 84655","precinct":"25SQ05","hd":"65","v_score":"2.660162957","decile":"5","lat":39.977176422474,"lng":-111.78415995495},{"id":"53833","name":"Manervia Tremblay","party":"","address":"191 N 100 W, Santaquin, UT 84655","precinct":"25SQ05","hd":"65","v_score":"3.781490609","decile":"6","lat":39.978677487292,"lng":-111.78741765511},{"id":"53987","name":"Kamryn Murazik","party":"","address":"69 E 100 N, Santaquin, UT 84655","precinct":"25SQ05","hd":"65","v_score":"5.546183193","decile":"7","lat":39.977292456872,"lng":-111.783828478284},{"id":"54004","name":"Loris Walter","party":"","address":"32 N Center St, Apt B, Santaquin, UT 84655","precinct":"25SQ05","hd":"65","v_score":"5.40460374","decile":"7","lat":39.976136413054,"lng":-111.78516972496},{"id":"54427","name":"Ladarius King","party":"Dem","address":"27 W Main St, Apt 1, Santaquin, UT 84655","precinct":"25SQ05","hd":"65","v_score":"0","decile":"1","lat":39.9755492117,"lng":-111.785844690392},{"id":"54442","name":"Althea Hegmann","party":"","address":"53 E 200 N, Santaquin, UT 84655","precinct":"25SQ05","hd":"65","v_score":"11.04973188","decile":"9","lat":39.978910582224,"lng":-111.784129787943},{"id":"55218","name":"Leonia Bosco","party":"","address":"130 W 100 S, Santaquin, UT 84655","precinct":"25SQ05","hd":"65","v_score":"0","decile":"1","lat":39.974061463157,"lng":-111.788046886525},{"id":"55844","name":"Twyla Williamson","party":"Rep","address":"631 W 200 N, Santaquin, UT 84655","precinct":"25SQ05","hd":"65","v_score":"0","decile":"1","lat":39.979749018045,"lng":-111.795665539449},{"id":"56260","name":"Hymen Kshlerin","party":"Dem","address":"258 W 100 S, Santaquin, UT 84655","precinct":"25SQ05","hd":"65","v_score":"1.193887297","decile":"3","lat":39.974055339846,"lng":-111.790767747161},{"id":"56653","name":"Jayce Buckridge","party":"Rep","address":"350 E 100 S, Santaquin, UT 84655","precinct":"25SQ05","hd":"65","v_score":"7.849871391","decile":"8","lat":39.973950103139,"lng":-111.777935726602},{"id":"56935","name":"Junius Halvorson","party":"","address":"337 W 200 N, Santaquin, UT 84655","precinct":"25SQ05","hd":"65","v_score":"2.315214949","decile":"5","lat":39.978807566658,"lng":-111.79227501913},{"id":"57021","name":"Lazaro Reinger-Zulauf","party":"Rep","address":"340 E 300 N, Santaquin, UT 84655","precinct":"25SQ05","hd":"65","v_score":"2.958579882","decile":"6","lat":39.980453019845,"lng":-111.778091907299},{"id":"57770","name":"Betsey Schmidt","party":"","address":"210 N 350 W, Santaquin, UT 84655","precinct":"25SQ05","hd":"65","v_score":"1.193887297","decile":"3","lat":39.979097968079,"lng":-111.793305751756},{"id":"58044","name":"Tana Blanda-Howe","party":"Dem","address":"45 E 300 S, Santaquin, UT 84655","precinct":"25SQ05","hd":"65","v_score":"1.193887297","decile":"3","lat":39.970783946947,"lng":-111.784559889196},{"id":"58066","name":"Lindsay Fritsch MD","party":"","address":"114 N 200 E, Santaquin, UT 84655","precinct":"25SQ05","hd":"65","v_score":"0","decile":"1","lat":39.977499372209,"lng":-111.781011583302},{"id":"58110","name":"Mr. Gaylen Lynch","party":"Rep","address":"261 S 300 E, Apt C, Santaquin, UT 84655","precinct":"25SQ05","hd":"65","v_score":"6.027167436","decile":"7","lat":39.971441264314,"lng":-111.778910128215},{"id":"58915","name":"Ozzie Smitham","party":"","address":"60 S 200 W, Santaquin, UT 84655","precinct":"25SQ05","hd":"65","v_score":"2.315214949","decile":"5","lat":39.974648692649,"lng":-111.789580320173},{"id":"59173","name":"Shianne Sanford DDS","party":"Dem","address":"175 S 100 E, Santaquin, UT 84655","precinct":"25SQ05","hd":"65","v_score":"4.15282392","decile":"7","lat":39.972794819743,"lng":-111.783114071944},{"id":"61722","name":"Dusty Dibbert","party":"Dem","address":"478 W Main St, Santaquin, UT 84655","precinct":"25SQ05","hd":"65","v_score":"2.315214949","decile":"5","lat":39.976054254162,"lng":-111.794758967525},{"id":"61727","name":"Dr. Toshiko Marquardt","party":"","address":"27 W Main St, Apt 26, Santaquin, UT 84655","precinct":"25SQ05","hd":"65","v_score":"8.985747318","decile":"8","lat":39.9755492117,"lng":-111.785844690392},{"id":"61826","name":"Dr. Isreal Rempel I","party":"Dem","address":"232 E 100 N, Santaquin, UT 84655","precinct":"25SQ05","hd":"65","v_score":"5.273794831","decile":"7","lat":39.977168699945,"lng":-111.780368871517},{"id":"61997","name":"Mr. Cleo Huel","party":"Rep","address":"261 S 100 W, Santaquin, UT 84655","precinct":"25SQ05","hd":"65","v_score":"0","decile":"1","lat":39.971380214623,"lng":-111.787308170672},{"id":"62610","name":"Nakita Herman PhD","party":"","address":"165 W 100 N, Unit 4, Santaquin, UT 84655","precinct":"25SQ05","hd":"65","v_score":"0","decile":"1","lat":39.977171747938,"lng":-111.788733795264},{"id":"63189","name":"Delpha Towne-O'Kon","party":"","address":"138 W Main St, Santaquin, UT 84655","precinct":"25SQ05","hd":"65","v_score":"1.121327652","decile":"3","lat":39.975660898786,"lng":-111.788212579745},{"id":"63448","name":"Lesia Botsford","party":"","address":"460 W 500 S, Apt 4, Santaquin, UT 84655","precinct":"25SQ05","hd":"65","v_score":"1.121327652","decile":"3","lat":39.983279450931,"lng":-111.795998121519},{"id":"63494","name":"Ms. Danica Schuppe DVM","party":"Dem","address":"145 E 100 N, Santaquin, UT 84655","precinct":"25SQ05","hd":"65","v_score":"0","decile":"1","lat":39.977291264,"lng":-111.782225928347},{"id":"64490","name":"Miss Hope Herzog PhD","party":"","address":"358 E 200 S, Santaquin, UT 84655","precinct":"25SQ05","hd":"65","v_score":"2.315214949","decile":"5","lat":39.972311747671,"lng":-111.777801880361},{"id":"64565","name":"Ms. Kiera Hermiston","party":"Dem","address":"285 N 300 E, Santaquin, UT 84655","precinct":"25SQ05","hd":"65","v_score":"0","decile":"1","lat":39.980242395872,"lng":-111.779014668547},{"id":"65045","name":"Darla Bradtke","party":"","address":"476 W Main St, Santaquin, UT 84655","precinct":"25SQ05","hd":"65","v_score":"2.315214949","decile":"5","lat":39.976049067358,"lng":-111.794745695414},{"id":"65651","name":"Areli Weissnat","party":"Dem","address":"238 N 200 W, Santaquin, UT 84655","precinct":"25SQ05","hd":"65","v_score":"0","decile":"1","lat":39.979512244744,"lng":-111.789409559173},{"id":"65653","name":"Tracey Stark","party":"","address":"238 N 200 W, Santaquin, UT 84655","precinct":"25SQ05","hd":"65","v_score":"1.121327652","decile":"3","lat":39.979512244744,"lng":-111.789409559173},{"id":"66271","name":"Ozell Gutmann","party":"","address":"191 N 100 W, Santaquin, UT 84655","precinct":"25SQ05","hd":"65","v_score":"2.315214949","decile":"5","lat":39.978677487292,"lng":-111.78741765511},{"id":"66391","name":"Verdie Feil-Hessel","party":"","address":"27 W Main St, Apt 5, Santaquin, UT 84655","precinct":"25SQ05","hd":"65","v_score":"5.429380732","decile":"7","lat":39.9755492117,"lng":-111.785844690392},{"id":"66615","name":"Ms. Eleanor Douglas PhD","party":"","address":"85 N 100 E, Santaquin, UT 84655","precinct":"25SQ05","hd":"65","v_score":"1.121327652","decile":"3","lat":39.976962997215,"lng":-111.783239401108},{"id":"66681","name":"Mr. Charlie Farrell","party":"","address":"150 E 200 N, Santaquin, UT 84655","precinct":"25SQ05","hd":"65","v_score":"0","decile":"1","lat":39.978787162894,"lng":-111.78208852942},{"id":"66764","name":"Mintie Stracke","party":"Rep","address":"235 W 300 N, # 1, Santaquin, UT 84655","precinct":"25SQ05","hd":"65","v_score":"2.315214949","decile":"5","lat":39.980490188346,"lng":-111.790245738295},{"id":"67250","name":"Hale Satterfield-Rosenbaum","party":"Dem","address":"511 W 200 N, Santaquin, UT 84655","precinct":"25SQ05","hd":"65","v_score":"0","decile":"1","lat":40.000327443094,"lng":-111.855368854025},{"id":"67577","name":"Ever Davis","party":"Dem","address":"111 S Center St, Santaquin, UT 84655","precinct":"25SQ05","hd":"65","v_score":"3.93832808","decile":"6","lat":39.973775458845,"lng":-111.785178224377},{"id":"67786","name":"Leanne Pagac","party":"Dem","address":"236 E 200 S, Santaquin, UT 84655","precinct":"25SQ05","hd":"65","v_score":"3.93832808","decile":"6","lat":39.972317357866,"lng":-111.780297839451},{"id":"68345","name":"Mr. Ramsey Kerluke","party":"","address":"38 E 300 N, Santaquin, UT 84655","precinct":"25SQ05","hd":"65","v_score":"0","decile":"1","lat":39.980470135308,"lng":-111.784203416259},{"id":"69457","name":"Mr. Jere Pouros MD","party":"","address":"268 N Center St, Santaquin, UT 84655","precinct":"25SQ05","hd":"65","v_score":"1.193887297","decile":"3","lat":39.979990776917,"lng":-111.785142431418},{"id":"70067","name":"Kayden Cruickshank","party":"Dem","address":"41 N 300 W, Santaquin, UT 84655","precinct":"25SQ05","hd":"65","v_score":"0","decile":"1","lat":39.976299610873,"lng":-111.791637793403},{"id":"70356","name":"Efrem Schiller","party":"Rep","address":"440 E Main St, Trlr 6, Santaquin, UT 84655","precinct":"25SQ05","hd":"65","v_score":"3.93832808","decile":"6","lat":39.97554081492,"lng":-111.776139901168},{"id":"70433","name":"Lucius Mohr III","party":"Dem","address":"279 N 100 E, Santaquin, UT 84655","precinct":"25SQ05","hd":"65","v_score":"2.315214949","decile":"5","lat":39.980154898858,"lng":-111.783219677155},{"id":"70705","name":"Marco Lowe II","party":"Dem","address":"35 E 300 S, # 2, Santaquin, UT 84655","precinct":"25SQ05","hd":"65","v_score":"1.121327652","decile":"3","lat":39.970784842567,"lng":-111.784708560266},{"id":"72108","name":"Debbie Cole","party":"","address":"155 E 300 S, Santaquin, UT 84655","precinct":"25SQ05","hd":"65","v_score":"0","decile":"1","lat":39.970785108319,"lng":-111.782048107272},{"id":"72646","name":"Newt Rogahn","party":"","address":"158 N 100 W, Santaquin, UT 84655","precinct":"25SQ05","hd":"65","v_score":"6.979934218","decile":"8","lat":39.978182258112,"lng":-111.787272217696},{"id":"72647","name":"Phil Swaniawski-Swaniawski","party":"Rep","address":"440 E Main St, Trlr 22, Santaquin, UT 84655","precinct":"25SQ05","hd":"65","v_score":"1.121327652","decile":"3","lat":39.97554081492,"lng":-111.776139901168},{"id":"72801","name":"Ronaldo Hyatt-O'Conner","party":"","address":"46 W 100 N, Santaquin, UT 84655","precinct":"25SQ05","hd":"65","v_score":"2.315214949","decile":"5","lat":39.977286339132,"lng":-111.786213056677},{"id":"72935","name":"Michell Murray","party":"Dem","address":"75 S 300 W, Santaquin, UT 84655","precinct":"25SQ05","hd":"65","v_score":"2.315214949","decile":"5","lat":39.974431784017,"lng":-111.791443102364},{"id":"73023","name":"Kali Ryan","party":"","address":"350 S 300 W, Santaquin, UT 84655","precinct":"25SQ05","hd":"65","v_score":"1.121327652","decile":"3","lat":39.969900368104,"lng":-111.791099269029},{"id":"73457","name":"Shanon Denesik","party":"","address":"62 E 200 N, Santaquin, UT 84655","precinct":"25SQ05","hd":"65","v_score":"2.744440783","decile":"5","lat":39.978795204401,"lng":-111.783948941956},{"id":"73538","name":"Miss Genevra Stehr DDS","party":"","address":"345 W 200 N, Santaquin, UT 84655","precinct":"25SQ05","hd":"65","v_score":"2.315214949","decile":"5","lat":39.978808912133,"lng":-111.792407547343},{"id":"73622","name":"Hildred Breitenberg","party":"Rep","address":"175 S 300 W, Santaquin, UT 84655","precinct":"25SQ05","hd":"65","v_score":"8.373412339","decile":"8","lat":39.972723393715,"lng":-111.790890932861},{"id":"73944","name":"Toya Altenwerth","party":"","address":"273 W 100 N, Santaquin, UT 84655","precinct":"25SQ05","hd":"65","v_score":"2.315214949","decile":"5","lat":39.977197606621,"lng":-111.791002023186},{"id":"74037","name":"Kip Feil","party":"Dem","address":"280 W 200 N, Santaquin, UT 84655","precinct":"25SQ05","hd":"65","v_score":"2.315214949","decile":"5","lat":39.978912949922,"lng":-111.791166555611},{"id":"75529","name":"Miss Berdie Purdy PhD","party":"Dem","address":"53 E 200 N, Santaquin, UT 84655","precinct":"25SQ05","hd":"65","v_score":"6.027167436","decile":"7","lat":39.978910582224,"lng":-111.784129787943},{"id":"76613","name":"Dylan Graham DVM","party":"Dem","address":"440 W Main St, Trlr 9, Santaquin, UT 84655","precinct":"25SQ05","hd":"65","v_score":"2.315214949","decile":"5","lat":39.975956018993,"lng":-111.794506912132},{"id":"76929","name":"Yamilex Cormier","party":"","address":"440 W Main St, Trlr 19, Santaquin, UT 84655","precinct":"25SQ05","hd":"65","v_score":"2.315214949","decile":"5","lat":39.975956018993,"lng":-111.794506912132},{"id":"77754","name":"Meyer Marks","party":"Rep","address":"187 N 400 E, Santaquin, UT 84655","precinct":"25SQ05","hd":"65","v_score":"0","decile":"1","lat":39.978578825524,"lng":-111.776986974563},{"id":"78304","name":"Carleton Hermann-Simonis","party":"Rep","address":"440 W Main St, Trlr 14, Santaquin, UT 84655","precinct":"25SQ05","hd":"65","v_score":"2.315214949","decile":"5","lat":39.975956018993,"lng":-111.794506912132},{"id":"78308","name":"Dr. Khiry Ratke Sr.","party":"Rep","address":"440 W Main St, Trlr 14, Santaquin, UT 84655","precinct":"25SQ05","hd":"65","v_score":"2.315214949","decile":"5","lat":39.975956018993,"lng":-111.794506912132},{"id":"78436","name":"Fidencio Ledner","party":"","address":"134 N 100 W, Santaquin, UT 84655","precinct":"25SQ05","hd":"65","v_score":"0","decile":"1","lat":39.977811382013,"lng":-111.787275291301},{"id":"78444","name":"Adam Crooks","party":"Rep","address":"250 E Main St, Santaquin, UT 84655","precinct":"25SQ05","hd":"65","v_score":"0","decile":"1","lat":39.975538333692,"lng":-111.780021918915},{"id":"79424","name":"Tarah Hartmann","party":"Dem","address":"44 E 200 N, Santaquin, UT 84655","precinct":"25SQ05","hd":"65","v_score":"2.315214949","decile":"5","lat":39.978796770285,"lng":-111.784309871928},{"id":"79497","name":"Thyra Jacobi","party":"","address":"60 S 200 W, Santaquin, UT 84655","precinct":"25SQ05","hd":"65","v_score":"2.315214949","decile":"5","lat":39.974648692649,"lng":-111.789580320173},{"id":"79501","name":"Cherie Feest","party":"","address":"440 W Main St, Trlr 23, Santaquin, UT 84655","precinct":"25SQ05","hd":"65","v_score":"1.121327652","decile":"3","lat":39.975956018993,"lng":-111.794506912132},{"id":"80640","name":"Jaxton Armstrong-Fisher","party":"","address":"185 W 100 N, Santaquin, UT 84655","precinct":"25SQ05","hd":"65","v_score":"3.93832808","decile":"6","lat":39.977171747969,"lng":-111.789141338324},{"id":"81085","name":"Dr. Elige Brown","party":"Rep","address":"440 E Main St, Trlr 27, Santaquin, UT 84655","precinct":"25SQ05","hd":"65","v_score":"0","decile":"1","lat":39.97554081492,"lng":-111.776139901168},{"id":"82430","name":"Mr. Calhoun Schaden I","party":"","address":"37 S 400 W, Santaquin, UT 84655","precinct":"25SQ05","hd":"65","v_score":"0","decile":"1","lat":39.975272967513,"lng":-111.792943724342},{"id":"83300","name":"Whitley Farrell","party":"Dem","address":"76 S 300 W, Santaquin, UT 84655","precinct":"25SQ05","hd":"65","v_score":"0","decile":"1","lat":39.974406281255,"lng":-111.791592085919},{"id":"83598","name":"Mrs. Lavinia Osinski MD","party":"Rep","address":"310 W 500 S, Santaquin, UT 84655","precinct":"25SQ05","hd":"65","v_score":"2.817000428","decile":"6","lat":39.981442413018,"lng":-111.795651265249},{"id":"84435","name":"Abram Spencer","party":"Rep","address":"111 N 200 W, Santaquin, UT 84655","precinct":"25SQ05","hd":"65","v_score":"1.193887297","decile":"3","lat":39.977376979602,"lng":-111.789574826037},{"id":"84448","name":"Dr. Tameka Orn DDS","party":"Dem","address":"410 W 30 S, Santaquin, UT 84655","precinct":"25SQ05","hd":"65","v_score":"3.781490609","decile":"6","lat":39.975200595596,"lng":-111.793209922671},{"id":"85372","name":"Dr. Aurthur Greenholt","party":"Dem","address":"45 S 300 E, Santaquin, UT 84655","precinct":"25SQ05","hd":"65","v_score":"0","decile":"1","lat":39.974870970486,"lng":-111.778893742084},{"id":"85500","name":"Lamarcus Rau-Dickinson","party":"Rep","address":"261 S 300 E, Santaquin, UT 84655","precinct":"25SQ05","hd":"65","v_score":"1.193887297","decile":"3","lat":39.971441264314,"lng":-111.778910128215},{"id":"86180","name":"Metha Kessler","party":"Dem","address":"178 E Main St, Santaquin, UT 84655","precinct":"25SQ05","hd":"65","v_score":"0","decile":"1","lat":39.975535778475,"lng":-111.781565177303},{"id":"86502","name":"Blanchie Keebler","party":"Dem","address":"158 S 400 E, Santaquin, UT 84655","precinct":"25SQ05","hd":"65","v_score":"0","decile":"1","lat":39.973066523358,"lng":-111.777032504702},{"id":"86795","name":"Mr. Con Schmeler I","party":"Dem","address":"230 S 200 W, Santaquin, UT 84655","precinct":"25SQ05","hd":"65","v_score":"1.193887297","decile":"4","lat":39.97185164283,"lng":-111.789616280075},{"id":"86989","name":"Severo Rosenbaum-Hansen","party":"Dem","address":"180 S 300 E, Santaquin, UT 84655","precinct":"25SQ05","hd":"65","v_score":"1.193887297","decile":"4","lat":39.972703207899,"lng":-111.779056871238},{"id":"87225","name":"Arvo Balistreri PhD","party":"Dem","address":"161 N 400 E, Santaquin, UT 84655","precinct":"25SQ05","hd":"65","v_score":"2.817000428","decile":"6","lat":39.978177042606,"lng":-111.776982535024},{"id":"87796","name":"Elsworth Pagac","party":"Dem","address":"225 N 100 W, Santaquin, UT 84655","precinct":"25SQ05","hd":"65","v_score":"0","decile":"1","lat":39.979295267964,"lng":-111.787413796251},{"id":"87992","name":"Nona Schroeder-Swift","party":"","address":"180 S 300 E, Santaquin, UT 84655","precinct":"25SQ05","hd":"65","v_score":"0","decile":"1","lat":39.972703207899,"lng":-111.779056871238},{"id":"88418","name":"Delores Legros","party":"","address":"140 S 400 E, Santaquin, UT 84655","precinct":"25SQ05","hd":"65","v_score":"0","decile":"1","lat":39.973346440229,"lng":-111.777027877941},{"id":"89467","name":"Delilah Eichmann","party":"","address":"290 E Main St, Santaquin, UT 84655","precinct":"25SQ05","hd":"65","v_score":"1.193887297","decile":"4","lat":39.975541747382,"lng":-111.779219687534},{"id":"89809","name":"Delila Pfeffer MD","party":"Rep","address":"27 W Main St, Apt 12, Santaquin, UT 84655","precinct":"25SQ05","hd":"65","v_score":"0","decile":"1","lat":39.9755492117,"lng":-111.785844690392},{"id":"90524","name":"Odalys Harber","party":"Rep","address":"125 E 100 N, Apt B, Santaquin, UT 84655","precinct":"25SQ05","hd":"65","v_score":"0","decile":"1","lat":39.977292968367,"lng":-111.782618778019},{"id":"90862","name":"Jerica Smitham","party":"","address":"37 S 400 W, Santaquin, UT 84655","precinct":"25SQ05","hd":"65","v_score":"2.817000428","decile":"6","lat":39.975272967513,"lng":-111.792943724342},{"id":"91551","name":"Coen Keebler","party":"Rep","address":"155 N Center St, Santaquin, UT 84655","precinct":"25SQ05","hd":"65","v_score":"1.193887297","decile":"4","lat":39.978121051637,"lng":-111.785305230227},{"id":"91574","name":"Toma Boehm","party":"Rep","address":"155 N Center St, Santaquin, UT 84655","precinct":"25SQ05","hd":"65","v_score":"1.193887297","decile":"4","lat":39.978121051637,"lng":-111.785305230227},{"id":"92136","name":"Lorenza Von","party":"Rep","address":"150 E 100 S, Santaquin, UT 84655","precinct":"25SQ05","hd":"65","v_score":"0","decile":"1","lat":39.973909333953,"lng":-111.782121573841},{"id":"92587","name":"Sky Will","party":"Dem","address":"267 S 300 W, Santaquin, UT 84655","precinct":"25SQ05","hd":"65","v_score":"2.817000428","decile":"6","lat":39.971297095977,"lng":-111.79095905057},{"id":"92683","name":"Winnie Maggio-Schmeler","party":"","address":"65 W 100 N, Santaquin, UT 84655","precinct":"25SQ05","hd":"65","v_score":"1.193887297","decile":"4","lat":39.977171747777,"lng":-111.786596663043},{"id":"93455","name":"Angelo Marquardt","party":"Dem","address":"222 W 100 S, Santaquin, UT 84655","precinct":"25SQ05","hd":"65","v_score":"0","decile":"1","lat":39.974055339791,"lng":-111.790039309962},{"id":"93716","name":"Raina Sipes-Marvin","party":"","address":"286 W 200 S, Santaquin, UT 84655","precinct":"25SQ05","hd":"65","v_score":"2.817000428","decile":"6","lat":39.972418797409,"lng":-111.790724930588},{"id":"94095","name":"Dr. Raekwon Lemke III","party":"Dem","address":"631 W 200 N, Santaquin, UT 84655","precinct":"25SQ05","hd":"65","v_score":"0","decile":"1","lat":39.979749018045,"lng":-111.795665539449},{"id":"94930","name":"Lance Rosenbaum","party":"Dem","address":"140 S 400 E, Santaquin, UT 84655","precinct":"25SQ05","hd":"65","v_score":"0","decile":"1","lat":39.973346440229,"lng":-111.777027877941},{"id":"95117","name":"Kaye Schultz","party":"","address":"339 W Main St, Santaquin, UT 84655","precinct":"25SQ05","hd":"65","v_score":"0","decile":"1","lat":39.975567707934,"lng":-111.792146953157},{"id":"96012","name":"Jessy Jerde","party":"","address":"150 E 200 N, Santaquin, UT 84655","precinct":"25SQ05","hd":"65","v_score":"1.193887297","decile":"4","lat":39.978787162894,"lng":-111.78208852942},{"id":"96973","name":"Gerardo Schaden","party":"Rep","address":"290 E Main St, Santaquin, UT 84655","precinct":"25SQ05","hd":"65","v_score":"1.193887297","decile":"4","lat":39.975541747382,"lng":-111.779219687534},{"id":"98507","name":"Raheem Brakus","party":"Rep","address":"360 E 200 N, Santaquin, UT 84655","precinct":"25SQ05","hd":"65","v_score":"1.193887297","decile":"4","lat":39.978771877832,"lng":-111.777726460492},{"id":"98671","name":"Jaidyn Kerluke","party":"Rep","address":"130 N 100 E, Santaquin, UT 84655","precinct":"25SQ05","hd":"65","v_score":"0","decile":"1","lat":39.977753054734,"lng":-111.783086302383},{"id":"99006","name":"Rona Jones","party":"Dem","address":"324 W Main St, Santaquin, UT 84655","precinct":"25SQ05","hd":"65","v_score":"0","decile":"1","lat":39.975680043041,"lng":-111.79195065796},{"id":"99611","name":"Loren Ebert-Ullrich","party":"Rep","address":"250 N 350 W, Santaquin, UT 84655","precinct":"25SQ05","hd":"65","v_score":"4.905839784","decile":"7","lat":39.97975283468,"lng":-111.793319466155},{"id":"99858","name":"Myrtis Strosin","party":"Dem","address":"41 E 100 S, Santaquin, UT 84655","precinct":"25SQ05","hd":"65","v_score":"0","decile":"1","lat":39.97403513158,"lng":-111.784388988361},{"id":"99863","name":"Dr. Cindi Wisozk MD","party":"Rep","address":"88 N 300 E, Santaquin, UT 84655","precinct":"25SQ05","hd":"65","v_score":"0","decile":"1","lat":39.977005205798,"lng":-111.778886696921},{"id":"100171","name":"Kelsey Bode","party":"Rep","address":"237 S 200 E, Santaquin, UT 84655","precinct":"25SQ05","hd":"65","v_score":"0","decile":"1","lat":39.971760405973,"lng":-111.781026302829},{"id":"100269","name":"Missy Klein","party":"","address":"236 N 300 W, Santaquin, UT 84655","precinct":"25SQ05","hd":"65","v_score":"1.193887297","decile":"4","lat":39.979498565708,"lng":-111.791534891514},{"id":"100357","name":"Montie King-Stamm","party":"","address":"222 W 100 S, Santaquin, UT 84655","precinct":"25SQ05","hd":"65","v_score":"1.193887297","decile":"4","lat":39.974055339791,"lng":-111.790039309962},{"id":"100457","name":"York Littel IV","party":"Dem","address":"86 N 300 W, Santaquin, UT 84655","precinct":"25SQ05","hd":"65","v_score":"0","decile":"1","lat":39.97701740588,"lng":-111.791507837375},{"id":"100604","name":"Jahir Marks","party":"","address":"196 W 100 N, Santaquin, UT 84655","precinct":"25SQ05","hd":"65","v_score":"0","decile":"1","lat":39.977286339371,"lng":-111.789385864145},{"id":"100607","name":"Adrain Kemmer V","party":"Dem","address":"55 N 200 W, Santaquin, UT 84655","precinct":"25SQ05","hd":"65","v_score":"0","decile":"1","lat":39.976496094311,"lng":-111.789580229742},{"id":"100610","name":"Thelma Hagenes","party":"","address":"35 E 300 S, Apt 1, Santaquin, UT 84655","precinct":"25SQ05","hd":"65","v_score":"1.193887297","decile":"4","lat":39.970784842567,"lng":-111.784708560266},{"id":"100690","name":"Lonnie Hermann","party":"Dem","address":"290 E Main St, Santaquin, UT 84655","precinct":"25SQ05","hd":"65","v_score":"4.905839784","decile":"7","lat":39.975541747382,"lng":-111.779219687534},{"id":"101035","name":"Felicitas McGlynn","party":"","address":"245 W 100 N, Santaquin, UT 84655","precinct":"25SQ05","hd":"65","v_score":"0","decile":"2","lat":39.977188057323,"lng":-111.790448166386},{"id":"101305","name":"Sada Kemmer-Hudson","party":"Rep","address":"160 S 200 W, Santaquin, UT 84655","precinct":"25SQ05","hd":"65","v_score":"4.905839784","decile":"7","lat":39.973013923159,"lng":-111.789602309452},{"id":"101560","name":"Bartholomew Swaniawski-Heathcote","party":"Rep","address":"237 E 200 N, Santaquin, UT 84655","precinct":"25SQ05","hd":"65","v_score":"0","decile":"2","lat":39.978897338499,"lng":-111.780272072585},{"id":"101685","name":"Darryn Moore","party":"Rep","address":"180 N 300 W, Santaquin, UT 84655","precinct":"25SQ05","hd":"65","v_score":"0","decile":"2","lat":39.978529576394,"lng":-111.791525332631},{"id":"102935","name":"Kael Johnson","party":"Rep","address":"61 W 200 S, Santaquin, UT 84655","precinct":"25SQ05","hd":"65","v_score":"0","decile":"2","lat":39.972299186943,"lng":-111.786539639145},{"id":"102980","name":"Dr. Sonny Feest","party":"","address":"268 W 100 S, Santaquin, UT 84655","precinct":"25SQ05","hd":"65","v_score":"0","decile":"2","lat":39.974056659065,"lng":-111.791077391594},{"id":"103079","name":"Mrs. Josie Reinger MD","party":"Dem","address":"112 N Center St, Santaquin, UT 84655","precinct":"25SQ05","hd":"65","v_score":"1.193887297","decile":"4","lat":39.977471533861,"lng":-111.785159278894},{"id":"103412","name":"Mr. Nile Stanton","party":"Rep","address":"290 W Main St, Santaquin, UT 84655","precinct":"25SQ05","hd":"65","v_score":"0","decile":"2","lat":39.975674082195,"lng":-111.791315252537},{"id":"103461","name":"Mr. Stanislaus O'Connell MD","party":"Rep","address":"45 S 400 W, Santaquin, UT 84655","precinct":"25SQ05","hd":"65","v_score":"1.193887297","decile":"4","lat":39.975202117358,"lng":-111.792937398445},{"id":"103498","name":"Dr. Clotilde Murphy DDS","party":"","address":"294 W 200 S, Santaquin, UT 84655","precinct":"25SQ05","hd":"65","v_score":"1.193887297","decile":"4","lat":39.972418139975,"lng":-111.790828806252},{"id":"103816","name":"Dr. Lex Gleichner II","party":"Rep","address":"355 E 200 N, Santaquin, UT 84655","precinct":"25SQ05","hd":"65","v_score":"0","decile":"2","lat":39.978887483256,"lng":-111.777840947044},{"id":"103822","name":"Jerome Von","party":"","address":"355 E 200 N, Santaquin, UT 84655","precinct":"25SQ05","hd":"65","v_score":"0","decile":"2","lat":39.978887483256,"lng":-111.777840947044},{"id":"105011","name":"Alden Doyle","party":"Rep","address":"311 W 300 N, Santaquin, UT 84655","precinct":"25SQ05","hd":"65","v_score":"6.462591196","decile":"7","lat":39.980504477384,"lng":-111.791793626091},{"id":"105568","name":"Kathie Volkman","party":"Rep","address":"324 W Main St, Santaquin, UT 84655","precinct":"25SQ05","hd":"65","v_score":"0","decile":"2","lat":39.975680043041,"lng":-111.79195065796},{"id":"106174","name":"Terrie Simonis","party":"","address":"185 E 200 S, Santaquin, UT 84655","precinct":"25SQ05","hd":"65","v_score":"0","decile":"2","lat":39.972435339329,"lng":-111.781444507123},{"id":"106231","name":"Noma Wehner-O'Hara","party":"Rep","address":"111 N 200 W, Santaquin, UT 84655","precinct":"25SQ05","hd":"65","v_score":"1.193887297","decile":"4","lat":39.977376979602,"lng":-111.789574826037},{"id":"106247","name":"Dr. Maebelle Tillman DDS","party":"Dem","address":"210 N 350 W, Santaquin, UT 84655","precinct":"25SQ05","hd":"65","v_score":"1.193887297","decile":"4","lat":39.979097968079,"lng":-111.793305751756},{"id":"106423","name":"Shannon Howe","party":"Rep","address":"298 W 200 S, Santaquin, UT 84655","precinct":"25SQ05","hd":"65","v_score":"0","decile":"2","lat":39.972417811259,"lng":-111.790880744084},{"id":"107153","name":"Melanie Braun","party":"Dem","address":"185 S Center St, Santaquin, UT 84655","precinct":"25SQ05","hd":"65","v_score":"0","decile":"2","lat":39.972625120639,"lng":-111.785200346411},{"id":"107392","name":"Britny O'Reilly","party":"Dem","address":"370 E 100 S, Santaquin, UT 84655","precinct":"25SQ05","hd":"65","v_score":"1.193887297","decile":"4","lat":39.973956908878,"lng":-111.777552051477},{"id":"107399","name":"Kendal Kling","party":"","address":"375 E 200 N, Santaquin, UT 84655","precinct":"25SQ05","hd":"65","v_score":"0","decile":"2","lat":39.978884078037,"lng":-111.777453606769},{"id":"107689","name":"Barnie Abernathy PhD","party":"","address":"35 E 300 S, Santaquin, UT 84655","precinct":"25SQ05","hd":"65","v_score":"1.193887297","decile":"4","lat":39.970784842567,"lng":-111.784708560266},{"id":"108008","name":"Dr. Burdette Mante","party":"","address":"268 N Center St, Santaquin, UT 84655","precinct":"25SQ05","hd":"65","v_score":"1.193887297","decile":"4","lat":39.979990776917,"lng":-111.785142431418},{"id":"108648","name":"Juwan Dietrich","party":"Dem","address":"210 N 350 W, Santaquin, UT 84655","precinct":"25SQ05","hd":"65","v_score":"0","decile":"2","lat":39.979097968079,"lng":-111.793305751756},{"id":"110091","name":"Jacalyn Hermann","party":"Rep","address":"41 S 200 E, Apt 4, Santaquin, UT 84655","precinct":"25SQ05","hd":"65","v_score":"0","decile":"2","lat":39.974918772203,"lng":-111.781013927125},{"id":"112062","name":"Gwenda Donnelly","party":"Dem","address":"226 E 200 S, Santaquin, UT 84655","precinct":"25SQ05","hd":"65","v_score":"1.193887297","decile":"4","lat":39.972318211044,"lng":-111.78049747965},{"id":"112298","name":"Mr. Diamond Champlin Jr.","party":"Dem","address":"125 W 300 N, Santaquin, UT 84655","precinct":"25SQ05","hd":"65","v_score":"1.193887297","decile":"4","lat":39.980470478975,"lng":-111.78789702653},{"id":"113093","name":"Blaise Marks V","party":"Dem","address":"440 W Main St, Trlr 20, Santaquin, UT 84655","precinct":"25SQ05","hd":"65","v_score":"1.193887297","decile":"4","lat":39.975956018993,"lng":-111.794506912132},{"id":"113681","name":"Shyann Bradtke","party":"Rep","address":"45 S 400 W, Santaquin, UT 84655","precinct":"25SQ05","hd":"65","v_score":"1.193887297","decile":"4","lat":39.975202117358,"lng":-111.792937398445},{"id":"114204","name":"Butler Gutkowski","party":"","address":"88 N 300 E, Santaquin, UT 84655","precinct":"25SQ05","hd":"65","v_score":"1.193887297","decile":"4","lat":39.977005205798,"lng":-111.778886696921},{"id":"114329","name":"Magdalene Cummerata","party":"","address":"260 W 200 N, Santaquin, UT 84655","precinct":"25SQ05","hd":"65","v_score":"0","decile":"2","lat":39.978910751854,"lng":-111.790765413734},{"id":"114351","name":"Remy Dicki","party":"Rep","address":"88 E 100 S, Santaquin, UT 84655","precinct":"25SQ05","hd":"65","v_score":"1.193887297","decile":"4","lat":39.973908340626,"lng":-111.783454967734},{"id":"115002","name":"Dr. Frazier Hessel","party":"Dem","address":"332 E 200 S, Santaquin, UT 84655","precinct":"25SQ05","hd":"65","v_score":"0","decile":"2","lat":39.972311747709,"lng":-111.778298680367},{"id":"115387","name":"Jaden Dooley","party":"","address":"114 E 100 S, Santaquin, UT 84655","precinct":"25SQ05","hd":"65","v_score":"1.193887297","decile":"4","lat":39.973906266188,"lng":-111.782828705878},{"id":"115997","name":"Miss Dianna Hirthe MD","party":"","address":"235 W 300 N, Santaquin, UT 84655","precinct":"25SQ05","hd":"65","v_score":"0","decile":"2","lat":39.980490188346,"lng":-111.790245738295},{"id":"116110","name":"Ms. Hailee McCullough PhD","party":"Rep","address":"520 W Main St, Santaquin, UT 84655","precinct":"25SQ05","hd":"65","v_score":"1.193887297","decile":"4","lat":39.976165411743,"lng":-111.795026795231},{"id":"116174","name":"Todd Sauer","party":"Dem","address":"67 S 300 W, Santaquin, UT 84655","precinct":"25SQ05","hd":"65","v_score":"1.193887297","decile":"4","lat":39.974553941178,"lng":-111.791445832117},{"id":"116718","name":"Mr. Coleton Schimmel","party":"","address":"88 E 100 S, Santaquin, UT 84655","precinct":"25SQ05","hd":"65","v_score":"0","decile":"2","lat":39.973908340626,"lng":-111.783454967734},{"id":"117012","name":"Dr. Nautica Barton","party":"Rep","address":"250 N 350 W, Santaquin, UT 84655","precinct":"25SQ05","hd":"65","v_score":"0","decile":"2","lat":39.97975283468,"lng":-111.793319466155},{"id":"117126","name":"Madden Rice","party":"","address":"440 E Main St, # 49, Santaquin, UT 84655","precinct":"25SQ05","hd":"65","v_score":"0","decile":"2","lat":39.97554081492,"lng":-111.776139901168},{"id":"117903","name":"Seamus Ebert III","party":"Rep","address":"262 W 100 S, Santaquin, UT 84655","precinct":"25SQ05","hd":"65","v_score":"0","decile":"2","lat":39.974055339853,"lng":-111.790848684628},{"id":"118895","name":"Mrs. Corinna Corkery","party":"","address":"27 W Main St, Apt 6, Santaquin, UT 84655","precinct":"25SQ05","hd":"65","v_score":"0","decile":"2","lat":39.9755492117,"lng":-111.785844690392},{"id":"119065","name":"Edrie Koch-Cronin","party":"Rep","address":"124 E 100 S, Santaquin, UT 84655","precinct":"25SQ05","hd":"65","v_score":"0","decile":"2","lat":39.973907118345,"lng":-111.782632280312},{"id":"119414","name":"Rashaan Wyman","party":"","address":"290 E 200 S, Santaquin, UT 84655","precinct":"25SQ05","hd":"65","v_score":"1.193887297","decile":"4","lat":39.972312750703,"lng":-111.779219782376},{"id":"119650","name":"Merl Mann","party":"Rep","address":"440 E Main St, Trlr 44, Santaquin, UT 84655","precinct":"25SQ05","hd":"65","v_score":"1.193887297","decile":"4","lat":39.97554081492,"lng":-111.776139901168},{"id":"120160","name":"Tamala Grant","party":"Rep","address":"367 W Main St, Santaquin, UT 84655","precinct":"25SQ05","hd":"65","v_score":"1.193887297","decile":"4","lat":39.975574986309,"lng":-111.792536226845},{"id":"120215","name":"Clemmie Little","party":"","address":"520 W Main St, Santaquin, UT 84655","precinct":"25SQ05","hd":"65","v_score":"1.193887297","decile":"4","lat":39.976165411743,"lng":-111.795026795231},{"id":"120476","name":"Dr. Nolan Schinner","party":"","address":"440 W Main St, Trlr 22, Santaquin, UT 84655","precinct":"25SQ05","hd":"65","v_score":"1.193887297","decile":"4","lat":39.975956018993,"lng":-111.794506912132},{"id":"121032","name":"Saverio O'Conner","party":"Rep","address":"290 S 200 E, Santaquin, UT 84655","precinct":"25SQ05","hd":"65","v_score":"1.193887297","decile":"4","lat":39.970922419276,"lng":-111.781189652207},{"id":"121144","name":"Britany Pouros","party":"Dem","address":"170 E 300 N, Santaquin, UT 84655","precinct":"25SQ05","hd":"65","v_score":"1.193887297","decile":"4","lat":39.980474747027,"lng":-111.781683505875},{"id":"122357","name":"Melva Eichmann","party":"","address":"440 E Main St, Trlr 42, Santaquin, UT 84655","precinct":"25SQ05","hd":"65","v_score":"1.193887297","decile":"4","lat":39.97554081492,"lng":-111.776139901168},{"id":"122513","name":"Dr. Caiden Bernier MD","party":"","address":"440 W Main St, Santaquin, UT 84655","precinct":"25SQ05","hd":"65","v_score":"1.193887297","decile":"4","lat":39.975956018993,"lng":-111.794506912132},{"id":"122620","name":"Jaxson Hintz DDS","party":"","address":"440 E Main St, Trlr 22, Santaquin, UT 84655","precinct":"25SQ05","hd":"65","v_score":"1.193887297","decile":"4","lat":39.97554081492,"lng":-111.776139901168},{"id":"122930","name":"Dr. Hermine Breitenberg DDS","party":"Rep","address":"324 W Main St, Santaquin, UT 84655","precinct":"25SQ05","hd":"65","v_score":"1.193887297","decile":"4","lat":39.975680043041,"lng":-111.79195065796},{"id":"123174","name":"Miss Marlyn Okuneva PhD","party":"Rep","address":"93 N 100 E, Santaquin, UT 84655","precinct":"25SQ05","hd":"65","v_score":"1.193887297","decile":"4","lat":39.977087357108,"lng":-111.78323974274},{"id":"123288","name":"Madalyn Weimann","party":"Rep","address":"290 N 300 W, Santaquin, UT 84655","precinct":"25SQ05","hd":"65","v_score":"1.193887297","decile":"4","lat":39.9803727112,"lng":-111.791544141619},{"id":"123546","name":"Ms. Marcela Trantow","party":"Dem","address":"50 S 300 W, Santaquin, UT 84655","precinct":"25SQ05","hd":"65","v_score":"1.193887297","decile":"4","lat":39.974811563089,"lng":-111.791601142444},{"id":"124723","name":"Miss Jaelyn Collins PhD","party":"","address":"219 E 200 N, Santaquin, UT 84655","precinct":"25SQ05","hd":"65","v_score":"0","decile":"2","lat":39.978897338526,"lng":-111.780630595387},{"id":"125373","name":"Jeane Spencer","party":"","address":"460 W 500 S, Apt 4, Santaquin, UT 84655","precinct":"25SQ05","hd":"65","v_score":"0","decile":"2","lat":39.983279450931,"lng":-111.795998121519},{"id":"125623","name":"Dr. Corbin Predovic III","party":"Dem","address":"153 E Main St, Apt F, Santaquin, UT 84655","precinct":"25SQ05","hd":"65","v_score":"0","decile":"2","lat":39.97565258256,"lng":-111.782071449089},{"id":"125700","name":"Mr. Bret Roberts","party":"","address":"213 S 200 E, Santaquin, UT 84655","precinct":"25SQ05","hd":"65","v_score":"0","decile":"2","lat":39.972133487826,"lng":-111.781020153081},{"id":"125881","name":"Joellen Streich","party":"","address":"290 N 300 W, Santaquin, UT 84655","precinct":"25SQ05","hd":"65","v_score":"0","decile":"2","lat":39.9803727112,"lng":-111.791544141619},{"id":"126043","name":"Cash Kling","party":"","address":"240 W 100 N, Santaquin, UT 84655","precinct":"25SQ05","hd":"65","v_score":"0","decile":"2","lat":39.977301255558,"lng":-111.790365680276},{"id":"126595","name":"Kylan Sipes","party":"","address":"440 E Main St, Trlr 15, Santaquin, UT 84655","precinct":"25SQ05","hd":"65","v_score":"0","decile":"2","lat":39.97554081492,"lng":-111.776139901168},{"id":"128482","name":"Anthony Roberts","party":"Dem","address":"50 S 100 E, Apt 1, Santaquin, UT 84655","precinct":"25SQ05","hd":"65","v_score":"0","decile":"2","lat":39.974781374229,"lng":-111.783248335644},{"id":"128955","name":"Pansy Keeling-Gerlach","party":"Dem","address":"60 N 100 E, Santaquin, UT 84655","precinct":"25SQ05","hd":"65","v_score":"0","decile":"2","lat":39.976577852324,"lng":-111.783088807728},{"id":"130106","name":"Ovid Greenfelder","party":"","address":"70 W 100 N, Santaquin, UT 84655","precinct":"25SQ05","hd":"65","v_score":"0","decile":"2","lat":39.977286339169,"lng":-111.786705546927},{"id":"130303","name":"Eric Connelly I","party":"","address":"287 W 300 N, Santaquin, UT 84655","precinct":"25SQ05","hd":"65","v_score":"0","decile":"2","lat":39.980499072671,"lng":-111.79130296341},{"id":"132382","name":"Ela Predovic","party":"","address":"440 E Main St, Trlr 44, Santaquin, UT 84655","precinct":"25SQ05","hd":"65","v_score":"0","decile":"2","lat":39.97554081492,"lng":-111.776139901168},{"id":"132452","name":"Odessa McCullough","party":"","address":"116 E 200 N, Santaquin, UT 84655","precinct":"25SQ05","hd":"65","v_score":"0","decile":"2","lat":39.978790061768,"lng":-111.782761056301},{"id":"132477","name":"Marge Padberg DVM","party":"Dem","address":"342 W 200 N, Santaquin, UT 84655","precinct":"25SQ05","hd":"65","v_score":"0","decile":"2","lat":39.978930515169,"lng":-111.793097197864},{"id":"133009","name":"Eliza Schinner","party":"","address":"342 W 200 N, Santaquin, UT 84655","precinct":"25SQ05","hd":"65","v_score":"0","decile":"2","lat":39.978930515169,"lng":-111.793097197864},{"id":"133097","name":"Brynlee Champlin","party":"Rep","address":"50 E 200 N, Santaquin, UT 84655","precinct":"25SQ05","hd":"65","v_score":"0","decile":"2","lat":39.978796248323,"lng":-111.784189561937},{"id":"133523","name":"Perry Schuppe","party":"","address":"60 N 100 E, Santaquin, UT 84655","precinct":"25SQ05","hd":"65","v_score":"0","decile":"2","lat":39.976577852324,"lng":-111.783088807728},{"id":"133607","name":"Dr. Irven Shields IV","party":"Rep","address":"120 N 300 W, Santaquin, UT 84655","precinct":"25SQ05","hd":"65","v_score":"0","decile":"2","lat":39.977624426894,"lng":-111.791517661989},{"id":"133910","name":"Pansy Abshire","party":"","address":"27 W Main St, Apt 25, Santaquin, UT 84655","precinct":"25SQ05","hd":"65","v_score":"0","decile":"2","lat":39.9755492117,"lng":-111.785844690392},{"id":"134198","name":"Harlow Schroeder","party":"Rep","address":"288 S Center St, Santaquin, UT 84655","precinct":"25SQ05","hd":"65","v_score":"0","decile":"2","lat":39.970942196447,"lng":-111.785362979184},{"id":"134428","name":"Lawrence Raynor","party":"Dem","address":"159 N 100 E, Santaquin, UT 84655","precinct":"25SQ05","hd":"65","v_score":"0","decile":"2","lat":39.97818133652,"lng":-111.783232255049},{"id":"134527","name":"Edris Donnelly","party":"Rep","address":"327 W Main St, Santaquin, UT 84655","precinct":"25SQ05","hd":"65","v_score":"0","decile":"2","lat":39.975565785152,"lng":-111.791980633544},{"id":"134620","name":"Dr. Aurora Sipes DVM","party":"","address":"213 S 200 E, Santaquin, UT 84655","precinct":"25SQ05","hd":"65","v_score":"19.3272208","decile":"10","lat":39.972133487826,"lng":-111.781020153081},{"id":"134840","name":"Melbourne Harber","party":"","address":"95 W 100 N, Santaquin, UT 84655","precinct":"25SQ05","hd":"65","v_score":"4.833280139","decile":"7","lat":39.977171747822,"lng":-111.787199712328},{"id":"135575","name":"Lafayette Ondricka","party":"","address":"420 E 100 S, Santaquin, UT 84655","precinct":"25SQ05","hd":"65","v_score":"9.545544167","decile":"8","lat":39.974047189433,"lng":-111.776604284413},{"id":"135762","name":"Felicia Weimann","party":"Dem","address":"380 W Main St, Santaquin, UT 84655","precinct":"25SQ05","hd":"65","v_score":"16.36864091","decile":"9","lat":39.975694307447,"lng":-111.7927253722},{"id":"135806","name":"Evalyn Brown DDS","party":"Rep","address":"375 E 200 S, Santaquin, UT 84655","precinct":"25SQ05","hd":"65","v_score":"1.121327652","decile":"3","lat":39.972426339032,"lng":-111.777496157266},{"id":"136546","name":"Brook Muller","party":"Dem","address":"186 N 300 E, Santaquin, UT 84655","precinct":"25SQ05","hd":"65","v_score":"31.69165621","decile":"10","lat":39.978598533342,"lng":-111.778886949396},{"id":"138960","name":"Toriano Konopelski I","party":"","address":"174 E Main St, Santaquin, UT 84655","precinct":"25SQ05","hd":"65","v_score":"1.121327652","decile":"3","lat":39.975536119176,"lng":-111.781643196365},{"id":"139549","name":"Lesli Rau","party":"","address":"67 S 400 W, Santaquin, UT 84655","precinct":"25SQ05","hd":"65","v_score":"2.817000428","decile":"6","lat":39.974697820678,"lng":-111.792906771332},{"id":"139660","name":"Domenica Streich","party":"Rep","address":"188 E 200 N, Santaquin, UT 84655","precinct":"25SQ05","hd":"65","v_score":"14.5342701","decile":"9","lat":39.978783922977,"lng":-111.781336881728},{"id":"141278","name":"Queenie Altenwerth DDS","party":"Rep","address":"260 W 200 N, Santaquin, UT 84655","precinct":"25SQ05","hd":"65","v_score":"5.83359168","decile":"7","lat":39.978910751854,"lng":-111.790765413734},{"id":"141300","name":"Breonna Fay","party":"Rep","address":"267 S 300 W, Santaquin, UT 84655","precinct":"25SQ05","hd":"65","v_score":"3.93832808","decile":"6","lat":39.971297095977,"lng":-111.79095905057},{"id":"141806","name":"Dr. Rasheed Kirlin","party":"Rep","address":"440 E Main St, Trlr 52, Santaquin, UT 84655","precinct":"25SQ05","hd":"65","v_score":"14.90880107","decile":"9","lat":39.97554081492,"lng":-111.776139901168},{"id":"141900","name":"Mr. Ari Volkman","party":"Dem","address":"53 S 200 E, Apt 5, Santaquin, UT 84655","precinct":"25SQ05","hd":"65","v_score":"23.21890296","decile":"10","lat":39.974734393322,"lng":-111.781016979779},{"id":"142088","name":"Kayleen Howe-Gibson","party":"Dem","address":"342 W 200 N, Santaquin, UT 84655","precinct":"25SQ05","hd":"65","v_score":"15.61526831","decile":"9","lat":39.978930515169,"lng":-111.793097197864},{"id":"142097","name":"Jay Nader-Glover","party":"","address":"80 W 100 N, Santaquin, UT 84655","precinct":"25SQ05","hd":"65","v_score":"2.315214949","decile":"5","lat":39.977286339185,"lng":-111.786910751198},{"id":"142566","name":"Shon Stark Jr.","party":"Rep","address":"153 E Main St, Apt D, Santaquin, UT 84655","precinct":"25SQ05","hd":"65","v_score":"19.3272208","decile":"10","lat":39.97565258256,"lng":-111.782071449089},{"id":"142669","name":"Mr. Emry Dibbert PhD","party":"Dem","address":"186 N 300 E, Santaquin, UT 84655","precinct":"25SQ05","hd":"65","v_score":"23.48004472","decile":"10","lat":39.978598533342,"lng":-111.778886949396},{"id":"142852","name":"Jenniffer Shanahan","party":"","address":"260 W 200 N, Santaquin, UT 84655","precinct":"25SQ05","hd":"65","v_score":"0","decile":"3","lat":39.978910751854,"lng":-111.790765413734},{"id":"143969","name":"Jeramiah Johns","party":"Dem","address":"239 W 100 S, Santaquin, UT 84655","precinct":"25SQ05","hd":"65","v_score":"0","decile":"3","lat":39.973940748413,"lng":-111.790111988518},{"id":"144768","name":"Bernard Hartmann","party":"","address":"343 W Main St, Santaquin, UT 84655","precinct":"25SQ05","hd":"65","v_score":"7.24185597","decile":"8","lat":39.975568348862,"lng":-111.792202393028},{"id":"144885","name":"Reece Schroeder-Greenfelder","party":"Rep","address":"153 E Main St, Apt D, Santaquin, UT 84655","precinct":"25SQ05","hd":"65","v_score":"7.650280567","decile":"8","lat":39.97565258256,"lng":-111.782071449089},{"id":"144919","name":"Elinor Quitzon","party":"","address":"136 N 200 E, Santaquin, UT 84655","precinct":"25SQ05","hd":"65","v_score":"0","decile":"3","lat":39.977835302753,"lng":-111.781005953139},{"id":"144984","name":"Tuan Cummerata III","party":"","address":"520 W Main St, Santaquin, UT 84655","precinct":"25SQ05","hd":"65","v_score":"14.14899265","decile":"9","lat":39.976165411743,"lng":-111.795026795231},{"id":"145143","name":"Mordechai Williamson-O'Hara","party":"Dem","address":"60 S 200 W, Santaquin, UT 84655","precinct":"25SQ05","hd":"65","v_score":"15.66769105","decile":"9","lat":39.974648692649,"lng":-111.789580320173},{"id":"146387","name":"Shaunna Weber","party":"Dem","address":"344 E 100 N, Santaquin, UT 84655","precinct":"25SQ05","hd":"65","v_score":"23.48004472","decile":"10","lat":39.977153692326,"lng":-111.778025719431},{"id":"146666","name":"Dr. Talmage Farrell","party":"Rep","address":"27 W Main St, Apt 26, Santaquin, UT 84655","precinct":"25SQ05","hd":"65","v_score":"16.22796003","decile":"9","lat":39.9755492117,"lng":-111.785844690392},{"id":"146986","name":"Vela Brown","party":"","address":"110 E 200 S, Santaquin, UT 84655","precinct":"25SQ05","hd":"65","v_score":"3.781490609","decile":"6","lat":39.972320748056,"lng":-111.782918444889},{"id":"147047","name":"Mr. Kristopher Wisozk","party":"Dem","address":"250 W 300 S, Santaquin, UT 84655","precinct":"25SQ05","hd":"65","v_score":"1.193887297","decile":"4","lat":39.970806340185,"lng":-111.790309127946},{"id":"147058","name":"Miss Ronna Hand","party":"","address":"80 W 300 S, Santaquin, UT 84655","precinct":"25SQ05","hd":"65","v_score":"1.121327652","decile":"3","lat":39.970795451863,"lng":-111.786953371545},{"id":"147708","name":"Dr. Taft Gerhold","party":"Dem","address":"155 N 200 W, Santaquin, UT 84655","precinct":"25SQ05","hd":"65","v_score":"19.3272208","decile":"10","lat":39.977774062195,"lng":-111.789571248666},{"id":"147709","name":"Rikki Brown","party":"","address":"155 N 200 W, Santaquin, UT 84655","precinct":"25SQ05","hd":"65","v_score":"22.42992014","decile":"10","lat":39.977774062195,"lng":-111.789571248666},{"id":"147873","name":"Breanna Bechtelar PhD","party":"Rep","address":"220 N 350 W, Santaquin, UT 84655","precinct":"25SQ05","hd":"65","v_score":"12.79826788","decile":"9","lat":39.979261684729,"lng":-111.793309180356},{"id":"148046","name":"Pleas Becker-Hagenes","party":"","address":"275 E 300 S, Santaquin, UT 84655","precinct":"25SQ05","hd":"65","v_score":"23.48004472","decile":"10","lat":39.970797339383,"lng":-111.779669643793},{"id":"148412","name":"Agusta Volkman","party":"Dem","address":"230 S 200 W, Santaquin, UT 84655","precinct":"25SQ05","hd":"65","v_score":"12.07513611","decile":"9","lat":39.97185164283,"lng":-111.789616280075},{"id":"148570","name":"Shoji Kassulke","party":"Rep","address":"44 N 300 E, Santaquin, UT 84655","precinct":"25SQ05","hd":"65","v_score":"19.76809223","decile":"10","lat":39.976315222652,"lng":-111.778898196727},{"id":"148571","name":"Jameson Emard MD","party":"","address":"44 N 300 E, Santaquin, UT 84655","precinct":"25SQ05","hd":"65","v_score":"19.76809223","decile":"10","lat":39.976315222652,"lng":-111.778898196727},{"id":"148784","name":"Sally Abernathy","party":"Dem","address":"69 E 100 N, Santaquin, UT 84655","precinct":"25SQ05","hd":"65","v_score":"18.57420493","decile":"10","lat":39.977292456872,"lng":-111.783828478284},{"id":"148836","name":"Kian Moen I","party":"Dem","address":"196 W 100 N, Santaquin, UT 84655","precinct":"25SQ05","hd":"65","v_score":"23.30333885","decile":"10","lat":39.977286339371,"lng":-111.789385864145},{"id":"148852","name":"Rossie Brekke-Hoeger","party":"","address":"46 W 100 N, Santaquin, UT 84655","precinct":"25SQ05","hd":"65","v_score":"11.37977487","decile":"9","lat":39.977286339132,"lng":-111.786213056677},{"id":"148853","name":"Clark Bogan","party":"Dem","address":"46 W 100 N, Santaquin, UT 84655","precinct":"25SQ05","hd":"65","v_score":"14.48247422","decile":"9","lat":39.977286339132,"lng":-111.786213056677},{"id":"148900","name":"Miss Sally Bayer","party":"Rep","address":"81 N 100 W, Santaquin, UT 84655","precinct":"25SQ05","hd":"65","v_score":"28.74874861","decile":"10","lat":39.976893834091,"lng":-111.78743150838},{"id":"148901","name":"Brett Murphy","party":"","address":"245 S Center St, Santaquin, UT 84655","precinct":"25SQ05","hd":"65","v_score":"0","decile":"3","lat":39.971617606681,"lng":-111.785209701109},{"id":"148952","name":"Dr. Jerrie Ruecker","party":"Rep","address":"140 E Main St, Santaquin, UT 84655","precinct":"25SQ05","hd":"65","v_score":"20.17106915","decile":"10","lat":39.97553901513,"lng":-111.78230635839},{"id":"149309","name":"Cheryll Hilll DVM","party":"Dem","address":"273 S 200 E, Santaquin, UT 84655","precinct":"25SQ05","hd":"65","v_score":"2.817000428","decile":"6","lat":39.971200783193,"lng":-111.781035527451},{"id":"149327","name":"Sanjuana Lang","party":"Dem","address":"312 S 300 W, Santaquin, UT 84655","precinct":"25SQ05","hd":"65","v_score":"19.3272208","decile":"10","lat":39.970501547739,"lng":-111.791104143381},{"id":"149472","name":"Dalia Kunze","party":"","address":"45 E 100 N, Santaquin, UT 84655","precinct":"25SQ05","hd":"65","v_score":"19.3272208","decile":"10","lat":39.977290412049,"lng":-111.784298795854},{"id":"149492","name":"Ms. Jaliyah Turner DDS","party":"Rep","address":"180 S 300 E, Santaquin, UT 84655","precinct":"25SQ05","hd":"65","v_score":"3.781490609","decile":"6","lat":39.972703207899,"lng":-111.779056871238},{"id":"149524","name":"Dr. Brandon Leffler DDS","party":"Dem","address":"174 E 200 S, Santaquin, UT 84655","precinct":"25SQ05","hd":"65","v_score":"19.24455128","decile":"10","lat":39.97232074796,"lng":-111.781643687915},{"id":"149526","name":"Nikhil Sanford DDS","party":"Dem","address":"57 E 100 S, Santaquin, UT 84655","precinct":"25SQ05","hd":"65","v_score":"1.193887297","decile":"4","lat":39.974031041782,"lng":-111.784075439009},{"id":"149634","name":"Journey Hartmann-Gibson","party":"","address":"265 E 100 S, Santaquin, UT 84655","precinct":"25SQ05","hd":"65","v_score":"11.30609121","decile":"9","lat":39.974039897505,"lng":-111.779735119883},{"id":"150068","name":"Berniece Skiles","party":"","address":"145 E 100 N, Santaquin, UT 84655","precinct":"25SQ05","hd":"65","v_score":"8.421194992","decile":"8","lat":39.977291264,"lng":-111.782225928347},{"id":"150089","name":"Lorenz Wolff","party":"Dem","address":"61 W 200 S, Santaquin, UT 84655","precinct":"25SQ05","hd":"65","v_score":"0","decile":"3","lat":39.972299186943,"lng":-111.786539639145},{"id":"150157","name":"Lemon Kilback-Connelly","party":"Rep","address":"111 S Center St, Santaquin, UT 84655","precinct":"25SQ05","hd":"65","v_score":"23.74421029","decile":"10","lat":39.973775458845,"lng":-111.785178224377},{"id":"150172","name":"Maxine Rau","party":"","address":"290 S 200 E, Santaquin, UT 84655","precinct":"25SQ05","hd":"65","v_score":"10.95090578","decile":"9","lat":39.970922419276,"lng":-111.781189652207},{"id":"150253","name":"Leota Pollich","party":"Rep","address":"175 S 100 E, Santaquin, UT 84655","precinct":"25SQ05","hd":"65","v_score":"2.315214949","decile":"5","lat":39.972794819743,"lng":-111.783114071944},{"id":"150323","name":"Dr. Birtha Grimes","party":"Rep","address":"68 N 300 E, Santaquin, UT 84655","precinct":"25SQ05","hd":"65","v_score":"2.587603312","decile":"5","lat":39.976691577095,"lng":-111.778891924106},{"id":"150401","name":"Trace Hackett","party":"Dem","address":"148 W Main St, Santaquin, UT 84655","precinct":"25SQ05","hd":"65","v_score":"11.30609121","decile":"9","lat":39.975661753192,"lng":-111.788416351866},{"id":"150505","name":"Lum Stoltenberg","party":"","address":"238 W 200 N, Santaquin, UT 84655","precinct":"25SQ05","hd":"65","v_score":"2.587603312","decile":"5","lat":39.978908333979,"lng":-111.790324157669},{"id":"150618","name":"Dannie Hodkiewicz","party":"","address":"53 E 200 N, Santaquin, UT 84655","precinct":"25SQ05","hd":"65","v_score":"14.6048469","decile":"9","lat":39.978910582224,"lng":-111.784129787943},{"id":"150628","name":"Dr. Shyla Haley","party":"Rep","address":"63 S Center St, Santaquin, UT 84655","precinct":"25SQ05","hd":"65","v_score":"22.28615742","decile":"10","lat":39.97459920419,"lng":-111.785172047569},{"id":"151066","name":"Arlene Padberg","party":"","address":"65 W 100 N, Santaquin, UT 84655","precinct":"25SQ05","hd":"65","v_score":"7.934314529","decile":"8","lat":39.977171747777,"lng":-111.786596663043},{"id":"152155","name":"Carlene Donnelly PhD","party":"Dem","address":"260 E 100 S, Santaquin, UT 84655","precinct":"25SQ05","hd":"65","v_score":"23.48004472","decile":"10","lat":39.973924629897,"lng":-111.779814431623},{"id":"152182","name":"Cleola O'Hara","party":"","address":"355 E 200 N, Santaquin, UT 84655","precinct":"25SQ05","hd":"65","v_score":"7.24185597","decile":"8","lat":39.978887483256,"lng":-111.777840947044},{"id":"152202","name":"Azaria Konopelski","party":"","address":"260 E 100 S, Santaquin, UT 84655","precinct":"25SQ05","hd":"65","v_score":"23.48004472","decile":"10","lat":39.973924629897,"lng":-111.779814431623},{"id":"152285","name":"Yadira Dietrich","party":"Dem","address":"255 N 100 W, Santaquin, UT 84655","precinct":"25SQ05","hd":"65","v_score":"26.42295231","decile":"10","lat":39.979769883089,"lng":-111.787411230703},{"id":"152647","name":"Flint Prosacco","party":"","address":"53 E 200 N, Santaquin, UT 84655","precinct":"25SQ05","hd":"65","v_score":"16.22796003","decile":"9","lat":39.978910582224,"lng":-111.784129787943},{"id":"152718","name":"Pricilla Ward","party":"Rep","address":"385 E 100 S, Santaquin, UT 84655","precinct":"25SQ05","hd":"65","v_score":"0","decile":"3","lat":39.974076233564,"lng":-111.777286939151},{"id":"152733","name":"Clemon Rath","party":"","address":"111 N 200 W, Santaquin, UT 84655","precinct":"25SQ05","hd":"65","v_score":"19.3272208","decile":"10","lat":39.977376979602,"lng":-111.789574826037},{"id":"152938","name":"Billie Bode","party":"Rep","address":"385 E 100 S, Santaquin, UT 84655","precinct":"25SQ05","hd":"65","v_score":"20.46345346","decile":"10","lat":39.974076233564,"lng":-111.777286939151},{"id":"153330","name":"Pablo Hoeger","party":"Dem","address":"237 S 200 E, Santaquin, UT 84655","precinct":"25SQ05","hd":"65","v_score":"2.315214949","decile":"5","lat":39.971760405973,"lng":-111.781026302829},{"id":"153335","name":"Arlie Bartell","party":"Rep","address":"50 E 200 S, Santaquin, UT 84655","precinct":"25SQ05","hd":"65","v_score":"2.315214949","decile":"5","lat":39.9723072563,"lng":-111.784235128091},{"id":"153599","name":"Aaden Hane V","party":"Dem","address":"88 N 300 E, Santaquin, UT 84655","precinct":"25SQ05","hd":"65","v_score":"5.40460374","decile":"7","lat":39.977005205798,"lng":-111.778886696921},{"id":"153965","name":"Miss Junia Roob","party":"Rep","address":"480 W Main St, Santaquin, UT 84655","precinct":"25SQ05","hd":"65","v_score":"1.46627566","decile":"4","lat":39.976059440966,"lng":-111.794772239636},{"id":"154263","name":"Darryll Klocko","party":"Rep","address":"76 E 100 N, Santaquin, UT 84655","precinct":"25SQ05","hd":"65","v_score":"23.53845692","decile":"10","lat":39.977178509898,"lng":-111.783679839098},{"id":"154605","name":"Asha Roberts DVM","party":"Dem","address":"360 E 200 N, Santaquin, UT 84655","precinct":"25SQ05","hd":"65","v_score":"6.896907962","decile":"8","lat":39.978771877832,"lng":-111.777726460492},{"id":"154660","name":"Nichelle Pouros","party":"Rep","address":"57 S 400 W, Santaquin, UT 84655","precinct":"25SQ05","hd":"65","v_score":"2.817000428","decile":"6","lat":39.974892142002,"lng":-111.79291880891},{"id":"156379","name":"Adolfo Cruickshank","party":"","address":"220 N 350 W, Santaquin, UT 84655","precinct":"25SQ05","hd":"65","v_score":"0","decile":"3","lat":39.979261684729,"lng":-111.793309180356},{"id":"156409","name":"Marjory Hills DDS","party":"","address":"370 E 100 S, Santaquin, UT 84655","precinct":"25SQ05","hd":"65","v_score":"8.363183621","decile":"8","lat":39.973956908878,"lng":-111.777552051477},{"id":"156858","name":"Mrs. Ola Rohan MD","party":"","address":"605 W 200 N, Santaquin, UT 84655","precinct":"25SQ05","hd":"65","v_score":"2.587603312","decile":"5","lat":40.000256826055,"lng":-111.858091701575},{"id":"156914","name":"Lynwood Bednar-McClure","party":"Rep","address":"222 W 100 S, Santaquin, UT 84655","precinct":"25SQ05","hd":"65","v_score":"15.09172736","decile":"9","lat":39.974055339791,"lng":-111.790039309962},{"id":"157078","name":"Manerva Lind-Orn","party":"Dem","address":"159 S 300 E, Santaquin, UT 84655","precinct":"25SQ05","hd":"65","v_score":"25.35762639","decile":"10","lat":39.973040425445,"lng":-111.778904530062},{"id":"157777","name":"Ms. Alyssia Shanahan PhD","party":"","address":"440 E Main St, Trlr 11, Santaquin, UT 84655","precinct":"25SQ05","hd":"65","v_score":"6.884189957","decile":"8","lat":39.97554081492,"lng":-111.776139901168},{"id":"157827","name":"Huston Watsica","party":"Rep","address":"395 E 100 S, Santaquin, UT 84655","precinct":"25SQ05","hd":"65","v_score":"0","decile":"3","lat":39.974079636433,"lng":-111.777095101588},{"id":"157856","name":"Zaida Corkery DVM","party":"","address":"213 S 200 E, Santaquin, UT 84655","precinct":"25SQ05","hd":"65","v_score":"15.61526831","decile":"9","lat":39.972133487826,"lng":-111.781020153081},{"id":"157857","name":"Aryana Wehner","party":"Dem","address":"342 E 200 N, Santaquin, UT 84655","precinct":"25SQ05","hd":"65","v_score":"23.48004472","decile":"10","lat":39.978774942529,"lng":-111.77807506674},{"id":"159136","name":"Ms. Jerusha Reichel","party":"Rep","address":"261 N 100 E, Santaquin, UT 84655","precinct":"25SQ05","hd":"65","v_score":"22.28615742","decile":"10","lat":39.979866823665,"lng":-111.783221217701},{"id":"159268","name":"Jeanie Bode PhD","party":"","address":"231 E 300 S, Santaquin, UT 84655","precinct":"25SQ05","hd":"65","v_score":"16.22796003","decile":"9","lat":39.970797339445,"lng":-111.780486310121},{"id":"159269","name":"Lugenia Rutherford-Marquardt","party":"","address":"231 E 300 S, Santaquin, UT 84655","precinct":"25SQ05","hd":"65","v_score":"16.22796003","decile":"9","lat":39.970797339445,"lng":-111.780486310121},{"id":"159299","name":"Vincenzo Koelpin","party":"","address":"250 E 300 N, Santaquin, UT 84655","precinct":"25SQ05","hd":"65","v_score":"16.36864091","decile":"9","lat":39.980470162417,"lng":-111.779975452012},{"id":"159345","name":"Viney Muller","party":"Dem","address":"378 E 200 S, Santaquin, UT 84655","precinct":"25SQ05","hd":"65","v_score":"14.90236525","decile":"9","lat":39.972311747642,"lng":-111.77741972651},{"id":"159347","name":"Miss Giana Wolf","party":"Dem","address":"240 W 100 N, Santaquin, UT 84655","precinct":"25SQ05","hd":"65","v_score":"17.86094514","decile":"10","lat":39.977301255558,"lng":-111.790365680276},{"id":"159385","name":"Anika Fisher-Sawayn","party":"Dem","address":"140 S 100 W, Santaquin, UT 84655","precinct":"25SQ05","hd":"65","v_score":"10.60886045","decile":"9","lat":39.973324515411,"lng":-111.787433382954},{"id":"159387","name":"Marcell Robel","party":"Dem","address":"251 W 100 S, Santaquin, UT 84655","precinct":"25SQ05","hd":"65","v_score":"23.48004472","decile":"10","lat":39.973940748425,"lng":-111.790275515236},{"id":"159388","name":"Thora Considine-Reinger","party":"Rep","address":"59 S 200 W, Santaquin, UT 84655","precinct":"25SQ05","hd":"65","v_score":"11.37977487","decile":"9","lat":39.974665278141,"lng":-111.78943041591},{"id":"159389","name":"Darell Tillman II","party":"Rep","address":"69 E 100 N, Santaquin, UT 84655","precinct":"25SQ05","hd":"65","v_score":"18.57420493","decile":"10","lat":39.977292456872,"lng":-111.783828478284},{"id":"159390","name":"Theodora Stracke","party":"Dem","address":"70 W 200 N, Santaquin, UT 84655","precinct":"25SQ05","hd":"65","v_score":"23.48004472","decile":"10","lat":39.978915338981,"lng":-111.786693358479},{"id":"159391","name":"Bose Weimann","party":"Dem","address":"70 W 200 N, Santaquin, UT 84655","precinct":"25SQ05","hd":"65","v_score":"23.48004472","decile":"10","lat":39.978915338981,"lng":-111.786693358479},{"id":"159392","name":"Kiana Shanahan","party":"Rep","address":"75 S 100 W, Santaquin, UT 84655","precinct":"25SQ05","hd":"65","v_score":"14.32268247","decile":"9","lat":39.974427196095,"lng":-111.787287410466},{"id":"159393","name":"Elsie Monahan DVM","party":"","address":"75 S 100 W, Santaquin, UT 84655","precinct":"25SQ05","hd":"65","v_score":"14.32268247","decile":"9","lat":39.974427196095,"lng":-111.787287410466},{"id":"159404","name":"Uriel Runolfsson","party":"","address":"85 N Center St, Santaquin, UT 84655","precinct":"25SQ05","hd":"65","v_score":"1.193887297","decile":"4","lat":39.976957056049,"lng":-111.78531242424},{"id":"159855","name":"Jacky Gutkowski","party":"Rep","address":"423 S 600 W, Santaquin, UT 84655","precinct":"25SQ05","hd":"65","v_score":"24.14771006","decile":"10","lat":39.988660193437,"lng":-111.857272395865},{"id":"160481","name":"Soledad Lakin","party":"","address":"25 W 200 S, Santaquin, UT 84655","precinct":"25SQ05","hd":"65","v_score":"5.546183193","decile":"7","lat":39.972296118037,"lng":-111.7858291997},{"id":"160495","name":"Adamaris Block","party":"Dem","address":"370 E 100 S, Santaquin, UT 84655","precinct":"25SQ05","hd":"65","v_score":"6.74007049","decile":"8","lat":39.973956908878,"lng":-111.777552051477},{"id":"160685","name":"Kenya Bayer","party":"","address":"290 N 300 W, Santaquin, UT 84655","precinct":"25SQ05","hd":"65","v_score":"0","decile":"3","lat":39.9803727112,"lng":-111.791544141619},{"id":"160798","name":"Makhi Hilll","party":"Rep","address":"631 W 200 N, Santaquin, UT 84655","precinct":"25SQ05","hd":"65","v_score":"1.121327652","decile":"3","lat":39.979749018045,"lng":-111.795665539449},{"id":"160828","name":"Dr. Macy Romaguera","party":"Dem","address":"350 S 300 W, Santaquin, UT 84655","precinct":"25SQ05","hd":"65","v_score":"2.315214949","decile":"5","lat":39.969900368104,"lng":-111.791099269029},{"id":"161203","name":"Ms. Merilyn Bashirian","party":"Rep","address":"150 W 200 N, Santaquin, UT 84655","precinct":"25SQ05","hd":"65","v_score":"5.40460374","decile":"7","lat":39.978906164798,"lng":-111.788435833161},{"id":"161280","name":"Leonor Gislason","party":"","address":"184 N 100 E, Santaquin, UT 84655","precinct":"25SQ05","hd":"65","v_score":"6.724398202","decile":"8","lat":39.978577607619,"lng":-111.783079392617},{"id":"161373","name":"Brantley Windler II","party":"Dem","address":"27 W Main St, Apt 26, Santaquin, UT 84655","precinct":"25SQ05","hd":"65","v_score":"8.363183621","decile":"8","lat":39.9755492117,"lng":-111.785844690392},{"id":"161548","name":"Randolf Graham IV","party":"","address":"265 E 100 S, Santaquin, UT 84655","precinct":"25SQ05","hd":"65","v_score":"11.30609121","decile":"9","lat":39.974039897505,"lng":-111.779735119883},{"id":"161682","name":"Mell Anderson","party":"","address":"250 N 300 E, Santaquin, UT 84655","precinct":"25SQ05","hd":"65","v_score":"22.27012839","decile":"10","lat":39.979696842561,"lng":-111.778873867411},{"id":"161922","name":"Adan Gusikowski","party":"","address":"279 N 100 E, Santaquin, UT 84655","precinct":"25SQ05","hd":"65","v_score":"19.3272208","decile":"10","lat":39.980154898858,"lng":-111.783219677155},{"id":"162541","name":"Dr. Fleda Abernathy","party":"Dem","address":"95 E 200 N, Santaquin, UT 84655","precinct":"25SQ05","hd":"65","v_score":"2.744440783","decile":"6","lat":39.97890700306,"lng":-111.78330480515},{"id":"162688","name":"Katina Mertz","party":"Rep","address":"125 W 300 N, Santaquin, UT 84655","precinct":"25SQ05","hd":"65","v_score":"1.193887297","decile":"4","lat":39.980470478975,"lng":-111.78789702653},{"id":"162798","name":"Mr. Valentino McLaughlin DDS","party":"Rep","address":"440 E Main St, Trlr 28, Santaquin, UT 84655","precinct":"25SQ05","hd":"65","v_score":"2.315214949","decile":"5","lat":39.97554081492,"lng":-111.776139901168},{"id":"162918","name":"Iyana Russel","party":"Rep","address":"344 E 200 S, Santaquin, UT 84655","precinct":"25SQ05","hd":"65","v_score":"1.193887297","decile":"4","lat":39.972311747691,"lng":-111.778069388057},{"id":"163114","name":"Dillion Goodwin","party":"Rep","address":"282 W 200 S, Santaquin, UT 84655","precinct":"25SQ05","hd":"65","v_score":"4.210716443","decile":"7","lat":39.972419126125,"lng":-111.790672992756},{"id":"165484","name":"Garrick Pfeffer","party":"","address":"77 S 300 W, Santaquin, UT 84655","precinct":"25SQ05","hd":"65","v_score":"1.121327652","decile":"3","lat":39.974401244726,"lng":-111.791442419925},{"id":"166141","name":"Clemens Mohr","party":"Rep","address":"63 E 200 N, Santaquin, UT 84655","precinct":"25SQ05","hd":"65","v_score":"19.3272208","decile":"10","lat":39.978909730042,"lng":-111.783933363469},{"id":"166169","name":"Freddy Beatty I","party":"Dem","address":"133 N 400 E, Santaquin, UT 84655","precinct":"25SQ05","hd":"65","v_score":"0","decile":"3","lat":39.97774435331,"lng":-111.776977753983},{"id":"167274","name":"Kenia Toy","party":"","address":"129 N 300 W, Santaquin, UT 84655","precinct":"25SQ05","hd":"65","v_score":"22.42992014","decile":"10","lat":39.977744369357,"lng":-111.791668220238},{"id":"167327","name":"Miss Zella Gorczany","party":"Dem","address":"180 S 300 E, Santaquin, UT 84655","precinct":"25SQ05","hd":"65","v_score":"1.121327652","decile":"3","lat":39.972703207899,"lng":-111.779056871238},