[{"id":"59","name":"Madison Shanahan","party":"","address":"883 W Prairie Dog Way, Saratoga Springs, UT 84045","precinct":"25SR09","hd":"51","v_score":"26.41733837","decile":"10","lat":40.37450124202,"lng":-111.938060902219},{"id":"137","name":"Odalys Ullrich","party":"Rep","address":"871 W Burro Way, Saratoga Springs, UT 84045","precinct":"25SR09","hd":"51","v_score":"10.8238813","decile":"9","lat":40.377044395867,"lng":-111.938754431032},{"id":"1751","name":"Pearlie Ortiz","party":"","address":"622 N Badger Ln, Saratoga Springs, UT 84045","precinct":"25SR09","hd":"51","v_score":"6.027167436","decile":"7","lat":40.37359087749,"lng":-111.939694598253},{"id":"1829","name":"Antony Cole","party":"","address":"815 N Red Fox Ln, Saratoga Springs, UT 84045","precinct":"25SR09","hd":"51","v_score":"12.57725863","decile":"9","lat":40.377822225634,"lng":-111.939883064688},{"id":"1924","name":"Dr. Daisy Cassin","party":"Rep","address":"1021 N Coyote Run, Saratoga Springs, UT 84045","precinct":"25SR09","hd":"51","v_score":"11.50568204","decile":"9","lat":40.381320916762,"lng":-111.938946241032},{"id":"2329","name":"Graham Hansen","party":"Rep","address":"1073 N Mustang Ln, Saratoga Springs, UT 84045","precinct":"25SR09","hd":"51","v_score":"3.93832808","decile":"6","lat":40.381405726319,"lng":-111.936202620251},{"id":"2933","name":"Levin Sporer","party":"","address":"752 N Badger Ln, Saratoga Springs, UT 84045","precinct":"25SR09","hd":"51","v_score":"1.193887297","decile":"3","lat":40.374961609999,"lng":-111.939727122374},{"id":"3411","name":"Britni Koepp-Swift","party":"","address":"896 W Rattler Rd, Saratoga Springs, UT 84045","precinct":"25SR09","hd":"51","v_score":"3.781490609","decile":"6","lat":40.379376155612,"lng":-111.937940799791},{"id":"4365","name":"Dr. Emett Leuschke III","party":"Rep","address":"872 W Rattler Rd, Saratoga Springs, UT 84045","precinct":"25SR09","hd":"51","v_score":"6.724398202","decile":"7","lat":40.37976774036,"lng":-111.93774439878},{"id":"5011","name":"Mabell Kertzmann","party":"Rep","address":"867 W Red Hen Rd, Saratoga Springs, UT 84045","precinct":"25SR09","hd":"51","v_score":"2.315214949","decile":"5","lat":40.382896200657,"lng":-111.937279771495},{"id":"5539","name":"Inez Spencer","party":"Rep","address":"871 W Prairie Dog Way, Saratoga Springs, UT 84045","precinct":"25SR09","hd":"51","v_score":"5.40460374","decile":"7","lat":40.374460693462,"lng":-111.937890458542},{"id":"5835","name":"Thurman Konopelski Sr.","party":"Rep","address":"907 W Mountain Peak Dr, Saratoga Springs, UT 84045","precinct":"25SR09","hd":"51","v_score":"11.30609121","decile":"9","lat":40.372518913356,"lng":-111.938381381128},{"id":"5883","name":"Kelan Emmerich IV","party":"","address":"752 N Badger Ln, Saratoga Springs, UT 84045","precinct":"25SR09","hd":"51","v_score":"0","decile":"1","lat":40.374961609999,"lng":-111.939727122374},{"id":"7970","name":"Tianna Wyman","party":"","address":"883 W Prairie Dog Way, Saratoga Springs, UT 84045","precinct":"25SR09","hd":"51","v_score":"26.41733837","decile":"10","lat":40.37450124202,"lng":-111.938060902219},{"id":"9058","name":"Mr. Ferrell Blanda V","party":"","address":"921 W Grouse Cir, Saratoga Springs, UT 84045","precinct":"25SR09","hd":"51","v_score":"0","decile":"1","lat":40.375294898365,"lng":-111.93820897412},{"id":"9997","name":"Dr. Damon Schoen","party":"Rep","address":"818 N Joshua Dr, Saratoga Springs, UT 84045","precinct":"25SR09","hd":"51","v_score":"5.40460374","decile":"7","lat":40.376969441239,"lng":-111.937193425477},{"id":"10594","name":"Dennie Cummerata","party":"Rep","address":"953 W Prairie Dog Way, Saratoga Springs, UT 84045","precinct":"25SR09","hd":"51","v_score":"1.193887297","decile":"3","lat":40.374676961,"lng":-111.939047478233},{"id":"10714","name":"Angelia Von","party":"","address":"678 Appellation Dr, Saratoga Springs, UT 84045","precinct":"25SR09","hd":"51","v_score":"9.440142957","decile":"8","lat":40.374545897477,"lng":-111.940600335416},{"id":"11510","name":"Antonette Bernhard DVM","party":"","address":"871 W Prairie Dog Way, Saratoga Springs, UT 84045","precinct":"25SR09","hd":"51","v_score":"2.315214949","decile":"5","lat":40.374460693462,"lng":-111.937890458542},{"id":"11687","name":"Dr. Mina Thiel DDS","party":"","address":"867 W Red Hen Rd, Saratoga Springs, UT 84045","precinct":"25SR09","hd":"51","v_score":"2.315214949","decile":"5","lat":40.382896200657,"lng":-111.937279771495},{"id":"12501","name":"Ozell Torphy PhD","party":"Dem","address":"591 N Badger Ln, Saratoga Springs, UT 84045","precinct":"25SR09","hd":"51","v_score":"0","decile":"1","lat":40.373381258423,"lng":-111.939845013878},{"id":"14910","name":"Tarah Shields PhD","party":"Rep","address":"1073 N Mustang Ln, Saratoga Springs, UT 84045","precinct":"25SR09","hd":"51","v_score":"5.40460374","decile":"7","lat":40.381405726319,"lng":-111.936202620251},{"id":"16924","name":"Hortensia Abernathy","party":"Dem","address":"884 W Rattler Rd, Saratoga Springs, UT 84045","precinct":"25SR09","hd":"51","v_score":"2.817000428","decile":"6","lat":40.379574779839,"lng":-111.93788515125},{"id":"16990","name":"Sheridan Schaden","party":"","address":"885 W Burro Way, Saratoga Springs, UT 84045","precinct":"25SR09","hd":"51","v_score":"9.405332525","decile":"8","lat":40.376858450429,"lng":-111.938428225506},{"id":"18897","name":"Marques Reilly","party":"","address":"901 W Chukar Cir, Saratoga Springs, UT 84045","precinct":"25SR09","hd":"51","v_score":"6.814370645","decile":"8","lat":40.37740958217,"lng":-111.937541018924},{"id":"18998","name":"Buford Murazik","party":"Dem","address":"882 N Joshua Dr, Saratoga Springs, UT 84045","precinct":"25SR09","hd":"51","v_score":"0","decile":"1","lat":40.377753375261,"lng":-111.936937973006},{"id":"19010","name":"Benton Herman","party":"Rep","address":"1081 N Coyote Run, Saratoga Springs, UT 84045","precinct":"25SR09","hd":"51","v_score":"8.347511332","decile":"8","lat":40.382016495224,"lng":-111.938329019042},{"id":"20275","name":"Kimberlie Crooks","party":"Rep","address":"609 Appellation Dr, Saratoga Springs, UT 84045","precinct":"25SR09","hd":"51","v_score":"3.781490609","decile":"6","lat":40.37377719515,"lng":-111.940741674668},{"id":"22718","name":"Imani Maggio","party":"Rep","address":"1143 N Mustang Ln, Saratoga Springs, UT 84045","precinct":"25SR09","hd":"51","v_score":"10.36948566","decile":"9","lat":40.382554508043,"lng":-111.936169578124},{"id":"22788","name":"Leoma Sipes","party":"Rep","address":"818 N Joshua Dr, Saratoga Springs, UT 84045","precinct":"25SR09","hd":"51","v_score":"5.40460374","decile":"7","lat":40.376969441239,"lng":-111.937193425477},{"id":"22934","name":"Shira Herzog","party":"Dem","address":"951 N Rattler Rd, Saratoga Springs, UT 84045","precinct":"25SR09","hd":"51","v_score":"4.283276088","decile":"7","lat":40.379705774971,"lng":-111.936809446125},{"id":"23338","name":"Kavon Hermiston","party":"Rep","address":"591 N Badger Ln, Saratoga Springs, UT 84045","precinct":"25SR09","hd":"51","v_score":"5.40460374","decile":"7","lat":40.373381258423,"lng":-111.939845013878},{"id":"24181","name":"Hjalmer Schroeder","party":"Dem","address":"609 Appellation Dr, Saratoga Springs, UT 84045","precinct":"25SR09","hd":"51","v_score":"3.781490609","decile":"6","lat":40.37377719515,"lng":-111.940741674668},{"id":"24617","name":"Myrtle Hartmann V","party":"Rep","address":"1094 N Jack Rabbit Run, Saratoga Springs, UT 84045","precinct":"25SR09","hd":"51","v_score":"21.18751899","decile":"10","lat":40.382284712471,"lng":-111.936366412549},{"id":"26378","name":"Eustace Bailey-Reichel","party":"","address":"917 W Burro Way, Saratoga Springs, UT 84045","precinct":"25SR09","hd":"51","v_score":"0","decile":"1","lat":40.376743934909,"lng":-111.937994021545},{"id":"28128","name":"Mr. Darby Effertz","party":"Rep","address":"591 N Badger Ln, Saratoga Springs, UT 84045","precinct":"25SR09","hd":"51","v_score":"3.781490609","decile":"6","lat":40.373381258423,"lng":-111.939845013878},{"id":"28338","name":"Rossie Champlin","party":"Dem","address":"781 N Buffalo Dr, Saratoga Springs, UT 84045","precinct":"25SR09","hd":"51","v_score":"2.876042565","decile":"6","lat":40.376273170198,"lng":-111.936793991022},{"id":"28595","name":"Glenda Farrell","party":"Rep","address":"992 N Coyote Run, Saratoga Springs, UT 84045","precinct":"25SR09","hd":"51","v_score":"2.587603312","decile":"5","lat":40.380728043917,"lng":-111.939207009684},{"id":"29483","name":"Nereida Bechtelar","party":"Dem","address":"741 N Grouse Cir, Saratoga Springs, UT 84045","precinct":"25SR09","hd":"51","v_score":"12.07513611","decile":"9","lat":40.37571581787,"lng":-111.937895181512},{"id":"29751","name":"Katie Grant-VonRueden","party":"","address":"871 W Rattler Rd, Saratoga Springs, UT 84045","precinct":"25SR09","hd":"51","v_score":"2.942907593","decile":"6","lat":40.379732646904,"lng":-111.937576177479},{"id":"30510","name":"Mr. Bernardo Conn PhD","party":"","address":"824 W Buffalo Dr, Saratoga Springs, UT 84045","precinct":"25SR09","hd":"51","v_score":"26.41733837","decile":"10","lat":40.37685294379,"lng":-111.936299782424},{"id":"31385","name":"Dr. Clyda Rutherford","party":"","address":"636 Appellation Dr, Saratoga Springs, UT 84045","precinct":"25SR09","hd":"51","v_score":"3.102699348","decile":"6","lat":40.37408529472,"lng":-111.940594895287},{"id":"31817","name":"Robyn Kulas","party":"Rep","address":"681 N Badger Ln, Saratoga Springs, UT 84045","precinct":"25SR09","hd":"51","v_score":"2.315214949","decile":"5","lat":40.374405115511,"lng":-111.939873840752},{"id":"34045","name":"Garvin Mosciski","party":"Rep","address":"872 W Rattler Rd, Saratoga Springs, UT 84045","precinct":"25SR09","hd":"51","v_score":"2.315214949","decile":"5","lat":40.37976774036,"lng":-111.93774439878},{"id":"34527","name":"Braxton Kihn","party":"Rep","address":"781 N Buffalo Dr, Saratoga Springs, UT 84045","precinct":"25SR09","hd":"51","v_score":"11.47802244","decile":"9","lat":40.376273170198,"lng":-111.936793991022},{"id":"34562","name":"Cliff Jast","party":"Dem","address":"818 N Buffalo Dr, Saratoga Springs, UT 84045","precinct":"25SR09","hd":"51","v_score":"1.121327652","decile":"3","lat":40.376601634245,"lng":-111.936450687851},{"id":"34872","name":"Mrs. Estelle Wolf","party":"","address":"871 W Burro Way, Saratoga Springs, UT 84045","precinct":"25SR09","hd":"51","v_score":"12.18333217","decile":"9","lat":40.377044395867,"lng":-111.938754431032},{"id":"35408","name":"Eve Considine DVM","party":"Rep","address":"966 N Jack Rabbit Run, Saratoga Springs, UT 84045","precinct":"25SR09","hd":"51","v_score":"16.2066738","decile":"9","lat":40.379585947833,"lng":-111.938731523613},{"id":"35682","name":"Amado Harber","party":"","address":"712 N Badger Ln, Saratoga Springs, UT 84045","precinct":"25SR09","hd":"51","v_score":"1.46627566","decile":"4","lat":40.374830392707,"lng":-111.939724852352},{"id":"35994","name":"Dr. Lassie Heathcote","party":"Rep","address":"591 N Badger Ln, Saratoga Springs, UT 84045","precinct":"25SR09","hd":"51","v_score":"5.40460374","decile":"7","lat":40.373381258423,"lng":-111.939845013878},{"id":"36623","name":"Brittnie Wehner","party":"Dem","address":"768 N Badger Ln, Saratoga Springs, UT 84045","precinct":"25SR09","hd":"51","v_score":"8.36082189","decile":"8","lat":40.375014493332,"lng":-111.939727697186},{"id":"36629","name":"Jax Lemke","party":"","address":"982 W Burro Way, Saratoga Springs, UT 84045","precinct":"25SR09","hd":"51","v_score":"3.781490609","decile":"6","lat":40.377553873398,"lng":-111.938744567493},{"id":"37597","name":"Brandan Purdy DVM","party":"Dem","address":"872 W Rattler Rd, Saratoga Springs, UT 84045","precinct":"25SR09","hd":"51","v_score":"3.781490609","decile":"6","lat":40.37976774036,"lng":-111.93774439878},{"id":"37915","name":"Eusebio Koelpin","party":"Dem","address":"846 W Mountain Peak Dr, Saratoga Springs, UT 84045","precinct":"25SR09","hd":"51","v_score":"17.54186737","decile":"9","lat":40.372647196666,"lng":-111.936254071416},{"id":"38890","name":"Wash Heidenreich","party":"","address":"1049 N Jack Rabbit Run, Saratoga Springs, UT 84045","precinct":"25SR09","hd":"51","v_score":"0","decile":"1","lat":40.381058163527,"lng":-111.938084417747},{"id":"38997","name":"Carey Will","party":"","address":"1059 N Jack Rabbit Run, Saratoga Springs, UT 84045","precinct":"25SR09","hd":"51","v_score":"1.121327652","decile":"3","lat":40.381176560063,"lng":-111.937989526393},{"id":"39070","name":"Dr. Waverly Hessel Jr.","party":"","address":"871 N Buffalo Dr, Saratoga Springs, UT 84045","precinct":"25SR09","hd":"51","v_score":"2.315214949","decile":"5","lat":40.37888686313,"lng":-111.936191215318},{"id":"39969","name":"Ramon Cremin","party":"Dem","address":"942 N Buffalo Dr, Saratoga Springs, UT 84045","precinct":"25SR09","hd":"51","v_score":"5.60307055","decile":"7","lat":40.379126812726,"lng":-111.936040592446},{"id":"40908","name":"Aubrey Howe","party":"","address":"1091 N Jack Rabbit Run, Saratoga Springs, UT 84045","precinct":"25SR09","hd":"51","v_score":"2.587603312","decile":"5","lat":40.381555441433,"lng":-111.937685793921},{"id":"41564","name":"Immanuel Davis","party":"","address":"937 N Rattler Rd, Saratoga Springs, UT 84045","precinct":"25SR09","hd":"51","v_score":"1.121327652","decile":"3","lat":40.37965427793,"lng":-111.936183868195},{"id":"41695","name":"Israel Keeling-Steuber","party":"Rep","address":"846 W Mountain Peak Dr, Saratoga Springs, UT 84045","precinct":"25SR09","hd":"51","v_score":"3.781490609","decile":"6","lat":40.372647196666,"lng":-111.936254071416},{"id":"42635","name":"Durrell Schmeler","party":"","address":"902 W Red Fox Ln, Saratoga Springs, UT 84045","precinct":"25SR09","hd":"51","v_score":"14.6183711","decile":"9","lat":40.376260093407,"lng":-111.9387545036},{"id":"42675","name":"Nichol Pouros MD","party":"Rep","address":"856 W Mustang Cir, Saratoga Springs, UT 84045","precinct":"25SR09","hd":"51","v_score":"9.9385141","decile":"9","lat":40.381145038242,"lng":-111.9365225976},{"id":"43394","name":"Dr. Simeon Schaefer","party":"Dem","address":"614 N Pheasant Ln, Saratoga Springs, UT 84045","precinct":"25SR09","hd":"51","v_score":"2.315214949","decile":"5","lat":40.37375763523,"lng":-111.936140047033},{"id":"43735","name":"Ms. Natalie Osinski","party":"","address":"614 N Pheasant Ln, Saratoga Springs, UT 84045","precinct":"25SR09","hd":"51","v_score":"4.064235245","decile":"6","lat":40.37375763523,"lng":-111.936140047033},{"id":"44018","name":"Anneliese Hackett-Brakus","party":"","address":"871 W Rattler Rd, Saratoga Springs, UT 84045","precinct":"25SR09","hd":"51","v_score":"15.80226868","decile":"9","lat":40.379732646904,"lng":-111.937576177479},{"id":"45305","name":"Mart Predovic","party":"Dem","address":"932 W Pheasant Ln, Saratoga Springs, UT 84045","precinct":"25SR09","hd":"51","v_score":"27.03520395","decile":"10","lat":40.373915996565,"lng":-111.938500302166},{"id":"46575","name":"Lavar Crona PhD","party":"","address":"1049 N Coyote Run, Saratoga Springs, UT 84045","precinct":"25SR09","hd":"51","v_score":"2.660162957","decile":"5","lat":40.381644899676,"lng":-111.938656224031},{"id":"46674","name":"Miss Delia Ratke","party":"","address":"937 N Rattler Rd, Saratoga Springs, UT 84045","precinct":"25SR09","hd":"51","v_score":"3.781490609","decile":"6","lat":40.37965427793,"lng":-111.936183868195},{"id":"48347","name":"Estel Wiza","party":"Rep","address":"1049 N Jack Rabbit Run, Saratoga Springs, UT 84045","precinct":"25SR09","hd":"51","v_score":"31.90348096","decile":"10","lat":40.381058163527,"lng":-111.938084417747},{"id":"48728","name":"Elana Rempel PhD","party":"Dem","address":"846 W Mountain Peak Dr, Saratoga Springs, UT 84045","precinct":"25SR09","hd":"51","v_score":"8.347511332","decile":"8","lat":40.372647196666,"lng":-111.936254071416},{"id":"48743","name":"Nakia Nicolas PhD","party":"","address":"919 W Joshua Dr, Saratoga Springs, UT 84045","precinct":"25SR09","hd":"51","v_score":"3.781490609","decile":"6","lat":40.378685367215,"lng":-111.937951501691},{"id":"50177","name":"Ishaan Wuckert-Muller","party":"","address":"885 W Burro Way, Saratoga Springs, UT 84045","precinct":"25SR09","hd":"51","v_score":"9.405332525","decile":"8","lat":40.376858450429,"lng":-111.938428225506},{"id":"52452","name":"Cale Gleichner-McClure","party":"Rep","address":"856 W Mustang Cir, Saratoga Springs, UT 84045","precinct":"25SR09","hd":"51","v_score":"2.744440783","decile":"5","lat":40.381145038242,"lng":-111.9365225976},{"id":"52466","name":"Miranda Rempel","party":"","address":"919 W Red Fox Ln, Saratoga Springs, UT 84045","precinct":"25SR09","hd":"51","v_score":"2.744440783","decile":"5","lat":40.376158419524,"lng":-111.938831144339},{"id":"53008","name":"Maddux Schmidt-Cormier","party":"","address":"864 N Buffalo Dr, Saratoga Springs, UT 84045","precinct":"25SR09","hd":"51","v_score":"2.587603312","decile":"5","lat":40.377229471931,"lng":-111.936112557782},{"id":"53322","name":"Mrs. Carisa Osinski DDS","party":"Dem","address":"853 N Red Fox Ln, Saratoga Springs, UT 84045","precinct":"25SR09","hd":"51","v_score":"1.46627566","decile":"4","lat":40.377087632384,"lng":-111.939820209422},{"id":"54438","name":"Graham Corkery DDS","party":"","address":"924 W Pheasant Ln, Saratoga Springs, UT 84045","precinct":"25SR09","hd":"51","v_score":"0","decile":"1","lat":40.373849514521,"lng":-111.938385469578},{"id":"54484","name":"Myron Thiel","party":"","address":"832 N Red Fox Ln, Saratoga Springs, UT 84045","precinct":"25SR09","hd":"51","v_score":"2.817000428","decile":"6","lat":40.377362827552,"lng":-111.939708166674},{"id":"55637","name":"Merry Koss","party":"Rep","address":"991 N Buffalo Dr, Saratoga Springs, UT 84045","precinct":"25SR09","hd":"51","v_score":"0","decile":"1","lat":40.380590889994,"lng":-111.93772984134},{"id":"55785","name":"Drema Nitzsche","party":"Rep","address":"876 W Mountain Peak Dr, Saratoga Springs, UT 84045","precinct":"25SR09","hd":"51","v_score":"23.24977213","decile":"10","lat":40.372635788011,"lng":-111.936987081103},{"id":"56073","name":"Ms. Kristine Bosco MD","party":"","address":"958 W Prairie Dog Way, Saratoga Springs, UT 84045","precinct":"25SR09","hd":"51","v_score":"0","decile":"1","lat":40.374795367397,"lng":-111.939126925149},{"id":"58762","name":"Alexis Dooley","party":"Dem","address":"836 W Buffalo Dr, Saratoga Springs, UT 84045","precinct":"25SR09","hd":"51","v_score":"0","decile":"1","lat":40.377463683309,"lng":-111.93607274182},{"id":"59196","name":"Gale Morar","party":"Rep","address":"941 W Grouse Cir, Saratoga Springs, UT 84045","precinct":"25SR09","hd":"51","v_score":"2.315214949","decile":"5","lat":40.37532289977,"lng":-111.93832564659},{"id":"59844","name":"Mona Kutch-Feeney","party":"Dem","address":"1012 N Mustang Ln, Saratoga Springs, UT 84045","precinct":"25SR09","hd":"51","v_score":"0","decile":"1","lat":40.380471894091,"lng":-111.936102339739},{"id":"60748","name":"Peggie Armstrong","party":"Dem","address":"676 N Buffalo Dr, Saratoga Springs, UT 84045","precinct":"25SR09","hd":"51","v_score":"3.93832808","decile":"6","lat":40.374227077705,"lng":-111.936435514084},{"id":"61057","name":"Mr. Kolten Emmerich DDS","party":"Rep","address":"741 N Grouse Cir, Saratoga Springs, UT 84045","precinct":"25SR09","hd":"51","v_score":"3.93832808","decile":"6","lat":40.37571581787,"lng":-111.937895181512},{"id":"61387","name":"Kirby Lang","party":"Rep","address":"879 N Joshua Dr, Saratoga Springs, UT 84045","precinct":"25SR09","hd":"51","v_score":"1.193887297","decile":"3","lat":40.378167518669,"lng":-111.937208648193},{"id":"63521","name":"Autumn Kuphal","party":"","address":"1094 N Jack Rabbit Run, Saratoga Springs, UT 84045","precinct":"25SR09","hd":"51","v_score":"14.53919235","decile":"9","lat":40.382284712471,"lng":-111.936366412549},{"id":"64341","name":"Kindra Kirlin-Harber","party":"Rep","address":"962 N Rattler Rd, Saratoga Springs, UT 84045","precinct":"25SR09","hd":"51","v_score":"27.3835915","decile":"10","lat":40.379706694647,"lng":-111.937453533189},{"id":"64442","name":"Dr. Cathy Veum","party":"Rep","address":"708 Appellation Dr, Saratoga Springs, UT 84045","precinct":"25SR09","hd":"51","v_score":"0","decile":"1","lat":40.374983160767,"lng":-111.940606136068},{"id":"64917","name":"Ms. Milda Skiles DVM","party":"Rep","address":"676 N Buffalo Dr, Saratoga Springs, UT 84045","precinct":"25SR09","hd":"51","v_score":"3.93832808","decile":"6","lat":40.374227077705,"lng":-111.936435514084},{"id":"65460","name":"Tommie Lynch","party":"Rep","address":"942 N Buffalo Dr, Saratoga Springs, UT 84045","precinct":"25SR09","hd":"51","v_score":"2.315214949","decile":"5","lat":40.379126812726,"lng":-111.936040592446},{"id":"66176","name":"Mrs. Velda Lindgren","party":"","address":"592 N Meridian Dr, Saratoga Springs, UT 84045","precinct":"25SR09","hd":"51","v_score":"17.64290079","decile":"10","lat":40.372864550552,"lng":-111.943564470406},{"id":"66740","name":"Makayla Beatty PhD","party":"","address":"741 N Grouse Cir, Saratoga Springs, UT 84045","precinct":"25SR09","hd":"51","v_score":"3.93832808","decile":"6","lat":40.37571581787,"lng":-111.937895181512},{"id":"67520","name":"Candis Runolfsson","party":"","address":"854 W Tortoise Cir, Saratoga Springs, UT 84045","precinct":"25SR09","hd":"51","v_score":"0","decile":"1","lat":40.37895630488,"lng":-111.936578374613},{"id":"68564","name":"Jackie Willms","party":"Dem","address":"1014 N Jack Rabbit Run, Saratoga Springs, UT 84045","precinct":"25SR09","hd":"51","v_score":"6.027167436","decile":"7","lat":40.380426609611,"lng":-111.938365358759},{"id":"68813","name":"Burnice Zulauf","party":"","address":"916 W Mountain Peak Dr, Saratoga Springs, UT 84045","precinct":"25SR09","hd":"51","v_score":"0","decile":"1","lat":40.372633795916,"lng":-111.937862572587},{"id":"69520","name":"Vicky Konopelski","party":"Dem","address":"871 N Buffalo Dr, Saratoga Springs, UT 84045","precinct":"25SR09","hd":"51","v_score":"2.315214949","decile":"5","lat":40.37888686313,"lng":-111.936191215318},{"id":"69829","name":"Dorotha Haag","party":"Dem","address":"608 Appellation Dr, Saratoga Springs, UT 84045","precinct":"25SR09","hd":"51","v_score":"2.315214949","decile":"5","lat":40.373778226215,"lng":-111.940591268534},{"id":"70201","name":"Shannon Wisozk","party":"Dem","address":"884 W Red Fox Ln, Saratoga Springs, UT 84045","precinct":"25SR09","hd":"51","v_score":"0","decile":"1","lat":40.376352483555,"lng":-111.93896874372},{"id":"71554","name":"Grove Block MD","party":"","address":"1038 N Mustang Ln, Saratoga Springs, UT 84045","precinct":"25SR09","hd":"51","v_score":"1.121327652","decile":"3","lat":40.38086992753,"lng":-111.936063867849},{"id":"71901","name":"Mr. Lonny McCullough","party":"Rep","address":"876 W Mountain Peak Dr, Saratoga Springs, UT 84045","precinct":"25SR09","hd":"51","v_score":"23.24977213","decile":"10","lat":40.372635788011,"lng":-111.936987081103},{"id":"73990","name":"Casimer Eichmann III","party":"","address":"901 W Prairie Dog Way, Saratoga Springs, UT 84045","precinct":"25SR09","hd":"51","v_score":"14.93113152","decile":"9","lat":40.37455791668,"lng":-111.938314462853},{"id":"74471","name":"Burley Dicki-Dare","party":"Rep","address":"1122 N Coyote Run, Saratoga Springs, UT 84045","precinct":"25SR09","hd":"51","v_score":"0","decile":"1","lat":40.381991155918,"lng":-111.938170526613},{"id":"74719","name":"Marlin Ebert-Kiehn","party":"","address":"682 N Badger Ln, Saratoga Springs, UT 84045","precinct":"25SR09","hd":"51","v_score":"0","decile":"1","lat":40.374322679044,"lng":-111.939724882303},{"id":"75348","name":"Karren Spencer DVM","party":"Rep","address":"871 W Prairie Dog Way, Saratoga Springs, UT 84045","precinct":"25SR09","hd":"51","v_score":"1.121327652","decile":"3","lat":40.374460693462,"lng":-111.937890458542},{"id":"75366","name":"Mrs. Casandra Abernathy DDS","party":"","address":"943 N Buffalo Dr, Saratoga Springs, UT 84045","precinct":"25SR09","hd":"51","v_score":"0","decile":"1","lat":40.379255308913,"lng":-111.93619101966},{"id":"75499","name":"Rondal Upton","party":"Dem","address":"991 N Buffalo Dr, Saratoga Springs, UT 84045","precinct":"25SR09","hd":"51","v_score":"14.88094683","decile":"9","lat":40.380590889994,"lng":-111.93772984134},{"id":"75711","name":"Marius Medhurst","party":"Rep","address":"592 N Meridian Dr, Saratoga Springs, UT 84045","precinct":"25SR09","hd":"51","v_score":"11.75026697","decile":"9","lat":40.372864550552,"lng":-111.943564470406},{"id":"76903","name":"Aubrey Cole","party":"Dem","address":"859 W Rattler Rd, Saratoga Springs, UT 84045","precinct":"25SR09","hd":"51","v_score":"3.93832808","decile":"6","lat":40.379696650359,"lng":-111.937404196793},{"id":"76905","name":"Harper Morar","party":"","address":"859 W Rattler Rd, Saratoga Springs, UT 84045","precinct":"25SR09","hd":"51","v_score":"3.93832808","decile":"6","lat":40.379696650359,"lng":-111.937404196793},{"id":"77009","name":"Fawn Barton DVM","party":"","address":"973 N Jack Rabbit Run, Saratoga Springs, UT 84045","precinct":"25SR09","hd":"51","v_score":"0","decile":"1","lat":40.380279985062,"lng":-111.938603733999},{"id":"78581","name":"Kathaleen Stracke","party":"","address":"941 W Grouse Cir, Saratoga Springs, UT 84045","precinct":"25SR09","hd":"51","v_score":"2.315214949","decile":"5","lat":40.37532289977,"lng":-111.93832564659},{"id":"79085","name":"Mrs. Amey Dooley","party":"","address":"931 W Grouse Cir, Saratoga Springs, UT 84045","precinct":"25SR09","hd":"51","v_score":"1.121327652","decile":"3","lat":40.375308899068,"lng":-111.938267310355},{"id":"79109","name":"Berenice Pagac","party":"Rep","address":"914 W Red Fox Ln, Saratoga Springs, UT 84045","precinct":"25SR09","hd":"51","v_score":"1.121327652","decile":"3","lat":40.376219141349,"lng":-111.938585576434},{"id":"80439","name":"Derrell Ferry","party":"","address":"1031 N Coyote Run, Saratoga Springs, UT 84045","precinct":"25SR09","hd":"51","v_score":"2.315214949","decile":"5","lat":40.381436624945,"lng":-111.938842663532},{"id":"80853","name":"Dr. Clarke Koelpin PhD","party":"","address":"862 W Tortoise Cir, Saratoga Springs, UT 84045","precinct":"25SR09","hd":"51","v_score":"1.193887297","decile":"3","lat":40.378956304885,"lng":-111.93663686881},{"id":"81219","name":"Olin Kulas","party":"Rep","address":"858 W Red Hen Rd, Saratoga Springs, UT 84045","precinct":"25SR09","hd":"51","v_score":"1.193887297","decile":"3","lat":40.383019761383,"lng":-111.937158610859},{"id":"82995","name":"Alferd Schulist","party":"Rep","address":"1014 N Jack Rabbit Run, Saratoga Springs, UT 84045","precinct":"25SR09","hd":"51","v_score":"9.40499548","decile":"8","lat":40.380426609611,"lng":-111.938365358759},{"id":"83169","name":"Gustavus Muller","party":"","address":"857 W Mustang Cir, Saratoga Springs, UT 84045","precinct":"25SR09","hd":"51","v_score":"0","decile":"1","lat":40.381031344071,"lng":-111.93654138583},{"id":"83197","name":"Reynold Berge","party":"","address":"879 N Joshua Dr, Saratoga Springs, UT 84045","precinct":"25SR09","hd":"51","v_score":"1.193887297","decile":"3","lat":40.378167518669,"lng":-111.937208648193},{"id":"84164","name":"Faye Hartmann","party":"Dem","address":"961 N Rattler Rd, Saratoga Springs, UT 84045","precinct":"25SR09","hd":"51","v_score":"0","decile":"1","lat":40.379782094941,"lng":-111.937241347222},{"id":"84285","name":"Toshio Graham","party":"","address":"852 N Joshua Dr, Saratoga Springs, UT 84045","precinct":"25SR09","hd":"51","v_score":"0","decile":"1","lat":40.377490321978,"lng":-111.936949360527},{"id":"84855","name":"Mrs. Cathey Kihn","party":"Dem","address":"1122 N Coyote Run, Saratoga Springs, UT 84045","precinct":"25SR09","hd":"51","v_score":"0","decile":"1","lat":40.381991155918,"lng":-111.938170526613},{"id":"85197","name":"Willaim Schroeder","party":"Rep","address":"871 W Prairie Dog Way, Saratoga Springs, UT 84045","precinct":"25SR09","hd":"51","v_score":"1.193887297","decile":"3","lat":40.374460693462,"lng":-111.937890458542},{"id":"85975","name":"Myrl Wuckert IV","party":"","address":"639 N Badger Ln, Saratoga Springs, UT 84045","precinct":"25SR09","hd":"51","v_score":"0","decile":"1","lat":40.373811462568,"lng":-111.939845013821},{"id":"86073","name":"Lenon Bergnaum","party":"Dem","address":"982 W Burro Way, Saratoga Springs, UT 84045","precinct":"25SR09","hd":"51","v_score":"0","decile":"1","lat":40.377553873398,"lng":-111.938744567493},{"id":"86309","name":"Brisa Weber","party":"Dem","address":"937 N Rattler Rd, Saratoga Springs, UT 84045","precinct":"25SR09","hd":"51","v_score":"0","decile":"1","lat":40.37965427793,"lng":-111.936183868195},{"id":"86761","name":"Wendel Rempel","party":"Dem","address":"932 W Burro Way, Saratoga Springs, UT 84045","precinct":"25SR09","hd":"51","v_score":"1.193887297","decile":"4","lat":40.376869079589,"lng":-111.938014196577},{"id":"87041","name":"Dennis Kuphal","party":"Rep","address":"1112 N Coyote Run, Saratoga Springs, UT 84045","precinct":"25SR09","hd":"51","v_score":"4.069929862","decile":"6","lat":40.381894847489,"lng":-111.938254487818},{"id":"87474","name":"Sada Kuphal","party":"Dem","address":"621 N Badger Ln, Saratoga Springs, UT 84045","precinct":"25SR09","hd":"51","v_score":"1.193887297","decile":"4","lat":40.373650136013,"lng":-111.939845013843},{"id":"87637","name":"Wash Ledner","party":"","address":"953 W Prairie Dog Way, Saratoga Springs, UT 84045","precinct":"25SR09","hd":"51","v_score":"1.193887297","decile":"4","lat":40.374676961,"lng":-111.939047478233},{"id":"87776","name":"Cielo Jenkins","party":"","address":"871 W Prairie Dog Way, Saratoga Springs, UT 84045","precinct":"25SR09","hd":"51","v_score":"0","decile":"1","lat":40.374460693462,"lng":-111.937890458542},{"id":"88551","name":"Dr. Nathalia Bins MD","party":"","address":"646 N Badger Ln, Saratoga Springs, UT 84045","precinct":"25SR09","hd":"51","v_score":"1.193887297","decile":"4","lat":40.373790795886,"lng":-111.939694598227},{"id":"88959","name":"Offie Ernser","party":"","address":"901 W Chukar Cir, Saratoga Springs, UT 84045","precinct":"25SR09","hd":"51","v_score":"0","decile":"1","lat":40.37740958217,"lng":-111.937541018924},{"id":"89116","name":"Woodson Ortiz","party":"","address":"879 N Red Fox Ln, Saratoga Springs, UT 84045","precinct":"25SR09","hd":"51","v_score":"1.193887297","decile":"4","lat":40.376616600596,"lng":-111.939541575429},{"id":"89438","name":"Diya Schulist","party":"Rep","address":"901 W Prairie Dog Way, Saratoga Springs, UT 84045","precinct":"25SR09","hd":"51","v_score":"5.407962308","decile":"7","lat":40.37455791668,"lng":-111.938314462853},{"id":"89687","name":"Calla Mraz","party":"","address":"1116 N Mustang Ln, Saratoga Springs, UT 84045","precinct":"25SR09","hd":"51","v_score":"2.817000428","decile":"6","lat":40.382295820994,"lng":-111.936029657338},{"id":"90292","name":"Mrs. Willow Beatty MD","party":"","address":"859 W Rattler Rd, Saratoga Springs, UT 84045","precinct":"25SR09","hd":"51","v_score":"1.193887297","decile":"4","lat":40.379696650359,"lng":-111.937404196793},{"id":"91067","name":"Alia Zemlak","party":"Dem","address":"871 N Buffalo Dr, Apt B, Saratoga Springs, UT 84045","precinct":"25SR09","hd":"51","v_score":"0","decile":"1","lat":40.37888686313,"lng":-111.936191215318},{"id":"91445","name":"Dawn Altenwerth","party":"Rep","address":"1081 N Coyote Run, Saratoga Springs, UT 84045","precinct":"25SR09","hd":"51","v_score":"12.768328","decile":"9","lat":40.382016495224,"lng":-111.938329019042},{"id":"92504","name":"Johney Connelly","party":"Rep","address":"1056 N Mustang Ln, Saratoga Springs, UT 84045","precinct":"25SR09","hd":"51","v_score":"1.193887297","decile":"4","lat":40.381246579144,"lng":-111.936055040159},{"id":"92526","name":"Miss Mercy Baumbach","party":"Dem","address":"1012 N Mustang Ln, Saratoga Springs, UT 84045","precinct":"25SR09","hd":"51","v_score":"1.193887297","decile":"4","lat":40.380471894091,"lng":-111.936102339739},{"id":"93110","name":"Shanequa DuBuque-Veum","party":"","address":"899 W Burro Way, Saratoga Springs, UT 84045","precinct":"25SR09","hd":"51","v_score":"1.193887297","decile":"4","lat":40.376801350914,"lng":-111.93823086246},{"id":"93454","name":"Karan Cremin","party":"Rep","address":"1049 N Coyote Run, Saratoga Springs, UT 84045","precinct":"25SR09","hd":"51","v_score":"0","decile":"1","lat":40.381644899676,"lng":-111.938656224031},{"id":"93835","name":"Amanda Upton","party":"","address":"941 W Grouse Cir, Saratoga Springs, UT 84045","precinct":"25SR09","hd":"51","v_score":"0","decile":"1","lat":40.37532289977,"lng":-111.93832564659},{"id":"93947","name":"Darren Hamill","party":"","address":"738 N Grouse Cir, Saratoga Springs, UT 84045","precinct":"25SR09","hd":"51","v_score":"0","decile":"1","lat":40.375579857376,"lng":-111.937791777167},{"id":"94075","name":"Claiborne Borer","party":"Dem","address":"757 N Badger Ln, Saratoga Springs, UT 84045","precinct":"25SR09","hd":"51","v_score":"3.711952487","decile":"6","lat":40.375353056594,"lng":-111.939879425178},{"id":"94205","name":"Britni Langworth-Champlin","party":"","address":"818 N Joshua Dr, Saratoga Springs, UT 84045","precinct":"25SR09","hd":"51","v_score":"0","decile":"1","lat":40.376969441239,"lng":-111.937193425477},{"id":"95320","name":"Myrl Ryan-Sipes","party":"Dem","address":"919 W Joshua Dr, Saratoga Springs, UT 84045","precinct":"25SR09","hd":"51","v_score":"0","decile":"1","lat":40.378685367215,"lng":-111.937951501691},{"id":"95767","name":"Dr. Jaycie Batz DDS","party":"","address":"1014 N Jack Rabbit Run, Saratoga Springs, UT 84045","precinct":"25SR09","hd":"51","v_score":"0","decile":"1","lat":40.380426609611,"lng":-111.938365358759},{"id":"97030","name":"Aryanna Fadel-Roberts","party":"Dem","address":"634 N Pheasant Cir, Saratoga Springs, UT 84045","precinct":"25SR09","hd":"51","v_score":"1.193887297","decile":"4","lat":40.373410450482,"lng":-111.938542070838},{"id":"97711","name":"Ms. Sharonda Blanda","party":"","address":"805 N Red Fox Ln, Saratoga Springs, UT 84045","precinct":"25SR09","hd":"51","v_score":"1.193887297","decile":"4","lat":40.37801421041,"lng":-111.939891064028},{"id":"97864","name":"Tab Torp","party":"Dem","address":"1091 N Mustang Ln, Saratoga Springs, UT 84045","precinct":"25SR09","hd":"51","v_score":"2.817000428","decile":"6","lat":40.38174057221,"lng":-111.936196586948},{"id":"98006","name":"Francina Altenwerth","party":"Rep","address":"982 N Buffalo Dr, Saratoga Springs, UT 84045","precinct":"25SR09","hd":"51","v_score":"2.817000428","decile":"6","lat":40.379902657503,"lng":-111.936054135299},{"id":"98598","name":"Terry Blick","party":"Dem","address":"672 N Badger Ln, Saratoga Springs, UT 84045","precinct":"25SR09","hd":"51","v_score":"4.069929862","decile":"6","lat":40.374111522611,"lng":-111.939703759213},{"id":"98784","name":"Berlin Kling","party":"","address":"892 N Buffalo Dr, Saratoga Springs, UT 84045","precinct":"25SR09","hd":"51","v_score":"1.193887297","decile":"4","lat":40.37730754239,"lng":-111.936099285795},{"id":"99120","name":"Mr. Titus Shields","party":"","address":"862 W Tortoise Cir, Saratoga Springs, UT 84045","precinct":"25SR09","hd":"51","v_score":"1.193887297","decile":"4","lat":40.378956304885,"lng":-111.93663686881},{"id":"100022","name":"Gene Kihn","party":"","address":"858 W Mustang Cir, Saratoga Springs, UT 84045","precinct":"25SR09","hd":"51","v_score":"0","decile":"1","lat":40.381146146322,"lng":-111.936534153286},{"id":"100363","name":"Miss London Gusikowski MD","party":"","address":"726 N Grouse Cir, Saratoga Springs, UT 84045","precinct":"25SR09","hd":"51","v_score":"0","decile":"1","lat":40.375518080915,"lng":-111.937816162619},{"id":"100364","name":"Pinkie Luettgen","party":"Dem","address":"726 N Grouse Cir, Saratoga Springs, UT 84045","precinct":"25SR09","hd":"51","v_score":"1.193887297","decile":"4","lat":40.375518080915,"lng":-111.937816162619},{"id":"100441","name":"Ura Koss","party":"","address":"884 W Red Fox Ln, Saratoga Springs, UT 84045","precinct":"25SR09","hd":"51","v_score":"1.193887297","decile":"4","lat":40.376352483555,"lng":-111.93896874372},{"id":"100896","name":"Jamel Ratke","party":"Rep","address":"916 W Mountain Peak Dr, Saratoga Springs, UT 84045","precinct":"25SR09","hd":"51","v_score":"0","decile":"2","lat":40.372633795916,"lng":-111.937862572587},{"id":"101692","name":"Cordelia Christiansen-Kiehn","party":"","address":"901 N Buffalo Dr, Saratoga Springs, UT 84045","precinct":"25SR09","hd":"51","v_score":"0","decile":"2","lat":40.377393232746,"lng":-111.936236398175},{"id":"101806","name":"Primus Lebsack MD","party":"Rep","address":"853 W Mustang Cir, Saratoga Springs, UT 84045","precinct":"25SR09","hd":"51","v_score":"0","decile":"2","lat":40.38102912791,"lng":-111.936518274458},{"id":"103264","name":"Albertha Hills PhD","party":"","address":"546 N Slate Ct, Saratoga Springs, UT 84045","precinct":"25SR09","hd":"51","v_score":"0","decile":"2","lat":40.372356576255,"lng":-111.937328591274},{"id":"103389","name":"Hope Mertz PhD","party":"Rep","address":"628 N Fox Cir, Saratoga Springs, UT 84045","precinct":"25SR09","hd":"51","v_score":"1.193887297","decile":"4","lat":40.373431052466,"lng":-111.937298237001},{"id":"103802","name":"Deetta Carter","party":"","address":"708 Appellation Dr, Saratoga Springs, UT 84045","precinct":"25SR09","hd":"51","v_score":"7.090117576","decile":"8","lat":40.374983160767,"lng":-111.940606136068},{"id":"103861","name":"Billye Donnelly PhD","party":"Dem","address":"699 N Badger Ln, Saratoga Springs, UT 84045","precinct":"25SR09","hd":"51","v_score":"0","decile":"2","lat":40.37467471422,"lng":-111.939872014466},{"id":"104927","name":"Mrs. Salome Gusikowski PhD","party":"","address":"821 N Buffalo Dr, Saratoga Springs, UT 84045","precinct":"25SR09","hd":"51","v_score":"1.193887297","decile":"4","lat":40.376975195423,"lng":-111.936394457775},{"id":"105880","name":"Ardell Parisian PhD","party":"","address":"807 N Buffalo Dr, Saratoga Springs, UT 84045","precinct":"25SR09","hd":"51","v_score":"1.193887297","decile":"4","lat":40.376733525281,"lng":-111.936534592814},{"id":"106360","name":"Elma Marvin","party":"Dem","address":"901 W Chukar Cir, Saratoga Springs, UT 84045","precinct":"25SR09","hd":"51","v_score":"0","decile":"2","lat":40.37740958217,"lng":-111.937541018924},{"id":"106462","name":"Harvey Harvey-Lesch","party":"","address":"914 W Pheasant Ln, Saratoga Springs, UT 84045","precinct":"25SR09","hd":"51","v_score":"0","decile":"2","lat":40.373694122124,"lng":-111.938156014605},{"id":"108034","name":"Sage Graham","party":"Rep","address":"907 W Mountain Peak Dr, Saratoga Springs, UT 84045","precinct":"25SR09","hd":"51","v_score":"0","decile":"2","lat":40.372518913356,"lng":-111.938381381128},{"id":"108098","name":"Era Botsford","party":"Dem","address":"899 W Burro Way, Saratoga Springs, UT 84045","precinct":"25SR09","hd":"51","v_score":"1.193887297","decile":"4","lat":40.376801350914,"lng":-111.93823086246},{"id":"109720","name":"Abe Spencer MD","party":"Dem","address":"858 W Red Hen Rd, Saratoga Springs, UT 84045","precinct":"25SR09","hd":"51","v_score":"2.876042565","decile":"6","lat":40.383019761383,"lng":-111.937158610859},{"id":"110257","name":"Valentin Schiller-Lowe","party":"","address":"919 W Red Fox Ln, Saratoga Springs, UT 84045","precinct":"25SR09","hd":"51","v_score":"1.193887297","decile":"4","lat":40.376158419524,"lng":-111.938831144339},{"id":"110382","name":"Aleena Hansen PhD","party":"","address":"872 W Burro Way, Saratoga Springs, UT 84045","precinct":"25SR09","hd":"51","v_score":"0","decile":"2","lat":40.377615664881,"lng":-111.938747701835},{"id":"110836","name":"Miss Erlene Bogan","party":"Dem","address":"609 N Badger Ln, Saratoga Springs, UT 84045","precinct":"25SR09","hd":"51","v_score":"5.407962308","decile":"7","lat":40.373542584977,"lng":-111.939845013857},{"id":"111546","name":"Sharleen Collier","party":"Dem","address":"884 W Red Fox Ln, Saratoga Springs, UT 84045","precinct":"25SR09","hd":"51","v_score":"0","decile":"2","lat":40.376352483555,"lng":-111.93896874372},{"id":"111655","name":"Levina Reilly-Armstrong","party":"Dem","address":"941 W Grouse Cir, Saratoga Springs, UT 84045","precinct":"25SR09","hd":"51","v_score":"1.193887297","decile":"4","lat":40.37532289977,"lng":-111.93832564659},{"id":"112146","name":"Gabriela Kuhlman","party":"Rep","address":"991 N Coyote Run, Saratoga Springs, UT 84045","precinct":"25SR09","hd":"51","v_score":"0","decile":"2","lat":40.380958880968,"lng":-111.939235898299},{"id":"112377","name":"Elgin Dach I","party":"Dem","address":"1079 N Jack Rabbit Run, Saratoga Springs, UT 84045","precinct":"25SR09","hd":"51","v_score":"1.193887297","decile":"4","lat":40.381413353135,"lng":-111.937799743685},{"id":"112474","name":"Mandy McClure","party":"Rep","address":"883 W Prairie Dog Way, Saratoga Springs, UT 84045","precinct":"25SR09","hd":"51","v_score":"4.214075011","decile":"7","lat":40.37450124202,"lng":-111.938060902219},{"id":"112692","name":"Jordin Rutherford","party":"Rep","address":"913 W Chukar Cir, Saratoga Springs, UT 84045","precinct":"25SR09","hd":"51","v_score":"0","decile":"2","lat":40.377420101753,"lng":-111.937586298848},{"id":"113676","name":"Dove O'Reilly PhD","party":"Dem","address":"862 W Tortoise Cir, Saratoga Springs, UT 84045","precinct":"25SR09","hd":"51","v_score":"0","decile":"2","lat":40.378956304885,"lng":-111.93663686881},{"id":"113781","name":"Dr. Phyllis Homenick MD","party":"","address":"729 N Badger Ln, Saratoga Springs, UT 84045","precinct":"25SR09","hd":"51","v_score":"4.069929862","decile":"7","lat":40.375070205202,"lng":-111.939878726248},{"id":"114078","name":"Mr. Juston Kutch II","party":"","address":"836 W Buffalo Dr, Saratoga Springs, UT 84045","precinct":"25SR09","hd":"51","v_score":"1.193887297","decile":"4","lat":40.377463683309,"lng":-111.93607274182},{"id":"114187","name":"Versie Tromp","party":"","address":"824 W Buffalo Dr, Saratoga Springs, UT 84045","precinct":"25SR09","hd":"51","v_score":"1.193887297","decile":"4","lat":40.37685294379,"lng":-111.936299782424},{"id":"115503","name":"Fleta Predovic","party":"","address":"747 N Buffalo Dr, Saratoga Springs, UT 84045","precinct":"25SR09","hd":"51","v_score":"1.193887297","decile":"4","lat":40.375613081347,"lng":-111.937008550147},{"id":"115522","name":"Gwenda Bergnaum DDS","party":"Rep","address":"941 W Grouse Cir, Saratoga Springs, UT 84045","precinct":"25SR09","hd":"51","v_score":"1.193887297","decile":"4","lat":40.37532289977,"lng":-111.93832564659},{"id":"115536","name":"Lacey Gorczany","party":"Dem","address":"1098 N Mustang Ln, Saratoga Springs, UT 84045","precinct":"25SR09","hd":"51","v_score":"0","decile":"2","lat":40.381981926984,"lng":-111.936041790553},{"id":"115824","name":"Diandra Howe","party":"","address":"1058 N Coyote Run, Saratoga Springs, UT 84045","precinct":"25SR09","hd":"51","v_score":"0","decile":"2","lat":40.381377037217,"lng":-111.938713926872},{"id":"116196","name":"Derl Block","party":"Dem","address":"694 N Buffalo Dr, Saratoga Springs, UT 84045","precinct":"25SR09","hd":"51","v_score":"1.193887297","decile":"4","lat":40.374264891784,"lng":-111.936495672828},{"id":"117273","name":"Hayward Yundt IV","party":"Rep","address":"694 N Buffalo Dr, Saratoga Springs, UT 84045","precinct":"25SR09","hd":"51","v_score":"2.876042565","decile":"6","lat":40.374264891784,"lng":-111.936495672828},{"id":"118220","name":"Tyrese Bartell","party":"Dem","address":"943 W Prairie Dog Way, Saratoga Springs, UT 84045","precinct":"25SR09","hd":"51","v_score":"0","decile":"2","lat":40.37466372033,"lng":-111.938908131519},{"id":"120137","name":"Micheal Lemke","party":"","address":"867 N Red Fox Ln, Saratoga Springs, UT 84045","precinct":"25SR09","hd":"51","v_score":"0","decile":"2","lat":40.376819918705,"lng":-111.939698564473},{"id":"120248","name":"Dr. Drury Gislason","party":"Dem","address":"828 W Red Hen Rd, Saratoga Springs, UT 84045","precinct":"25SR09","hd":"51","v_score":"1.193887297","decile":"4","lat":40.383051266291,"lng":-111.936651381238},{"id":"120619","name":"Yee Feil","party":"","address":"822 N Red Fox Ln, Saratoga Springs, UT 84045","precinct":"25SR09","hd":"51","v_score":"1.193887297","decile":"4","lat":40.377590478242,"lng":-111.939720554602},{"id":"120918","name":"Keith Gulgowski","party":"","address":"828 W Red Hen Rd, Saratoga Springs, UT 84045","precinct":"25SR09","hd":"51","v_score":"1.193887297","decile":"4","lat":40.383051266291,"lng":-111.936651381238},{"id":"120963","name":"Michial VonRueden","party":"Rep","address":"888 W Red Hen Rd, Saratoga Springs, UT 84045","precinct":"25SR09","hd":"51","v_score":"1.193887297","decile":"4","lat":40.382980472418,"lng":-111.937666645671},{"id":"122972","name":"Dr. Zenas Bosco","party":"Dem","address":"836 W Buffalo Dr, Saratoga Springs, UT 84045","precinct":"25SR09","hd":"51","v_score":"1.193887297","decile":"4","lat":40.377463683309,"lng":-111.93607274182},{"id":"122980","name":"Ms. Daijah Rutherford DVM","party":"Rep","address":"836 W Buffalo Dr, Saratoga Springs, UT 84045","precinct":"25SR09","hd":"51","v_score":"1.193887297","decile":"4","lat":40.377463683309,"lng":-111.93607274182},{"id":"123297","name":"Domenic Stracke","party":"","address":"1116 N Mustang Ln, Saratoga Springs, UT 84045","precinct":"25SR09","hd":"51","v_score":"0","decile":"2","lat":40.382295820994,"lng":-111.936029657338},{"id":"124272","name":"Antwon Lebsack MD","party":"Rep","address":"734 N Badger Ln, Saratoga Springs, UT 84045","precinct":"25SR09","hd":"51","v_score":"1.193887297","decile":"4","lat":40.374902116249,"lng":-111.939726475711},{"id":"124293","name":"Deana Roberts","party":"","address":"734 N Badger Ln, Saratoga Springs, UT 84045","precinct":"25SR09","hd":"51","v_score":"1.193887297","decile":"4","lat":40.374902116249,"lng":-111.939726475711},{"id":"124390","name":"Dale Bauch","party":"","address":"932 W Pheasant Ln, Saratoga Springs, UT 84045","precinct":"25SR09","hd":"51","v_score":"1.193887297","decile":"4","lat":40.373915996565,"lng":-111.938500302166},{"id":"125325","name":"Mr. Lyric Goldner II","party":"","address":"862 W Tortoise Cir, Saratoga Springs, UT 84045","precinct":"25SR09","hd":"51","v_score":"0","decile":"2","lat":40.378956304885,"lng":-111.93663686881},{"id":"125806","name":"Orah Kuhn","party":"","address":"857 W Burro Way, Saratoga Springs, UT 84045","precinct":"25SR09","hd":"51","v_score":"0","decile":"2","lat":40.37739079489,"lng":-111.938886830531},{"id":"126842","name":"Kolby Runolfsson","party":"Rep","address":"846 W Mountain Peak Dr, Saratoga Springs, UT 84045","precinct":"25SR09","hd":"51","v_score":"7.090117576","decile":"8","lat":40.372647196666,"lng":-111.936254071416},{"id":"127040","name":"Gwendolyn Bergstrom","party":"Rep","address":"1012 N Mustang Ln, Saratoga Springs, UT 84045","precinct":"25SR09","hd":"51","v_score":"0","decile":"2","lat":40.380471894091,"lng":-111.936102339739},{"id":"127450","name":"Aedan McCullough","party":"","address":"948 W Red Fox Ln, Saratoga Springs, UT 84045","precinct":"25SR09","hd":"51","v_score":"0","decile":"2","lat":40.376105390662,"lng":-111.938107944701},{"id":"128610","name":"Coy Oberbrunner","party":"","address":"643 N Fox Cir, Saratoga Springs, UT 84045","precinct":"25SR09","hd":"51","v_score":"0","decile":"2","lat":40.373485731401,"lng":-111.937437685072},{"id":"128993","name":"Dean Glover","party":"Rep","address":"643 N Fox Cir, Saratoga Springs, UT 84045","precinct":"25SR09","hd":"51","v_score":"2.876042565","decile":"6","lat":40.373485731401,"lng":-111.937437685072},{"id":"130236","name":"Kristian Rempel","party":"Dem","address":"902 W Red Fox Ln, Saratoga Springs, UT 84045","precinct":"25SR09","hd":"51","v_score":"0","decile":"2","lat":40.376260093407,"lng":-111.9387545036},{"id":"130330","name":"Marlon Koss","party":"Dem","address":"971 W Red Fox Ln, Saratoga Springs, UT 84045","precinct":"25SR09","hd":"51","v_score":"0","decile":"2","lat":40.376003487975,"lng":-111.938186534611},{"id":"130619","name":"Vernelle Nikolaus","party":"Rep","address":"828 W Red Hen Rd, Saratoga Springs, UT 84045","precinct":"25SR09","hd":"51","v_score":"0","decile":"2","lat":40.383051266291,"lng":-111.936651381238},{"id":"131387","name":"Lacie Leffler-Kulas","party":"Dem","address":"992 N Coyote Run, Saratoga Springs, UT 84045","precinct":"25SR09","hd":"51","v_score":"2.876042565","decile":"6","lat":40.380728043917,"lng":-111.939207009684},{"id":"131388","name":"Lauretta Hauck","party":"","address":"992 N Coyote Run, Saratoga Springs, UT 84045","precinct":"25SR09","hd":"51","v_score":"2.876042565","decile":"6","lat":40.380728043917,"lng":-111.939207009684},{"id":"132141","name":"Jayvon Bosco","party":"Rep","address":"932 W Red Fox Ln, Saratoga Springs, UT 84045","precinct":"25SR09","hd":"51","v_score":"0","decile":"2","lat":40.376157713262,"lng":-111.938332185686},{"id":"132247","name":"Jeb Armstrong","party":"","address":"859 W Pheasant Ln, Saratoga Springs, UT 84045","precinct":"25SR09","hd":"51","v_score":"0","decile":"2","lat":40.373254881586,"lng":-111.937140705523},{"id":"132658","name":"Joell Kunze","party":"Dem","address":"919 W Mountain Peak Dr, Saratoga Springs, UT 84045","precinct":"25SR09","hd":"51","v_score":"2.876042565","decile":"6","lat":40.372510843263,"lng":-111.938484343611},{"id":"132722","name":"Brionna Mohr","party":"Rep","address":"971 W Red Fox Ln, Saratoga Springs, UT 84045","precinct":"25SR09","hd":"51","v_score":"0","decile":"2","lat":40.376003487975,"lng":-111.938186534611},{"id":"132727","name":"Johnnie Langosh","party":"","address":"899 W Burro Way, Saratoga Springs, UT 84045","precinct":"25SR09","hd":"51","v_score":"0","decile":"2","lat":40.376801350914,"lng":-111.93823086246},{"id":"133788","name":"Mrs. Madisen Crist","party":"","address":"556 N Slate Ct, Saratoga Springs, UT 84045","precinct":"25SR09","hd":"51","v_score":"0","decile":"2","lat":40.372388256428,"lng":-111.937333871299},{"id":"134661","name":"Addisyn Grant","party":"Dem","address":"822 N Red Fox Ln, Saratoga Springs, UT 84045","precinct":"25SR09","hd":"51","v_score":"5.40460374","decile":"7","lat":40.377590478242,"lng":-111.939720554602},{"id":"135049","name":"Gerhardt Rolfson","party":"Dem","address":"1009 N Coyote Run, Saratoga Springs, UT 84045","precinct":"25SR09","hd":"51","v_score":"2.315214949","decile":"5","lat":40.381176639698,"lng":-111.939069176748},{"id":"135092","name":"Maybell Thiel","party":"","address":"543 N Slate Ct, Saratoga Springs, UT 84045","precinct":"25SR09","hd":"51","v_score":"2.315214949","decile":"5","lat":40.372329469845,"lng":-111.937475693133},{"id":"135398","name":"Chris Oberbrunner","party":"Dem","address":"1078 N Jack Rabbit Run, Saratoga Springs, UT 84045","precinct":"25SR09","hd":"51","v_score":"1.121327652","decile":"3","lat":40.382119524446,"lng":-111.937031549017},{"id":"135473","name":"Chaz Rohan","party":"","address":"1049 N Coyote Run, Saratoga Springs, UT 84045","precinct":"25SR09","hd":"51","v_score":"2.315214949","decile":"5","lat":40.381644899676,"lng":-111.938656224031},{"id":"135940","name":"Jordi Botsford","party":"Dem","address":"856 W Mustang Cir, Saratoga Springs, UT 84045","precinct":"25SR09","hd":"51","v_score":"12.59867706","decile":"9","lat":40.381145038242,"lng":-111.9365225976},{"id":"136023","name":"Anderson Block PhD","party":"","address":"858 W Rattler Rd, Saratoga Springs, UT 84045","precinct":"25SR09","hd":"51","v_score":"30.77068687","decile":"10","lat":40.379814706178,"lng":-111.937401438671},{"id":"136038","name":"Lavada Connelly","party":"","address":"858 W Rattler Rd, Saratoga Springs, UT 84045","precinct":"25SR09","hd":"51","v_score":"40.27488421","decile":"10","lat":40.379814706178,"lng":-111.937401438671},{"id":"136157","name":"Dr. Ruby Deckow Sr.","party":"Rep","address":"815 N Red Fox Ln, Saratoga Springs, UT 84045","precinct":"25SR09","hd":"51","v_score":"8.15240309","decile":"8","lat":40.377822225634,"lng":-111.939883064688},{"id":"137002","name":"Odell Jenkins","party":"","address":"1021 N Coyote Run, Saratoga Springs, UT 84045","precinct":"25SR09","hd":"51","v_score":"21.87045579","decile":"10","lat":40.381320916762,"lng":-111.938946241032},{"id":"137065","name":"Miss Tenika Prohaska DDS","party":"Dem","address":"926 W Mountain Peak Dr, Saratoga Springs, UT 84045","precinct":"25SR09","hd":"51","v_score":"18.62286557","decile":"10","lat":40.37263536312,"lng":-111.938023209644},{"id":"137129","name":"Clare Gleason-Farrell","party":"Dem","address":"939 W Grouse Cir, Saratoga Springs, UT 84045","precinct":"25SR09","hd":"51","v_score":"5.40460374","decile":"7","lat":40.37532009963,"lng":-111.938313979343},{"id":"137460","name":"Boysie Olson Sr.","party":"","address":"1012 N Mustang Ln, Saratoga Springs, UT 84045","precinct":"25SR09","hd":"51","v_score":"3.781490609","decile":"6","lat":40.380471894091,"lng":-111.936102339739},{"id":"137651","name":"Joel Kohler","party":"Dem","address":"731 N Buffalo Dr, Saratoga Springs, UT 84045","precinct":"25SR09","hd":"51","v_score":"16.59712556","decile":"9","lat":40.375385267979,"lng":-111.937020691729},{"id":"137663","name":"Nichole Collins","party":"Rep","address":"899 W Burro Way, Saratoga Springs, UT 84045","precinct":"25SR09","hd":"51","v_score":"9.116556227","decile":"8","lat":40.376801350914,"lng":-111.93823086246},{"id":"137782","name":"Marybelle Murray-Kuhlman","party":"","address":"752 N Grouse Cir, Saratoga Springs, UT 84045","precinct":"25SR09","hd":"51","v_score":"11.23922619","decile":"9","lat":40.375651929914,"lng":-111.937763327474},{"id":"137861","name":"Chance Reilly","party":"Dem","address":"807 N Buffalo Dr, Saratoga Springs, UT 84045","precinct":"25SR09","hd":"51","v_score":"1.193887297","decile":"4","lat":40.376733525281,"lng":-111.936534592814},{"id":"138146","name":"Davy Davis","party":"","address":"919 W Mountain Peak Dr, Saratoga Springs, UT 84045","precinct":"25SR09","hd":"51","v_score":"14.07653899","decile":"9","lat":40.372510843263,"lng":-111.938484343611},{"id":"138199","name":"Connie Hermiston","party":"","address":"932 W Burro Way, Saratoga Springs, UT 84045","precinct":"25SR09","hd":"51","v_score":"3.781490609","decile":"6","lat":40.376869079589,"lng":-111.938014196577},{"id":"138202","name":"Richie McKenzie","party":"Dem","address":"932 W Burro Way, Saratoga Springs, UT 84045","precinct":"25SR09","hd":"51","v_score":"3.781490609","decile":"6","lat":40.376869079589,"lng":-111.938014196577},{"id":"138515","name":"Jaren Medhurst Jr.","party":"","address":"867 N Red Fox Ln, Saratoga Springs, UT 84045","precinct":"25SR09","hd":"51","v_score":"2.315214949","decile":"5","lat":40.376819918705,"lng":-111.939698564473},{"id":"138516","name":"Lelia Mraz","party":"","address":"867 N Red Fox Ln, Saratoga Springs, UT 84045","precinct":"25SR09","hd":"51","v_score":"8.363183621","decile":"8","lat":40.376819918705,"lng":-111.939698564473},{"id":"138854","name":"Quintin Jerde","party":"","address":"546 N Slate Ct, Saratoga Springs, UT 84045","precinct":"25SR09","hd":"51","v_score":"8.363183621","decile":"8","lat":40.372356576255,"lng":-111.937328591274},{"id":"139032","name":"Leonce Dibbert","party":"Rep","address":"872 N Red Fox Ln, Saratoga Springs, UT 84045","precinct":"25SR09","hd":"51","v_score":"5.40460374","decile":"7","lat":40.376566476437,"lng":-111.939293037666},{"id":"139043","name":"Mellisa Stroman","party":"Dem","address":"851 W Pheasant Ln, Saratoga Springs, UT 84045","precinct":"25SR09","hd":"51","v_score":"0","decile":"2","lat":40.373253185137,"lng":-111.9370864193},{"id":"139230","name":"Sondra Fay-Wisoky","party":"Dem","address":"1147 N Coyote Run, Saratoga Springs, UT 84045","precinct":"25SR09","hd":"51","v_score":"8.280646305","decile":"8","lat":40.382848935279,"lng":-111.937980331109},{"id":"140600","name":"Jeanine Vandervort","party":"","address":"948 W Red Fox Ln, Saratoga Springs, UT 84045","precinct":"25SR09","hd":"51","v_score":"0","decile":"2","lat":40.376105390662,"lng":-111.938107944701},{"id":"140971","name":"Tate Hessel","party":"Rep","address":"1146 N Mustang Ln, Saratoga Springs, UT 84045","precinct":"25SR09","hd":"51","v_score":"0","decile":"2","lat":40.38259737825,"lng":-111.936017358347},{"id":"141162","name":"Caswell Schuppe","party":"Dem","address":"948 N Rattler Rd, Saratoga Springs, UT 84045","precinct":"25SR09","hd":"51","v_score":"12.77682377","decile":"9","lat":40.379597614516,"lng":-111.936877585318},{"id":"141523","name":"Cass Williamson-Armstrong","party":"Dem","address":"843 W Tortoise Cir, Saratoga Springs, UT 84045","precinct":"25SR09","hd":"51","v_score":"2.817000428","decile":"6","lat":40.378841713489,"lng":-111.936490633333},{"id":"141794","name":"Estill Gibson V","party":"","address":"931 W Burro Way, Saratoga Springs, UT 84045","precinct":"25SR09","hd":"51","v_score":"2.315214949","decile":"5","lat":40.376699753922,"lng":-111.937809131704},{"id":"141894","name":"Stuart Hintz-Windler","party":"Rep","address":"994 N Jack Rabbit Run, Saratoga Springs, UT 84045","precinct":"25SR09","hd":"51","v_score":"1.121327652","decile":"3","lat":40.380084882019,"lng":-111.938538687109},{"id":"142173","name":"Lucien Marvin","party":"Dem","address":"1081 N Coyote Run, Saratoga Springs, UT 84045","precinct":"25SR09","hd":"51","v_score":"19.85844558","decile":"10","lat":40.382016495224,"lng":-111.938329019042},{"id":"142174","name":"Makayla Ratke","party":"","address":"1081 N Coyote Run, Saratoga Springs, UT 84045","precinct":"25SR09","hd":"51","v_score":"22.58391448","decile":"10","lat":40.382016495224,"lng":-111.938329019042},{"id":"142585","name":"Mrs. Elois Kemmer PhD","party":"Dem","address":"634 N Pheasant Cir, Saratoga Springs, UT 84045","precinct":"25SR09","hd":"51","v_score":"32.13136775","decile":"10","lat":40.373410450482,"lng":-111.938542070838},{"id":"142770","name":"Chin Schumm","party":"Dem","address":"1098 N Mustang Ln, Saratoga Springs, UT 84045","precinct":"25SR09","hd":"51","v_score":"11.31772463","decile":"9","lat":40.381981926984,"lng":-111.936041790553},{"id":"143031","name":"Lupe Russel","party":"Dem","address":"1052 N Jack Rabbit Run, Saratoga Springs, UT 84045","precinct":"25SR09","hd":"51","v_score":"8.709634245","decile":"8","lat":40.381322069321,"lng":-111.937696653324},{"id":"143050","name":"Shyla Grady","party":"","address":"1041 N Mustang Ln, Saratoga Springs, UT 84045","precinct":"25SR09","hd":"51","v_score":"19.16525368","decile":"10","lat":40.380812861064,"lng":-111.936216015263},{"id":"143094","name":"Dr. Shelley Gislason PhD","party":"Rep","address":"907 W Mountain Peak Dr, Saratoga Springs, UT 84045","precinct":"25SR09","hd":"51","v_score":"5.273794831","decile":"7","lat":40.372518913356,"lng":-111.938381381128},{"id":"143212","name":"Johan Klein","party":"","address":"882 N Joshua Dr, Saratoga Springs, UT 84045","precinct":"25SR09","hd":"51","v_score":"0","decile":"3","lat":40.377753375261,"lng":-111.936937973006},{"id":"143421","name":"Maeve Barton","party":"","address":"951 N Rattler Rd, Saratoga Springs, UT 84045","precinct":"25SR09","hd":"51","v_score":"4.283276088","decile":"7","lat":40.379705774971,"lng":-111.936809446125},{"id":"143615","name":"Ignatz Hackett","party":"Dem","address":"926 W Mountain Peak Dr, Saratoga Springs, UT 84045","precinct":"25SR09","hd":"51","v_score":"6.896907962","decile":"8","lat":40.37263536312,"lng":-111.938023209644},{"id":"144657","name":"Marta Willms","party":"","address":"1049 N Coyote Run, Saratoga Springs, UT 84045","precinct":"25SR09","hd":"51","v_score":"5.40460374","decile":"7","lat":40.381644899676,"lng":-111.938656224031},{"id":"144790","name":"Herbert Cummings","party":"","address":"898 W Chukar Cir, Saratoga Springs, UT 84045","precinct":"25SR09","hd":"51","v_score":"8.280646305","decile":"8","lat":40.377517436675,"lng":-111.937489593072},{"id":"144907","name":"Ms. Ivonne Bradtke","party":"Rep","address":"752 N Badger Ln, Saratoga Springs, UT 84045","precinct":"25SR09","hd":"51","v_score":"1.121327652","decile":"3","lat":40.374961609999,"lng":-111.939727122374},{"id":"145031","name":"Mr. Major Brekke MD","party":"","address":"844 W Rattler Rd, Saratoga Springs, UT 84045","precinct":"25SR09","hd":"51","v_score":"14.40879056","decile":"9","lat":40.379755238628,"lng":-111.937109507206},{"id":"145248","name":"Bernhard Pfeffer","party":"","address":"931 W Burro Way, Saratoga Springs, UT 84045","precinct":"25SR09","hd":"51","v_score":"2.315214949","decile":"5","lat":40.376699753922,"lng":-111.937809131704},{"id":"145474","name":"Elmina Tromp","party":"Dem","address":"618 N Pheasant Cir, Saratoga Springs, UT 84045","precinct":"25SR09","hd":"51","v_score":"2.660162957","decile":"5","lat":40.373371766198,"lng":-111.938620927272},{"id":"145477","name":"Dorman Kessler-Frami","party":"","address":"864 W Burro Way, Saratoga Springs, UT 84045","precinct":"25SR09","hd":"51","v_score":"1.121327652","decile":"3","lat":40.377739247847,"lng":-111.93875397052},{"id":"145499","name":"Icie Dicki","party":"Dem","address":"843 W Tortoise Cir, Saratoga Springs, UT 84045","precinct":"25SR09","hd":"51","v_score":"5.40460374","decile":"7","lat":40.378841713489,"lng":-111.936490633333},{"id":"145905","name":"Dr. Ronaldo Homenick","party":"Rep","address":"898 W Chukar Cir, Saratoga Springs, UT 84045","precinct":"25SR09","hd":"51","v_score":"10.8238813","decile":"9","lat":40.377517436675,"lng":-111.937489593072},{"id":"146183","name":"Lilyanna Denesik","party":"","address":"536 N Slate Ct, Saratoga Springs, UT 84045","precinct":"25SR09","hd":"51","v_score":"1.193887297","decile":"4","lat":40.372326317548,"lng":-111.937323494333},{"id":"146393","name":"Mr. Orla Nader","party":"","address":"916 W Mountain Peak Dr, Saratoga Springs, UT 84045","precinct":"25SR09","hd":"51","v_score":"3.93832808","decile":"6","lat":40.372633795916,"lng":-111.937862572587},{"id":"147116","name":"Ms. Kathleen Schiller PhD","party":"Rep","address":"916 W Mountain Peak Dr, Saratoga Springs, UT 84045","precinct":"25SR09","hd":"51","v_score":"3.93832808","decile":"6","lat":40.372633795916,"lng":-111.937862572587},{"id":"147653","name":"Carlos Weissnat","party":"","address":"859 W Red Hen Rd, Saratoga Springs, UT 84045","precinct":"25SR09","hd":"51","v_score":"1.121327652","decile":"3","lat":40.382905549019,"lng":-111.937146384886},{"id":"148171","name":"Metro Legros","party":"","address":"864 W Burro Way, Saratoga Springs, UT 84045","precinct":"25SR09","hd":"51","v_score":"1.121327652","decile":"3","lat":40.377739247847,"lng":-111.93875397052},{"id":"151310","name":"Alford Terry","party":"Dem","address":"1094 N Jack Rabbit Run, Saratoga Springs, UT 84045","precinct":"25SR09","hd":"51","v_score":"39.30976877","decile":"10","lat":40.382284712471,"lng":-111.936366412549},{"id":"151381","name":"Tab Bode","party":"","address":"862 W Tortoise Cir, Saratoga Springs, UT 84045","precinct":"25SR09","hd":"51","v_score":"5.40460374","decile":"7","lat":40.378956304885,"lng":-111.93663686881},{"id":"151720","name":"Elta Tremblay-Kassulke","party":"","address":"836 W Buffalo Dr, Saratoga Springs, UT 84045","precinct":"25SR09","hd":"51","v_score":"1.193887297","decile":"4","lat":40.377463683309,"lng":-111.93607274182},{"id":"152934","name":"Squire Marvin","party":"Dem","address":"832 N Joshua Dr, Saratoga Springs, UT 84045","precinct":"25SR09","hd":"51","v_score":"1.121327652","decile":"3","lat":40.377171805407,"lng":-111.937083425419},{"id":"152976","name":"Concepcion Towne","party":"","address":"717 N Badger Ln, Saratoga Springs, UT 84045","precinct":"25SR09","hd":"51","v_score":"30.77068687","decile":"10","lat":40.374949598824,"lng":-111.939877415325},{"id":"152977","name":"Mr. Conley Flatley III","party":"Rep","address":"717 N Badger Ln, Saratoga Springs, UT 84045","precinct":"25SR09","hd":"51","v_score":"30.77068687","decile":"10","lat":40.374949598824,"lng":-111.939877415325},{"id":"154327","name":"Brittany Greenholt","party":"","address":"859 W Rattler Rd, Saratoga Springs, UT 84045","precinct":"25SR09","hd":"51","v_score":"3.93832808","decile":"6","lat":40.379696650359,"lng":-111.937404196793},{"id":"154858","name":"Abe Yundt-Thiel","party":"Dem","address":"924 N Buffalo Dr, Saratoga Springs, UT 84045","precinct":"25SR09","hd":"51","v_score":"12.65668843","decile":"9","lat":40.378571675568,"lng":-111.93604186773},{"id":"155538","name":"Dr. Stanley O'Kon II","party":"","address":"609 N Badger Ln, Saratoga Springs, UT 84045","precinct":"25SR09","hd":"51","v_score":"8.15240309","decile":"8","lat":40.373542584977,"lng":-111.939845013857},{"id":"156358","name":"Annmarie Hintz","party":"Rep","address":"1091 N Mustang Ln, Saratoga Springs, UT 84045","precinct":"25SR09","hd":"51","v_score":"2.315214949","decile":"5","lat":40.38174057221,"lng":-111.936196586948},{"id":"159549","name":"Aedan Leffler","party":"Rep","address":"1078 N Coyote Run, Saratoga Springs, UT 84045","precinct":"25SR09","hd":"51","v_score":"19.18667211","decile":"10","lat":40.381568072205,"lng":-111.938542919723},{"id":"160490","name":"Mercer Buckridge","party":"","address":"913 W Chukar Cir, Saratoga Springs, UT 84045","precinct":"25SR09","hd":"51","v_score":"10.60886045","decile":"9","lat":40.377420101753,"lng":-111.937586298848},{"id":"160970","name":"Karma Goyette","party":"Rep","address":"1122 N Coyote Run, Saratoga Springs, UT 84045","precinct":"25SR09","hd":"51","v_score":"0","decile":"3","lat":40.381991155918,"lng":-111.938170526613},{"id":"161843","name":"Latoyia Fay","party":"","address":"924 N Buffalo Dr, Saratoga Springs, UT 84045","precinct":"25SR09","hd":"51","v_score":"15.53273099","decile":"9","lat":40.378571675568,"lng":-111.93604186773},{"id":"162129","name":"Rhett Huels","party":"Rep","address":"859 W Rattler Rd, Saratoga Springs, UT 84045","precinct":"25SR09","hd":"51","v_score":"3.93832808","decile":"6","lat":40.379696650359,"lng":-111.937404196793},{"id":"163089","name":"Mrs. Iola Mayer PhD","party":"","address":"536 N Slate Ct, Saratoga Springs, UT 84045","precinct":"25SR09","hd":"51","v_score":"3.93832808","decile":"6","lat":40.372326317548,"lng":-111.937323494333},{"id":"163382","name":"Dustan Hudson","party":"Dem","address":"768 N Badger Ln, Saratoga Springs, UT 84045","precinct":"25SR09","hd":"51","v_score":"3.781490609","decile":"6","lat":40.375014493332,"lng":-111.939727697186},{"id":"163482","name":"Dr. Lorean Haley PhD","party":"Dem","address":"828 W Red Hen Rd, Saratoga Springs, UT 84045","precinct":"25SR09","hd":"51","v_score":"8.347511332","decile":"8","lat":40.383051266291,"lng":-111.936651381238},{"id":"164450","name":"Shyann Wiza","party":"Dem","address":"871 W Burro Way, Saratoga Springs, UT 84045","precinct":"25SR09","hd":"51","v_score":"12.18333217","decile":"9","lat":40.377044395867,"lng":-111.938754431032},{"id":"164757","name":"Liller Langosh MD","party":"","address":"872 W Burro Way, Saratoga Springs, UT 84045","precinct":"25SR09","hd":"51","v_score":"13.88819944","decile":"9","lat":40.377615664881,"lng":-111.938747701835},{"id":"165936","name":"Christiana McGlynn-Rath","party":"","address":"901 W Chukar Cir, Saratoga Springs, UT 84045","precinct":"25SR09","hd":"51","v_score":"9.757278238","decile":"8","lat":40.37740958217,"lng":-111.937541018924},{"id":"167888","name":"Minerva Lindgren","party":"","address":"973 N Jack Rabbit Run, Saratoga Springs, UT 84045","precinct":"25SR09","hd":"51","v_score":"11.05053808","decile":"9","lat":40.380279985062,"lng":-111.938603733999},{"id":"168880","name":"Loreen Rodriguez","party":"","address":"1024 N Jack Rabbit Run, Saratoga Springs, UT 84045","precinct":"25SR09","hd":"51","v_score":"2.744440783","decile":"6","lat":40.380588507864,"lng":-111.938268520214},{"id":"168901","name":"Edmund Casper","party":"","address":"1024 N Jack Rabbit Run, Saratoga Springs, UT 84045","precinct":"25SR09","hd":"51","v_score":"1.121327652","decile":"3","lat":40.380588507864,"lng":-111.938268520214},{"id":"169713","name":"Evelina Bradtke","party":"Dem","address":"556 N Slate Ct, Saratoga Springs, UT 84045","precinct":"25SR09","hd":"51","v_score":"3.93832808","decile":"6","lat":40.372388256428,"lng":-111.937333871299},{"id":"170424","name":"Symone Morissette","party":"","address":"1079 N Jack Rabbit Run, Saratoga Springs, UT 84045","precinct":"25SR09","hd":"51","v_score":"5.40460374","decile":"7","lat":40.381413353135,"lng":-111.937799743685},{"id":"171701","name":"Taylor Breitenberg-Swift","party":"Dem","address":"699 N Badger Ln, Saratoga Springs, UT 84045","precinct":"25SR09","hd":"51","v_score":"8.421194992","decile":"8","lat":40.37467471422,"lng":-111.939872014466},{"id":"172893","name":"Alicia Wehner","party":"","address":"899 W Burro Way, Saratoga Springs, UT 84045","precinct":"25SR09","hd":"51","v_score":"9.116556227","decile":"8","lat":40.376801350914,"lng":-111.93823086246},{"id":"173267","name":"Mr. Frankie Nikolaus DVM","party":"Dem","address":"1091 N Mustang Ln, Saratoga Springs, UT 84045","precinct":"25SR09","hd":"51","v_score":"2.660162957","decile":"5","lat":40.38174057221,"lng":-111.936196586948},{"id":"173698","name":"Jeff Predovic","party":"Rep","address":"694 N Buffalo Dr, Saratoga Springs, UT 84045","precinct":"25SR09","hd":"51","v_score":"6.724398202","decile":"8","lat":40.374264891784,"lng":-111.936495672828},{"id":"173737","name":"Kortney Abbott","party":"Rep","address":"914 W Pheasant Ln, Saratoga Springs, UT 84045","precinct":"25SR09","hd":"51","v_score":"3.781490609","decile":"6","lat":40.373694122124,"lng":-111.938156014605},{"id":"173844","name":"Dr. Ieshia Luettgen DDS","party":"Dem","address":"948 W Red Fox Ln, Saratoga Springs, UT 84045","precinct":"25SR09","hd":"51","v_score":"5.40460374","decile":"7","lat":40.376105390662,"lng":-111.938107944701},{"id":"173846","name":"Amani Legros","party":"Dem","address":"948 W Red Fox Ln, Saratoga Springs, UT 84045","precinct":"25SR09","hd":"51","v_score":"5.40460374","decile":"7","lat":40.376105390662,"lng":-111.938107944701},{"id":"176013","name":"Ms. Janna Prosacco","party":"Dem","address":"843 N Burro Way, Saratoga Springs, UT 84045","precinct":"25SR09","hd":"51","v_score":"15.68693412","decile":"9","lat":40.377723967886,"lng":-111.938903730565},{"id":"176275","name":"Torrence Kessler","party":"","address":"608 N Pheasant Cir, Saratoga Springs, UT 84045","precinct":"25SR09","hd":"51","v_score":"1.121327652","decile":"3","lat":40.373347588522,"lng":-111.938670212543},{"id":"176347","name":"Pamella Eichmann","party":"Rep","address":"738 N Grouse Cir, Saratoga Springs, UT 84045","precinct":"25SR09","hd":"51","v_score":"3.781490609","decile":"6","lat":40.375579857376,"lng":-111.937791777167},{"id":"176355","name":"Veronica Stoltenberg","party":"Rep","address":"738 N Grouse Cir, Saratoga Springs, UT 84045","precinct":"25SR09","hd":"51","v_score":"3.781490609","decile":"6","lat":40.375579857376,"lng":-111.937791777167},{"id":"176405","name":"Blaze Trantow","party":"Dem","address":"614 N Pheasant Ln, Saratoga Springs, UT 84045","precinct":"25SR09","hd":"51","v_score":"8.347511332","decile":"8","lat":40.37375763523,"lng":-111.936140047033},{"id":"176749","name":"Ewald Carroll DVM","party":"","address":"614 N Pheasant Ln, Saratoga Springs, UT 84045","precinct":"25SR09","hd":"51","v_score":"8.347511332","decile":"8","lat":40.37375763523,"lng":-111.936140047033},{"id":"176775","name":"Kamari Moore","party":"Rep","address":"614 N Pheasant Ln, Saratoga Springs, UT 84045","precinct":"25SR09","hd":"51","v_score":"8.347511332","decile":"8","lat":40.37375763523,"lng":-111.936140047033},{"id":"177742","name":"Geno Kozey","party":"Rep","address":"871 W Rattler Rd, Saratoga Springs, UT 84045","precinct":"25SR09","hd":"51","v_score":"21.1373343","decile":"10","lat":40.379732646904,"lng":-111.937576177479},{"id":"178235","name":"Dolores Lemke","party":"","address":"556 N Slate Ct, Saratoga Springs, UT 84045","precinct":"25SR09","hd":"51","v_score":"3.93832808","decile":"6","lat":40.372388256428,"lng":-111.937333871299},{"id":"179630","name":"Kiara Miller","party":"","address":"919 W Joshua Dr, Saratoga Springs, UT 84045","precinct":"25SR09","hd":"51","v_score":"2.315214949","decile":"5","lat":40.378685367215,"lng":-111.937951501691},{"id":"179847","name":"Tawnya Jaskolski-Bosco","party":"Dem","address":"644 N Fox Cir, Saratoga Springs, UT 84045","precinct":"25SR09","hd":"51","v_score":"10.87160818","decile":"9","lat":40.373469040176,"lng":-111.937288740069},{"id":"181347","name":"Carmelo Prosacco","party":"Dem","address":"741 N Grouse Cir, Saratoga Springs, UT 84045","precinct":"25SR09","hd":"51","v_score":"0","decile":"3","lat":40.37571581787,"lng":-111.937895181512},{"id":"181352","name":"Maximillian Rippin","party":"Dem","address":"876 N Buffalo Dr, Saratoga Springs, UT 84045","precinct":"25SR09","hd":"51","v_score":"8.347511332","decile":"8","lat":40.377229471931,"lng":-111.936112557782}]