[{"id":"71","name":"Evelyne Ernser","party":"Rep","address":"219 W Jonathan Pl, Saratoga Springs, UT 84045","precinct":"25SR01","hd":"51","v_score":"18.1511205","decile":"10","lat":40.407402239724,"lng":-111.926833441917},{"id":"94","name":"Mrs. Sonya Herman","party":"","address":"219 W Jonathan Pl, Saratoga Springs, UT 84045","precinct":"25SR01","hd":"51","v_score":"13.33063124","decile":"9","lat":40.407402239724,"lng":-111.926833441917},{"id":"210","name":"Marisa Wunsch PhD","party":"Dem","address":"398 W Indian Summer Dr, Saratoga Springs, UT 84045","precinct":"25SR01","hd":"51","v_score":"22.64413479","decile":"10","lat":40.404801832152,"lng":-111.930255498829},{"id":"291","name":"Mr. Dejon Cummerata","party":"Dem","address":"2482 N Pear Pl, Saratoga Springs, UT 84045","precinct":"25SR01","hd":"51","v_score":"2.315214949","decile":"5","lat":40.407403330427,"lng":-111.924424525287},{"id":"405","name":"Tiffanie Kling","party":"","address":"408 W Indian Summer Dr, Saratoga Springs, UT 84045","precinct":"25SR01","hd":"51","v_score":"4.210716443","decile":"7","lat":40.404765422694,"lng":-111.930323545642},{"id":"419","name":"Burdette Shields","party":"Dem","address":"2427 N Nectar Way, Saratoga Springs, UT 84045","precinct":"25SR01","hd":"51","v_score":"2.315214949","decile":"5","lat":40.406165705418,"lng":-111.928478856381},{"id":"598","name":"Chelsy Hilll","party":"Dem","address":"433 W Plum Pl, Saratoga Springs, UT 84045","precinct":"25SR01","hd":"51","v_score":"9.61867875","decile":"8","lat":40.404219893503,"lng":-111.926242069459},{"id":"993","name":"Gaston Schulist MD","party":"","address":"2388 N Blossom Ct, Saratoga Springs, UT 84045","precinct":"25SR01","hd":"51","v_score":"3.93832808","decile":"6","lat":40.405396126956,"lng":-111.929666076521},{"id":"1775","name":"Darryl Prosacco Sr.","party":"Dem","address":"2493 N Apricot Pl, Saratoga Springs, UT 84045","precinct":"25SR01","hd":"51","v_score":"2.315214949","decile":"5","lat":40.407508556248,"lng":-111.92586142736},{"id":"3314","name":"Dr. Benjman Lynch IV","party":"","address":"2368 N Blossom Ct, Saratoga Springs, UT 84045","precinct":"25SR01","hd":"51","v_score":"1.46627566","decile":"4","lat":40.405204332885,"lng":-111.929435688626},{"id":"3378","name":"Ms. Aleta Schinner MD","party":"Rep","address":"233 W Jonathan Pl, Saratoga Springs, UT 84045","precinct":"25SR01","hd":"51","v_score":"2.587603312","decile":"5","lat":40.407546825549,"lng":-111.926780516257},{"id":"3731","name":"Dr. Arturo Stanton PhD","party":"Rep","address":"2378 N Nectar Way, Saratoga Springs, UT 84045","precinct":"25SR01","hd":"51","v_score":"7.282185415","decile":"8","lat":40.405499018073,"lng":-111.92824064386},{"id":"3732","name":"Sampson Dickinson DDS","party":"","address":"439 W Plum Pl, Saratoga Springs, UT 84045","precinct":"25SR01","hd":"51","v_score":"7.135704216","decile":"8","lat":40.404233189733,"lng":-111.926284250587},{"id":"3960","name":"Tammy Kunde","party":"","address":"237 W Nectar Way, Saratoga Springs, UT 84045","precinct":"25SR01","hd":"51","v_score":"3.93832808","decile":"6","lat":40.407068608517,"lng":-111.927225883316},{"id":"4610","name":"Dr. Franz Walker II","party":"Dem","address":"2416 N Orchard Way, Saratoga Springs, UT 84045","precinct":"25SR01","hd":"51","v_score":"9.61867875","decile":"8","lat":40.405856009968,"lng":-111.924362123851},{"id":"5669","name":"Earlean Leuschke PhD","party":"","address":"2527 N Pear Pl, Saratoga Springs, UT 84045","precinct":"25SR01","hd":"51","v_score":"0","decile":"1","lat":40.407603405489,"lng":-111.924573478474},{"id":"6863","name":"Sariah Rice DDS","party":"Dem","address":"2491 N Pear Pl, Saratoga Springs, UT 84045","precinct":"25SR01","hd":"51","v_score":"1.193887297","decile":"3","lat":40.407440256877,"lng":-111.924574733484},{"id":"7641","name":"Mr. Godfrey Rowe","party":"","address":"2519 N Pear Pl, Saratoga Springs, UT 84045","precinct":"25SR01","hd":"51","v_score":"2.587603312","decile":"5","lat":40.407567150242,"lng":-111.924573757365},{"id":"8722","name":"Lenon Mraz","party":"","address":"2386 N Nectar Way, Saratoga Springs, UT 84045","precinct":"25SR01","hd":"51","v_score":"1.121327652","decile":"3","lat":40.405595551526,"lng":-111.928226288761},{"id":"9622","name":"Malvina Mann-Thiel","party":"Dem","address":"368 W Plum Pl, Saratoga Springs, UT 84045","precinct":"25SR01","hd":"51","v_score":"6.724398202","decile":"8","lat":40.404119747345,"lng":-111.925531071682},{"id":"9623","name":"Mrs. Essie Halvorson DVM","party":"","address":"357 W Plum Pl, Saratoga Springs, UT 84045","precinct":"25SR01","hd":"51","v_score":"0","decile":"1","lat":40.403977366222,"lng":-111.925472876578},{"id":"10571","name":"Heath Hermann","party":"","address":"156 W Apple Ave, Saratoga Springs, UT 84045","precinct":"25SR01","hd":"51","v_score":"0","decile":"1","lat":40.405029295238,"lng":-111.925057470011},{"id":"11611","name":"Anna Aufderhar","party":"Rep","address":"2386 N Nectar Way, Saratoga Springs, UT 84045","precinct":"25SR01","hd":"51","v_score":"1.193887297","decile":"3","lat":40.405595551526,"lng":-111.928226288761},{"id":"13363","name":"Roby Friesen","party":"Dem","address":"223 W Jonathan Pl, Saratoga Springs, UT 84045","precinct":"25SR01","hd":"51","v_score":"27.19634385","decile":"10","lat":40.407446081427,"lng":-111.926813399992},{"id":"13516","name":"Lonzo McGlynn","party":"","address":"2374 N Orchard Way, Saratoga Springs, UT 84045","precinct":"25SR01","hd":"51","v_score":"9.640097175","decile":"8","lat":40.405337016137,"lng":-111.924723598971},{"id":"14190","name":"Mathias Fay","party":"Rep","address":"158 W Apple Ave, Saratoga Springs, UT 84045","precinct":"25SR01","hd":"51","v_score":"2.315214949","decile":"5","lat":40.405040668794,"lng":-111.925074656713},{"id":"14248","name":"Manda Gleichner","party":"Rep","address":"2414 N Cider Pl, Saratoga Springs, UT 84045","precinct":"25SR01","hd":"51","v_score":"5.40460374","decile":"7","lat":40.406004522474,"lng":-111.925779363062},{"id":"14328","name":"Mrs. Anastasia Kunze","party":"","address":"2252 N Harvest Moon Dr, Saratoga Springs, UT 84045","precinct":"25SR01","hd":"51","v_score":"0","decile":"1","lat":40.402472487493,"lng":-111.924805371077},{"id":"14419","name":"Hillery Schuster-Herman","party":"","address":"2426 N Orchard Way, Saratoga Springs, UT 84045","precinct":"25SR01","hd":"51","v_score":"15.43891919","decile":"9","lat":40.405999536571,"lng":-111.924357054396},{"id":"14595","name":"Isabela Kub-Boyer","party":"Dem","address":"267 W Nectar Way, Saratoga Springs, UT 84045","precinct":"25SR01","hd":"51","v_score":"1.193887297","decile":"3","lat":40.40705404891,"lng":-111.927623390865},{"id":"14908","name":"Darrian Langosh","party":"Rep","address":"2431 N Apple Ct, Saratoga Springs, UT 84045","precinct":"25SR01","hd":"51","v_score":"14.14899265","decile":"9","lat":40.406467572804,"lng":-111.927152008373},{"id":"15272","name":"Narcissus Volkman-Cremin","party":"","address":"212 W Jonathan Pl, Saratoga Springs, UT 84045","precinct":"25SR01","hd":"51","v_score":"5.40460374","decile":"7","lat":40.407298805745,"lng":-111.926721379108},{"id":"15424","name":"Loula VonRueden","party":"Dem","address":"352 W Plum Pl, Saratoga Springs, UT 84045","precinct":"25SR01","hd":"51","v_score":"3.93832808","decile":"6","lat":40.404071068835,"lng":-111.925376709621},{"id":"16050","name":"Richelle Bradtke","party":"Dem","address":"267 W Nectar Way, Saratoga Springs, UT 84045","precinct":"25SR01","hd":"51","v_score":"1.193887297","decile":"3","lat":40.40705404891,"lng":-111.927623390865},{"id":"17459","name":"Gwyn Klein","party":"","address":"368 W Plum Pl, Saratoga Springs, UT 84045","precinct":"25SR01","hd":"51","v_score":"3.781490609","decile":"6","lat":40.404119747345,"lng":-111.925531071682},{"id":"17625","name":"Karley Effertz DDS","party":"Rep","address":"233 W Apple Ave, Saratoga Springs, UT 84045","precinct":"25SR01","hd":"51","v_score":"5.40460374","decile":"7","lat":40.406101940695,"lng":-111.926292264631},{"id":"18222","name":"Valentine Blanda","party":"Rep","address":"2404 N Nectar Way, Saratoga Springs, UT 84045","precinct":"25SR01","hd":"51","v_score":"1.121327652","decile":"3","lat":40.40580571968,"lng":-111.928249851756},{"id":"19781","name":"Annetta Heller-Ebert","party":"Dem","address":"2368 N Blossom Ct, Saratoga Springs, UT 84045","precinct":"25SR01","hd":"51","v_score":"1.46627566","decile":"4","lat":40.405204332885,"lng":-111.929435688626},{"id":"20926","name":"Mrs. Sydnie Ernser PhD","party":"Rep","address":"214 W Nectar Way, Saratoga Springs, UT 84045","precinct":"25SR01","hd":"51","v_score":"5.604194564","decile":"7","lat":40.407040314905,"lng":-111.92665153348},{"id":"21989","name":"Marianne Hegmann","party":"","address":"2378 N Nectar Way, Saratoga Springs, UT 84045","precinct":"25SR01","hd":"51","v_score":"5.40460374","decile":"7","lat":40.405499018073,"lng":-111.92824064386},{"id":"22314","name":"Khiry Murray","party":"Dem","address":"2250 N Harvest Moon Dr, Saratoga Springs, UT 84045","precinct":"25SR01","hd":"51","v_score":"5.40460374","decile":"7","lat":40.402444574829,"lng":-111.924796875924},{"id":"22665","name":"Bethel Hodkiewicz","party":"Dem","address":"2416 N Orchard Way, Saratoga Springs, UT 84045","precinct":"25SR01","hd":"51","v_score":"15.66428569","decile":"9","lat":40.405856009968,"lng":-111.924362123851},{"id":"22693","name":"Nile Berge","party":"Rep","address":"2449 N Nectar Way, Saratoga Springs, UT 84045","precinct":"25SR01","hd":"51","v_score":"0","decile":"1","lat":40.406404997003,"lng":-111.928491566589},{"id":"22831","name":"Hattie Grant DVM","party":"Dem","address":"2353 N Nectar Way, Saratoga Springs, UT 84045","precinct":"25SR01","hd":"51","v_score":"1.193887297","decile":"3","lat":40.405314215212,"lng":-111.928479158466},{"id":"22925","name":"Fed Ratke-DuBuque","party":"","address":"224 W Apple Ave, Saratoga Springs, UT 84045","precinct":"25SR01","hd":"51","v_score":"9.640097175","decile":"8","lat":40.406197267204,"lng":-111.926191133411},{"id":"23228","name":"Hilario Christiansen","party":"","address":"2386 N Nectar Way, Saratoga Springs, UT 84045","precinct":"25SR01","hd":"51","v_score":"1.121327652","decile":"3","lat":40.405595551526,"lng":-111.928226288761},{"id":"23229","name":"Dalia Cronin-Emmerich","party":"Dem","address":"226 W Nectar Way, Saratoga Springs, UT 84045","precinct":"25SR01","hd":"51","v_score":"11.2235539","decile":"9","lat":40.407140314476,"lng":-111.92701874225},{"id":"24491","name":"Dr. Fitzhugh Wilkinson","party":"Dem","address":"376 W Indian Summer Dr, Saratoga Springs, UT 84045","precinct":"25SR01","hd":"51","v_score":"1.193887297","decile":"3","lat":40.40488265326,"lng":-111.930107298847},{"id":"24988","name":"Miss Kaci Oberbrunner","party":"","address":"2501 N Pear Pl, Saratoga Springs, UT 84045","precinct":"25SR01","hd":"51","v_score":"2.315214949","decile":"5","lat":40.407485575936,"lng":-111.92457438487},{"id":"25808","name":"Wess Medhurst","party":"","address":"2453 N Nectar Way, Saratoga Springs, UT 84045","precinct":"25SR01","hd":"51","v_score":"15.4533012","decile":"9","lat":40.406446110083,"lng":-111.928487455276},{"id":"26265","name":"Suzanne Bergnaum","party":"Rep","address":"368 W Plum Pl, Saratoga Springs, UT 84045","precinct":"25SR01","hd":"51","v_score":"6.724398202","decile":"8","lat":40.404119747345,"lng":-111.925531071682},{"id":"27054","name":"Mickie Nolan","party":"","address":"2252 N Harvest Moon Dr, Saratoga Springs, UT 84045","precinct":"25SR01","hd":"51","v_score":"5.693042993","decile":"7","lat":40.402472487493,"lng":-111.924805371077},{"id":"27259","name":"Dorathy Bradtke","party":"","address":"2494 N Apricot Pl, Saratoga Springs, UT 84045","precinct":"25SR01","hd":"51","v_score":"3.781490609","decile":"6","lat":40.407533234721,"lng":-111.925714137601},{"id":"28732","name":"Johnny Terry","party":"Dem","address":"2482 N Jonathan Pl, Saratoga Springs, UT 84045","precinct":"25SR01","hd":"51","v_score":"1.46627566","decile":"4","lat":40.407644393641,"lng":-111.926629517353},{"id":"29458","name":"Tabitha Okuneva","party":"Rep","address":"233 W Apple Ave, Saratoga Springs, UT 84045","precinct":"25SR01","hd":"51","v_score":"5.40460374","decile":"7","lat":40.406101940695,"lng":-111.926292264631},{"id":"30444","name":"Norris Lockman","party":"Dem","address":"2514 N Pear Pl, Saratoga Springs, UT 84045","precinct":"25SR01","hd":"51","v_score":"8.347511332","decile":"8","lat":40.407548351415,"lng":-111.924423409722},{"id":"30582","name":"Lida Stamm","party":"Rep","address":"197 W Apple Ave, Saratoga Springs, UT 84045","precinct":"25SR01","hd":"51","v_score":"1.193887297","decile":"3","lat":40.405703891519,"lng":-111.925901945028},{"id":"30621","name":"Verle Cartwright PhD","party":"Rep","address":"2419 N Nectar Way, Saratoga Springs, UT 84045","precinct":"25SR01","hd":"51","v_score":"2.587603312","decile":"5","lat":40.406084333623,"lng":-111.928461287483},{"id":"30930","name":"Zeta Ziemann","party":"","address":"347 W Plum Pl, Saratoga Springs, UT 84045","precinct":"25SR01","hd":"51","v_score":"20.81028855","decile":"10","lat":40.403946942153,"lng":-111.92537640029},{"id":"31600","name":"Lovey Larson","party":"Dem","address":"398 W Indian Summer Dr, Saratoga Springs, UT 84045","precinct":"25SR01","hd":"51","v_score":"27.46462406","decile":"10","lat":40.404801832152,"lng":-111.930255498829},{"id":"32394","name":"Dr. Foster Hauck III","party":"","address":"152 W Apple Ave, Saratoga Springs, UT 84045","precinct":"25SR01","hd":"51","v_score":"2.315214949","decile":"5","lat":40.405006548127,"lng":-111.925023096609},{"id":"32775","name":"Mr. Tolbert Gerlach Jr.","party":"Rep","address":"169 W Apple Ave, Saratoga Springs, UT 84045","precinct":"25SR01","hd":"51","v_score":"18.70229537","decile":"10","lat":40.404935850981,"lng":-111.925145677833},{"id":"34807","name":"Mrs. Adela Cummings MD","party":"","address":"2373 N Blossom Ct, Saratoga Springs, UT 84045","precinct":"25SR01","hd":"51","v_score":"0","decile":"1","lat":40.405331061884,"lng":-111.929795967681},{"id":"37072","name":"Miss Linette Raynor","party":"Dem","address":"2242 N Harvest Moon Dr, Saratoga Springs, UT 84045","precinct":"25SR01","hd":"51","v_score":"8.363183621","decile":"8","lat":40.402332924177,"lng":-111.924762895309},{"id":"37278","name":"Dr. Devante Ledner","party":"Dem","address":"2482 N Jonathan Pl, Saratoga Springs, UT 84045","precinct":"25SR01","hd":"51","v_score":"2.587603312","decile":"5","lat":40.407644393641,"lng":-111.926629517353},{"id":"37386","name":"Sarahi Schulist","party":"","address":"352 W Plum Pl, Saratoga Springs, UT 84045","precinct":"25SR01","hd":"51","v_score":"8.347511332","decile":"8","lat":40.404071068835,"lng":-111.925376709621},{"id":"37407","name":"Donovan McLaughlin","party":"","address":"2364 N Orchard Way, Saratoga Springs, UT 84045","precinct":"25SR01","hd":"51","v_score":"4.905839784","decile":"7","lat":40.405156945966,"lng":-111.924935468203},{"id":"37547","name":"Griselda Torphy","party":"Dem","address":"2364 N Orchard Way, Saratoga Springs, UT 84045","precinct":"25SR01","hd":"51","v_score":"10.45202298","decile":"9","lat":40.405156945966,"lng":-111.924935468203},{"id":"37643","name":"Jasmine Kuhic","party":"","address":"2501 N Pear Pl, Saratoga Springs, UT 84045","precinct":"25SR01","hd":"51","v_score":"2.587603312","decile":"5","lat":40.407485575936,"lng":-111.92457438487},{"id":"37797","name":"Dicy Rosenbaum PhD","party":"","address":"2492 N Jonathan Pl, Saratoga Springs, UT 84045","precinct":"25SR01","hd":"51","v_score":"3.781490609","decile":"6","lat":40.407720419094,"lng":-111.926652694774},{"id":"38113","name":"Jerrold Murphy","party":"Dem","address":"2250 N Harvest Moon Dr, Saratoga Springs, UT 84045","precinct":"25SR01","hd":"51","v_score":"3.93832808","decile":"6","lat":40.402444574829,"lng":-111.924796875924},{"id":"38351","name":"Archibald Boehm","party":"Dem","address":"2434 N Orchard Way, Saratoga Springs, UT 84045","precinct":"25SR01","hd":"51","v_score":"3.781490609","decile":"6","lat":40.406107712646,"lng":-111.924360620625},{"id":"39439","name":"Trevion Mraz I","party":"","address":"188 W Apple Ave, Saratoga Springs, UT 84045","precinct":"25SR01","hd":"51","v_score":"6.481563075","decile":"7","lat":40.40568508012,"lng":-111.925739165855},{"id":"41645","name":"Loreen Graham","party":"Rep","address":"2419 N Nectar Way, Saratoga Springs, UT 84045","precinct":"25SR01","hd":"51","v_score":"5.530510904","decile":"7","lat":40.406084333623,"lng":-111.928461287483},{"id":"42172","name":"Keith Nienow","party":"Rep","address":"2392 N Orchard Way, Saratoga Springs, UT 84045","precinct":"25SR01","hd":"51","v_score":"12.15816236","decile":"9","lat":40.405532889598,"lng":-111.924500547336},{"id":"46319","name":"Willam Dach","party":"Dem","address":"2396 N Orchard Way, Saratoga Springs, UT 84045","precinct":"25SR01","hd":"51","v_score":"3.781490609","decile":"6","lat":40.405581744029,"lng":-111.924470013311},{"id":"47241","name":"Baxter Bogisich","party":"Dem","address":"192 W Apple Ave, Saratoga Springs, UT 84045","precinct":"25SR01","hd":"51","v_score":"1.121327652","decile":"3","lat":40.405787581715,"lng":-111.925774340434},{"id":"47485","name":"Phillip Abshire","party":"","address":"434 W Indian Summer Dr, Saratoga Springs, UT 84045","precinct":"25SR01","hd":"51","v_score":"4.210716443","decile":"7","lat":40.404669780672,"lng":-111.930505093155},{"id":"48508","name":"Regenia Prohaska","party":"Rep","address":"201 W Apple Ave, Saratoga Springs, UT 84045","precinct":"25SR01","hd":"51","v_score":"1.193887297","decile":"3","lat":40.405837772233,"lng":-111.925942708693},{"id":"48630","name":"Addison Hyatt","party":"Rep","address":"433 W Autumn Sky Ct, Saratoga Springs, UT 84045","precinct":"25SR01","hd":"51","v_score":"6.896907962","decile":"8","lat":40.405330598267,"lng":-111.931464831306},{"id":"49192","name":"Nikia Mayer","party":"","address":"172 W Nectar Way, Saratoga Springs, UT 84045","precinct":"25SR01","hd":"51","v_score":"20.43575758","decile":"10","lat":40.407049789765,"lng":-111.92594217646},{"id":"50212","name":"Metro Ortiz-Metz","party":"Rep","address":"2504 N Apricot Pl, Saratoga Springs, UT 84045","precinct":"25SR01","hd":"51","v_score":"5.530510904","decile":"7","lat":40.407569007818,"lng":-111.925720789443},{"id":"50964","name":"Sherryl Reichel","party":"","address":"2517 N Apricot Pl, Saratoga Springs, UT 84045","precinct":"25SR01","hd":"51","v_score":"6.550708384","decile":"7","lat":40.407599293191,"lng":-111.925877534482},{"id":"51765","name":"Vollie Hudson","party":"Rep","address":"2451 N Orchard Way, Saratoga Springs, UT 84045","precinct":"25SR01","hd":"51","v_score":"5.40460374","decile":"7","lat":40.406563765763,"lng":-111.924526191294},{"id":"52045","name":"John Lesch","party":"Dem","address":"347 W Plum Pl, Saratoga Springs, UT 84045","precinct":"25SR01","hd":"51","v_score":"26.39982271","decile":"10","lat":40.403946942153,"lng":-111.92537640029},{"id":"53402","name":"Coleton Wolff","party":"","address":"199 W Nectar Way, Saratoga Springs, UT 84045","precinct":"25SR01","hd":"51","v_score":"3.781490609","decile":"6","lat":40.406854724449,"lng":-111.926333873047},{"id":"56383","name":"Horton Schiller DVM","party":"Dem","address":"2492 N Pear Pl, Saratoga Springs, UT 84045","precinct":"25SR01","hd":"51","v_score":"1.193887297","decile":"3","lat":40.407448649486,"lng":-111.924424176673},{"id":"56389","name":"Carlisle Streich","party":"","address":"346 W Plum Pl, Saratoga Springs, UT 84045","precinct":"25SR01","hd":"51","v_score":"1.121327652","decile":"3","lat":40.404052814393,"lng":-111.925318823847},{"id":"57042","name":"Vernal Feeney","party":"Dem","address":"333 W Peach Pl, Saratoga Springs, UT 84045","precinct":"25SR01","hd":"51","v_score":"11.04973188","decile":"9","lat":40.40576118064,"lng":-111.928603027522},{"id":"58653","name":"Delcie Kunde","party":"","address":"2433 N Cider Pl, Saratoga Springs, UT 84045","precinct":"25SR01","hd":"51","v_score":"3.93832808","decile":"6","lat":40.406146973252,"lng":-111.925775739863},{"id":"59927","name":"Gillian Willms DDS","party":"Rep","address":"2381 N Orchard Way, Saratoga Springs, UT 84045","precinct":"25SR01","hd":"51","v_score":"9.472197552","decile":"8","lat":40.405970982724,"lng":-111.924506649076},{"id":"61355","name":"Torrie Reinger","party":"","address":"406 W Plum Pl, Saratoga Springs, UT 84045","precinct":"25SR01","hd":"51","v_score":"2.817000428","decile":"6","lat":40.404268155262,"lng":-111.926001728704},{"id":"61635","name":"Harvy Fadel","party":"Rep","address":"412 W Plum Pl, Saratoga Springs, UT 84045","precinct":"25SR01","hd":"51","v_score":"14.10933624","decile":"9","lat":40.404281451492,"lng":-111.926043909833},{"id":"63148","name":"Aiyanna Weissnat","party":"Dem","address":"2332 N Cherry Cir, Saratoga Springs, UT 84045","precinct":"25SR01","hd":"51","v_score":"3.93832808","decile":"6","lat":40.404501183517,"lng":-111.927932543309},{"id":"63652","name":"Pinkey Schamberger MD","party":"Rep","address":"2449 N Nectar Way, Saratoga Springs, UT 84045","precinct":"25SR01","hd":"51","v_score":"1.121327652","decile":"3","lat":40.406404997003,"lng":-111.928491566589},{"id":"64125","name":"Torrey Ernser-Schmitt","party":"Dem","address":"2524 N Apricot Pl, Saratoga Springs, UT 84045","precinct":"25SR01","hd":"51","v_score":"2.315214949","decile":"5","lat":40.407640712634,"lng":-111.925732212009},{"id":"65257","name":"Parley Sipes-Bogan","party":"Dem","address":"199 W Nectar Way, Saratoga Springs, UT 84045","precinct":"25SR01","hd":"51","v_score":"2.315214949","decile":"5","lat":40.406854724449,"lng":-111.926333873047},{"id":"66430","name":"Annmarie Kilback","party":"Rep","address":"2522 N Pear Pl, Saratoga Springs, UT 84045","precinct":"25SR01","hd":"51","v_score":"0","decile":"1","lat":40.407584606663,"lng":-111.924423130831},{"id":"67025","name":"Dr. Michel Dickinson II","party":"Dem","address":"2260 N Harvest Moon Dr, Saratoga Springs, UT 84045","precinct":"25SR01","hd":"51","v_score":"3.93832808","decile":"6","lat":40.402584138145,"lng":-111.924839351692},{"id":"67634","name":"Mikel Dickinson","party":"","address":"2461 N Nectar Way, Saratoga Springs, UT 84045","precinct":"25SR01","hd":"51","v_score":"1.121327652","decile":"3","lat":40.406538238592,"lng":-111.928468930912},{"id":"68407","name":"Lilianna Lakin","party":"","address":"2386 N Nectar Way, Saratoga Springs, UT 84045","precinct":"25SR01","hd":"51","v_score":"1.121327652","decile":"3","lat":40.405595551526,"lng":-111.928226288761},{"id":"70446","name":"Estie Klein DDS","party":"Dem","address":"2373 N Blossom Ct, Saratoga Springs, UT 84045","precinct":"25SR01","hd":"51","v_score":"1.193887297","decile":"3","lat":40.405331061884,"lng":-111.929795967681},{"id":"70688","name":"Stefan McGlynn-Robel","party":"Rep","address":"148 W Apple Ave, Saratoga Springs, UT 84045","precinct":"25SR01","hd":"51","v_score":"1.193887297","decile":"3","lat":40.404983801016,"lng":-111.924988723207},{"id":"71196","name":"Mrs. Karie Murray PhD","party":"Rep","address":"158 W Apple Ave, Saratoga Springs, UT 84045","precinct":"25SR01","hd":"51","v_score":"3.93832808","decile":"6","lat":40.405040668794,"lng":-111.925074656713},{"id":"71497","name":"Dorris Johnson MD","party":"Dem","address":"203 W Apple Ave, Saratoga Springs, UT 84045","precinct":"25SR01","hd":"51","v_score":"3.997370217","decile":"6","lat":40.405904394412,"lng":-111.925986013095},{"id":"72185","name":"Val Hayes-Lemke","party":"Dem","address":"2512 N Jonathan Pl, Saratoga Springs, UT 84045","precinct":"25SR01","hd":"51","v_score":"1.121327652","decile":"3","lat":40.407832494157,"lng":-111.926763322022},{"id":"74603","name":"Dr. Elder Rohan","party":"","address":"182 W Apple Ave, Saratoga Springs, UT 84045","precinct":"25SR01","hd":"51","v_score":"2.315214949","decile":"5","lat":40.405526585467,"lng":-111.925682206867},{"id":"76527","name":"Elwanda Boyle","party":"","address":"199 W Nectar Way, Saratoga Springs, UT 84045","precinct":"25SR01","hd":"51","v_score":"6.528952915","decile":"7","lat":40.406854724449,"lng":-111.926333873047},{"id":"76684","name":"Cinnamon Toy","party":"Dem","address":"262 W Nectar Way, Saratoga Springs, UT 84045","precinct":"25SR01","hd":"51","v_score":"1.121327652","decile":"3","lat":40.407178861107,"lng":-111.927591720392},{"id":"77990","name":"Vernice Feil","party":"Dem","address":"2388 N Blossom Ct, Saratoga Springs, UT 84045","precinct":"25SR01","hd":"51","v_score":"3.93832808","decile":"6","lat":40.405396126956,"lng":-111.929666076521},{"id":"78959","name":"Harriet Crist-Harber","party":"Dem","address":"433 W Autumn Sky Ct, Saratoga Springs, UT 84045","precinct":"25SR01","hd":"51","v_score":"2.315214949","decile":"5","lat":40.405330598267,"lng":-111.931464831306},{"id":"79062","name":"Winifred Mayer","party":"","address":"205 W Apple Ave, Saratoga Springs, UT 84045","precinct":"25SR01","hd":"51","v_score":"3.93832808","decile":"6","lat":40.405978887275,"lng":-111.926061204816},{"id":"80400","name":"Ms. Cherelle Jakubowski PhD","party":"Dem","address":"407 W Plum Pl, Saratoga Springs, UT 84045","precinct":"25SR01","hd":"51","v_score":"1.121327652","decile":"3","lat":40.404162276506,"lng":-111.92605928457},{"id":"80982","name":"Damarcus Reynolds","party":"Dem","address":"2447 N Nectar Way, Saratoga Springs, UT 84045","precinct":"25SR01","hd":"51","v_score":"2.817000428","decile":"6","lat":40.406384440462,"lng":-111.928493622246},{"id":"82170","name":"Dr. Blaine Beahan","party":"","address":"346 W Plum Pl, Saratoga Springs, UT 84045","precinct":"25SR01","hd":"51","v_score":"0","decile":"1","lat":40.404052814393,"lng":-111.925318823847},{"id":"84029","name":"Ms. Ivette Fisher PhD","party":"Rep","address":"426 W Plum Pl, Saratoga Springs, UT 84045","precinct":"25SR01","hd":"51","v_score":"0","decile":"1","lat":40.404312476029,"lng":-111.926142332465},{"id":"84513","name":"Zaid Stokes","party":"","address":"2427 N Orchard Way, Saratoga Springs, UT 84045","precinct":"25SR01","hd":"51","v_score":"2.817000428","decile":"6","lat":40.406360525864,"lng":-111.924519491105},{"id":"84646","name":"Martika Mosciski","party":"","address":"2348 N Cherry Cir, Saratoga Springs, UT 84045","precinct":"25SR01","hd":"51","v_score":"0","decile":"1","lat":40.404611972702,"lng":-111.927864435192},{"id":"84865","name":"London Altenwerth-Emmerich","party":"Dem","address":"148 W Apple Ave, Saratoga Springs, UT 84045","precinct":"25SR01","hd":"51","v_score":"1.193887297","decile":"3","lat":40.404983801016,"lng":-111.924988723207},{"id":"85184","name":"Darwin Will-McLaughlin","party":"Dem","address":"234 W Nectar Way, Saratoga Springs, UT 84045","precinct":"25SR01","hd":"51","v_score":"1.193887297","decile":"3","lat":40.407172492293,"lng":-111.927142629933},{"id":"87120","name":"Ms. Jesse Bednar DVM","party":"Rep","address":"368 W Plum Pl, Saratoga Springs, UT 84045","precinct":"25SR01","hd":"51","v_score":"1.193887297","decile":"4","lat":40.404119747345,"lng":-111.925531071682},{"id":"87154","name":"Beverlee Stracke","party":"Rep","address":"2412 N Orchard Way, Saratoga Springs, UT 84045","precinct":"25SR01","hd":"51","v_score":"1.623113131","decile":"5","lat":40.40580154404,"lng":-111.924372135004},{"id":"87439","name":"Dr. Haylee Cruickshank DVM","party":"Dem","address":"2479 N Pear Pl, Saratoga Springs, UT 84045","precinct":"25SR01","hd":"51","v_score":"9.907118004","decile":"8","lat":40.407385874006,"lng":-111.924575151821},{"id":"88002","name":"Karolyn Fahey MD","party":"Rep","address":"2479 N Pear Pl, Saratoga Springs, UT 84045","precinct":"25SR01","hd":"51","v_score":"9.907118004","decile":"8","lat":40.407385874006,"lng":-111.924575151821},{"id":"88691","name":"Lisbeth Bernier","party":"","address":"252 W Nectar Way, Saratoga Springs, UT 84045","precinct":"25SR01","hd":"51","v_score":"1.193887297","decile":"4","lat":40.407193611808,"lng":-111.927428401561},{"id":"88958","name":"Olof Wilderman","party":"","address":"2492 N Pear Pl, Saratoga Springs, UT 84045","precinct":"25SR01","hd":"51","v_score":"1.193887297","decile":"4","lat":40.407448649486,"lng":-111.924424176673},{"id":"89128","name":"Sal Dibbert","party":"Dem","address":"2513 N Apricot Pl, Saratoga Springs, UT 84045","precinct":"25SR01","hd":"51","v_score":"0","decile":"1","lat":40.40758438909,"lng":-111.925875050467},{"id":"89902","name":"Miss Gillian McKenzie PhD","party":"Rep","address":"2437 N Cider Pl, Saratoga Springs, UT 84045","precinct":"25SR01","hd":"51","v_score":"1.193887297","decile":"4","lat":40.406157859007,"lng":-111.925755586502},{"id":"90210","name":"Link Runte","party":"Dem","address":"227 W Apple Ave, Saratoga Springs, UT 84045","precinct":"25SR01","hd":"51","v_score":"1.193887297","decile":"4","lat":40.406087607038,"lng":-111.926236316679},{"id":"91455","name":"Nyree Bergstrom","party":"","address":"423 W Plum Pl, Saratoga Springs, UT 84045","precinct":"25SR01","hd":"51","v_score":"2.817000428","decile":"6","lat":40.404197733119,"lng":-111.926171767579},{"id":"92873","name":"Mills Pfannerstill","party":"Rep","address":"313 W Peach Pl, Saratoga Springs, UT 84045","precinct":"25SR01","hd":"51","v_score":"13.61907049","decile":"9","lat":40.405777884596,"lng":-111.928474168361},{"id":"92934","name":"Miss Lassie Schoen DDS","party":"","address":"193 W Apple Ave, Saratoga Springs, UT 84045","precinct":"25SR01","hd":"51","v_score":"0","decile":"1","lat":40.405560491595,"lng":-111.925850410705},{"id":"95959","name":"Perri Turcotte","party":"Rep","address":"426 W Plum Pl, Saratoga Springs, UT 84045","precinct":"25SR01","hd":"51","v_score":"1.193887297","decile":"4","lat":40.404312476029,"lng":-111.926142332465},{"id":"100208","name":"Hervey Mayer","party":"","address":"407 W Indian Summer Dr, Saratoga Springs, UT 84045","precinct":"25SR01","hd":"51","v_score":"0","decile":"1","lat":40.404678467735,"lng":-111.930224092292},{"id":"100489","name":"Dagmar Ullrich","party":"","address":"183 W Nectar Way, Saratoga Springs, UT 84045","precinct":"25SR01","hd":"51","v_score":"1.193887297","decile":"4","lat":40.406905867134,"lng":-111.925992100707},{"id":"101279","name":"Sergio Runolfsson-Paucek","party":"Dem","address":"389 W Indian Summer Dr, Saratoga Springs, UT 84045","precinct":"25SR01","hd":"51","v_score":"0","decile":"2","lat":40.404745753495,"lng":-111.930099868759},{"id":"101753","name":"Kloe Barrows","party":"Dem","address":"2454 N Orchard Way, Saratoga Springs, UT 84045","precinct":"25SR01","hd":"51","v_score":"0","decile":"2","lat":40.406378152834,"lng":-111.9243695362},{"id":"103854","name":"Burke Kshlerin","party":"","address":"2436 N Nectar Way, Saratoga Springs, UT 84045","precinct":"25SR01","hd":"51","v_score":"1.193887297","decile":"4","lat":40.406244882265,"lng":-111.928343444426},{"id":"106205","name":"Dr. Hasel Hintz","party":"Rep","address":"2361 N Cherry Cir, Saratoga Springs, UT 84045","precinct":"25SR01","hd":"51","v_score":"0","decile":"2","lat":40.404743648273,"lng":-111.927949642936},{"id":"106229","name":"Jedidiah Hettinger","party":"","address":"432 W Autumn Sky Ct, Saratoga Springs, UT 84045","precinct":"25SR01","hd":"51","v_score":"1.193887297","decile":"4","lat":40.405444916928,"lng":-111.931475207756},{"id":"106630","name":"Carole Schuster","party":"Dem","address":"2421 N Cider Pl, Saratoga Springs, UT 84045","precinct":"25SR01","hd":"51","v_score":"0","decile":"2","lat":40.406114315986,"lng":-111.925836199944},{"id":"107159","name":"Thad Lakin-Dietrich","party":"Rep","address":"2372 N Orchard Way, Saratoga Springs, UT 84045","precinct":"25SR01","hd":"51","v_score":"4.214075011","decile":"7","lat":40.405251089031,"lng":-111.924824208205},{"id":"107438","name":"Treena Howell DDS","party":"Rep","address":"2512 N Jonathan Pl, Saratoga Springs, UT 84045","precinct":"25SR01","hd":"51","v_score":"0","decile":"2","lat":40.407832494157,"lng":-111.926763322022},{"id":"108131","name":"Signa Schultz","party":"","address":"249 W Jonathan Pl, Saratoga Springs, UT 84045","precinct":"25SR01","hd":"51","v_score":"0","decile":"2","lat":40.407695519583,"lng":-111.926804332666},{"id":"108601","name":"Casper Quitzon II","party":"Rep","address":"322 W Peach Pl, Saratoga Springs, UT 84045","precinct":"25SR01","hd":"51","v_score":"4.069929862","decile":"7","lat":40.405860698638,"lng":-111.928880631196},{"id":"108647","name":"Ms. Pearlie Gusikowski","party":"","address":"433 W Autumn Sky Ct, Saratoga Springs, UT 84045","precinct":"25SR01","hd":"51","v_score":"0","decile":"2","lat":40.405330598267,"lng":-111.931464831306},{"id":"108868","name":"Mr. Theo Okuneva DVM","party":"Rep","address":"2361 N Nectar Way, Saratoga Springs, UT 84045","precinct":"25SR01","hd":"51","v_score":"4.214075011","decile":"7","lat":40.405377310581,"lng":-111.928442624827},{"id":"109362","name":"Scot Fritsch","party":"Dem","address":"2396 N Nectar Way, Saratoga Springs, UT 84045","precinct":"25SR01","hd":"51","v_score":"0","decile":"2","lat":40.405718354899,"lng":-111.928232864173},{"id":"109615","name":"Mr. Lucky Marvin","party":"Dem","address":"2523 N Pear Pl, Saratoga Springs, UT 84045","precinct":"25SR01","hd":"51","v_score":"0","decile":"2","lat":40.407585277866,"lng":-111.924573617919},{"id":"110622","name":"Seaborn Smith","party":"","address":"2461 N Nectar Way, Saratoga Springs, UT 84045","precinct":"25SR01","hd":"51","v_score":"1.193887297","decile":"4","lat":40.406538238592,"lng":-111.928468930912},{"id":"111434","name":"Lissette Marks-Fritsch","party":"","address":"267 W Nectar Way, Saratoga Springs, UT 84045","precinct":"25SR01","hd":"51","v_score":"0","decile":"2","lat":40.40705404891,"lng":-111.927623390865},{"id":"111852","name":"Dr. Linda Wisoky DDS","party":"Rep","address":"2348 N Nectar Way, Saratoga Springs, UT 84045","precinct":"25SR01","hd":"51","v_score":"0","decile":"2","lat":40.405179262189,"lng":-111.928433510989},{"id":"113953","name":"Ahmed Cremin","party":"","address":"2504 N Jonathan Pl, Saratoga Springs, UT 84045","precinct":"25SR01","hd":"51","v_score":"0","decile":"2","lat":40.407793573431,"lng":-111.926709383562},{"id":"114383","name":"Willene Zboncak","party":"Dem","address":"234 W Nectar Way, Saratoga Springs, UT 84045","precinct":"25SR01","hd":"51","v_score":"0","decile":"2","lat":40.407172492293,"lng":-111.927142629933},{"id":"115076","name":"Alphonse Wisozk Sr.","party":"","address":"428 W Indian Summer Dr, Saratoga Springs, UT 84045","precinct":"25SR01","hd":"51","v_score":"1.193887297","decile":"4","lat":40.404693177293,"lng":-111.930461046767},{"id":"115208","name":"Randle Bernier","party":"Rep","address":"247 W Jonathan Pl, Saratoga Springs, UT 84045","precinct":"25SR01","hd":"51","v_score":"1.193887297","decile":"4","lat":40.407673357574,"lng":-111.926790091158},{"id":"116430","name":"Lionel Stoltenberg I","party":"Rep","address":"433 W Autumn Sky Ct, Saratoga Springs, UT 84045","precinct":"25SR01","hd":"51","v_score":"1.193887297","decile":"4","lat":40.405330598267,"lng":-111.931464831306},{"id":"116456","name":"Valentine Hilll DVM","party":"Dem","address":"412 W Plum Pl, Saratoga Springs, UT 84045","precinct":"25SR01","hd":"51","v_score":"4.069929862","decile":"7","lat":40.404281451492,"lng":-111.926043909833},{"id":"117307","name":"Pierre Aufderhar","party":"Rep","address":"433 W Autumn Sky Ct, Saratoga Springs, UT 84045","precinct":"25SR01","hd":"51","v_score":"1.193887297","decile":"4","lat":40.405330598267,"lng":-111.931464831306},{"id":"117364","name":"Gianni Jenkins","party":"","address":"2353 N Nectar Way, Saratoga Springs, UT 84045","precinct":"25SR01","hd":"51","v_score":"1.193887297","decile":"4","lat":40.405314215212,"lng":-111.928479158466},{"id":"117569","name":"Keila Ziemann","party":"","address":"407 W Indian Summer Dr, Saratoga Springs, UT 84045","precinct":"25SR01","hd":"51","v_score":"0","decile":"2","lat":40.404678467735,"lng":-111.930224092292},{"id":"119246","name":"Ms. Dennie Hagenes DDS","party":"","address":"2396 N Nectar Way, Saratoga Springs, UT 84045","precinct":"25SR01","hd":"51","v_score":"0","decile":"2","lat":40.405718354899,"lng":-111.928232864173},{"id":"119332","name":"Linden Jast","party":"Rep","address":"2494 N Apricot Pl, Saratoga Springs, UT 84045","precinct":"25SR01","hd":"51","v_score":"1.193887297","decile":"4","lat":40.407533234721,"lng":-111.925714137601},{"id":"119980","name":"Von Gusikowski","party":"Dem","address":"417 W Indian Summer Dr, Saratoga Springs, UT 84045","precinct":"25SR01","hd":"51","v_score":"1.193887297","decile":"4","lat":40.404642369644,"lng":-111.930292426901},{"id":"120038","name":"Hymen Nienow","party":"Dem","address":"2478 N Apricot Pl, Saratoga Springs, UT 84045","precinct":"25SR01","hd":"51","v_score":"1.193887297","decile":"4","lat":40.407481909878,"lng":-111.925698391079},{"id":"120578","name":"Orvil Mayer","party":"","address":"2441 N Apple Ct, Saratoga Springs, UT 84045","precinct":"25SR01","hd":"51","v_score":"0","decile":"2","lat":40.406472601843,"lng":-111.92713829281},{"id":"121789","name":"Ms. Ursula Hahn","party":"Dem","address":"2404 N Nectar Way, Saratoga Springs, UT 84045","precinct":"25SR01","hd":"51","v_score":"0","decile":"2","lat":40.40580571968,"lng":-111.928249851756},{"id":"122062","name":"Mr. Ezra Aufderhar III","party":"","address":"203 W Apple Ave, Saratoga Springs, UT 84045","precinct":"25SR01","hd":"51","v_score":"4.069929862","decile":"7","lat":40.405904394412,"lng":-111.925986013095},{"id":"122445","name":"Gino D'Amore-Beier","party":"Rep","address":"2396 N Orchard Way, Saratoga Springs, UT 84045","precinct":"25SR01","hd":"51","v_score":"0","decile":"2","lat":40.405581744029,"lng":-111.924470013311},{"id":"122906","name":"Dr. Alvie Connelly","party":"","address":"412 W Plum Pl, Saratoga Springs, UT 84045","precinct":"25SR01","hd":"51","v_score":"4.069929862","decile":"7","lat":40.404281451492,"lng":-111.926043909833},{"id":"123213","name":"Madge Mills","party":"Dem","address":"2431 N Apple Ct, Saratoga Springs, UT 84045","precinct":"25SR01","hd":"51","v_score":"1.193887297","decile":"4","lat":40.406467572804,"lng":-111.927152008373},{"id":"124750","name":"Acie Hickle","party":"Dem","address":"2454 N Orchard Way, Saratoga Springs, UT 84045","precinct":"25SR01","hd":"51","v_score":"0","decile":"2","lat":40.406378152834,"lng":-111.9243695362},{"id":"124842","name":"Corrie Braun","party":"Rep","address":"406 W Plum Pl, Saratoga Springs, UT 84045","precinct":"25SR01","hd":"51","v_score":"0","decile":"2","lat":40.404268155262,"lng":-111.926001728704},{"id":"125150","name":"Samatha Weimann","party":"Rep","address":"216 W Apple Ave, Saratoga Springs, UT 84045","precinct":"25SR01","hd":"51","v_score":"0","decile":"2","lat":40.40615373468,"lng":-111.926091014281},{"id":"125196","name":"Kash Considine III","party":"","address":"2392 N Orchard Way, Saratoga Springs, UT 84045","precinct":"25SR01","hd":"51","v_score":"0","decile":"2","lat":40.405532889598,"lng":-111.924500547336},{"id":"125212","name":"Mr. Nunzio Kuvalis DDS","party":"Rep","address":"217 W Apple Ave, Saratoga Springs, UT 84045","precinct":"25SR01","hd":"51","v_score":"0","decile":"2","lat":40.406046897953,"lng":-111.926157579612},{"id":"129334","name":"Dr. Camilo Hegmann","party":"Dem","address":"383 W Plum Pl, Saratoga Springs, UT 84045","precinct":"25SR01","hd":"51","v_score":"0","decile":"2","lat":40.404056468802,"lng":-111.925723714928},{"id":"129616","name":"Dr. Che Johns MD","party":"","address":"2508 N Pear Pl, Saratoga Springs, UT 84045","precinct":"25SR01","hd":"51","v_score":"4.214075011","decile":"7","lat":40.40752115998,"lng":-111.92442361889},{"id":"130970","name":"Mrs. Magnolia Denesik","party":"Dem","address":"153 W Nectar Way, Saratoga Springs, UT 84045","precinct":"25SR01","hd":"51","v_score":"0","decile":"2","lat":40.407134778162,"lng":-111.925410509394},{"id":"131513","name":"Abagail Braun","party":"Dem","address":"437 W Plum Pl, Saratoga Springs, UT 84045","precinct":"25SR01","hd":"51","v_score":"0","decile":"2","lat":40.404228757656,"lng":-111.926270190211},{"id":"132412","name":"Teagan Howe","party":"Rep","address":"2392 N Orchard Way, Saratoga Springs, UT 84045","precinct":"25SR01","hd":"51","v_score":"0","decile":"2","lat":40.405532889598,"lng":-111.924500547336},{"id":"134801","name":"Chauncey Wiegand","party":"Dem","address":"2464 N Pear Pl, Saratoga Springs, UT 84045","precinct":"25SR01","hd":"51","v_score":"5.703020665","decile":"7","lat":40.407321756121,"lng":-111.924425152792},{"id":"134846","name":"Monte Willms","party":"","address":"234 W Nectar Way, Saratoga Springs, UT 84045","precinct":"25SR01","hd":"51","v_score":"5.40460374","decile":"7","lat":40.407172492293,"lng":-111.927142629933},{"id":"135449","name":"Ms. Citlalli Yost","party":"Rep","address":"2406 N Nectar Way, Saratoga Springs, UT 84045","precinct":"25SR01","hd":"51","v_score":"5.40460374","decile":"7","lat":40.405919837326,"lng":-111.928273264319},{"id":"135482","name":"Denita Spinka","party":"Rep","address":"433 W Plum Pl, Saratoga Springs, UT 84045","precinct":"25SR01","hd":"51","v_score":"20.92670655","decile":"10","lat":40.404219893503,"lng":-111.926242069459},{"id":"135684","name":"Willy Shields-Marquardt","party":"","address":"397 W Indian Summer Dr, Saratoga Springs, UT 84045","precinct":"25SR01","hd":"51","v_score":"12.07513611","decile":"9","lat":40.404716162414,"lng":-111.930154140092},{"id":"135774","name":"Linus Morar","party":"","address":"148 W Apple Ave, Saratoga Springs, UT 84045","precinct":"25SR01","hd":"51","v_score":"3.781490609","decile":"6","lat":40.404983801016,"lng":-111.924988723207},{"id":"135796","name":"Francies Reilly","party":"","address":"438 W Plum Pl, Saratoga Springs, UT 84045","precinct":"25SR01","hd":"51","v_score":"3.93832808","decile":"6","lat":40.40433906849,"lng":-111.926226694721},{"id":"136161","name":"Alexa Dare-Collins","party":"Dem","address":"2503 N Apricot Pl, Saratoga Springs, UT 84045","precinct":"25SR01","hd":"51","v_score":"1.121327652","decile":"3","lat":40.407547128838,"lng":-111.925868840431},{"id":"136575","name":"Jaylen Yundt","party":"","address":"2434 N Orchard Way, Saratoga Springs, UT 84045","precinct":"25SR01","hd":"51","v_score":"8.347511332","decile":"8","lat":40.406107712646,"lng":-111.924360620625},{"id":"136972","name":"Jerel Wilkinson","party":"Dem","address":"2373 N Blossom Ct, Saratoga Springs, UT 84045","precinct":"25SR01","hd":"51","v_score":"19.16525368","decile":"10","lat":40.405331061884,"lng":-111.929795967681},{"id":"136973","name":"Shelby Flatley MD","party":"","address":"2373 N Blossom Ct, Saratoga Springs, UT 84045","precinct":"25SR01","hd":"51","v_score":"23.40074712","decile":"10","lat":40.405331061884,"lng":-111.929795967681},{"id":"137070","name":"Dr. Jaquez Farrell I","party":"","address":"217 W Apple Ave, Saratoga Springs, UT 84045","precinct":"25SR01","hd":"51","v_score":"11.52389434","decile":"9","lat":40.406046897953,"lng":-111.926157579612},{"id":"137215","name":"Ramon Bechtelar","party":"Dem","address":"202 W Apple Ave, Saratoga Springs, UT 84045","precinct":"25SR01","hd":"51","v_score":"3.93832808","decile":"6","lat":40.406072692516,"lng":-111.92597202267},{"id":"138981","name":"Jane Abshire","party":"Rep","address":"2492 N Jonathan Pl, Saratoga Springs, UT 84045","precinct":"25SR01","hd":"51","v_score":"3.781490609","decile":"6","lat":40.407720419094,"lng":-111.926652694774},{"id":"139324","name":"Dominique Grant","party":"Rep","address":"237 W Nectar Way, Saratoga Springs, UT 84045","precinct":"25SR01","hd":"51","v_score":"3.93832808","decile":"6","lat":40.407068608517,"lng":-111.927225883316},{"id":"139675","name":"Kristofer McDermott","party":"","address":"232 W Jonathan Pl, Saratoga Springs, UT 84045","precinct":"25SR01","hd":"51","v_score":"2.315214949","decile":"5","lat":40.4075323986,"lng":-111.926631223227},{"id":"139856","name":"Dr. Matthew Mohr","party":"","address":"406 W Plum Pl, Saratoga Springs, UT 84045","precinct":"25SR01","hd":"51","v_score":"7.493443096","decile":"8","lat":40.404268155262,"lng":-111.926001728704},{"id":"140854","name":"Eliot Turcotte","party":"Dem","address":"2356 N Nectar Way, Saratoga Springs, UT 84045","precinct":"25SR01","hd":"51","v_score":"1.121327652","decile":"3","lat":40.405239716348,"lng":-111.928364011261},{"id":"141981","name":"Odell Lind","party":"Dem","address":"2260 N Harvest Moon Dr, Saratoga Springs, UT 84045","precinct":"25SR01","hd":"51","v_score":"8.363183621","decile":"8","lat":40.402584138145,"lng":-111.924839351692},{"id":"142117","name":"Judd O'Reilly","party":"Dem","address":"438 W Plum Pl, Saratoga Springs, UT 84045","precinct":"25SR01","hd":"51","v_score":"34.62894986","decile":"10","lat":40.40433906849,"lng":-111.926226694721},{"id":"143136","name":"Mr. Hill Rau V","party":"Rep","address":"2421 N Cider Pl, Saratoga Springs, UT 84045","precinct":"25SR01","hd":"51","v_score":"3.781490609","decile":"6","lat":40.406114315986,"lng":-111.925836199944},{"id":"143250","name":"Guilford Kiehn-Barrows","party":"","address":"2421 N Cider Pl, Saratoga Springs, UT 84045","precinct":"25SR01","hd":"51","v_score":"3.781490609","decile":"6","lat":40.406114315986,"lng":-111.925836199944},{"id":"144358","name":"Sheree Rempel","party":"Rep","address":"2437 N Cider Pl, Saratoga Springs, UT 84045","precinct":"25SR01","hd":"51","v_score":"2.315214949","decile":"5","lat":40.406157859007,"lng":-111.925755586502},{"id":"144949","name":"Kylan O'Connell","party":"Rep","address":"182 W Apple Ave, Saratoga Springs, UT 84045","precinct":"25SR01","hd":"51","v_score":"3.781490609","decile":"6","lat":40.405526585467,"lng":-111.925682206867},{"id":"149330","name":"West Huel","party":"Dem","address":"262 W Nectar Way, Saratoga Springs, UT 84045","precinct":"25SR01","hd":"51","v_score":"0","decile":"3","lat":40.407178861107,"lng":-111.927591720392},{"id":"150454","name":"Mrs. Janessa Swift DVM","party":"Rep","address":"2327 N Cherry Cir, Saratoga Springs, UT 84045","precinct":"25SR01","hd":"51","v_score":"6.528952915","decile":"7","lat":40.404508221254,"lng":-111.928094372686},{"id":"151209","name":"Amara Wuckert","party":"","address":"212 W Jonathan Pl, Saratoga Springs, UT 84045","precinct":"25SR01","hd":"51","v_score":"2.315214949","decile":"5","lat":40.407298805745,"lng":-111.926721379108},{"id":"152028","name":"Wende Witting-Pacocha","party":"Dem","address":"2426 N Cider Pl, Saratoga Springs, UT 84045","precinct":"25SR01","hd":"51","v_score":"8.347511332","decile":"8","lat":40.406037179741,"lng":-111.92571890298},{"id":"152740","name":"Robert Schmeler","party":"Dem","address":"2264 N Harvest Moon Dr, Saratoga Springs, UT 84045","precinct":"25SR01","hd":"51","v_score":"11.30609121","decile":"9","lat":40.402639963471,"lng":-111.924856342},{"id":"156015","name":"Miss Marnie Bogisich DDS","party":"","address":"2461 N Nectar Way, Saratoga Springs, UT 84045","precinct":"25SR01","hd":"51","v_score":"8.363183621","decile":"8","lat":40.406538238592,"lng":-111.928468930912},{"id":"162345","name":"Ova Cruickshank","party":"","address":"432 W Autumn Sky Ct, Saratoga Springs, UT 84045","precinct":"25SR01","hd":"51","v_score":"20.44216724","decile":"10","lat":40.405444916928,"lng":-111.931475207756},{"id":"162854","name":"Amarion Dickinson","party":"","address":"2461 N Nectar Way, Saratoga Springs, UT 84045","precinct":"25SR01","hd":"51","v_score":"18.74349914","decile":"10","lat":40.406538238592,"lng":-111.928468930912},{"id":"162981","name":"Fred Green DVM","party":"Rep","address":"2372 N Orchard Way, Saratoga Springs, UT 84045","precinct":"25SR01","hd":"51","v_score":"35.07427534","decile":"10","lat":40.405251089031,"lng":-111.924824208205},{"id":"165256","name":"Almeta Kohler","party":"","address":"2451 N Orchard Way, Saratoga Springs, UT 84045","precinct":"25SR01","hd":"51","v_score":"5.40460374","decile":"7","lat":40.406563765763,"lng":-111.924526191294},{"id":"165490","name":"Shaquille Walker","party":"","address":"433 W Autumn Sky Ct, Saratoga Springs, UT 84045","precinct":"25SR01","hd":"51","v_score":"8.363183621","decile":"8","lat":40.405330598267,"lng":-111.931464831306},{"id":"165649","name":"Seth Ruecker-Hessel","party":"","address":"2427 N Orchard Way, Saratoga Springs, UT 84045","precinct":"25SR01","hd":"51","v_score":"8.363183621","decile":"8","lat":40.406360525864,"lng":-111.924519491105},{"id":"166062","name":"Cruz Ortiz","party":"Dem","address":"2492 N Pear Pl, Saratoga Springs, UT 84045","precinct":"25SR01","hd":"51","v_score":"3.93832808","decile":"6","lat":40.407448649486,"lng":-111.924424176673},{"id":"167349","name":"Barron Vandervort","party":"Dem","address":"2453 N Nectar Way, Saratoga Springs, UT 84045","precinct":"25SR01","hd":"51","v_score":"6.896907962","decile":"8","lat":40.406446110083,"lng":-111.928487455276},{"id":"167689","name":"Esmeralda Morissette","party":"Rep","address":"163 W Apple Ave, Saratoga Springs, UT 84045","precinct":"25SR01","hd":"51","v_score":"1.46627566","decile":"4","lat":40.404908364888,"lng":-111.925104143305},{"id":"170437","name":"Robin Von","party":"","address":"368 W Plum Pl, Saratoga Springs, UT 84045","precinct":"25SR01","hd":"51","v_score":"11.30609121","decile":"9","lat":40.404119747345,"lng":-111.925531071682},{"id":"170496","name":"Dr. Ennis Orn","party":"Rep","address":"2523 N Apricot Pl, Saratoga Springs, UT 84045","precinct":"25SR01","hd":"51","v_score":"22.18184494","decile":"10","lat":40.40762452211,"lng":-111.925881519223},{"id":"170903","name":"Lenore Ernser","party":"Rep","address":"249 W Jonathan Pl, Saratoga Springs, UT 84045","precinct":"25SR01","hd":"51","v_score":"3.93832808","decile":"6","lat":40.407695519583,"lng":-111.926804332666},{"id":"171040","name":"Samuel Bruen","party":"","address":"2504 N Jonathan Pl, Saratoga Springs, UT 84045","precinct":"25SR01","hd":"51","v_score":"3.781490609","decile":"6","lat":40.407793573431,"lng":-111.926709383562},{"id":"171111","name":"Dr. Emilia O'Kon DDS","party":"Dem","address":"2427 N Nectar Way, Saratoga Springs, UT 84045","precinct":"25SR01","hd":"51","v_score":"1.193887297","decile":"4","lat":40.406165705418,"lng":-111.928478856381},{"id":"171929","name":"Mrs. Fannie Kertzmann","party":"Rep","address":"224 W Apple Ave, Saratoga Springs, UT 84045","precinct":"25SR01","hd":"51","v_score":"9.640097175","decile":"8","lat":40.406197267204,"lng":-111.926191133411},{"id":"172407","name":"Connie Graham","party":"","address":"217 W Nectar Way, Saratoga Springs, UT 84045","precinct":"25SR01","hd":"51","v_score":"8.280646305","decile":"8","lat":40.406965741589,"lng":-111.926826428258},{"id":"172862","name":"Rachael Russel","party":"Rep","address":"2519 N Pear Pl, Saratoga Springs, UT 84045","precinct":"25SR01","hd":"51","v_score":"1.121327652","decile":"3","lat":40.407567150242,"lng":-111.924573757365},{"id":"173630","name":"Sid O'Conner I","party":"Dem","address":"148 W Apple Ave, Saratoga Springs, UT 84045","precinct":"25SR01","hd":"51","v_score":"2.587603312","decile":"5","lat":40.404983801016,"lng":-111.924988723207},{"id":"173768","name":"Ms. Aisha Kassulke","party":"Rep","address":"346 W Plum Pl, Saratoga Springs, UT 84045","precinct":"25SR01","hd":"51","v_score":"2.744440783","decile":"6","lat":40.404052814393,"lng":-111.925318823847},{"id":"175024","name":"Miss Allyson Corwin","party":"Rep","address":"2433 N Cider Pl, Saratoga Springs, UT 84045","precinct":"25SR01","hd":"51","v_score":"3.93832808","decile":"6","lat":40.406146973252,"lng":-111.925775739863},{"id":"175821","name":"Nedra Marks PhD","party":"Rep","address":"2504 N Jonathan Pl, Saratoga Springs, UT 84045","precinct":"25SR01","hd":"51","v_score":"5.659072284","decile":"7","lat":40.407793573431,"lng":-111.926709383562},{"id":"176466","name":"Dr. Sylas Cassin Sr.","party":"","address":"2517 N Apricot Pl, Saratoga Springs, UT 84045","precinct":"25SR01","hd":"51","v_score":"19.3272208","decile":"10","lat":40.407599293191,"lng":-111.925877534482},{"id":"176467","name":"Winfred Mills","party":"","address":"2517 N Apricot Pl, Saratoga Springs, UT 84045","precinct":"25SR01","hd":"51","v_score":"22.27012839","decile":"10","lat":40.407599293191,"lng":-111.925877534482},{"id":"176572","name":"Lura Thompson","party":"","address":"252 W Nectar Way, Saratoga Springs, UT 84045","precinct":"25SR01","hd":"51","v_score":"13.93704549","decile":"9","lat":40.407193611808,"lng":-111.927428401561},{"id":"176756","name":"Mr. Daryle Walker III","party":"","address":"328 W Peach Pl, Saratoga Springs, UT 84045","precinct":"25SR01","hd":"51","v_score":"2.315214949","decile":"5","lat":40.405853763781,"lng":-111.928842489504},{"id":"176989","name":"Delta Upton","party":"","address":"431 W Indian Summer Dr, Saratoga Springs, UT 84045","precinct":"25SR01","hd":"51","v_score":"5.40460374","decile":"7","lat":40.404591598933,"lng":-111.930390006585},{"id":"176992","name":"Dr. Joell Johnson","party":"Rep","address":"431 W Indian Summer Dr, Saratoga Springs, UT 84045","precinct":"25SR01","hd":"51","v_score":"5.40460374","decile":"7","lat":40.404591598933,"lng":-111.930390006585},{"id":"177699","name":"Octavio Runte-Gleichner","party":"","address":"2322 N Cherry Cir, Saratoga Springs, UT 84045","precinct":"25SR01","hd":"51","v_score":"14.18213378","decile":"9","lat":40.404431940276,"lng":-111.927975110883},{"id":"179969","name":"Dianna Simonis PhD","party":"Dem","address":"2374 N Orchard Way, Saratoga Springs, UT 84045","precinct":"25SR01","hd":"51","v_score":"1.46627566","decile":"4","lat":40.405337016137,"lng":-111.924723598971},{"id":"180134","name":"Julianne Willms","party":"","address":"249 W Jonathan Pl, Saratoga Springs, UT 84045","precinct":"25SR01","hd":"51","v_score":"3.93832808","decile":"6","lat":40.407695519583,"lng":-111.926804332666},{"id":"180763","name":"Laura Heathcote-Veum","party":"Dem","address":"377 W Plum Pl, Saratoga Springs, UT 84045","precinct":"25SR01","hd":"51","v_score":"10.93330988","decile":"9","lat":40.40403821436,"lng":-111.925665829155}]