[{"vid":"613352","name":"Evelyne Ernser","party":"Rep","address":"219 W Jonathan Pl, Saratoga Springs, UT 84045","precinct":"25SR01","hd":"51","v_score":"18.1511205","decile":"10","lat":40.407661619091094,"lng":-111.92687651795511,"phone":"(983) 385-4911","sd":"18","ssbd":"10","lsbd":"School Board Lake Mountain 2"},{"vid":"8af8ae2c0a7364d12a5121fb5e1437a62d58486e6d89c799d06303406bfde83d","name":"Mrs. Sonya Herman","party":"","address":"219 W Jonathan Pl, Saratoga Springs, UT 84045","precinct":"25SR01","hd":"51","v_score":"13.33063124","decile":"9","lat":40.407661619091094,"lng":-111.92687651795511,"phone":"(654) 593-9063","sd":"18","ssbd":"10","lsbd":"School Board Lake Mountain 2"},{"vid":"769268","name":"Marisa Wunsch PhD","party":"Dem","address":"398 W Indian Summer Dr, Saratoga Springs, UT 84045","precinct":"25SR01","hd":"51","v_score":"22.64413479","decile":"10","lat":40.40489663039594,"lng":-111.93051975450895,"phone":"(738) 017-7732","sd":"18","ssbd":"10","lsbd":"School Board Lake Mountain 2"},{"vid":"526878c9be8b49fceaedace203e5b16bdc72f24dcc42db6d4bc225e928c0ea9b","name":"Tiffanie Kling","party":"","address":"408 W Indian Summer Dr, Saratoga Springs, UT 84045","precinct":"25SR01","hd":"51","v_score":"4.210716443","decile":"7","lat":40.404843027224295,"lng":-111.93078108806404,"phone":"(209) 198-0125","sd":"18","ssbd":"10","lsbd":"School Board Lake Mountain 2"},{"vid":"824842","name":"Janie Kreiger","party":"Rep","address":"342 W Gooseberry Cir, Saratoga Springs, UT 84045","precinct":"25SR01","hd":"51","v_score":"3.93832808","decile":"6","lat":40.40780070250177,"lng":-111.92970548040009,"phone":"(405) 462-2759","sd":"18","ssbd":"10","lsbd":"School Board Lake Mountain 2"},{"vid":"827206","name":"Burdette Shields","party":"Dem","address":"2427 N Nectar Way, Saratoga Springs, UT 84045","precinct":"25SR01","hd":"51","v_score":"2.315214949","decile":"5","lat":40.406355364165876,"lng":-111.92869306805859,"phone":"(244) 967-5294","sd":"18","ssbd":"10","lsbd":"School Board Lake Mountain 2"},{"vid":"1225164","name":"Chelsy Hilll","party":"Dem","address":"433 W Plum Pl, Saratoga Springs, UT 84045","precinct":"25SR01","hd":"51","v_score":"9.61867875","decile":"8","lat":40.40423868485194,"lng":-111.92669972195755,"phone":"(197) 648-5393","sd":"18","ssbd":"10","lsbd":"School Board Lake Mountain 2"},{"vid":"1237863","name":"Gaston Schulist MD","party":"","address":"2388 N Blossom Ct, Saratoga Springs, UT 84045","precinct":"25SR01","hd":"51","v_score":"3.93832808","decile":"6","lat":40.40559796994997,"lng":-111.9300138550896,"phone":"(169) 698-7096","sd":"18","ssbd":"10","lsbd":"School Board Lake Mountain 2"},{"vid":"1261226","name":"Darryl Prosacco Sr.","party":"Dem","address":"2493 N Apricot Pl, Saratoga Springs, UT 84045","precinct":"25SR01","hd":"51","v_score":"2.315214949","decile":"5","lat":40.40743361674447,"lng":-111.92603263927482,"phone":"(123) 497-0273","sd":"18","ssbd":"10","lsbd":"School Board Lake Mountain 2"},{"vid":"1313913","name":"Dr. Benjman Lynch IV","party":"","address":"2368 N Blossom Ct, Saratoga Springs, UT 84045","precinct":"25SR01","hd":"51","v_score":"1.46627566","decile":"4","lat":40.405281488832344,"lng":-111.92926202389305,"phone":"(778) 468-5187","sd":"18","ssbd":"10","lsbd":"School Board Lake Mountain 2"},{"vid":"1316300","name":"Ms. Aleta Schinner MD","party":"Rep","address":"233 W Jonathan Pl, Saratoga Springs, UT 84045","precinct":"25SR01","hd":"51","v_score":"2.587603312","decile":"5","lat":40.40770527131352,"lng":-111.92735949467895,"phone":"(756) 205-1046","sd":"18","ssbd":"10","lsbd":"School Board Lake Mountain 2"},{"vid":"1319758","name":"Dr. Arturo Stanton PhD","party":"Rep","address":"2378 N Nectar Way, Saratoga Springs, UT 84045","precinct":"25SR01","hd":"51","v_score":"7.282185415","decile":"8","lat":40.40533967112286,"lng":-111.92815443671782,"phone":"(810) 058-7086","sd":"18","ssbd":"10","lsbd":"School Board Lake Mountain 2"},{"vid":"50ecc87e1ecd037a2bdd615cc6352a68b5fe5aee755c16146103fbdc084e9439","name":"Sampson Dickinson DDS","party":"","address":"439 W Plum Pl, Saratoga Springs, UT 84045","precinct":"25SR01","hd":"51","v_score":"7.135704216","decile":"8","lat":40.40435689820946,"lng":-111.92710897487973,"phone":"(526) 388-0570","sd":"18","ssbd":"10","lsbd":"School Board Lake Mountain 2"},{"vid":"1324220","name":"Tammy Kunde","party":"","address":"237 W Nectar Way, Saratoga Springs, UT 84045","precinct":"25SR01","hd":"51","v_score":"3.93832808","decile":"6","lat":40.40694826900902,"lng":-111.92714628362044,"phone":"(847) 223-6089","sd":"18","ssbd":"10","lsbd":"School Board Lake Mountain 2"},{"vid":"1335110","name":"Jasiah Hessel","party":"Rep","address":"354 W Gooseberry Cir, Saratoga Springs, UT 84045","precinct":"25SR01","hd":"51","v_score":"23.54757673","decile":"10","lat":40.40778193900456,"lng":-111.92997405348582,"phone":"(963) 127-1170","sd":"18","ssbd":"10","lsbd":"School Board Lake Mountain 2"},{"vid":"1341630","name":"Mr. Prentice Hartmann II","party":"","address":"224 W Prickly Pear Dr, Saratoga Springs, UT 84045","precinct":"25SR01","hd":"51","v_score":"11.99259879","decile":"9","lat":40.409648090595795,"lng":-111.92767212407554,"phone":"(111) 429-9570","sd":"18","ssbd":"10","lsbd":"School Board Lake Mountain 2"},{"vid":"1384766","name":"Joanie Feil","party":"Rep","address":"2611 N Daisy Dr, Saratoga Springs, UT 84045","precinct":"25SR01","hd":"51","v_score":"3.93832808","decile":"6","lat":40.409859386429666,"lng":-111.92892020091945,"phone":"(925) 264-7842","sd":"18","ssbd":"10","lsbd":"School Board Lake Mountain 2"},{"vid":"1384959","name":"Dr. Jordan Welch","party":"Dem","address":"2657 N Bluebell Dr, Saratoga Springs, UT 84045","precinct":"25SR01","hd":"51","v_score":"2.315214949","decile":"5","lat":40.41043472998284,"lng":-111.92701492315094,"phone":"(573) 660-6817","sd":"18","ssbd":"10","lsbd":"School Board Lake Mountain 2"},{"vid":"1407868","name":"Mr. Godfrey Rowe","party":"","address":"2519 N Pear Pl, Saratoga Springs, UT 84045","precinct":"25SR01","hd":"51","v_score":"2.587603312","decile":"5","lat":40.40796876677923,"lng":-111.92487717329686,"phone":"(512) 791-9552","sd":"18","ssbd":"10","lsbd":"School Board Lake Mountain 2"},{"vid":"1427683","name":"Lenon Mraz","party":"","address":"2386 N Nectar Way, Saratoga Springs, UT 84045","precinct":"25SR01","hd":"51","v_score":"1.121327652","decile":"3","lat":40.40550565431429,"lng":-111.92809514196334,"phone":"(985) 925-7310","sd":"18","ssbd":"10","lsbd":"School Board Lake Mountain 2"},{"vid":"125128f5b8c6a2e50d7d787ee57706196ce7d4780ae474d128573a4529b53042","name":"Malvina Mann-Thiel","party":"Dem","address":"368 W Plum Pl, Saratoga Springs, UT 84045","precinct":"25SR01","hd":"51","v_score":"6.724398202","decile":"8","lat":40.404208245781994,"lng":-111.92507778173248,"phone":"(234) 940-6629","sd":"18","ssbd":"10","lsbd":"School Board Lake Mountain 2"},{"vid":"1450803","name":"Mrs. Essie Halvorson DVM","party":"","address":"357 W Plum Pl, Saratoga Springs, UT 84045","precinct":"25SR01","hd":"51","v_score":"0","decile":"1","lat":40.40356699020083,"lng":-111.92498893040825,"phone":"(935) 174-2678","sd":"18","ssbd":"10","lsbd":"School Board Lake Mountain 2"},{"vid":"1468755","name":"Jerrod Feeney","party":"Dem","address":"157 W Thistle Dr, Saratoga Springs, UT 84045","precinct":"25SR01","hd":"51","v_score":"5.40460374","decile":"7","lat":40.4087371178652,"lng":-111.9256234751999,"phone":"(553) 866-9928","sd":"18","ssbd":"10","lsbd":"School Board Lake Mountain 2"},{"vid":"1472946","name":"Heath Hermann","party":"","address":"156 W Apple Ave, Saratoga Springs, UT 84045","precinct":"25SR01","hd":"51","v_score":"0","decile":"1","lat":40.40444060568051,"lng":-111.92448911272959,"phone":"(448) 825-4825","sd":"18","ssbd":"10","lsbd":"School Board Lake Mountain 2"},{"vid":"1494534","name":"Anna Aufderhar","party":"Rep","address":"2386 N Nectar Way, Saratoga Springs, UT 84045","precinct":"25SR01","hd":"51","v_score":"1.193887297","decile":"3","lat":40.40550565431429,"lng":-111.92809514196334,"phone":"(119) 724-6005","sd":"18","ssbd":"10","lsbd":"School Board Lake Mountain 2"},{"vid":"1531565","name":"Roby Friesen","party":"Dem","address":"223 W Jonathan Pl, Saratoga Springs, UT 84045","precinct":"25SR01","hd":"51","v_score":"27.19634385","decile":"10","lat":40.40765679628214,"lng":-111.92714006230618,"phone":"(607) 984-8737","sd":"18","ssbd":"10","lsbd":"School Board Lake Mountain 2"},{"vid":"1547154","name":"Stevan Heathcote","party":"","address":"342 W Gooseberry Cir, Saratoga Springs, UT 84045","precinct":"25SR01","hd":"51","v_score":"2.315214949","decile":"5","lat":40.40780070250177,"lng":-111.92970548040009,"phone":"(445) 329-8060","sd":"18","ssbd":"10","lsbd":"School Board Lake Mountain 2"},{"vid":"1548014","name":"Mathias Fay","party":"Rep","address":"158 W Apple Ave, Saratoga Springs, UT 84045","precinct":"25SR01","hd":"51","v_score":"2.315214949","decile":"5","lat":40.404904039736685,"lng":-111.92463151166986,"phone":"(240) 802-5923","sd":"18","ssbd":"10","lsbd":"School Board Lake Mountain 2"},{"vid":"1549437","name":"Manda Gleichner","party":"Rep","address":"2414 N Cider Pl, Saratoga Springs, UT 84045","precinct":"25SR01","hd":"51","v_score":"5.40460374","decile":"7","lat":40.406078793719885,"lng":-111.92536421372495,"phone":"(168) 990-6767","sd":"18","ssbd":"10","lsbd":"School Board Lake Mountain 2"},{"vid":"1551280","name":"Mrs. Anastasia Kunze","party":"","address":"2252 N Harvest Moon Dr, Saratoga Springs, UT 84045","precinct":"25SR01","hd":"51","v_score":"0","decile":"1","lat":40.40314921739034,"lng":-111.92453559671559,"phone":"(178) 238-1965","sd":"18","ssbd":"10","lsbd":"School Board Lake Mountain 2"},{"vid":"1552469","name":"Hillery Schuster-Herman","party":"","address":"2426 N Orchard Way, Saratoga Springs, UT 84045","precinct":"25SR01","hd":"51","v_score":"15.43891919","decile":"9","lat":40.40628245234127,"lng":-111.92416940702401,"phone":"(412) 849-2945","sd":"18","ssbd":"10","lsbd":"School Board Lake Mountain 2"},{"vid":"1555189","name":"Isabela Kub-Boyer","party":"Dem","address":"267 W Nectar Way, Saratoga Springs, UT 84045","precinct":"25SR01","hd":"51","v_score":"1.193887297","decile":"3","lat":40.40683928261531,"lng":-111.92788517533735,"phone":"(967) 033-6863","sd":"18","ssbd":"10","lsbd":"School Board Lake Mountain 2"},{"vid":"1561647","name":"Darrian Langosh","party":"Rep","address":"2431 N Apple Ct, Saratoga Springs, UT 84045","precinct":"25SR01","hd":"51","v_score":"14.14899265","decile":"9","lat":40.406373142442355,"lng":-111.92748731320431,"phone":"(514) 424-7285","sd":"18","ssbd":"10","lsbd":"School Board Lake Mountain 2"},{"vid":"bef0c4ee4308b12c6a39eb5d2f37e4224aa5e0e0e330cfa51e479f4371ef2b28","name":"Narcissus Volkman-Cremin","party":"","address":"212 W Jonathan Pl, Saratoga Springs, UT 84045","precinct":"25SR01","hd":"51","v_score":"5.40460374","decile":"7","lat":40.40808393146952,"lng":-111.9267738995506,"phone":"(101) 566-2516","sd":"18","ssbd":"10","lsbd":"School Board Lake Mountain 2"},{"vid":"1571306","name":"Loula VonRueden","party":"Dem","address":"352 W Plum Pl, Saratoga Springs, UT 84045","precinct":"25SR01","hd":"51","v_score":"3.93832808","decile":"6","lat":40.40406167227494,"lng":-111.92474112512944,"phone":"(823) 636-7948","sd":"18","ssbd":"10","lsbd":"School Board Lake Mountain 2"},{"vid":"1580727","name":"Richelle Bradtke","party":"Dem","address":"267 W Nectar Way, Saratoga Springs, UT 84045","precinct":"25SR01","hd":"51","v_score":"1.193887297","decile":"3","lat":40.40683928261531,"lng":-111.92788517533735,"phone":"(213) 715-0983","sd":"18","ssbd":"10","lsbd":"School Board Lake Mountain 2"},{"vid":"1583649","name":"Jenifer Funk","party":"Rep","address":"2661 N Daisy Dr, Saratoga Springs, UT 84045","precinct":"25SR01","hd":"51","v_score":"2.315214949","decile":"5","lat":40.41049248856896,"lng":-111.92826613086807,"phone":"(490) 565-5441","sd":"18","ssbd":"10","lsbd":"School Board Lake Mountain 2"},{"vid":"1602012","name":"Trula Heller MD","party":"Rep","address":"2652 N Daisy Dr, Saratoga Springs, UT 84045","precinct":"25SR01","hd":"51","v_score":"8.735323134","decile":"8","lat":40.41019505840749,"lng":-111.92792647411018,"phone":"(477) 048-6134","sd":"18","ssbd":"10","lsbd":"School Board Lake Mountain 2"},{"vid":"1612916","name":"Gwyn Klein","party":"","address":"368 W Plum Pl, Saratoga Springs, UT 84045","precinct":"25SR01","hd":"51","v_score":"3.781490609","decile":"6","lat":40.404208245781994,"lng":-111.92507778173248,"phone":"(118) 655-1246","sd":"18","ssbd":"10","lsbd":"School Board Lake Mountain 2"},{"vid":"1616237","name":"Karley Effertz DDS","party":"Rep","address":"233 W Apple Ave, Saratoga Springs, UT 84045","precinct":"25SR01","hd":"51","v_score":"5.40460374","decile":"7","lat":40.4062558928261,"lng":-111.92699246843759,"phone":"(260) 040-5284","sd":"18","ssbd":"10","lsbd":"School Board Lake Mountain 2"},{"vid":"1628176","name":"Valentine Blanda","party":"Rep","address":"2404 N Nectar Way, Saratoga Springs, UT 84045","precinct":"25SR01","hd":"51","v_score":"1.121327652","decile":"3","lat":40.40582729486184,"lng":-111.92814614319269,"phone":"(940) 966-4089","sd":"18","ssbd":"10","lsbd":"School Board Lake Mountain 2"},{"vid":"1648870","name":"Annemarie Okuneva","party":"","address":"2676 N Bluebell Dr, Saratoga Springs, UT 84045","precinct":"25SR01","hd":"51","v_score":"2.315214949","decile":"5","lat":40.411034104641516,"lng":-111.9268857735452,"phone":"(903) 008-0728","sd":"18","ssbd":"10","lsbd":"School Board Lake Mountain 2"},{"vid":"cbdb475d2034f2e3f2407b44b85ee65c2a12fe5b32b4aae4c947f6320714b719","name":"Annetta Heller-Ebert","party":"Dem","address":"2368 N Blossom Ct, Saratoga Springs, UT 84045","precinct":"25SR01","hd":"51","v_score":"1.46627566","decile":"4","lat":40.405281488832344,"lng":-111.92926202389305,"phone":"(318) 312-1256","sd":"18","ssbd":"10","lsbd":"School Board Lake Mountain 2"},{"vid":"1671083","name":"Mrs. Sydnie Ernser PhD","party":"Rep","address":"214 W Nectar Way, Saratoga Springs, UT 84045","precinct":"25SR01","hd":"51","v_score":"5.604194564","decile":"7","lat":40.407171932326264,"lng":-111.92670574707076,"phone":"(585) 376-9679","sd":"18","ssbd":"10","lsbd":"School Board Lake Mountain 2"},{"vid":"1684170","name":"Vick Langworth","party":"","address":"2553 N Bluebell Dr, Saratoga Springs, UT 84045","precinct":"25SR01","hd":"51","v_score":"2.817000428","decile":"6","lat":40.40870215193229,"lng":-111.92478778348523,"phone":"(905) 940-9720","sd":"18","ssbd":"10","lsbd":"School Board Lake Mountain 2"},{"vid":"9502d169641105e393eb5accb6ce423aa6b27d480da800ffca71e7962cc9f4ec","name":"Clarke Tromp","party":"","address":"217 W Thistle Dr, Saratoga Springs, UT 84045","precinct":"25SR01","hd":"51","v_score":"7.493443096","decile":"8","lat":40.40854940821701,"lng":-111.92734855801974,"phone":"(902) 982-8756","sd":"18","ssbd":"10","lsbd":"School Board Lake Mountain 2"},{"vid":"1692686","name":"Marianne Hegmann","party":"","address":"2378 N Nectar Way, Saratoga Springs, UT 84045","precinct":"25SR01","hd":"51","v_score":"5.40460374","decile":"7","lat":40.40533967112286,"lng":-111.92815443671782,"phone":"(313) 333-8045","sd":"18","ssbd":"10","lsbd":"School Board Lake Mountain 2"},{"vid":"1697897","name":"Khiry Murray","party":"Dem","address":"2250 N Harvest Moon Dr, Saratoga Springs, UT 84045","precinct":"25SR01","hd":"51","v_score":"5.40460374","decile":"7","lat":40.40307554279415,"lng":-111.92489864235891,"phone":"(800) 911-7163","sd":"18","ssbd":"10","lsbd":"School Board Lake Mountain 2"},{"vid":"f968f786d99c3de80c7f11775c9459473a243fbca14480d0d54f7da1f0d2431f","name":"Mr. Kadin Harvey","party":"Dem","address":"2553 N Bluebell Dr, Saratoga Springs, UT 84045","precinct":"25SR01","hd":"51","v_score":"5.40460374","decile":"7","lat":40.40870215193229,"lng":-111.92478778348523,"phone":"(158) 550-9711","sd":"18","ssbd":"10","lsbd":"School Board Lake Mountain 2"},{"vid":"1705513","name":"Nile Berge","party":"Rep","address":"2449 N Nectar Way, Saratoga Springs, UT 84045","precinct":"25SR01","hd":"51","v_score":"0","decile":"1","lat":40.4068891852171,"lng":-111.92880745653646,"phone":"(998) 202-6494","sd":"18","ssbd":"10","lsbd":"School Board Lake Mountain 2"},{"vid":"1707839","name":"Hattie Grant DVM","party":"Dem","address":"2353 N Nectar Way, Saratoga Springs, UT 84045","precinct":"25SR01","hd":"51","v_score":"1.193887297","decile":"3","lat":40.40502856234356,"lng":-111.92908226502242,"phone":"(652) 456-3198","sd":"18","ssbd":"10","lsbd":"School Board Lake Mountain 2"},{"vid":"1710096","name":"Fed Ratke-DuBuque","party":"","address":"224 W Apple Ave, Saratoga Springs, UT 84045","precinct":"25SR01","hd":"51","v_score":"9.640097175","decile":"8","lat":40.40645475265,"lng":-111.92672905929193,"phone":"(240) 483-7561","sd":"18","ssbd":"10","lsbd":"School Board Lake Mountain 2"},{"vid":"1716008","name":"Hilario Christiansen","party":"","address":"2386 N Nectar Way, Saratoga Springs, UT 84045","precinct":"25SR01","hd":"51","v_score":"1.121327652","decile":"3","lat":40.40550565431429,"lng":-111.92809514196334,"phone":"(879) 624-4812","sd":"18","ssbd":"10","lsbd":"School Board Lake Mountain 2"},{"vid":"1716022","name":"Dalia Cronin-Emmerich","party":"Dem","address":"226 W Nectar Way, Saratoga Springs, UT 84045","precinct":"25SR01","hd":"51","v_score":"11.2235539","decile":"9","lat":40.40725882956869,"lng":-111.92704174172508,"phone":"(107) 075-9068","sd":"18","ssbd":"10","lsbd":"School Board Lake Mountain 2"},{"vid":"1725996","name":"Nautica Corkery-Zulauf","party":"Dem","address":"246 W Thistle Dr, Saratoga Springs, UT 84045","precinct":"25SR01","hd":"51","v_score":"4.079907534","decile":"7","lat":40.4089819351634,"lng":-111.92814060593273,"phone":"(162) 463-7359","sd":"18","ssbd":"10","lsbd":"School Board Lake Mountain 2"},{"vid":"1741414","name":"Dr. Fitzhugh Wilkinson","party":"Dem","address":"376 W Indian Summer Dr, Saratoga Springs, UT 84045","precinct":"25SR01","hd":"51","v_score":"1.193887297","decile":"3","lat":40.40521638812359,"lng":-111.9299050735529,"phone":"(884) 127-8324","sd":"18","ssbd":"10","lsbd":"School Board Lake Mountain 2"},{"vid":"266475abbb10b5d55f806c69fa39136d9e0c7de2e486285e0e86e83fe123b92e","name":"Mrs. Nolie Torphy PhD","party":"Rep","address":"2668 N Bluebell Dr, Saratoga Springs, UT 84045","precinct":"25SR01","hd":"51","v_score":"11.45021068","decile":"9","lat":40.410832975235046,"lng":-111.92672371463104,"phone":"(426) 011-9266","sd":"18","ssbd":"10","lsbd":"School Board Lake Mountain 2"},{"vid":"1765799","name":"Wess Medhurst","party":"","address":"2453 N Nectar Way, Saratoga Springs, UT 84045","precinct":"25SR01","hd":"51","v_score":"15.4533012","decile":"9","lat":40.40710896622846,"lng":-111.92862429741619,"phone":"(415) 839-8519","sd":"18","ssbd":"10","lsbd":"School Board Lake Mountain 2"},{"vid":"1773501","name":"Suzanne Bergnaum","party":"Rep","address":"368 W Plum Pl, Saratoga Springs, UT 84045","precinct":"25SR01","hd":"51","v_score":"6.724398202","decile":"8","lat":40.404208245781994,"lng":-111.92507778173248,"phone":"(575) 590-7193","sd":"18","ssbd":"10","lsbd":"School Board Lake Mountain 2"},{"vid":"1776596","name":"Kyler Larkin","party":"","address":"207 W Thistle Dr, Saratoga Springs, UT 84045","precinct":"25SR01","hd":"51","v_score":"1.121327652","decile":"3","lat":40.40854978415145,"lng":-111.92701896039279,"phone":"(256) 131-2070","sd":"18","ssbd":"10","lsbd":"School Board Lake Mountain 2"},{"vid":"1778831","name":"Lou Kuhlman-Lind","party":"","address":"172 W Thistle Dr, Saratoga Springs, UT 84045","precinct":"25SR01","hd":"51","v_score":"4.079907534","decile":"7","lat":40.40898718244162,"lng":-111.9264267587978,"phone":"(403) 831-9738","sd":"18","ssbd":"10","lsbd":"School Board Lake Mountain 2"},{"vid":"1786367","name":"Mickie Nolan","party":"","address":"2252 N Harvest Moon Dr, Saratoga Springs, UT 84045","precinct":"25SR01","hd":"51","v_score":"5.693042993","decile":"7","lat":40.40314921739034,"lng":-111.92453559671559,"phone":"(368) 506-6028","sd":"18","ssbd":"10","lsbd":"School Board Lake Mountain 2"},{"vid":"cd2121b354901c06cbb87d56d2a51880b59477e7893b4c03f1e936e1a6aa7814","name":"Dorathy Bradtke","party":"","address":"2494 N Apricot Pl, Saratoga Springs, UT 84045","precinct":"25SR01","hd":"51","v_score":"3.781490609","decile":"6","lat":40.40753342546333,"lng":-111.92554503736909,"phone":"(312) 445-6798","sd":"18","ssbd":"10","lsbd":"School Board Lake Mountain 2"},{"vid":"1798548","name":"Sabina Emard","party":"Dem","address":"2511 N Paintbrush Dr, Saratoga Springs, UT 84045","precinct":"25SR01","hd":"51","v_score":"5.40460374","decile":"7","lat":40.40786524162191,"lng":-111.9311572895932,"phone":"(613) 656-9173","sd":"18","ssbd":"10","lsbd":"School Board Lake Mountain 2"},{"vid":"1800013","name":"Odelia Medhurst-Schaden","party":"","address":"222 W Thistle Dr, Saratoga Springs, UT 84045","precinct":"25SR01","hd":"51","v_score":"1.121327652","decile":"3","lat":40.40900590217852,"lng":-111.92759477722599,"phone":"(780) 241-4547","sd":"18","ssbd":"10","lsbd":"School Board Lake Mountain 2"},{"vid":"1800334","name":"Miss Chelsy Wisoky DDS","party":"","address":"223 W Prickly Pear Dr, Saratoga Springs, UT 84045","precinct":"25SR01","hd":"51","v_score":"1.121327652","decile":"3","lat":40.409308837532656,"lng":-111.92784517309599,"phone":"(377) 870-0764","sd":"18","ssbd":"10","lsbd":"School Board Lake Mountain 2"},{"vid":"1800979","name":"Charley Fritsch","party":"Dem","address":"2412 N Fernleaf Dr, Saratoga Springs, UT 84045","precinct":"25SR01","hd":"51","v_score":"2.744440783","decile":"5","lat":40.40602269110057,"lng":-111.93111433881771,"phone":"(543) 519-4751","sd":"18","ssbd":"10","lsbd":"School Board Lake Mountain 2"},{"vid":"1817339","name":"Johnny Terry","party":"Dem","address":"2482 N Jonathan Pl, Saratoga Springs, UT 84045","precinct":"25SR01","hd":"51","v_score":"1.46627566","decile":"4","lat":40.40741103911817,"lng":-111.92651935459205,"phone":"(420) 908-6821","sd":"18","ssbd":"10","lsbd":"School Board Lake Mountain 2"},{"vid":"1831598","name":"Tabitha Okuneva","party":"Rep","address":"233 W Apple Ave, Saratoga Springs, UT 84045","precinct":"25SR01","hd":"51","v_score":"5.40460374","decile":"7","lat":40.4062558928261,"lng":-111.92699246843759,"phone":"(798) 329-0933","sd":"18","ssbd":"10","lsbd":"School Board Lake Mountain 2"},{"vid":"1832958","name":"Darrian Hintz-Walter","party":"Dem","address":"2418 N Fernleaf Dr, Saratoga Springs, UT 84045","precinct":"25SR01","hd":"51","v_score":"6.74007049","decile":"8","lat":40.40596895559927,"lng":-111.930799729779,"phone":"(795) 189-3300","sd":"18","ssbd":"10","lsbd":"School Board Lake Mountain 2"},{"vid":"1834196","name":"Eduardo King","party":"Rep","address":"2668 N Bluebell Dr, Saratoga Springs, UT 84045","precinct":"25SR01","hd":"51","v_score":"3.781490609","decile":"6","lat":40.410832975235046,"lng":-111.92672371463104,"phone":"(224) 310-5148","sd":"18","ssbd":"10","lsbd":"School Board Lake Mountain 2"},{"vid":"1843808","name":"Lida Stamm","party":"Rep","address":"197 W Apple Ave, Saratoga Springs, UT 84045","precinct":"25SR01","hd":"51","v_score":"1.193887297","decile":"3","lat":40.40523368021476,"lng":-111.92583821350718,"phone":"(152) 868-3841","sd":"18","ssbd":"10","lsbd":"School Board Lake Mountain 2"},{"vid":"1844195","name":"Verle Cartwright PhD","party":"Rep","address":"2419 N Nectar Way, Saratoga Springs, UT 84045","precinct":"25SR01","hd":"51","v_score":"2.587603312","decile":"5","lat":40.40617631321245,"lng":-111.92869278754864,"phone":"(541) 459-7587","sd":"18","ssbd":"10","lsbd":"School Board Lake Mountain 2"},{"vid":"1848190","name":"Zeta Ziemann","party":"","address":"347 W Plum Pl, Saratoga Springs, UT 84045","precinct":"25SR01","hd":"51","v_score":"20.81028855","decile":"10","lat":40.40367764749248,"lng":-111.92461073273215,"phone":"(243) 904-9213","sd":"18","ssbd":"10","lsbd":"School Board Lake Mountain 2"},{"vid":"1858762","name":"Lovey Larson","party":"Dem","address":"398 W Indian Summer Dr, Saratoga Springs, UT 84045","precinct":"25SR01","hd":"51","v_score":"27.46462406","decile":"10","lat":40.40489663039594,"lng":-111.93051975450895,"phone":"(466) 418-6782","sd":"18","ssbd":"10","lsbd":"School Board Lake Mountain 2"},{"vid":"1858799","name":"Mr. Ryan Haley","party":"","address":"194 W Sugarbowl Cir, Saratoga Springs, UT 84045","precinct":"25SR01","hd":"51","v_score":"11.40478976","decile":"9","lat":40.41027732557611,"lng":-111.92727988023995,"phone":"(238) 774-9865","sd":"18","ssbd":"10","lsbd":"School Board Lake Mountain 2"},{"vid":"01f4e6a5375c97413cdc6a3a7cd9d29cd49c66c03f26b1da3ecaed68fde0a44f","name":"Mrs. Audry Lind","party":"Rep","address":"2418 N Fernleaf Dr, Saratoga Springs, UT 84045","precinct":"25SR01","hd":"51","v_score":"1.193887297","decile":"3","lat":40.40596895559927,"lng":-111.930799729779,"phone":"(414) 968-5686","sd":"18","ssbd":"10","lsbd":"School Board Lake Mountain 2"},{"vid":"1873578","name":"Dr. Foster Hauck III","party":"","address":"152 W Apple Ave, Saratoga Springs, UT 84045","precinct":"25SR01","hd":"51","v_score":"2.315214949","decile":"5","lat":40.404859395016935,"lng":-111.92445874538478,"phone":"(557) 113-2378","sd":"18","ssbd":"10","lsbd":"School Board Lake Mountain 2"},{"vid":"1876148","name":"Mr. Tolbert Gerlach Jr.","party":"Rep","address":"169 W Apple Ave, Saratoga Springs, UT 84045","precinct":"25SR01","hd":"51","v_score":"18.70229537","decile":"10","lat":40.40464281754009,"lng":-111.92495268573718,"phone":"(172) 801-3632","sd":"18","ssbd":"10","lsbd":"School Board Lake Mountain 2"},{"vid":"1904831","name":"Mrs. Adela Cummings MD","party":"","address":"2373 N Blossom Ct, Saratoga Springs, UT 84045","precinct":"25SR01","hd":"51","v_score":"0","decile":"1","lat":40.405367908190094,"lng":-111.93013736671887,"phone":"(748) 000-7730","sd":"18","ssbd":"10","lsbd":"School Board Lake Mountain 2"},{"vid":"1936691","name":"Miss Linette Raynor","party":"Dem","address":"2242 N Harvest Moon Dr, Saratoga Springs, UT 84045","precinct":"25SR01","hd":"51","v_score":"8.363183621","decile":"8","lat":40.402932636534125,"lng":-111.92453016226743,"phone":"(289) 824-6651","sd":"18","ssbd":"10","lsbd":"School Board Lake Mountain 2"},{"vid":"1940944","name":"Dr. Devante Ledner","party":"Dem","address":"2482 N Jonathan Pl, Saratoga Springs, UT 84045","precinct":"25SR01","hd":"51","v_score":"2.587603312","decile":"5","lat":40.40741103911817,"lng":-111.92651935459205,"phone":"(602) 583-8547","sd":"18","ssbd":"10","lsbd":"School Board Lake Mountain 2"},{"vid":"1941756","name":"Sarahi Schulist","party":"","address":"352 W Plum Pl, Saratoga Springs, UT 84045","precinct":"25SR01","hd":"51","v_score":"8.347511332","decile":"8","lat":40.40406167227494,"lng":-111.92474112512944,"phone":"(435) 233-6628","sd":"18","ssbd":"10","lsbd":"School Board Lake Mountain 2"},{"vid":"1942244","name":"Donovan McLaughlin","party":"","address":"2364 N Orchard Way, Saratoga Springs, UT 84045","precinct":"25SR01","hd":"51","v_score":"4.905839784","decile":"7","lat":40.405041850128086,"lng":-111.92497872709833,"phone":"(784) 811-0095","sd":"18","ssbd":"10","lsbd":"School Board Lake Mountain 2"},{"vid":"0b80e7bbd93e374e8921d67d5231effc46ff2e9b2143d83027fc58ca5916f7a2","name":"Ivory Stamm","party":"","address":"171 W Prickly Pear Dr, Saratoga Springs, UT 84045","precinct":"25SR01","hd":"51","v_score":"27.75750098","decile":"10","lat":40.409336254475065,"lng":-111.9261575290258,"phone":"(404) 849-6071","sd":"18","ssbd":"10","lsbd":"School Board Lake Mountain 2"},{"vid":"38764d870cb2bf2b7da5b6f481eaa078e3fd08b0ea85b22a9ce4e9ac942895e8","name":"Jorden Boyle","party":"","address":"2448 N Fernleaf Dr, Saratoga Springs, UT 84045","precinct":"25SR01","hd":"51","v_score":"5.604194564","decile":"7","lat":40.406348760234444,"lng":-111.92969109185661,"phone":"(107) 873-4126","sd":"18","ssbd":"10","lsbd":"School Board Lake Mountain 2"},{"vid":"1944730","name":"Griselda Torphy","party":"Dem","address":"2364 N Orchard Way, Saratoga Springs, UT 84045","precinct":"25SR01","hd":"51","v_score":"10.45202298","decile":"9","lat":40.405041850128086,"lng":-111.92497872709833,"phone":"(871) 041-4239","sd":"18","ssbd":"10","lsbd":"School Board Lake Mountain 2"},{"vid":"1947952","name":"Dicy Rosenbaum PhD","party":"","address":"2492 N Jonathan Pl, Saratoga Springs, UT 84045","precinct":"25SR01","hd":"51","v_score":"3.781490609","decile":"6","lat":40.40755048371429,"lng":-111.92652576792689,"phone":"(447) 561-3420","sd":"18","ssbd":"10","lsbd":"School Board Lake Mountain 2"},{"vid":"1952696","name":"Jerrold Murphy","party":"Dem","address":"2250 N Harvest Moon Dr, Saratoga Springs, UT 84045","precinct":"25SR01","hd":"51","v_score":"3.93832808","decile":"6","lat":40.40307554279415,"lng":-111.92489864235891,"phone":"(833) 502-9040","sd":"18","ssbd":"10","lsbd":"School Board Lake Mountain 2"},{"vid":"1956187","name":"Archibald Boehm","party":"Dem","address":"2434 N Orchard Way, Saratoga Springs, UT 84045","precinct":"25SR01","hd":"51","v_score":"3.781490609","decile":"6","lat":40.406444347329156,"lng":-111.9241545746409,"phone":"(982) 086-1234","sd":"18","ssbd":"10","lsbd":"School Board Lake Mountain 2"},{"vid":"1968065","name":"Hardin Howell","party":"Rep","address":"277 W Thistle Dr, Saratoga Springs, UT 84045","precinct":"25SR01","hd":"51","v_score":"5.40460374","decile":"7","lat":40.40894074189801,"lng":-111.92911056746674,"phone":"(474) 139-4998","sd":"18","ssbd":"10","lsbd":"School Board Lake Mountain 2"},{"vid":"1970615","name":"Trevion Mraz I","party":"","address":"188 W Apple Ave, Saratoga Springs, UT 84045","precinct":"25SR01","hd":"51","v_score":"6.481563075","decile":"7","lat":40.4055168875696,"lng":-111.92554751199111,"phone":"(113) 308-1297","sd":"18","ssbd":"10","lsbd":"School Board Lake Mountain 2"},{"vid":"e8339e2c4819115fff7619b0ea0c837c24a47e4da7c011130b7ff0f30e1f8def","name":"Dwane Dach","party":"","address":"193 W Sugarbowl Cir, Saratoga Springs, UT 84045","precinct":"25SR01","hd":"51","v_score":"9.61867875","decile":"8","lat":40.410041889617595,"lng":-111.92706901157545,"phone":"(884) 408-1244","sd":"18","ssbd":"10","lsbd":"School Board Lake Mountain 2"},{"vid":"11194ce7907526096251673c7b59fcc334c85296db79f98af598dd07aa364faf","name":"Sara Bernhard","party":"","address":"193 W Sugarbowl Cir, Saratoga Springs, UT 84045","precinct":"25SR01","hd":"51","v_score":"9.61867875","decile":"8","lat":40.410041889617595,"lng":-111.92706901157545,"phone":"(140) 453-5500","sd":"18","ssbd":"10","lsbd":"School Board Lake Mountain 2"},{"vid":"1973954","name":"Venus Price","party":"Rep","address":"146 W Thistle Dr, Saratoga Springs, UT 84045","precinct":"25SR01","hd":"51","v_score":"5.40460374","decile":"7","lat":40.40912907525604,"lng":-111.92578379348669,"phone":"(943) 845-9810","sd":"18","ssbd":"10","lsbd":"School Board Lake Mountain 2"},{"vid":"1990230","name":"Montgomery Keebler","party":"Dem","address":"2511 N Paintbrush Dr, Saratoga Springs, UT 84045","precinct":"25SR01","hd":"51","v_score":"8.347511332","decile":"8","lat":40.40786524162191,"lng":-111.9311572895932,"phone":"(596) 367-4042","sd":"18","ssbd":"10","lsbd":"School Board Lake Mountain 2"},{"vid":"1990958","name":"Latrell Huel","party":"Rep","address":"2668 N Bluebell Dr, Saratoga Springs, UT 84045","precinct":"25SR01","hd":"51","v_score":"2.817000428","decile":"6","lat":40.410832975235046,"lng":-111.92672371463104,"phone":"(844) 150-2007","sd":"18","ssbd":"10","lsbd":"School Board Lake Mountain 2"},{"vid":"1994402","name":"Mr. Felton Lynch","party":"Rep","address":"194 W Sugarbowl Cir, Saratoga Springs, UT 84045","precinct":"25SR01","hd":"51","v_score":"2.744440783","decile":"5","lat":40.41027732557611,"lng":-111.92727988023995,"phone":"(234) 561-0324","sd":"18","ssbd":"10","lsbd":"School Board Lake Mountain 2"},{"vid":"1997459","name":"Loreen Graham","party":"Rep","address":"2419 N Nectar Way, Saratoga Springs, UT 84045","precinct":"25SR01","hd":"51","v_score":"5.530510904","decile":"7","lat":40.40617631321245,"lng":-111.92869278754864,"phone":"(589) 539-7735","sd":"18","ssbd":"10","lsbd":"School Board Lake Mountain 2"},{"vid":"2010574","name":"Daria Mraz","party":"Rep","address":"2668 N Bluebell Dr, Saratoga Springs, UT 84045","precinct":"25SR01","hd":"51","v_score":"5.530510904","decile":"7","lat":40.410832975235046,"lng":-111.92672371463104,"phone":"(303) 747-0881","sd":"18","ssbd":"10","lsbd":"School Board Lake Mountain 2"},{"vid":"f4d6eec7a35457c44a8f22c49cff014c6dbf1581bcb89910642e96335827c962","name":"Alwin Lebsack","party":"Dem","address":"2631 N Daisy Dr, Saratoga Springs, UT 84045","precinct":"25SR01","hd":"51","v_score":"6.74007049","decile":"8","lat":40.41005885464808,"lng":-111.92870008977249,"phone":"(909) 111-1875","sd":"18","ssbd":"10","lsbd":"School Board Lake Mountain 2"},{"vid":"babeb417528dab3f4c9387d44722c8412437c12af6190576d084b9e4a63569f9","name":"Baxter Bogisich","party":"Dem","address":"192 W Apple Ave, Saratoga Springs, UT 84045","precinct":"25SR01","hd":"51","v_score":"1.121327652","decile":"3","lat":40.405730747807354,"lng":-111.92555949485946,"phone":"(427) 432-7777","sd":"18","ssbd":"10","lsbd":"School Board Lake Mountain 2"},{"vid":"bf941e99a9a9ead58ef435bc8e4aa2a8cfa7ec657bd7a4f1febde42cd70f61bd","name":"Regenia Prohaska","party":"Rep","address":"201 W Apple Ave, Saratoga Springs, UT 84045","precinct":"25SR01","hd":"51","v_score":"1.193887297","decile":"3","lat":40.40550517205983,"lng":-111.9260327886122,"phone":"(593) 365-0066","sd":"18","ssbd":"10","lsbd":"School Board Lake Mountain 2"},{"vid":"2092532","name":"Addison Hyatt","party":"Rep","address":"433 W Autumn Sky Ct, Saratoga Springs, UT 84045","precinct":"25SR01","hd":"51","v_score":"6.896907962","decile":"8","lat":40.40523127198404,"lng":-111.93148344049696,"phone":"(207) 379-5158","sd":"18","ssbd":"10","lsbd":"School Board Lake Mountain 2"},{"vid":"766ab24009401d9460bc87edb887e2f92810d94cdfe3916cbce3b6a6af3ea1b7","name":"Nikia Mayer","party":"","address":"172 W Nectar Way, Saratoga Springs, UT 84045","precinct":"25SR01","hd":"51","v_score":"20.43575758","decile":"10","lat":40.40720635809753,"lng":-111.92579353014924,"phone":"(998) 710-3234","sd":"18","ssbd":"10","lsbd":"School Board Lake Mountain 2"},{"vid":"2106542","name":"Mrs. Ivette O'Conner PhD","party":"","address":"2669 N Bluebell Dr, Saratoga Springs, UT 84045","precinct":"25SR01","hd":"51","v_score":"2.587603312","decile":"5","lat":40.4107208148316,"lng":-111.9271555606168,"phone":"(124) 340-8663","sd":"18","ssbd":"10","lsbd":"School Board Lake Mountain 2"},{"vid":"908c8ff38397c620ef28841f4a55717824f9038adf4c66e3e43e44700793df3f","name":"Metro Ortiz-Metz","party":"Rep","address":"2504 N Apricot Pl, Saratoga Springs, UT 84045","precinct":"25SR01","hd":"51","v_score":"5.530510904","decile":"7","lat":40.407709569985094,"lng":-111.92564687309945,"phone":"(602) 727-0391","sd":"18","ssbd":"10","lsbd":"School Board Lake Mountain 2"},{"vid":"2126277","name":"Sherryl Reichel","party":"","address":"2517 N Apricot Pl, Saratoga Springs, UT 84045","precinct":"25SR01","hd":"51","v_score":"6.550708384","decile":"7","lat":40.40796951538677,"lng":-111.92603447795639,"phone":"(397) 729-7431","sd":"18","ssbd":"10","lsbd":"School Board Lake Mountain 2"},{"vid":"60253fe494cb50c21c692af20a08b725002e9a495e70d9b20f79d8df04970330","name":"Dr. Mortimer Bosco PhD","party":"Rep","address":"2412 N Fernleaf Dr, Saratoga Springs, UT 84045","precinct":"25SR01","hd":"51","v_score":"5.546183193","decile":"7","lat":40.40602269110057,"lng":-111.93111433881771,"phone":"(741) 533-7928","sd":"18","ssbd":"10","lsbd":"School Board Lake Mountain 2"},{"vid":"55d5c0cc2119dbe329be85fa119824c08564db37d7ead7722387fe7b3f876948","name":"Vollie Hudson","party":"Rep","address":"2451 N Orchard Way, Saratoga Springs, UT 84045","precinct":"25SR01","hd":"51","v_score":"5.40460374","decile":"7","lat":40.40673243374144,"lng":-111.92463526547031,"phone":"(721) 313-0851","sd":"18","ssbd":"10","lsbd":"School Board Lake Mountain 2"},{"vid":"9be474599af047567435de5d830b14a99a360af400a55db5ac861c9fc760a1f2","name":"John Lesch","party":"Dem","address":"347 W Plum Pl, Saratoga Springs, UT 84045","precinct":"25SR01","hd":"51","v_score":"26.39982271","decile":"10","lat":40.40367764749248,"lng":-111.92461073273215,"phone":"(485) 012-6692","sd":"18","ssbd":"10","lsbd":"School Board Lake Mountain 2"},{"vid":"2159890","name":"Coleton Wolff","party":"","address":"199 W Nectar Way, Saratoga Springs, UT 84045","precinct":"25SR01","hd":"51","v_score":"3.781490609","decile":"6","lat":40.40676870203007,"lng":-111.9262724947189,"phone":"(647) 419-8053","sd":"18","ssbd":"10","lsbd":"School Board Lake Mountain 2"},{"vid":"2183898","name":"Orrin Nicolas","party":"Dem","address":"2546 N Paintbrush Dr, Saratoga Springs, UT 84045","precinct":"25SR01","hd":"51","v_score":"3.93832808","decile":"6","lat":40.40835926611338,"lng":-111.9298980189804,"phone":"(927) 474-0589","sd":"18","ssbd":"10","lsbd":"School Board Lake Mountain 2"},{"vid":"2183963","name":"Brent Langosh PhD","party":"Dem","address":"2546 N Paintbrush Dr, Saratoga Springs, UT 84045","precinct":"25SR01","hd":"51","v_score":"1.193887297","decile":"3","lat":40.40835926611338,"lng":-111.9298980189804,"phone":"(507) 969-1687","sd":"18","ssbd":"10","lsbd":"School Board Lake Mountain 2"},{"vid":"2191211","name":"Thaddeus Anderson","party":"","address":"217 W Thistle Dr, Saratoga Springs, UT 84045","precinct":"25SR01","hd":"51","v_score":"2.315214949","decile":"5","lat":40.40854940821701,"lng":-111.92734855801974,"phone":"(385) 496-8215","sd":"18","ssbd":"10","lsbd":"School Board Lake Mountain 2"},{"vid":"250c06e2ab1128b2b7e3efb5c117c90133e6b584ffba07425822bb56afe0ccba","name":"Carlisle Streich","party":"","address":"346 W Plum Pl, Saratoga Springs, UT 84045","precinct":"25SR01","hd":"51","v_score":"1.121327652","decile":"3","lat":40.40383680888738,"lng":-111.92453606275495,"phone":"(875) 450-4986","sd":"18","ssbd":"10","lsbd":"School Board Lake Mountain 2"},{"vid":"2199200","name":"Vernal Feeney","party":"Dem","address":"333 W Peach Pl, Saratoga Springs, UT 84045","precinct":"25SR01","hd":"51","v_score":"11.04973188","decile":"9","lat":40.405699070968275,"lng":-111.92914153449732,"phone":"(858) 294-1099","sd":"18","ssbd":"10","lsbd":"School Board Lake Mountain 2"},{"vid":"2204797","name":"Dr. Halley Koepp","party":"Dem","address":"158 W Thistle Dr, Saratoga Springs, UT 84045","precinct":"25SR01","hd":"51","v_score":"5.759908021","decile":"7","lat":40.40892505391094,"lng":-111.92609549030881,"phone":"(376) 673-8186","sd":"18","ssbd":"10","lsbd":"School Board Lake Mountain 2"},{"vid":"2573df2aa7079d29ff96cbf129470aabe89fdc09d15921abd21b3bd3f42faaba","name":"Delcie Kunde","party":"","address":"2433 N Cider Pl, Saratoga Springs, UT 84045","precinct":"25SR01","hd":"51","v_score":"3.93832808","decile":"6","lat":40.40651616108949,"lng":-111.92553535011663,"phone":"(548) 073-2189","sd":"18","ssbd":"10","lsbd":"School Board Lake Mountain 2"},{"vid":"2246747","name":"Torrie Reinger","party":"","address":"406 W Plum Pl, Saratoga Springs, UT 84045","precinct":"25SR01","hd":"51","v_score":"2.817000428","decile":"6","lat":40.404372977503094,"lng":-111.9259649602408,"phone":"(844) 930-5707","sd":"18","ssbd":"10","lsbd":"School Board Lake Mountain 2"},{"vid":"2250197","name":"Harvy Fadel","party":"Rep","address":"412 W Plum Pl, Saratoga Springs, UT 84045","precinct":"25SR01","hd":"51","v_score":"14.10933624","decile":"9","lat":40.404547574862505,"lng":-111.92617585646433,"phone":"(353) 907-5981","sd":"18","ssbd":"10","lsbd":"School Board Lake Mountain 2"},{"vid":"2251318","name":"Raul Lehner","party":"","address":"194 W Sugarbowl Cir, Saratoga Springs, UT 84045","precinct":"25SR01","hd":"51","v_score":"3.93832808","decile":"6","lat":40.41027732557611,"lng":-111.92727988023995,"phone":"(519) 159-7184","sd":"18","ssbd":"10","lsbd":"School Board Lake Mountain 2"},{"vid":"2266583","name":"Rosann Wisoky","party":"Rep","address":"2676 N Bluebell Dr, Saratoga Springs, UT 84045","precinct":"25SR01","hd":"51","v_score":"2.817000428","decile":"6","lat":40.411034104641516,"lng":-111.9268857735452,"phone":"(835) 038-9195","sd":"18","ssbd":"10","lsbd":"School Board Lake Mountain 2"},{"vid":"bb234922c033c8bc88602b6bab9a507f68d1a88b55988db7c4ed1e2ac230f4cb","name":"Aiyanna Weissnat","party":"Dem","address":"2332 N Cherry Cir, Saratoga Springs, UT 84045","precinct":"25SR01","hd":"51","v_score":"3.93832808","decile":"6","lat":40.4044863548962,"lng":-111.92764324801306,"phone":"(914) 690-2004","sd":"18","ssbd":"10","lsbd":"School Board Lake Mountain 2"},{"vid":"2273002","name":"Pinkey Schamberger MD","party":"Rep","address":"2449 N Nectar Way, Saratoga Springs, UT 84045","precinct":"25SR01","hd":"51","v_score":"1.121327652","decile":"3","lat":40.4068891852171,"lng":-111.92880745653646,"phone":"(508) 828-7510","sd":"18","ssbd":"10","lsbd":"School Board Lake Mountain 2"},{"vid":"2278825","name":"Torrey Ernser-Schmitt","party":"Dem","address":"2524 N Apricot Pl, Saratoga Springs, UT 84045","precinct":"25SR01","hd":"51","v_score":"2.315214949","decile":"5","lat":40.40819832285961,"lng":-111.92557062065224,"phone":"(901) 674-8669","sd":"18","ssbd":"10","lsbd":"School Board Lake Mountain 2"},{"vid":"c61015f1f5f52b656a69f169668ef648f5990266412c1e5f663e8ae44c24f08a","name":"Elizebeth Strosin","party":"Dem","address":"2681 N Daisy Dr, Saratoga Springs, UT 84045","precinct":"25SR01","hd":"51","v_score":"2.315214949","decile":"5","lat":40.41091167541968,"lng":-111.92803725875477,"phone":"(175) 467-9735","sd":"18","ssbd":"10","lsbd":"School Board Lake Mountain 2"},{"vid":"2290660","name":"Parley Sipes-Bogan","party":"Dem","address":"199 W Nectar Way, Saratoga Springs, UT 84045","precinct":"25SR01","hd":"51","v_score":"2.315214949","decile":"5","lat":40.40676870203007,"lng":-111.9262724947189,"phone":"(927) 818-8464","sd":"18","ssbd":"10","lsbd":"School Board Lake Mountain 2"},{"vid":"2293424","name":"Siobhan Connelly-Lebsack","party":"","address":"2641 N Daisy Dr, Saratoga Springs, UT 84045","precinct":"25SR01","hd":"51","v_score":"2.817000428","decile":"6","lat":40.41029775919546,"lng":-111.92842436296033,"phone":"(939) 398-6381","sd":"18","ssbd":"10","lsbd":"School Board Lake Mountain 2"},{"vid":"2301870","name":"Loretto Cronin","party":"Dem","address":"2681 N Daisy Dr, Saratoga Springs, UT 84045","precinct":"25SR01","hd":"51","v_score":"2.315214949","decile":"5","lat":40.41091167541968,"lng":-111.92803725875477,"phone":"(959) 069-7400","sd":"18","ssbd":"10","lsbd":"School Board Lake Mountain 2"},{"vid":"944d0b4eff5507e3c75d163800003f08f6889f8343fd7606627f01cc71c02eca","name":"Dr. Michel Dickinson II","party":"Dem","address":"2260 N Harvest Moon Dr, Saratoga Springs, UT 84045","precinct":"25SR01","hd":"51","v_score":"3.93832808","decile":"6","lat":40.40327057929687,"lng":-111.92493998957406,"phone":"(621) 116-8243","sd":"18","ssbd":"10","lsbd":"School Board Lake Mountain 2"},{"vid":"2316872","name":"Mikel Dickinson","party":"","address":"2461 N Nectar Way, Saratoga Springs, UT 84045","precinct":"25SR01","hd":"51","v_score":"1.121327652","decile":"3","lat":40.407290378006586,"lng":-111.92839258685018,"phone":"(844) 011-0250","sd":"18","ssbd":"10","lsbd":"School Board Lake Mountain 2"},{"vid":"2318773","name":"Miss Toya Pollich","party":"Rep","address":"213 W Prickly Pear Dr, Saratoga Springs, UT 84045","precinct":"25SR01","hd":"51","v_score":"2.315214949","decile":"5","lat":40.40926202783674,"lng":-111.92761410307197,"phone":"(280) 811-4420","sd":"18","ssbd":"10","lsbd":"School Board Lake Mountain 2"},{"vid":"2326691","name":"Lilianna Lakin","party":"","address":"2386 N Nectar Way, Saratoga Springs, UT 84045","precinct":"25SR01","hd":"51","v_score":"1.121327652","decile":"3","lat":40.40550565431429,"lng":-111.92809514196334,"phone":"(270) 881-8137","sd":"18","ssbd":"10","lsbd":"School Board Lake Mountain 2"},{"vid":"2330003","name":"Dr. Thomas Casper V","party":"","address":"2494 N Fernleaf Dr, Saratoga Springs, UT 84045","precinct":"25SR01","hd":"51","v_score":"5.331806201","decile":"7","lat":40.40731857783344,"lng":-111.92896046858527,"phone":"(163) 537-6971","sd":"18","ssbd":"10","lsbd":"School Board Lake Mountain 2"},{"vid":"2332222","name":"Missouri Quigley","party":"Rep","address":"2641 N Daisy Dr, Saratoga Springs, UT 84045","precinct":"25SR01","hd":"51","v_score":"3.93832808","decile":"6","lat":40.41029775919546,"lng":-111.92842436296033,"phone":"(506) 176-1527","sd":"18","ssbd":"10","lsbd":"School Board Lake Mountain 2"},{"vid":"2348475","name":"Estie Klein DDS","party":"Dem","address":"2373 N Blossom Ct, Saratoga Springs, UT 84045","precinct":"25SR01","hd":"51","v_score":"1.193887297","decile":"3","lat":40.405367908190094,"lng":-111.93013736671887,"phone":"(272) 474-2253","sd":"18","ssbd":"10","lsbd":"School Board Lake Mountain 2"},{"vid":"2351159","name":"Stefan McGlynn-Robel","party":"Rep","address":"148 W Apple Ave, Saratoga Springs, UT 84045","precinct":"25SR01","hd":"51","v_score":"1.193887297","decile":"3","lat":40.40473547626127,"lng":-111.92435970187745,"phone":"(419) 978-5197","sd":"18","ssbd":"10","lsbd":"School Board Lake Mountain 2"},{"vid":"2357461","name":"Mrs. Karie Murray PhD","party":"Rep","address":"158 W Apple Ave, Saratoga Springs, UT 84045","precinct":"25SR01","hd":"51","v_score":"3.93832808","decile":"6","lat":40.404904039736685,"lng":-111.92463151166986,"phone":"(515) 409-1168","sd":"18","ssbd":"10","lsbd":"School Board Lake Mountain 2"},{"vid":"2361196","name":"Dorris Johnson MD","party":"Dem","address":"203 W Apple Ave, Saratoga Springs, UT 84045","precinct":"25SR01","hd":"51","v_score":"3.997370217","decile":"6","lat":40.40564538257405,"lng":-111.92614811738667,"phone":"(283) 105-8960","sd":"18","ssbd":"10","lsbd":"School Board Lake Mountain 2"},{"vid":"2368685","name":"Val Hayes-Lemke","party":"Dem","address":"2512 N Jonathan Pl, Saratoga Springs, UT 84045","precinct":"25SR01","hd":"51","v_score":"1.121327652","decile":"3","lat":40.40805565102677,"lng":-111.92658666046978,"phone":"(775) 036-5166","sd":"18","ssbd":"10","lsbd":"School Board Lake Mountain 2"},{"vid":"2398473","name":"Dr. Elder Rohan","party":"","address":"182 W Apple Ave, Saratoga Springs, UT 84045","precinct":"25SR01","hd":"51","v_score":"2.315214949","decile":"5","lat":40.40543807871113,"lng":-111.92536341980025,"phone":"(499) 365-5833","sd":"18","ssbd":"10","lsbd":"School Board Lake Mountain 2"},{"vid":"2420441","name":"Elwanda Boyle","party":"","address":"199 W Nectar Way, Saratoga Springs, UT 84045","precinct":"25SR01","hd":"51","v_score":"6.528952915","decile":"7","lat":40.40676870203007,"lng":-111.9262724947189,"phone":"(272) 379-4623","sd":"18","ssbd":"10","lsbd":"School Board Lake Mountain 2"},{"vid":"2422235","name":"Cinnamon Toy","party":"Dem","address":"262 W Nectar Way, Saratoga Springs, UT 84045","precinct":"25SR01","hd":"51","v_score":"1.121327652","decile":"3","lat":40.40727798887906,"lng":-111.9280037013487,"phone":"(203) 520-8834","sd":"18","ssbd":"10","lsbd":"School Board Lake Mountain 2"},{"vid":"2429165","name":"Deb Carroll","party":"","address":"213 W Prickly Pear Dr, Saratoga Springs, UT 84045","precinct":"25SR01","hd":"51","v_score":"2.315214949","decile":"5","lat":40.40926202783674,"lng":-111.92761410307197,"phone":"(350) 487-2981","sd":"18","ssbd":"10","lsbd":"School Board Lake Mountain 2"},{"vid":"2436167","name":"Vernice Feil","party":"Dem","address":"2388 N Blossom Ct, Saratoga Springs, UT 84045","precinct":"25SR01","hd":"51","v_score":"3.93832808","decile":"6","lat":40.40559796994997,"lng":-111.9300138550896,"phone":"(659) 885-1789","sd":"18","ssbd":"10","lsbd":"School Board Lake Mountain 2"},{"vid":"2439089","name":"Judie Dickinson","party":"Rep","address":"2611 N Daisy Dr, Saratoga Springs, UT 84045","precinct":"25SR01","hd":"51","v_score":"3.93832808","decile":"6","lat":40.409859386429666,"lng":-111.92892020091945,"phone":"(817) 861-8389","sd":"18","ssbd":"10","lsbd":"School Board Lake Mountain 2"},{"vid":"2443428","name":"Harriet Crist-Harber","party":"Dem","address":"433 W Autumn Sky Ct, Saratoga Springs, UT 84045","precinct":"25SR01","hd":"51","v_score":"2.315214949","decile":"5","lat":40.40523127198404,"lng":-111.93148344049696,"phone":"(317) 777-6544","sd":"18","ssbd":"10","lsbd":"School Board Lake Mountain 2"},{"vid":"2444157","name":"Winifred Mayer","party":"","address":"205 W Apple Ave, Saratoga Springs, UT 84045","precinct":"25SR01","hd":"51","v_score":"3.93832808","decile":"6","lat":40.40601508832324,"lng":-111.92628750534584,"phone":"(759) 706-1213","sd":"18","ssbd":"10","lsbd":"School Board Lake Mountain 2"},{"vid":"2448367","name":"Caleb Jacobs","party":"Rep","address":"354 W Gooseberry Cir, Saratoga Springs, UT 84045","precinct":"25SR01","hd":"51","v_score":"1.121327652","decile":"3","lat":40.40778193900456,"lng":-111.92997405348582,"phone":"(224) 544-6059","sd":"18","ssbd":"10","lsbd":"School Board Lake Mountain 2"},{"vid":"2456330","name":"Ms. Cherelle Jakubowski PhD","party":"Dem","address":"407 W Plum Pl, Saratoga Springs, UT 84045","precinct":"25SR01","hd":"51","v_score":"1.121327652","decile":"3","lat":40.40395950802701,"lng":-111.92617152320786,"phone":"(936) 406-4531","sd":"18","ssbd":"10","lsbd":"School Board Lake Mountain 2"},{"vid":"2459731","name":"Damarcus Reynolds","party":"Dem","address":"2447 N Nectar Way, Saratoga Springs, UT 84045","precinct":"25SR01","hd":"51","v_score":"2.817000428","decile":"6","lat":40.406756056744534,"lng":-111.92848413623886,"phone":"(763) 868-0685","sd":"18","ssbd":"10","lsbd":"School Board Lake Mountain 2"},{"vid":"2468451","name":"Mr. Jonathan DuBuque","party":"","address":"187 W Thistle Dr, Saratoga Springs, UT 84045","precinct":"25SR01","hd":"51","v_score":"0","decile":"1","lat":40.408585274271196,"lng":-111.9262764472504,"phone":"(973) 514-7351","sd":"18","ssbd":"10","lsbd":"School Board Lake Mountain 2"},{"vid":"2471835","name":"Dr. Blaine Beahan","party":"","address":"346 W Plum Pl, Saratoga Springs, UT 84045","precinct":"25SR01","hd":"51","v_score":"0","decile":"1","lat":40.40383680888738,"lng":-111.92453606275495,"phone":"(685) 748-1135","sd":"18","ssbd":"10","lsbd":"School Board Lake Mountain 2"},{"vid":"2490443","name":"Ms. Ivette Fisher PhD","party":"Rep","address":"426 W Plum Pl, Saratoga Springs, UT 84045","precinct":"25SR01","hd":"51","v_score":"0","decile":"1","lat":40.40455600509027,"lng":-111.92655735232218,"phone":"(552) 630-2378","sd":"18","ssbd":"10","lsbd":"School Board Lake Mountain 2"},{"vid":"2494876","name":"Maribel Roob","party":"Dem","address":"306 W Verbena Dr, Saratoga Springs, UT 84045","precinct":"25SR01","hd":"51","v_score":"1.193887297","decile":"3","lat":40.40830971619749,"lng":-111.9288720519884,"phone":"(249) 613-4875","sd":"18","ssbd":"10","lsbd":"School Board Lake Mountain 2"},{"vid":"2496439","name":"Martika Mosciski","party":"","address":"2348 N Cherry Cir, Saratoga Springs, UT 84045","precinct":"25SR01","hd":"51","v_score":"0","decile":"1","lat":40.40484839780573,"lng":-111.92759109331747,"phone":"(498) 603-3056","sd":"18","ssbd":"10","lsbd":"School Board Lake Mountain 2"},{"vid":"2498568","name":"London Altenwerth-Emmerich","party":"Dem","address":"148 W Apple Ave, Saratoga Springs, UT 84045","precinct":"25SR01","hd":"51","v_score":"1.193887297","decile":"3","lat":40.40473547626127,"lng":-111.92435970187745,"phone":"(234) 589-9230","sd":"18","ssbd":"10","lsbd":"School Board Lake Mountain 2"},{"vid":"2501559","name":"Darwin Will-McLaughlin","party":"Dem","address":"234 W Nectar Way, Saratoga Springs, UT 84045","precinct":"25SR01","hd":"51","v_score":"1.193887297","decile":"3","lat":40.40734716193656,"lng":-111.92728857612416,"phone":"(139) 733-6612","sd":"18","ssbd":"10","lsbd":"School Board Lake Mountain 2"},{"vid":"2520570","name":"Ms. Jesse Bednar DVM","party":"Rep","address":"368 W Plum Pl, Saratoga Springs, UT 84045","precinct":"25SR01","hd":"51","v_score":"1.193887297","decile":"4","lat":40.404208245781994,"lng":-111.92507778173248,"phone":"(778) 640-5376","sd":"18","ssbd":"10","lsbd":"School Board Lake Mountain 2"},{"vid":"2534714","name":"Lisbeth Bernier","party":"","address":"252 W Nectar Way, Saratoga Springs, UT 84045","precinct":"25SR01","hd":"51","v_score":"1.193887297","decile":"4","lat":40.40726821404704,"lng":-111.92769173060773,"phone":"(272) 962-8573","sd":"18","ssbd":"10","lsbd":"School Board Lake Mountain 2"},{"vid":"2539205","name":"Sal Dibbert","party":"Dem","address":"2513 N Apricot Pl, Saratoga Springs, UT 84045","precinct":"25SR01","hd":"51","v_score":"0","decile":"1","lat":40.40775358834633,"lng":-111.92605907404008,"phone":"(163) 413-6285","sd":"18","ssbd":"10","lsbd":"School Board Lake Mountain 2"},{"vid":"2547021","name":"Miss Gillian McKenzie PhD","party":"Rep","address":"2437 N Cider Pl, Saratoga Springs, UT 84045","precinct":"25SR01","hd":"51","v_score":"1.193887297","decile":"4","lat":40.40653737507801,"lng":-111.92537082606133,"phone":"(621) 145-7164","sd":"18","ssbd":"10","lsbd":"School Board Lake Mountain 2"},{"vid":"2550228","name":"Link Runte","party":"Dem","address":"227 W Apple Ave, Saratoga Springs, UT 84045","precinct":"25SR01","hd":"51","v_score":"1.193887297","decile":"4","lat":40.40610864143924,"lng":-111.92677276426673,"phone":"(771) 840-8705","sd":"18","ssbd":"10","lsbd":"School Board Lake Mountain 2"},{"vid":"2561987","name":"Nyree Bergstrom","party":"","address":"423 W Plum Pl, Saratoga Springs, UT 84045","precinct":"25SR01","hd":"51","v_score":"2.817000428","decile":"6","lat":40.40418914471356,"lng":-111.92657146509944,"phone":"(972) 935-7300","sd":"18","ssbd":"10","lsbd":"School Board Lake Mountain 2"},{"vid":"2585953","name":"Mills Pfannerstill","party":"Rep","address":"313 W Peach Pl, Saratoga Springs, UT 84045","precinct":"25SR01","hd":"51","v_score":"13.61907049","decile":"9","lat":40.405656085577334,"lng":-111.92877301507536,"phone":"(566) 302-7284","sd":"18","ssbd":"10","lsbd":"School Board Lake Mountain 2"},{"vid":"2587239","name":"Miss Lassie Schoen DDS","party":"","address":"193 W Apple Ave, Saratoga Springs, UT 84045","precinct":"25SR01","hd":"51","v_score":"0","decile":"1","lat":40.40511425386521,"lng":-111.92567957023799,"phone":"(356) 838-4577","sd":"18","ssbd":"10","lsbd":"School Board Lake Mountain 2"},{"vid":"2624098","name":"Perri Turcotte","party":"Rep","address":"426 W Plum Pl, Saratoga Springs, UT 84045","precinct":"25SR01","hd":"51","v_score":"1.193887297","decile":"4","lat":40.40455600509027,"lng":-111.92655735232218,"phone":"(355) 883-8073","sd":"18","ssbd":"10","lsbd":"School Board Lake Mountain 2"},{"vid":"2646709","name":"Ruie Gutmann","party":"Rep","address":"2563 N Bluebell Dr, Saratoga Springs, UT 84045","precinct":"25SR01","hd":"51","v_score":"1.193887297","decile":"4","lat":40.40879676666408,"lng":-111.92504965755052,"phone":"(574) 543-6289","sd":"18","ssbd":"10","lsbd":"School Board Lake Mountain 2"},{"vid":"2661529","name":"Dr. Bertrand Rice","party":"Dem","address":"2668 N Bluebell Dr, Saratoga Springs, UT 84045","precinct":"25SR01","hd":"51","v_score":"1.193887297","decile":"4","lat":40.410832975235046,"lng":-111.92672371463104,"phone":"(977) 324-6949","sd":"18","ssbd":"10","lsbd":"School Board Lake Mountain 2"},{"vid":"2664319","name":"Hervey Mayer","party":"","address":"407 W Indian Summer Dr, Saratoga Springs, UT 84045","precinct":"25SR01","hd":"51","v_score":"0","decile":"1","lat":40.40440726009765,"lng":-111.93042205190956,"phone":"(733) 497-0614","sd":"18","ssbd":"10","lsbd":"School Board Lake Mountain 2"},{"vid":"2674159","name":"Sergio Runolfsson-Paucek","party":"Dem","address":"389 W Indian Summer Dr, Saratoga Springs, UT 84045","precinct":"25SR01","hd":"51","v_score":"0","decile":"2","lat":40.40463641253692,"lng":-111.93000826332947,"phone":"(346) 914-0083","sd":"18","ssbd":"10","lsbd":"School Board Lake Mountain 2"},{"vid":"2679917","name":"Eli Armstrong","party":"Dem","address":"2421 N Apple Ct, Saratoga Springs, UT 84045","precinct":"25SR01","hd":"51","v_score":"0","decile":"2","lat":40.406218407187524,"lng":-111.92720294592002,"phone":"(589) 955-5373","sd":"18","ssbd":"10","lsbd":"School Board Lake Mountain 2"},{"vid":"2695907","name":"Burke Kshlerin","party":"","address":"2436 N Nectar Way, Saratoga Springs, UT 84045","precinct":"25SR01","hd":"51","v_score":"1.193887297","decile":"4","lat":40.406486534798695,"lng":-111.92824818326717,"phone":"(343) 476-1734","sd":"18","ssbd":"10","lsbd":"School Board Lake Mountain 2"},{"vid":"2713382","name":"Beverlee Lehner","party":"Dem","address":"2451 N Fernleaf Dr, Saratoga Springs, UT 84045","precinct":"25SR01","hd":"51","v_score":"11.99595736","decile":"9","lat":40.406887236392954,"lng":-111.93023799032424,"phone":"(839) 116-6000","sd":"18","ssbd":"10","lsbd":"School Board Lake Mountain 2"},{"vid":"2714494","name":"Dr. Hasel Hintz","party":"Rep","address":"2361 N Cherry Cir, Saratoga Springs, UT 84045","precinct":"25SR01","hd":"51","v_score":"0","decile":"2","lat":40.40523892215652,"lng":-111.92776765707141,"phone":"(612) 877-4360","sd":"18","ssbd":"10","lsbd":"School Board Lake Mountain 2"},{"vid":"2714649","name":"Jedidiah Hettinger","party":"","address":"432 W Autumn Sky Ct, Saratoga Springs, UT 84045","precinct":"25SR01","hd":"51","v_score":"1.193887297","decile":"4","lat":40.40555334611285,"lng":-111.93148037946472,"phone":"(859) 518-3051","sd":"18","ssbd":"10","lsbd":"School Board Lake Mountain 2"},{"vid":"2722555","name":"Carole Schuster","party":"Dem","address":"2421 N Cider Pl, Saratoga Springs, UT 84045","precinct":"25SR01","hd":"51","v_score":"0","decile":"2","lat":40.40619289356369,"lng":-111.92583731477029,"phone":"(878) 779-4201","sd":"18","ssbd":"10","lsbd":"School Board Lake Mountain 2"},{"vid":"2726829","name":"Thad Lakin-Dietrich","party":"Rep","address":"2372 N Orchard Way, Saratoga Springs, UT 84045","precinct":"25SR01","hd":"51","v_score":"4.214075011","decile":"7","lat":40.405189843074304,"lng":-111.92472235754113,"phone":"(559) 021-3766","sd":"18","ssbd":"10","lsbd":"School Board Lake Mountain 2"},{"vid":"2729553","name":"Treena Howell DDS","party":"Rep","address":"2512 N Jonathan Pl, Saratoga Springs, UT 84045","precinct":"25SR01","hd":"51","v_score":"0","decile":"2","lat":40.40805565102677,"lng":-111.92658666046978,"phone":"(255) 553-2793","sd":"18","ssbd":"10","lsbd":"School Board Lake Mountain 2"},{"vid":"2736144","name":"Signa Schultz","party":"","address":"249 W Jonathan Pl, Saratoga Springs, UT 84045","precinct":"25SR01","hd":"51","v_score":"0","decile":"2","lat":40.40798725485478,"lng":-111.92780339812457,"phone":"(956) 353-6536","sd":"18","ssbd":"10","lsbd":"School Board Lake Mountain 2"},{"vid":"2740654","name":"Casper Quitzon II","party":"Rep","address":"322 W Peach Pl, Saratoga Springs, UT 84045","precinct":"25SR01","hd":"51","v_score":"4.069929862","decile":"7","lat":40.406059637970664,"lng":-111.92898423144513,"phone":"(692) 888-7600","sd":"18","ssbd":"10","lsbd":"School Board Lake Mountain 2"},{"vid":"2741162","name":"Ms. Pearlie Gusikowski","party":"","address":"433 W Autumn Sky Ct, Saratoga Springs, UT 84045","precinct":"25SR01","hd":"51","v_score":"0","decile":"2","lat":40.40523127198404,"lng":-111.93148344049696,"phone":"(282) 545-5112","sd":"18","ssbd":"10","lsbd":"School Board Lake Mountain 2"},{"vid":"2742213","name":"Mr. Theo Okuneva DVM","party":"Rep","address":"2361 N Nectar Way, Saratoga Springs, UT 84045","precinct":"25SR01","hd":"51","v_score":"4.214075011","decile":"7","lat":40.40521359515845,"lng":-111.92896011336123,"phone":"(366) 664-1231","sd":"18","ssbd":"10","lsbd":"School Board Lake Mountain 2"},{"vid":"2747381","name":"Scot Fritsch","party":"Dem","address":"2396 N Nectar Way, Saratoga Springs, UT 84045","precinct":"25SR01","hd":"51","v_score":"0","decile":"2","lat":40.405684229790914,"lng":-111.92814539813014,"phone":"(826) 977-3944","sd":"18","ssbd":"10","lsbd":"School Board Lake Mountain 2"},{"vid":"2760047","name":"Seaborn Smith","party":"","address":"2461 N Nectar Way, Saratoga Springs, UT 84045","precinct":"25SR01","hd":"51","v_score":"1.193887297","decile":"4","lat":40.407290378006586,"lng":-111.92839258685018,"phone":"(292) 192-9066","sd":"18","ssbd":"10","lsbd":"School Board Lake Mountain 2"},{"vid":"2768795","name":"Glynda Parisian DDS","party":"","address":"354 W Gooseberry Cir, Saratoga Springs, UT 84045","precinct":"25SR01","hd":"51","v_score":"1.193887297","decile":"4","lat":40.40778193900456,"lng":-111.92997405348582,"phone":"(452) 996-3524","sd":"18","ssbd":"10","lsbd":"School Board Lake Mountain 2"},{"vid":"2768803","name":"Lissette Marks-Fritsch","party":"","address":"267 W Nectar Way, Saratoga Springs, UT 84045","precinct":"25SR01","hd":"51","v_score":"0","decile":"2","lat":40.40683928261531,"lng":-111.92788517533735,"phone":"(422) 285-5636","sd":"18","ssbd":"10","lsbd":"School Board Lake Mountain 2"},{"vid":"2773663","name":"Dr. Linda Wisoky DDS","party":"Rep","address":"2348 N Nectar Way, Saratoga Springs, UT 84045","precinct":"25SR01","hd":"51","v_score":"0","decile":"2","lat":40.40477094933602,"lng":-111.92869869476324,"phone":"(991) 502-1895","sd":"18","ssbd":"10","lsbd":"School Board Lake Mountain 2"},{"vid":"2777917","name":"Clemens Green","party":"Dem","address":"354 W Gooseberry Cir, Saratoga Springs, UT 84045","precinct":"25SR01","hd":"51","v_score":"1.193887297","decile":"4","lat":40.40778193900456,"lng":-111.92997405348582,"phone":"(173) 070-0832","sd":"18","ssbd":"10","lsbd":"School Board Lake Mountain 2"},{"vid":"2788005","name":"Miss Ashleigh Jacobi","party":"Dem","address":"2433 N Paintbrush Dr, Saratoga Springs, UT 84045","precinct":"25SR01","hd":"51","v_score":"8.284004873","decile":"8","lat":40.40645688796538,"lng":-111.93146689000935,"phone":"(233) 692-6299","sd":"18","ssbd":"10","lsbd":"School Board Lake Mountain 2"},{"vid":"2791670","name":"Margot Willms","party":"Rep","address":"2657 N Bluebell Dr, Saratoga Springs, UT 84045","precinct":"25SR01","hd":"51","v_score":"0","decile":"2","lat":40.41043472998284,"lng":-111.92701492315094,"phone":"(773) 593-7660","sd":"18","ssbd":"10","lsbd":"School Board Lake Mountain 2"},{"vid":"2792583","name":"Ahmed Cremin","party":"","address":"2504 N Jonathan Pl, Saratoga Springs, UT 84045","precinct":"25SR01","hd":"51","v_score":"0","decile":"2","lat":40.40768605100184,"lng":-111.92653257992876,"phone":"(870) 227-3164","sd":"18","ssbd":"10","lsbd":"School Board Lake Mountain 2"},{"vid":"2794805","name":"Willene Zboncak","party":"Dem","address":"234 W Nectar Way, Saratoga Springs, UT 84045","precinct":"25SR01","hd":"51","v_score":"0","decile":"2","lat":40.40734716193656,"lng":-111.92728857612416,"phone":"(621) 625-2735","sd":"18","ssbd":"10","lsbd":"School Board Lake Mountain 2"},{"vid":"2799748","name":"Alphonse Wisozk Sr.","party":"","address":"428 W Indian Summer Dr, Saratoga Springs, UT 84045","precinct":"25SR01","hd":"51","v_score":"1.193887297","decile":"4","lat":40.40462835110597,"lng":-111.93129239397278,"phone":"(679) 587-3080","sd":"18","ssbd":"10","lsbd":"School Board Lake Mountain 2"},{"vid":"2801074","name":"Randle Bernier","party":"Rep","address":"247 W Jonathan Pl, Saratoga Springs, UT 84045","precinct":"25SR01","hd":"51","v_score":"1.193887297","decile":"4","lat":40.40779531442197,"lng":-111.92786877653144,"phone":"(872) 380-6639","sd":"18","ssbd":"10","lsbd":"School Board Lake Mountain 2"},{"vid":"2812029","name":"Iyanna Kovacek","party":"Rep","address":"2451 N Fernleaf Dr, Saratoga Springs, UT 84045","precinct":"25SR01","hd":"51","v_score":"1.193887297","decile":"4","lat":40.406887236392954,"lng":-111.93023799032424,"phone":"(153) 649-7342","sd":"18","ssbd":"10","lsbd":"School Board Lake Mountain 2"},{"vid":"2814200","name":"Lionel Stoltenberg I","party":"Rep","address":"433 W Autumn Sky Ct, Saratoga Springs, UT 84045","precinct":"25SR01","hd":"51","v_score":"1.193887297","decile":"4","lat":40.40523127198404,"lng":-111.93148344049696,"phone":"(165) 955-2059","sd":"18","ssbd":"10","lsbd":"School Board Lake Mountain 2"},{"vid":"2814352","name":"Valentine Hilll DVM","party":"Dem","address":"412 W Plum Pl, Saratoga Springs, UT 84045","precinct":"25SR01","hd":"51","v_score":"4.069929862","decile":"7","lat":40.404547574862505,"lng":-111.92617585646433,"phone":"(935) 229-6305","sd":"18","ssbd":"10","lsbd":"School Board Lake Mountain 2"},{"vid":"2821931","name":"Pierre Aufderhar","party":"Rep","address":"433 W Autumn Sky Ct, Saratoga Springs, UT 84045","precinct":"25SR01","hd":"51","v_score":"1.193887297","decile":"4","lat":40.40523127198404,"lng":-111.93148344049696,"phone":"(848) 331-0478","sd":"18","ssbd":"10","lsbd":"School Board Lake Mountain 2"},{"vid":"2822110","name":"Gianni Jenkins","party":"","address":"2353 N Nectar Way, Saratoga Springs, UT 84045","precinct":"25SR01","hd":"51","v_score":"1.193887297","decile":"4","lat":40.40502856234356,"lng":-111.92908226502242,"phone":"(829) 781-6296","sd":"18","ssbd":"10","lsbd":"School Board Lake Mountain 2"},{"vid":"2824696","name":"Keila Ziemann","party":"","address":"407 W Indian Summer Dr, Saratoga Springs, UT 84045","precinct":"25SR01","hd":"51","v_score":"0","decile":"2","lat":40.40440726009765,"lng":-111.93042205190956,"phone":"(623) 199-5353","sd":"18","ssbd":"10","lsbd":"School Board Lake Mountain 2"},{"vid":"2841435","name":"Ms. Dennie Hagenes DDS","party":"","address":"2396 N Nectar Way, Saratoga Springs, UT 84045","precinct":"25SR01","hd":"51","v_score":"0","decile":"2","lat":40.405684229790914,"lng":-111.92814539813014,"phone":"(871) 245-1936","sd":"18","ssbd":"10","lsbd":"School Board Lake Mountain 2"},{"vid":"2841847","name":"Linden Jast","party":"Rep","address":"2494 N Apricot Pl, Saratoga Springs, UT 84045","precinct":"25SR01","hd":"51","v_score":"1.193887297","decile":"4","lat":40.40753342546333,"lng":-111.92554503736909,"phone":"(613) 129-3074","sd":"18","ssbd":"10","lsbd":"School Board Lake Mountain 2"},{"vid":"2850650","name":"Von Gusikowski","party":"Dem","address":"417 W Indian Summer Dr, Saratoga Springs, UT 84045","precinct":"25SR01","hd":"51","v_score":"1.193887297","decile":"4","lat":40.40430594622772,"lng":-111.93069303502249,"phone":"(130) 615-3950","sd":"18","ssbd":"10","lsbd":"School Board Lake Mountain 2"},{"vid":"2851103","name":"Hymen Nienow","party":"Dem","address":"2478 N Apricot Pl, Saratoga Springs, UT 84045","precinct":"25SR01","hd":"51","v_score":"1.193887297","decile":"4","lat":40.407287191923665,"lng":-111.92543585497722,"phone":"(323) 062-4707","sd":"18","ssbd":"10","lsbd":"School Board Lake Mountain 2"},{"vid":"2857465","name":"Orvil Mayer","party":"","address":"2441 N Apple Ct, Saratoga Springs, UT 84045","precinct":"25SR01","hd":"51","v_score":"0","decile":"2","lat":40.40660973920565,"lng":-111.92724289295037,"phone":"(566) 715-4287","sd":"18","ssbd":"10","lsbd":"School Board Lake Mountain 2"},{"vid":"2872931","name":"Ms. Ursula Hahn","party":"Dem","address":"2404 N Nectar Way, Saratoga Springs, UT 84045","precinct":"25SR01","hd":"51","v_score":"0","decile":"2","lat":40.40582729486184,"lng":-111.92814614319269,"phone":"(199) 895-8188","sd":"18","ssbd":"10","lsbd":"School Board Lake Mountain 2"},{"vid":"2876225","name":"Mr. Ezra Aufderhar III","party":"","address":"203 W Apple Ave, Saratoga Springs, UT 84045","precinct":"25SR01","hd":"51","v_score":"4.069929862","decile":"7","lat":40.40564538257405,"lng":-111.92614811738667,"phone":"(376) 755-9194","sd":"18","ssbd":"10","lsbd":"School Board Lake Mountain 2"},{"vid":"2884160","name":"Dr. Alvie Connelly","party":"","address":"412 W Plum Pl, Saratoga Springs, UT 84045","precinct":"25SR01","hd":"51","v_score":"4.069929862","decile":"7","lat":40.404547574862505,"lng":-111.92617585646433,"phone":"(215) 011-1092","sd":"18","ssbd":"10","lsbd":"School Board Lake Mountain 2"},{"vid":"2886628","name":"Madge Mills","party":"Dem","address":"2431 N Apple Ct, Saratoga Springs, UT 84045","precinct":"25SR01","hd":"51","v_score":"1.193887297","decile":"4","lat":40.406373142442355,"lng":-111.92748731320431,"phone":"(689) 165-4423","sd":"18","ssbd":"10","lsbd":"School Board Lake Mountain 2"},{"vid":"2889805","name":"Lilburn Stroman","party":"","address":"2434 N Fernleaf Dr, Saratoga Springs, UT 84045","precinct":"25SR01","hd":"51","v_score":"1.193887297","decile":"4","lat":40.40605738692925,"lng":-111.9301901147235,"phone":"(262) 542-3828","sd":"18","ssbd":"10","lsbd":"School Board Lake Mountain 2"},{"vid":"2895159","name":"Corrie Braun","party":"Rep","address":"406 W Plum Pl, Saratoga Springs, UT 84045","precinct":"25SR01","hd":"51","v_score":"0","decile":"2","lat":40.404372977503094,"lng":-111.9259649602408,"phone":"(620) 149-2542","sd":"18","ssbd":"10","lsbd":"School Board Lake Mountain 2"},{"vid":"2897352","name":"Samatha Weimann","party":"Rep","address":"216 W Apple Ave, Saratoga Springs, UT 84045","precinct":"25SR01","hd":"51","v_score":"0","decile":"2","lat":40.406429818652725,"lng":-111.92651276368565,"phone":"(894) 040-9028","sd":"18","ssbd":"10","lsbd":"School Board Lake Mountain 2"},{"vid":"2897810","name":"Mr. Nunzio Kuvalis DDS","party":"Rep","address":"217 W Apple Ave, Saratoga Springs, UT 84045","precinct":"25SR01","hd":"51","v_score":"0","decile":"2","lat":40.40601050381994,"lng":-111.92659758674415,"phone":"(437) 009-3551","sd":"18","ssbd":"10","lsbd":"School Board Lake Mountain 2"},{"vid":"2911850","name":"Ms. Lauren Rath","party":"Rep","address":"2591 N Daisy Dr, Saratoga Springs, UT 84045","precinct":"25SR01","hd":"51","v_score":"0","decile":"2","lat":40.409355272967005,"lng":-111.92937689009334,"phone":"(720) 354-8045","sd":"18","ssbd":"10","lsbd":"School Board Lake Mountain 2"},{"vid":"2929472","name":"Gorge Gleason","party":"Rep","address":"2488 N Fernleaf Dr, Saratoga Springs, UT 84045","precinct":"25SR01","hd":"51","v_score":"0","decile":"2","lat":40.407169251633356,"lng":-111.92917067374877,"phone":"(103) 948-4020","sd":"18","ssbd":"10","lsbd":"School Board Lake Mountain 2"},{"vid":"2937076","name":"Dr. Camilo Hegmann","party":"Dem","address":"383 W Plum Pl, Saratoga Springs, UT 84045","precinct":"25SR01","hd":"51","v_score":"0","decile":"2","lat":40.40381813067394,"lng":-111.9256342653536,"phone":"(369) 491-2744","sd":"18","ssbd":"10","lsbd":"School Board Lake Mountain 2"},{"vid":"2938131","name":"Joaquin Labadie","party":"","address":"197 W Thistle Dr, Saratoga Springs, UT 84045","precinct":"25SR01","hd":"51","v_score":"0","decile":"2","lat":40.40855014120706,"lng":-111.92662167021759,"phone":"(619) 552-9804","sd":"18","ssbd":"10","lsbd":"School Board Lake Mountain 2"},{"vid":"2941127","name":"Lotta Krajcik PhD","party":"","address":"222 W Thistle Dr, Saratoga Springs, UT 84045","precinct":"25SR01","hd":"51","v_score":"0","decile":"2","lat":40.40900590217852,"lng":-111.92759477722599,"phone":"(413) 231-2404","sd":"18","ssbd":"10","lsbd":"School Board Lake Mountain 2"},{"vid":"2951335","name":"Mrs. Magnolia Denesik","party":"Dem","address":"153 W Nectar Way, Saratoga Springs, UT 84045","precinct":"25SR01","hd":"51","v_score":"0","decile":"2","lat":40.40708034054014,"lng":-111.92528914690519,"phone":"(723) 267-3376","sd":"18","ssbd":"10","lsbd":"School Board Lake Mountain 2"},{"vid":"2957825","name":"Abagail Braun","party":"Dem","address":"437 W Plum Pl, Saratoga Springs, UT 84045","precinct":"25SR01","hd":"51","v_score":"0","decile":"2","lat":40.40425522155038,"lng":-111.92691425274546,"phone":"(421) 450-2747","sd":"18","ssbd":"10","lsbd":"School Board Lake Mountain 2"},{"vid":"2962796","name":"Dr. Hartley Kuphal Sr.","party":"Rep","address":"187 W Thistle Dr, Saratoga Springs, UT 84045","precinct":"25SR01","hd":"51","v_score":"0","decile":"2","lat":40.408585274271196,"lng":-111.9262764472504,"phone":"(918) 151-8906","sd":"18","ssbd":"10","lsbd":"School Board Lake Mountain 2"},{"vid":"2967404","name":"Stetson Leffler","party":"Rep","address":"2508 N Paintbrush Dr, Saratoga Springs, UT 84045","precinct":"25SR01","hd":"51","v_score":"0","decile":"2","lat":40.407725828137806,"lng":-111.93068612217512,"phone":"(650) 847-5210","sd":"18","ssbd":"10","lsbd":"School Board Lake Mountain 2"},{"vid":"3028464","name":"Monte Willms","party":"","address":"234 W Nectar Way, Saratoga Springs, UT 84045","precinct":"25SR01","hd":"51","v_score":"5.40460374","decile":"7","lat":40.40734716193656,"lng":-111.92728857612416,"phone":"(283) 391-9436","sd":"18","ssbd":"10","lsbd":"School Board Lake Mountain 2"},{"vid":"3078170","name":"Ms. Citlalli Yost","party":"Rep","address":"2406 N Nectar Way, Saratoga Springs, UT 84045","precinct":"25SR01","hd":"51","v_score":"5.40460374","decile":"7","lat":40.406143971602454,"lng":-111.92817313078184,"phone":"(189) 429-6417","sd":"18","ssbd":"10","lsbd":"School Board Lake Mountain 2"},{"vid":"3078403","name":"Marlee Bode","party":"Dem","address":"317 W Verbena Dr, Saratoga Springs, UT 84045","precinct":"25SR01","hd":"51","v_score":"2.315214949","decile":"5","lat":40.40820463076501,"lng":-111.92957155971901,"phone":"(565) 922-9581","sd":"18","ssbd":"10","lsbd":"School Board Lake Mountain 2"},{"vid":"3081327","name":"Denita Spinka","party":"Rep","address":"433 W Plum Pl, Saratoga Springs, UT 84045","precinct":"25SR01","hd":"51","v_score":"20.92670655","decile":"10","lat":40.40423868485194,"lng":-111.92669972195755,"phone":"(125) 684-2241","sd":"18","ssbd":"10","lsbd":"School Board Lake Mountain 2"},{"vid":"3097053","name":"Willy Shields-Marquardt","party":"","address":"397 W Indian Summer Dr, Saratoga Springs, UT 84045","precinct":"25SR01","hd":"51","v_score":"12.07513611","decile":"9","lat":40.4044776604236,"lng":-111.9301967502238,"phone":"(891) 339-6913","sd":"18","ssbd":"10","lsbd":"School Board Lake Mountain 2"},{"vid":"3103629","name":"Linus Morar","party":"","address":"148 W Apple Ave, Saratoga Springs, UT 84045","precinct":"25SR01","hd":"51","v_score":"3.781490609","decile":"6","lat":40.40473547626127,"lng":-111.92435970187745,"phone":"(239) 218-3150","sd":"18","ssbd":"10","lsbd":"School Board Lake Mountain 2"},{"vid":"7a45a7b1e6ef7070f25130b54571350c95c5716d463bcef866ed4cd2ccbaab7d","name":"Francies Reilly","party":"","address":"438 W Plum Pl, Saratoga Springs, UT 84045","precinct":"25SR01","hd":"51","v_score":"3.93832808","decile":"6","lat":40.40458186471598,"lng":-111.92689714706903,"phone":"(367) 602-0098","sd":"18","ssbd":"10","lsbd":"School Board Lake Mountain 2"},{"vid":"3138697","name":"Alexa Dare-Collins","party":"Dem","address":"2503 N Apricot Pl, Saratoga Springs, UT 84045","precinct":"25SR01","hd":"51","v_score":"1.121327652","decile":"3","lat":40.40761165980703,"lng":-111.92599534294398,"phone":"(930) 845-4095","sd":"18","ssbd":"10","lsbd":"School Board Lake Mountain 2"},{"vid":"2ea508c4512a785beb1d8977eb25466e84f238f82f693e0d6fb7f5d5333aa6bf","name":"Jaylen Yundt","party":"","address":"2434 N Orchard Way, Saratoga Springs, UT 84045","precinct":"25SR01","hd":"51","v_score":"8.347511332","decile":"8","lat":40.406444347329156,"lng":-111.9241545746409,"phone":"(566) 251-7603","sd":"18","ssbd":"10","lsbd":"School Board Lake Mountain 2"},{"vid":"3202858","name":"Blaze Kunze","party":"Rep","address":"267 W Thistle Dr, Saratoga Springs, UT 84045","precinct":"25SR01","hd":"51","v_score":"5.40460374","decile":"7","lat":40.4088029252988,"lng":-111.92883769484084,"phone":"(478) 276-0670","sd":"18","ssbd":"10","lsbd":"School Board Lake Mountain 2"},{"vid":"3209083","name":"Jerel Wilkinson","party":"Dem","address":"2373 N Blossom Ct, Saratoga Springs, UT 84045","precinct":"25SR01","hd":"51","v_score":"19.16525368","decile":"10","lat":40.405367908190094,"lng":-111.93013736671887,"phone":"(113) 238-9385","sd":"18","ssbd":"10","lsbd":"School Board Lake Mountain 2"},{"vid":"3209085","name":"Shelby Flatley MD","party":"","address":"2373 N Blossom Ct, Saratoga Springs, UT 84045","precinct":"25SR01","hd":"51","v_score":"23.40074712","decile":"10","lat":40.405367908190094,"lng":-111.93013736671887,"phone":"(675) 202-2659","sd":"18","ssbd":"10","lsbd":"School Board Lake Mountain 2"},{"vid":"441b2ec09ef8f8adbc1f2bda6b479a9cfbe05794a72a4e7e5ea13af6036f5810","name":"Dr. Jaquez Farrell I","party":"","address":"217 W Apple Ave, Saratoga Springs, UT 84045","precinct":"25SR01","hd":"51","v_score":"11.52389434","decile":"9","lat":40.40601050381994,"lng":-111.92659758674415,"phone":"(330) 775-3426","sd":"18","ssbd":"10","lsbd":"School Board Lake Mountain 2"},{"vid":"3230350","name":"Ramon Bechtelar","party":"Dem","address":"202 W Apple Ave, Saratoga Springs, UT 84045","precinct":"25SR01","hd":"51","v_score":"3.93832808","decile":"6","lat":40.406327905560566,"lng":-111.92613925170443,"phone":"(469) 050-6965","sd":"18","ssbd":"10","lsbd":"School Board Lake Mountain 2"},{"vid":"14c3bb76a3d236a291e1581f5cc01c48da0472fed1021aee36f5378407106bcd","name":"Mr. Tyreese Friesen","party":"","address":"146 W Thistle Dr, Saratoga Springs, UT 84045","precinct":"25SR01","hd":"51","v_score":"9.207031979","decile":"8","lat":40.40912907525604,"lng":-111.92578379348669,"phone":"(623) 524-0317","sd":"18","ssbd":"10","lsbd":"School Board Lake Mountain 2"},{"vid":"3388544","name":"Jane Abshire","party":"Rep","address":"2492 N Jonathan Pl, Saratoga Springs, UT 84045","precinct":"25SR01","hd":"51","v_score":"3.781490609","decile":"6","lat":40.40755048371429,"lng":-111.92652576792689,"phone":"(534) 231-6639","sd":"18","ssbd":"10","lsbd":"School Board Lake Mountain 2"},{"vid":"3419241","name":"Dominique Grant","party":"Rep","address":"237 W Nectar Way, Saratoga Springs, UT 84045","precinct":"25SR01","hd":"51","v_score":"3.93832808","decile":"6","lat":40.40694826900902,"lng":-111.92714628362044,"phone":"(791) 050-7397","sd":"18","ssbd":"10","lsbd":"School Board Lake Mountain 2"},{"vid":"3451772","name":"Kristofer McDermott","party":"","address":"232 W Jonathan Pl, Saratoga Springs, UT 84045","precinct":"25SR01","hd":"51","v_score":"2.315214949","decile":"5","lat":40.40812178345406,"lng":-111.92740257016341,"phone":"(655) 942-0028","sd":"18","ssbd":"10","lsbd":"School Board Lake Mountain 2"},{"vid":"3469198","name":"Dr. Matthew Mohr","party":"","address":"406 W Plum Pl, Saratoga Springs, UT 84045","precinct":"25SR01","hd":"51","v_score":"7.493443096","decile":"8","lat":40.404372977503094,"lng":-111.9259649602408,"phone":"(848) 817-0862","sd":"18","ssbd":"10","lsbd":"School Board Lake Mountain 2"},{"vid":"3557838","name":"Eliot Turcotte","party":"Dem","address":"2356 N Nectar Way, Saratoga Springs, UT 84045","precinct":"25SR01","hd":"51","v_score":"1.121327652","decile":"3","lat":40.40496049932963,"lng":-111.92847016879168,"phone":"(957) 520-1974","sd":"18","ssbd":"10","lsbd":"School Board Lake Mountain 2"},{"vid":"4464197","name":"Odell Lind","party":"Dem","address":"2260 N Harvest Moon Dr, Saratoga Springs, UT 84045","precinct":"25SR01","hd":"51","v_score":"8.363183621","decile":"8","lat":40.40327057929687,"lng":-111.92493998957406,"phone":"(812) 990-9417","sd":"18","ssbd":"10","lsbd":"School Board Lake Mountain 2"},{"vid":"4602071","name":"Judd O'Reilly","party":"Dem","address":"438 W Plum Pl, Saratoga Springs, UT 84045","precinct":"25SR01","hd":"51","v_score":"34.62894986","decile":"10","lat":40.40458186471598,"lng":-111.92689714706903,"phone":"(720) 178-7541","sd":"18","ssbd":"10","lsbd":"School Board Lake Mountain 2"},{"vid":"5547413","name":"Mr. Hill Rau V","party":"Rep","address":"2421 N Cider Pl, Saratoga Springs, UT 84045","precinct":"25SR01","hd":"51","v_score":"3.781490609","decile":"6","lat":40.40619289356369,"lng":-111.92583731477029,"phone":"(602) 982-0468","sd":"18","ssbd":"10","lsbd":"School Board Lake Mountain 2"},{"vid":"5555835","name":"Guilford Kiehn-Barrows","party":"","address":"2421 N Cider Pl, Saratoga Springs, UT 84045","precinct":"25SR01","hd":"51","v_score":"3.781490609","decile":"6","lat":40.40619289356369,"lng":-111.92583731477029,"phone":"(879) 966-4126","sd":"18","ssbd":"10","lsbd":"School Board Lake Mountain 2"},{"vid":"6000781","name":"Sheree Rempel","party":"Rep","address":"2437 N Cider Pl, Saratoga Springs, UT 84045","precinct":"25SR01","hd":"51","v_score":"2.315214949","decile":"5","lat":40.40653737507801,"lng":-111.92537082606133,"phone":"(170) 642-9948","sd":"18","ssbd":"10","lsbd":"School Board Lake Mountain 2"},{"vid":"6048544","name":"Marleigh Nolan PhD","party":"Dem","address":"277 W Thistle Dr, Saratoga Springs, UT 84045","precinct":"25SR01","hd":"51","v_score":"4.210716443","decile":"7","lat":40.40894074189801,"lng":-111.92911056746674,"phone":"(520) 024-6329","sd":"18","ssbd":"10","lsbd":"School Board Lake Mountain 2"},{"vid":"6082005","name":"Kylan O'Connell","party":"Rep","address":"182 W Apple Ave, Saratoga Springs, UT 84045","precinct":"25SR01","hd":"51","v_score":"3.781490609","decile":"6","lat":40.40543807871113,"lng":-111.92536341980025,"phone":"(264) 153-9826","sd":"18","ssbd":"10","lsbd":"School Board Lake Mountain 2"},{"vid":"6220401","name":"West Huel","party":"Dem","address":"262 W Nectar Way, Saratoga Springs, UT 84045","precinct":"25SR01","hd":"51","v_score":"0","decile":"3","lat":40.40727798887906,"lng":-111.9280037013487,"phone":"(883) 045-1919","sd":"18","ssbd":"10","lsbd":"School Board Lake Mountain 2"},{"vid":"6231982","name":"Mrs. Janessa Swift DVM","party":"Rep","address":"2327 N Cherry Cir, Saratoga Springs, UT 84045","precinct":"25SR01","hd":"51","v_score":"6.528952915","decile":"7","lat":40.404461320046074,"lng":-111.92826519774748,"phone":"(459) 763-0426","sd":"18","ssbd":"10","lsbd":"School Board Lake Mountain 2"},{"vid":"6241106","name":"Amara Wuckert","party":"","address":"212 W Jonathan Pl, Saratoga Springs, UT 84045","precinct":"25SR01","hd":"51","v_score":"2.315214949","decile":"5","lat":40.40808393146952,"lng":-111.9267738995506,"phone":"(102) 691-5528","sd":"18","ssbd":"10","lsbd":"School Board Lake Mountain 2"},{"vid":"6251243","name":"Wende Witting-Pacocha","party":"Dem","address":"2426 N Cider Pl, Saratoga Springs, UT 84045","precinct":"25SR01","hd":"51","v_score":"8.347511332","decile":"8","lat":40.40633452663969,"lng":-111.92516444404951,"phone":"(398) 544-7822","sd":"18","ssbd":"10","lsbd":"School Board Lake Mountain 2"},{"vid":"6260704","name":"Robert Schmeler","party":"Dem","address":"2264 N Harvest Moon Dr, Saratoga Springs, UT 84045","precinct":"25SR01","hd":"51","v_score":"11.30609121","decile":"9","lat":40.40336105358847,"lng":-111.92451107166028,"phone":"(641) 299-2157","sd":"18","ssbd":"10","lsbd":"School Board Lake Mountain 2"},{"vid":"6261150","name":"Ula Welch","party":"Rep","address":"2676 N Bluebell Dr, Saratoga Springs, UT 84045","precinct":"25SR01","hd":"51","v_score":"3.93832808","decile":"6","lat":40.411034104641516,"lng":-111.9268857735452,"phone":"(608) 336-7371","sd":"18","ssbd":"10","lsbd":"School Board Lake Mountain 2"},{"vid":"6261151","name":"Rylee Spinka II","party":"Rep","address":"2676 N Bluebell Dr, Saratoga Springs, UT 84045","precinct":"25SR01","hd":"51","v_score":"3.93832808","decile":"6","lat":40.411034104641516,"lng":-111.9268857735452,"phone":"(514) 387-6483","sd":"18","ssbd":"10","lsbd":"School Board Lake Mountain 2"},{"vid":"6298099","name":"Miss Marnie Bogisich DDS","party":"","address":"2461 N Nectar Way, Saratoga Springs, UT 84045","precinct":"25SR01","hd":"51","v_score":"8.363183621","decile":"8","lat":40.407290378006586,"lng":-111.92839258685018,"phone":"(319) 084-8394","sd":"18","ssbd":"10","lsbd":"School Board Lake Mountain 2"},{"vid":"6371156","name":"Ova Cruickshank","party":"","address":"432 W Autumn Sky Ct, Saratoga Springs, UT 84045","precinct":"25SR01","hd":"51","v_score":"20.44216724","decile":"10","lat":40.40555334611285,"lng":-111.93148037946472,"phone":"(807) 472-5107","sd":"18","ssbd":"10","lsbd":"School Board Lake Mountain 2"},{"vid":"6374594","name":"Isis Nicolas","party":"","address":"2412 N Fernleaf Dr, Saratoga Springs, UT 84045","precinct":"25SR01","hd":"51","v_score":"5.762862305","decile":"7","lat":40.40602269110057,"lng":-111.93111433881771,"phone":"(832) 844-9137","sd":"18","ssbd":"10","lsbd":"School Board Lake Mountain 2"},{"vid":"6376069","name":"Amarion Dickinson","party":"","address":"2461 N Nectar Way, Saratoga Springs, UT 84045","precinct":"25SR01","hd":"51","v_score":"18.74349914","decile":"10","lat":40.407290378006586,"lng":-111.92839258685018,"phone":"(370) 649-4275","sd":"18","ssbd":"10","lsbd":"School Board Lake Mountain 2"},{"vid":"6377223","name":"Fred Green DVM","party":"Rep","address":"2372 N Orchard Way, Saratoga Springs, UT 84045","precinct":"25SR01","hd":"51","v_score":"35.07427534","decile":"10","lat":40.405189843074304,"lng":-111.92472235754113,"phone":"(110) 096-0444","sd":"18","ssbd":"10","lsbd":"School Board Lake Mountain 2"},{"vid":"6398125","name":"Almeta Kohler","party":"","address":"2451 N Orchard Way, Saratoga Springs, UT 84045","precinct":"25SR01","hd":"51","v_score":"5.40460374","decile":"7","lat":40.40673243374144,"lng":-111.92463526547031,"phone":"(410) 473-9271","sd":"18","ssbd":"10","lsbd":"School Board Lake Mountain 2"},{"vid":"6400337","name":"Shaquille Walker","party":"","address":"433 W Autumn Sky Ct, Saratoga Springs, UT 84045","precinct":"25SR01","hd":"51","v_score":"8.363183621","decile":"8","lat":40.40523127198404,"lng":-111.93148344049696,"phone":"(615) 806-4020","sd":"18","ssbd":"10","lsbd":"School Board Lake Mountain 2"},{"vid":"6416630","name":"Barron Vandervort","party":"Dem","address":"2453 N Nectar Way, Saratoga Springs, UT 84045","precinct":"25SR01","hd":"51","v_score":"6.896907962","decile":"8","lat":40.40710896622846,"lng":-111.92862429741619,"phone":"(647) 312-0546","sd":"18","ssbd":"10","lsbd":"School Board Lake Mountain 2"},{"vid":"6419871","name":"Esmeralda Morissette","party":"Rep","address":"163 W Apple Ave, Saratoga Springs, UT 84045","precinct":"25SR01","hd":"51","v_score":"1.46627566","decile":"4","lat":40.40446572959136,"lng":-111.92468747491174,"phone":"(674) 993-2684","sd":"18","ssbd":"10","lsbd":"School Board Lake Mountain 2"},{"vid":"94c6a663e7cbc8c4a0fcfe389b43c0e64541d52c7aa5584a24975780ff30d39d","name":"Dr. Mira Beer DDS","party":"Rep","address":"2668 N Bluebell Dr, Saratoga Springs, UT 84045","precinct":"25SR01","hd":"51","v_score":"6.724398202","decile":"8","lat":40.410832975235046,"lng":-111.92672371463104,"phone":"(629) 057-5230","sd":"18","ssbd":"10","lsbd":"School Board Lake Mountain 2"},{"vid":"24529557a829b9208ec3fbc141ecd2356bc51faf33f1d3792ed6320079db11d5","name":"Barbra Brekke","party":"Rep","address":"2668 N Bluebell Dr, Saratoga Springs, UT 84045","precinct":"25SR01","hd":"51","v_score":"6.724398202","decile":"8","lat":40.410832975235046,"lng":-111.92672371463104,"phone":"(176) 893-1400","sd":"18","ssbd":"10","lsbd":"School Board Lake Mountain 2"},{"vid":"6438263","name":"Ever Hane","party":"","address":"2501 N Paintbrush Dr, Saratoga Springs, UT 84045","precinct":"25SR01","hd":"51","v_score":"2.315214949","decile":"5","lat":40.40760039012097,"lng":-111.93127121285639,"phone":"(253) 858-5471","sd":"18","ssbd":"10","lsbd":"School Board Lake Mountain 2"},{"vid":"87c24b68b466709934e9ad71958f0b946f5cf61c186cb30b56426804b35ebce9","name":"Robin Von","party":"","address":"368 W Plum Pl, Saratoga Springs, UT 84045","precinct":"25SR01","hd":"51","v_score":"11.30609121","decile":"9","lat":40.404208245781994,"lng":-111.92507778173248,"phone":"(829) 180-6326","sd":"18","ssbd":"10","lsbd":"School Board Lake Mountain 2"},{"vid":"6443373","name":"Dr. Ennis Orn","party":"Rep","address":"2523 N Apricot Pl, Saratoga Springs, UT 84045","precinct":"25SR01","hd":"51","v_score":"22.18184494","decile":"10","lat":40.40817425732706,"lng":-111.92577178908533,"phone":"(639) 420-4777","sd":"18","ssbd":"10","lsbd":"School Board Lake Mountain 2"},{"vid":"58402e39912c3a9ba42f296d6ae7c30c0d993fb221f6ef7df28af9516bcc5d99","name":"Lenore Ernser","party":"Rep","address":"249 W Jonathan Pl, Saratoga Springs, UT 84045","precinct":"25SR01","hd":"51","v_score":"3.93832808","decile":"6","lat":40.40798725485478,"lng":-111.92780339812457,"phone":"(753) 763-1823","sd":"18","ssbd":"10","lsbd":"School Board Lake Mountain 2"},{"vid":"6447593","name":"Samuel Bruen","party":"","address":"2504 N Jonathan Pl, Saratoga Springs, UT 84045","precinct":"25SR01","hd":"51","v_score":"3.781490609","decile":"6","lat":40.40768605100184,"lng":-111.92653257992876,"phone":"(540) 399-4628","sd":"18","ssbd":"10","lsbd":"School Board Lake Mountain 2"},{"vid":"6448157","name":"Dr. Emilia O'Kon DDS","party":"Dem","address":"2427 N Nectar Way, Saratoga Springs, UT 84045","precinct":"25SR01","hd":"51","v_score":"1.193887297","decile":"4","lat":40.406355364165876,"lng":-111.92869306805859,"phone":"(264) 565-0783","sd":"18","ssbd":"10","lsbd":"School Board Lake Mountain 2"},{"vid":"6453257","name":"Mr. Jaquan Koch","party":"Rep","address":"202 W Prickly Pear Dr, Saratoga Springs, UT 84045","precinct":"25SR01","hd":"51","v_score":"4.905839784","decile":"7","lat":40.409689928904626,"lng":-111.92702390687606,"phone":"(349) 934-5349","sd":"18","ssbd":"10","lsbd":"School Board Lake Mountain 2"},{"vid":"6454955","name":"Mrs. Fannie Kertzmann","party":"Rep","address":"224 W Apple Ave, Saratoga Springs, UT 84045","precinct":"25SR01","hd":"51","v_score":"9.640097175","decile":"8","lat":40.40645475265,"lng":-111.92672905929193,"phone":"(260) 209-9303","sd":"18","ssbd":"10","lsbd":"School Board Lake Mountain 2"},{"vid":"6458521","name":"Connie Graham","party":"","address":"217 W Nectar Way, Saratoga Springs, UT 84045","precinct":"25SR01","hd":"51","v_score":"8.280646305","decile":"8","lat":40.40671889597264,"lng":-111.92688257978953,"phone":"(556) 150-9863","sd":"18","ssbd":"10","lsbd":"School Board Lake Mountain 2"},{"vid":"6462152","name":"Rachael Russel","party":"Rep","address":"2519 N Pear Pl, Saratoga Springs, UT 84045","precinct":"25SR01","hd":"51","v_score":"1.121327652","decile":"3","lat":40.40796876677923,"lng":-111.92487717329686,"phone":"(423) 837-4949","sd":"18","ssbd":"10","lsbd":"School Board Lake Mountain 2"},{"vid":"6469044","name":"Sid O'Conner I","party":"Dem","address":"148 W Apple Ave, Saratoga Springs, UT 84045","precinct":"25SR01","hd":"51","v_score":"2.587603312","decile":"5","lat":40.40473547626127,"lng":-111.92435970187745,"phone":"(955) 228-3005","sd":"18","ssbd":"10","lsbd":"School Board Lake Mountain 2"},{"vid":"6470111","name":"Ms. Aisha Kassulke","party":"Rep","address":"346 W Plum Pl, Saratoga Springs, UT 84045","precinct":"25SR01","hd":"51","v_score":"2.744440783","decile":"6","lat":40.40383680888738,"lng":-111.92453606275495,"phone":"(512) 838-9138","sd":"18","ssbd":"10","lsbd":"School Board Lake Mountain 2"},{"vid":"f812b0eec79e70ce5d527fa54a855b9d5ea62e584702a9c8bf28525fe3f5ac68","name":"Kamryn Runte DVM","party":"","address":"276 W Thistle Dr, Saratoga Springs, UT 84045","precinct":"25SR01","hd":"51","v_score":"10.37384553","decile":"9","lat":40.40928449424545,"lng":-111.92898582663003,"phone":"(570) 267-6869","sd":"18","ssbd":"10","lsbd":"School Board Lake Mountain 2"},{"vid":"6475742","name":"Wilhelmine Christiansen","party":"Dem","address":"306 W Verbena Dr, Saratoga Springs, UT 84045","precinct":"25SR01","hd":"51","v_score":"19.30296349","decile":"10","lat":40.40830971619749,"lng":-111.9288720519884,"phone":"(503) 918-2053","sd":"18","ssbd":"10","lsbd":"School Board Lake Mountain 2"},{"vid":"6481047","name":"Miss Allyson Corwin","party":"Rep","address":"2433 N Cider Pl, Saratoga Springs, UT 84045","precinct":"25SR01","hd":"51","v_score":"3.93832808","decile":"6","lat":40.40651616108949,"lng":-111.92553535011663,"phone":"(860) 880-7511","sd":"18","ssbd":"10","lsbd":"School Board Lake Mountain 2"},{"vid":"6488120","name":"Nedra Marks PhD","party":"Rep","address":"2504 N Jonathan Pl, Saratoga Springs, UT 84045","precinct":"25SR01","hd":"51","v_score":"5.659072284","decile":"7","lat":40.40768605100184,"lng":-111.92653257992876,"phone":"(439) 557-4284","sd":"18","ssbd":"10","lsbd":"School Board Lake Mountain 2"},{"vid":"6492783","name":"Dr. Sylas Cassin Sr.","party":"","address":"2517 N Apricot Pl, Saratoga Springs, UT 84045","precinct":"25SR01","hd":"51","v_score":"19.3272208","decile":"10","lat":40.40796951538677,"lng":-111.92603447795639,"phone":"(321) 749-7945","sd":"18","ssbd":"10","lsbd":"School Board Lake Mountain 2"},{"vid":"6492801","name":"Winfred Mills","party":"","address":"2517 N Apricot Pl, Saratoga Springs, UT 84045","precinct":"25SR01","hd":"51","v_score":"22.27012839","decile":"10","lat":40.40796951538677,"lng":-111.92603447795639,"phone":"(159) 854-6103","sd":"18","ssbd":"10","lsbd":"School Board Lake Mountain 2"},{"vid":"6493493","name":"Lura Thompson","party":"","address":"252 W Nectar Way, Saratoga Springs, UT 84045","precinct":"25SR01","hd":"51","v_score":"13.93704549","decile":"9","lat":40.40726821404704,"lng":-111.92769173060773,"phone":"(843) 427-1328","sd":"18","ssbd":"10","lsbd":"School Board Lake Mountain 2"},{"vid":"6493807","name":"Karyl Bosco-Reichel","party":"Rep","address":"202 W Prickly Pear Dr, Saratoga Springs, UT 84045","precinct":"25SR01","hd":"51","v_score":"4.905839784","decile":"7","lat":40.409689928904626,"lng":-111.92702390687606,"phone":"(329) 846-2298","sd":"18","ssbd":"10","lsbd":"School Board Lake Mountain 2"},{"vid":"75aa60ad17d8e444720c8b2c052e8a09546a61cda9d1c60111c6c3ce74a412c5","name":"Mr. Daryle Walker III","party":"","address":"328 W Peach Pl, Saratoga Springs, UT 84045","precinct":"25SR01","hd":"51","v_score":"2.315214949","decile":"5","lat":40.40609549784615,"lng":-111.92919592392681,"phone":"(149) 095-8902","sd":"18","ssbd":"10","lsbd":"School Board Lake Mountain 2"},{"vid":"6496203","name":"Delta Upton","party":"","address":"431 W Indian Summer Dr, Saratoga Springs, UT 84045","precinct":"25SR01","hd":"51","v_score":"5.40460374","decile":"7","lat":40.40429657691282,"lng":-111.93113023009901,"phone":"(673) 743-1673","sd":"18","ssbd":"10","lsbd":"School Board Lake Mountain 2"},{"vid":"6496210","name":"Dr. Joell Johnson","party":"Rep","address":"431 W Indian Summer Dr, Saratoga Springs, UT 84045","precinct":"25SR01","hd":"51","v_score":"5.40460374","decile":"7","lat":40.40429657691282,"lng":-111.93113023009901,"phone":"(610) 989-3171","sd":"18","ssbd":"10","lsbd":"School Board Lake Mountain 2"},{"vid":"63b41d9d79712a49522c8799b0d407e0f3cfa572f149e08c93756b67ea4c5fb5","name":"Octavio Runte-Gleichner","party":"","address":"2322 N Cherry Cir, Saratoga Springs, UT 84045","precinct":"25SR01","hd":"51","v_score":"14.18213378","decile":"9","lat":40.404323834523225,"lng":-111.92792584346776,"phone":"(138) 776-6785","sd":"18","ssbd":"10","lsbd":"School Board Lake Mountain 2"},{"vid":"6524333","name":"Julianne Willms","party":"","address":"249 W Jonathan Pl, Saratoga Springs, UT 84045","precinct":"25SR01","hd":"51","v_score":"3.93832808","decile":"6","lat":40.40798725485478,"lng":-111.92780339812457,"phone":"(115) 144-2193","sd":"18","ssbd":"10","lsbd":"School Board Lake Mountain 2"}]