[{"vid":"610387","name":"Madison Shanahan","party":"","address":"883 W Prairie Dog Way, Saratoga Springs, UT 84045","precinct":"25SR09","hd":"51","v_score":"26.41733837","decile":"10","lat":40.374278457660296,"lng":-111.9374344394788,"phone":"(175) 018-3929","sd":"22","ssbd":"10","lsbd":"School Board Lake Mountain 2"},{"vid":"1260414","name":"Pearlie Ortiz","party":"","address":"622 N Badger Ln, Saratoga Springs, UT 84045","precinct":"25SR09","hd":"51","v_score":"6.027167436","decile":"7","lat":40.37332708591628,"lng":-111.93952290601885,"phone":"(551) 066-3111","sd":"22","ssbd":"10","lsbd":"School Board Lake Mountain 2"},{"vid":"1266677","name":"Antony Cole","party":"","address":"815 N Red Fox Ln, Saratoga Springs, UT 84045","precinct":"25SR09","hd":"51","v_score":"12.57725863","decile":"9","lat":40.376776620104664,"lng":-111.93998273746219,"phone":"(699) 851-9220","sd":"22","ssbd":"10","lsbd":"School Board Lake Mountain 2"},{"vid":"1271315","name":"Dr. Daisy Cassin","party":"Rep","address":"1021 N Coyote Run, Saratoga Springs, UT 84045","precinct":"25SR09","hd":"51","v_score":"11.50568204","decile":"9","lat":40.38060984429704,"lng":-111.93962309977832,"phone":"(527) 357-2284","sd":"22","ssbd":"10","lsbd":"School Board Lake Mountain 2"},{"vid":"1280640","name":"Graham Hansen","party":"Rep","address":"1073 N Mustang Ln, Saratoga Springs, UT 84045","precinct":"25SR09","hd":"51","v_score":"3.93832808","decile":"6","lat":40.38159928506624,"lng":-111.93657383485743,"phone":"(695) 056-5992","sd":"22","ssbd":"10","lsbd":"School Board Lake Mountain 2"},{"vid":"1296053","name":"Levin Sporer","party":"","address":"752 N Badger Ln, Saratoga Springs, UT 84045","precinct":"25SR09","hd":"51","v_score":"1.193887297","decile":"3","lat":40.375749358629875,"lng":-111.93957514670626,"phone":"(563) 473-8877","sd":"22","ssbd":"10","lsbd":"School Board Lake Mountain 2"},{"vid":"1316578","name":"Britni Koepp-Swift","party":"","address":"896 W Rattler Rd, Saratoga Springs, UT 84045","precinct":"25SR09","hd":"51","v_score":"3.781490609","decile":"6","lat":40.38001832987177,"lng":-111.93777252889905,"phone":"(154) 176-7862","sd":"22","ssbd":"10","lsbd":"School Board Lake Mountain 2"},{"vid":"31c90ce39ff07038046242d37731a719affef4225fdd0b6bfe50fe53d621440d","name":"Dr. Emett Leuschke III","party":"Rep","address":"872 W Rattler Rd, Saratoga Springs, UT 84045","precinct":"25SR09","hd":"51","v_score":"6.724398202","decile":"7","lat":40.37988404607454,"lng":-111.93714528542866,"phone":"(425) 812-2911","sd":"22","ssbd":"10","lsbd":"School Board Lake Mountain 2"},{"vid":"1350054","name":"Mabell Kertzmann","party":"Rep","address":"867 W Red Hen Rd, Saratoga Springs, UT 84045","precinct":"25SR09","hd":"51","v_score":"2.315214949","decile":"5","lat":40.38275009817893,"lng":-111.9371234749929,"phone":"(657) 955-7134","sd":"22","ssbd":"10","lsbd":"School Board Lake Mountain 2"},{"vid":"1361562","name":"Inez Spencer","party":"Rep","address":"871 W Prairie Dog Way, Saratoga Springs, UT 84045","precinct":"25SR09","hd":"51","v_score":"5.40460374","decile":"7","lat":40.37435537830477,"lng":-111.93707211131702,"phone":"(238) 685-9640","sd":"22","ssbd":"10","lsbd":"School Board Lake Mountain 2"},{"vid":"1373721","name":"Thurman Konopelski Sr.","party":"Rep","address":"907 W Mountain Peak Dr, Saratoga Springs, UT 84045","precinct":"25SR09","hd":"51","v_score":"11.30609121","decile":"9","lat":40.37233859804058,"lng":-111.9380503841915,"phone":"(990) 391-3271","sd":"22","ssbd":"10","lsbd":"School Board Lake Mountain 2"},{"vid":"1375292","name":"Kelan Emmerich IV","party":"","address":"752 N Badger Ln, Saratoga Springs, UT 84045","precinct":"25SR09","hd":"51","v_score":"0","decile":"1","lat":40.375749358629875,"lng":-111.93957514670626,"phone":"(183) 749-1619","sd":"22","ssbd":"10","lsbd":"School Board Lake Mountain 2"},{"vid":"1414176","name":"Tianna Wyman","party":"","address":"883 W Prairie Dog Way, Saratoga Springs, UT 84045","precinct":"25SR09","hd":"51","v_score":"26.41733837","decile":"10","lat":40.374278457660296,"lng":-111.9374344394788,"phone":"(372) 096-9250","sd":"22","ssbd":"10","lsbd":"School Board Lake Mountain 2"},{"vid":"1437173","name":"Mr. Ferrell Blanda V","party":"","address":"921 W Grouse Cir, Saratoga Springs, UT 84045","precinct":"25SR09","hd":"51","v_score":"0","decile":"1","lat":40.3752115311725,"lng":-111.9381767912194,"phone":"(283) 416-5993","sd":"22","ssbd":"10","lsbd":"School Board Lake Mountain 2"},{"vid":"78744c3408c0f179854b9a9e614e8d90272813ed0b887297e8b0eaf564a2a8c1","name":"Dr. Damon Schoen","party":"Rep","address":"818 N Joshua Dr, Saratoga Springs, UT 84045","precinct":"25SR09","hd":"51","v_score":"5.40460374","decile":"7","lat":40.37666436191249,"lng":-111.93731052766353,"phone":"(214) 411-2620","sd":"22","ssbd":"10","lsbd":"School Board Lake Mountain 2"},{"vid":"1473372","name":"Dennie Cummerata","party":"Rep","address":"953 W Prairie Dog Way, Saratoga Springs, UT 84045","precinct":"25SR09","hd":"51","v_score":"1.193887297","decile":"3","lat":40.374596437598385,"lng":-111.93911674394903,"phone":"(306) 295-4383","sd":"22","ssbd":"10","lsbd":"School Board Lake Mountain 2"},{"vid":"1493068","name":"Antonette Bernhard DVM","party":"","address":"871 W Prairie Dog Way, Saratoga Springs, UT 84045","precinct":"25SR09","hd":"51","v_score":"2.315214949","decile":"5","lat":40.37435537830477,"lng":-111.93707211131702,"phone":"(699) 670-1913","sd":"22","ssbd":"10","lsbd":"School Board Lake Mountain 2"},{"vid":"1495945","name":"Dr. Mina Thiel DDS","party":"","address":"867 W Red Hen Rd, Saratoga Springs, UT 84045","precinct":"25SR09","hd":"51","v_score":"2.315214949","decile":"5","lat":40.38275009817893,"lng":-111.9371234749929,"phone":"(906) 449-7384","sd":"22","ssbd":"10","lsbd":"School Board Lake Mountain 2"},{"vid":"1512656","name":"Ozell Torphy PhD","party":"Dem","address":"591 N Badger Ln, Saratoga Springs, UT 84045","precinct":"25SR09","hd":"51","v_score":"0","decile":"1","lat":40.372689451575745,"lng":-111.93997713192847,"phone":"(888) 268-1217","sd":"22","ssbd":"10","lsbd":"School Board Lake Mountain 2"},{"vid":"1561680","name":"Tarah Shields PhD","party":"Rep","address":"1073 N Mustang Ln, Saratoga Springs, UT 84045","precinct":"25SR09","hd":"51","v_score":"5.40460374","decile":"7","lat":40.38159928506624,"lng":-111.93657383485743,"phone":"(880) 993-7190","sd":"22","ssbd":"10","lsbd":"School Board Lake Mountain 2"},{"vid":"1599299","name":"Hortensia Abernathy","party":"Dem","address":"884 W Rattler Rd, Saratoga Springs, UT 84045","precinct":"25SR09","hd":"51","v_score":"2.817000428","decile":"6","lat":40.37993264292548,"lng":-111.93750158699747,"phone":"(640) 323-9257","sd":"22","ssbd":"10","lsbd":"School Board Lake Mountain 2"},{"vid":"e77416f6df18fb498e9804faa53bf2306bdd56ed65c4ab001a68af887397e332","name":"Sheridan Schaden","party":"","address":"885 W Burro Way, Saratoga Springs, UT 84045","precinct":"25SR09","hd":"51","v_score":"9.405332525","decile":"8","lat":40.37653768870408,"lng":-111.93750847985481,"phone":"(403) 056-8692","sd":"22","ssbd":"10","lsbd":"School Board Lake Mountain 2"},{"vid":"aa441cb4fa04566d7a10d5d807808615e10a76dc618c80984b40e4b63580bc1c","name":"Marques Reilly","party":"","address":"901 W Chukar Cir, Saratoga Springs, UT 84045","precinct":"25SR09","hd":"51","v_score":"6.814370645","decile":"8","lat":40.37735630218171,"lng":-111.93785832893082,"phone":"(966) 434-9981","sd":"22","ssbd":"10","lsbd":"School Board Lake Mountain 2"},{"vid":"1638504","name":"Buford Murazik","party":"Dem","address":"882 N Joshua Dr, Saratoga Springs, UT 84045","precinct":"25SR09","hd":"51","v_score":"0","decile":"1","lat":40.37822375093764,"lng":-111.93692382404242,"phone":"(575) 737-2667","sd":"22","ssbd":"10","lsbd":"School Board Lake Mountain 2"},{"vid":"1638683","name":"Benton Herman","party":"Rep","address":"1081 N Coyote Run, Saratoga Springs, UT 84045","precinct":"25SR09","hd":"51","v_score":"8.347511332","decile":"8","lat":40.381842388909895,"lng":-111.93871997960079,"phone":"(563) 735-0133","sd":"22","ssbd":"10","lsbd":"School Board Lake Mountain 2"},{"vid":"1705756","name":"Imani Maggio","party":"Rep","address":"1143 N Mustang Ln, Saratoga Springs, UT 84045","precinct":"25SR09","hd":"51","v_score":"10.36948566","decile":"9","lat":40.38288685691664,"lng":-111.93633425148073,"phone":"(438) 326-0578","sd":"22","ssbd":"10","lsbd":"School Board Lake Mountain 2"},{"vid":"1707125","name":"Leoma Sipes","party":"Rep","address":"818 N Joshua Dr, Saratoga Springs, UT 84045","precinct":"25SR09","hd":"51","v_score":"5.40460374","decile":"7","lat":40.37666436191249,"lng":-111.93731052766353,"phone":"(578) 999-0867","sd":"22","ssbd":"10","lsbd":"School Board Lake Mountain 2"},{"vid":"1710217","name":"Shira Herzog","party":"Dem","address":"951 N Rattler Rd, Saratoga Springs, UT 84045","precinct":"25SR09","hd":"51","v_score":"4.283276088","decile":"7","lat":40.3793699088904,"lng":-111.93810809399525,"phone":"(773) 716-3464","sd":"22","ssbd":"10","lsbd":"School Board Lake Mountain 2"},{"vid":"1718418","name":"Kavon Hermiston","party":"Rep","address":"591 N Badger Ln, Saratoga Springs, UT 84045","precinct":"25SR09","hd":"51","v_score":"5.40460374","decile":"7","lat":40.372689451575745,"lng":-111.93997713192847,"phone":"(334) 345-7781","sd":"22","ssbd":"10","lsbd":"School Board Lake Mountain 2"},{"vid":"1744753","name":"Myrtle Hartmann V","party":"Rep","address":"1094 N Jack Rabbit Run, Saratoga Springs, UT 84045","precinct":"25SR09","hd":"51","v_score":"21.18751899","decile":"10","lat":40.38187046278851,"lng":-111.9370089794748,"phone":"(359) 086-8963","sd":"22","ssbd":"10","lsbd":"School Board Lake Mountain 2"},{"vid":"1775483","name":"Eustace Bailey-Reichel","party":"","address":"917 W Burro Way, Saratoga Springs, UT 84045","precinct":"25SR09","hd":"51","v_score":"0","decile":"1","lat":40.376645367661176,"lng":-111.93813656667338,"phone":"(916) 933-3097","sd":"22","ssbd":"10","lsbd":"School Board Lake Mountain 2"},{"vid":"6a51c5c606680e5c85e89227433bcda4316d44fe767bf62dd7ee04891a5c5ce6","name":"Eston Beatty","party":"","address":"843 W Buffalo Dr, Saratoga Springs, UT 84045","precinct":"25SR09","hd":"51","v_score":"3.93832808","decile":"6","lat":40.373984661924,"lng":-111.93645508490033,"phone":"(161) 025-8743","sd":"22","ssbd":"10","lsbd":"School Board Lake Mountain 2"},{"vid":"65dd3b7f03937c3d086cd9041ba3938d479b99d1a6f8fcdcc728963a9a5e3cd5","name":"Mr. Darby Effertz","party":"Rep","address":"591 N Badger Ln, Saratoga Springs, UT 84045","precinct":"25SR09","hd":"51","v_score":"3.781490609","decile":"6","lat":40.372689451575745,"lng":-111.93997713192847,"phone":"(327) 253-5752","sd":"22","ssbd":"10","lsbd":"School Board Lake Mountain 2"},{"vid":"77f55a176fd72e72c14204ca0d44f63b7df0a0415ff7abff59af91e3c1e9aedd","name":"Marshal Cole","party":"Rep","address":"918 W Porcupine Cir, Saratoga Springs, UT 84045","precinct":"25SR09","hd":"51","v_score":"3.93832808","decile":"6","lat":40.37835080621247,"lng":-111.93817351242171,"phone":"(180) 085-3994","sd":"22","ssbd":"10","lsbd":"School Board Lake Mountain 2"},{"vid":"eda0c1714ac7db3808557c1df695a84451af954012da9795f2d19f847892139c","name":"Rossie Champlin","party":"Dem","address":"781 N Buffalo Dr, Saratoga Springs, UT 84045","precinct":"25SR09","hd":"51","v_score":"2.876042565","decile":"6","lat":40.376354044903216,"lng":-111.93699879762035,"phone":"(456) 515-6282","sd":"22","ssbd":"10","lsbd":"School Board Lake Mountain 2"},{"vid":"1815468","name":"Glenda Farrell","party":"Rep","address":"992 N Coyote Run, Saratoga Springs, UT 84045","precinct":"25SR09","hd":"51","v_score":"2.587603312","decile":"5","lat":40.37989748709415,"lng":-111.93944239773809,"phone":"(103) 846-8617","sd":"22","ssbd":"10","lsbd":"School Board Lake Mountain 2"},{"vid":"1831962","name":"Nereida Bechtelar","party":"Dem","address":"741 N Grouse Cir, Saratoga Springs, UT 84045","precinct":"25SR09","hd":"51","v_score":"12.07513611","decile":"9","lat":40.37551999282633,"lng":-111.93810969822378,"phone":"(253) 599-6389","sd":"22","ssbd":"10","lsbd":"School Board Lake Mountain 2"},{"vid":"21df5c7ab7855f93cde3db8e8fe7db8204c433b638f029e7a3130f5edc13d498","name":"Katie Grant-VonRueden","party":"","address":"871 W Rattler Rd, Saratoga Springs, UT 84045","precinct":"25SR09","hd":"51","v_score":"2.942907593","decile":"6","lat":40.37952392292196,"lng":-111.93718381454633,"phone":"(199) 442-1774","sd":"22","ssbd":"10","lsbd":"School Board Lake Mountain 2"},{"vid":"1843323","name":"Mr. Bernardo Conn PhD","party":"","address":"824 W Buffalo Dr, Saratoga Springs, UT 84045","precinct":"25SR09","hd":"51","v_score":"26.41733837","decile":"10","lat":40.374165912907195,"lng":-111.9359339280894,"phone":"(247) 152-8248","sd":"22","ssbd":"10","lsbd":"School Board Lake Mountain 2"},{"vid":"1864456","name":"Robyn Kulas","party":"Rep","address":"681 N Badger Ln, Saratoga Springs, UT 84045","precinct":"25SR09","hd":"51","v_score":"2.315214949","decile":"5","lat":40.37445239737474,"lng":-111.94006954593097,"phone":"(586) 995-2433","sd":"22","ssbd":"10","lsbd":"School Board Lake Mountain 2"},{"vid":"1893364","name":"Garvin Mosciski","party":"Rep","address":"872 W Rattler Rd, Saratoga Springs, UT 84045","precinct":"25SR09","hd":"51","v_score":"2.315214949","decile":"5","lat":40.37988404607454,"lng":-111.93714528542866,"phone":"(879) 677-8752","sd":"22","ssbd":"10","lsbd":"School Board Lake Mountain 2"},{"vid":"1900765","name":"Braxton Kihn","party":"Rep","address":"781 N Buffalo Dr, Saratoga Springs, UT 84045","precinct":"25SR09","hd":"51","v_score":"11.47802244","decile":"9","lat":40.376354044903216,"lng":-111.93699879762035,"phone":"(590) 428-5018","sd":"22","ssbd":"10","lsbd":"School Board Lake Mountain 2"},{"vid":"1901460","name":"Cliff Jast","party":"Dem","address":"818 N Buffalo Dr, Saratoga Springs, UT 84045","precinct":"25SR09","hd":"51","v_score":"1.121327652","decile":"3","lat":40.37694564442927,"lng":-111.93606761646129,"phone":"(438) 707-3174","sd":"22","ssbd":"10","lsbd":"School Board Lake Mountain 2"},{"vid":"1912270","name":"Eve Considine DVM","party":"Rep","address":"966 N Jack Rabbit Run, Saratoga Springs, UT 84045","precinct":"25SR09","hd":"51","v_score":"16.2066738","decile":"9","lat":40.379621743575704,"lng":-111.93857601303314,"phone":"(962) 188-0389","sd":"22","ssbd":"10","lsbd":"School Board Lake Mountain 2"},{"vid":"1915230","name":"Amado Harber","party":"","address":"712 N Badger Ln, Saratoga Springs, UT 84045","precinct":"25SR09","hd":"51","v_score":"1.46627566","decile":"4","lat":40.374991627413515,"lng":-111.93953876056494,"phone":"(118) 989-4278","sd":"22","ssbd":"10","lsbd":"School Board Lake Mountain 2"},{"vid":"1919579","name":"Dr. Lassie Heathcote","party":"Rep","address":"591 N Badger Ln, Saratoga Springs, UT 84045","precinct":"25SR09","hd":"51","v_score":"5.40460374","decile":"7","lat":40.372689451575745,"lng":-111.93997713192847,"phone":"(477) 362-3024","sd":"22","ssbd":"10","lsbd":"School Board Lake Mountain 2"},{"vid":"1da39afa1b3411b26dbf1177187ea1ece23649693d74df3333212759f277775d","name":"Brittnie Wehner","party":"Dem","address":"768 N Badger Ln, Saratoga Springs, UT 84045","precinct":"25SR09","hd":"51","v_score":"8.36082189","decile":"8","lat":40.37603295996691,"lng":-111.93973403975376,"phone":"(760) 480-4146","sd":"22","ssbd":"10","lsbd":"School Board Lake Mountain 2"},{"vid":"1928769","name":"Jax Lemke","party":"","address":"982 W Burro Way, Saratoga Springs, UT 84045","precinct":"25SR09","hd":"51","v_score":"3.781490609","decile":"6","lat":40.37830099916403,"lng":-111.9395928097997,"phone":"(205) 965-3877","sd":"22","ssbd":"10","lsbd":"School Board Lake Mountain 2"},{"vid":"1945250","name":"Brandan Purdy DVM","party":"Dem","address":"872 W Rattler Rd, Saratoga Springs, UT 84045","precinct":"25SR09","hd":"51","v_score":"3.781490609","decile":"6","lat":40.37988404607454,"lng":-111.93714528542866,"phone":"(586) 338-1383","sd":"22","ssbd":"10","lsbd":"School Board Lake Mountain 2"},{"vid":"1949700","name":"Eusebio Koelpin","party":"Dem","address":"846 W Mountain Peak Dr, Saratoga Springs, UT 84045","precinct":"25SR09","hd":"51","v_score":"17.54186737","decile":"9","lat":40.372745937569555,"lng":-111.93612943205397,"phone":"(625) 170-5813","sd":"22","ssbd":"10","lsbd":"School Board Lake Mountain 2"},{"vid":"1967076","name":"Wash Heidenreich","party":"","address":"1049 N Jack Rabbit Run, Saratoga Springs, UT 84045","precinct":"25SR09","hd":"51","v_score":"0","decile":"1","lat":40.38106097043884,"lng":-111.93836660249028,"phone":"(953) 388-6311","sd":"22","ssbd":"10","lsbd":"School Board Lake Mountain 2"},{"vid":"1968186","name":"Carey Will","party":"","address":"1059 N Jack Rabbit Run, Saratoga Springs, UT 84045","precinct":"25SR09","hd":"51","v_score":"1.121327652","decile":"3","lat":40.381282570447,"lng":-111.9381803378941,"phone":"(956) 050-4361","sd":"22","ssbd":"10","lsbd":"School Board Lake Mountain 2"},{"vid":"1968651","name":"Dr. Waverly Hessel Jr.","party":"","address":"871 N Buffalo Dr, Saratoga Springs, UT 84045","precinct":"25SR09","hd":"51","v_score":"2.315214949","decile":"5","lat":40.377951781785555,"lng":-111.9363885086414,"phone":"(150) 059-7380","sd":"22","ssbd":"10","lsbd":"School Board Lake Mountain 2"},{"vid":"167796da931a77e892d7abf1204861e811ca5a549f585421cfb089f00b58a4fc","name":"Ramon Cremin","party":"Dem","address":"942 N Buffalo Dr, Saratoga Springs, UT 84045","precinct":"25SR09","hd":"51","v_score":"5.60307055","decile":"7","lat":40.37913092383188,"lng":-111.9358948579823,"phone":"(644) 701-1129","sd":"22","ssbd":"10","lsbd":"School Board Lake Mountain 2"},{"vid":"1989718","name":"Aubrey Howe","party":"","address":"1091 N Jack Rabbit Run, Saratoga Springs, UT 84045","precinct":"25SR09","hd":"51","v_score":"2.587603312","decile":"5","lat":40.38199765243709,"lng":-111.93756760733095,"phone":"(902) 946-9822","sd":"22","ssbd":"10","lsbd":"School Board Lake Mountain 2"},{"vid":"1995633","name":"Immanuel Davis","party":"","address":"937 N Rattler Rd, Saratoga Springs, UT 84045","precinct":"25SR09","hd":"51","v_score":"1.121327652","decile":"3","lat":40.37905966425851,"lng":-111.93815016197239,"phone":"(214) 759-7600","sd":"22","ssbd":"10","lsbd":"School Board Lake Mountain 2"},{"vid":"1998102","name":"Israel Keeling-Steuber","party":"Rep","address":"846 W Mountain Peak Dr, Saratoga Springs, UT 84045","precinct":"25SR09","hd":"51","v_score":"3.781490609","decile":"6","lat":40.372745937569555,"lng":-111.93612943205397,"phone":"(823) 943-0167","sd":"22","ssbd":"10","lsbd":"School Board Lake Mountain 2"},{"vid":"2012723","name":"Durrell Schmeler","party":"","address":"902 W Red Fox Ln, Saratoga Springs, UT 84045","precinct":"25SR09","hd":"51","v_score":"14.6183711","decile":"9","lat":40.376255665581915,"lng":-111.93777579741625,"phone":"(216) 703-5972","sd":"22","ssbd":"10","lsbd":"School Board Lake Mountain 2"},{"vid":"8d0743d36cac1206c1d5e3b2dd485d95d7e6c21cc3aaa887679ae200661f82aa","name":"Nichol Pouros MD","party":"Rep","address":"856 W Mustang Cir, Saratoga Springs, UT 84045","precinct":"25SR09","hd":"51","v_score":"9.9385141","decile":"9","lat":40.38132995254806,"lng":-111.93682970778251,"phone":"(922) 978-1951","sd":"22","ssbd":"10","lsbd":"School Board Lake Mountain 2"},{"vid":"2021620","name":"Dr. Simeon Schaefer","party":"Dem","address":"614 N Pheasant Ln, Saratoga Springs, UT 84045","precinct":"25SR09","hd":"51","v_score":"2.315214949","decile":"5","lat":40.37326514639909,"lng":-111.93602083193588,"phone":"(247) 577-6344","sd":"22","ssbd":"10","lsbd":"School Board Lake Mountain 2"},{"vid":"2027697","name":"Ms. Natalie Osinski","party":"","address":"614 N Pheasant Ln, Saratoga Springs, UT 84045","precinct":"25SR09","hd":"51","v_score":"4.064235245","decile":"6","lat":40.37326514639909,"lng":-111.93602083193588,"phone":"(586) 850-5281","sd":"22","ssbd":"10","lsbd":"School Board Lake Mountain 2"},{"vid":"e4803979552231eb2b0a4c2fba886f5d4236c63eae917d0fa40fcd29921692de","name":"Anneliese Hackett-Brakus","party":"","address":"871 W Rattler Rd, Saratoga Springs, UT 84045","precinct":"25SR09","hd":"51","v_score":"15.80226868","decile":"9","lat":40.37952392292196,"lng":-111.93718381454633,"phone":"(233) 685-5439","sd":"22","ssbd":"10","lsbd":"School Board Lake Mountain 2"},{"vid":"2055056","name":"Mart Predovic","party":"Dem","address":"932 W Pheasant Ln, Saratoga Springs, UT 84045","precinct":"25SR09","hd":"51","v_score":"27.03520395","decile":"10","lat":40.374092600151364,"lng":-111.93848877476086,"phone":"(368) 215-7354","sd":"22","ssbd":"10","lsbd":"School Board Lake Mountain 2"},{"vid":"2066484","name":"Lavar Crona PhD","party":"","address":"1049 N Coyote Run, Saratoga Springs, UT 84045","precinct":"25SR09","hd":"51","v_score":"2.660162957","decile":"5","lat":40.381117850244145,"lng":-111.93926039553163,"phone":"(242) 121-1482","sd":"22","ssbd":"10","lsbd":"School Board Lake Mountain 2"},{"vid":"2069057","name":"Miss Delia Ratke","party":"","address":"937 N Rattler Rd, Saratoga Springs, UT 84045","precinct":"25SR09","hd":"51","v_score":"3.781490609","decile":"6","lat":40.37905966425851,"lng":-111.93815016197239,"phone":"(687) 610-3188","sd":"22","ssbd":"10","lsbd":"School Board Lake Mountain 2"},{"vid":"cf6fc22278c94a466880f748c069bcdd125a7b14885303ccad758c63c222f6e1","name":"Estel Wiza","party":"Rep","address":"1049 N Jack Rabbit Run, Saratoga Springs, UT 84045","precinct":"25SR09","hd":"51","v_score":"31.90348096","decile":"10","lat":40.38106097043884,"lng":-111.93836660249028,"phone":"(278) 288-5573","sd":"22","ssbd":"10","lsbd":"School Board Lake Mountain 2"},{"vid":"9e18b86be25f7d8651499abdcbaad460a5e134d33897fc95c45ee28c779aa0e5","name":"Uriah Hansen","party":"Dem","address":"853 W Jack Rabbit Run, Saratoga Springs, UT 84045","precinct":"25SR09","hd":"51","v_score":"6.52928996","decile":"7","lat":40.38212234485884,"lng":-111.93683171280709,"phone":"(313) 268-3402","sd":"22","ssbd":"10","lsbd":"School Board Lake Mountain 2"},{"vid":"2093467","name":"Elana Rempel PhD","party":"Dem","address":"846 W Mountain Peak Dr, Saratoga Springs, UT 84045","precinct":"25SR09","hd":"51","v_score":"8.347511332","decile":"8","lat":40.372745937569555,"lng":-111.93612943205397,"phone":"(907) 034-2913","sd":"22","ssbd":"10","lsbd":"School Board Lake Mountain 2"},{"vid":"2093544","name":"Nakia Nicolas PhD","party":"","address":"919 W Joshua Dr, Saratoga Springs, UT 84045","precinct":"25SR09","hd":"51","v_score":"3.781490609","decile":"6","lat":40.3785559916358,"lng":-111.9379794042974,"phone":"(492) 470-0600","sd":"22","ssbd":"10","lsbd":"School Board Lake Mountain 2"},{"vid":"569e0efa05a233fb2cbabb1e5063bac895ed0a3ca008b912fa71f51950f59feb","name":"Ishaan Wuckert-Muller","party":"","address":"885 W Burro Way, Saratoga Springs, UT 84045","precinct":"25SR09","hd":"51","v_score":"9.405332525","decile":"8","lat":40.37653768870408,"lng":-111.93750847985481,"phone":"(743) 381-5155","sd":"22","ssbd":"10","lsbd":"School Board Lake Mountain 2"},{"vid":"13f05d8482a24108e15eab3b161d2ac03a94164e1b7db1bc364019acab377f58","name":"Cale Gleichner-McClure","party":"Rep","address":"856 W Mustang Cir, Saratoga Springs, UT 84045","precinct":"25SR09","hd":"51","v_score":"2.744440783","decile":"5","lat":40.38132995254806,"lng":-111.93682970778251,"phone":"(949) 439-3770","sd":"22","ssbd":"10","lsbd":"School Board Lake Mountain 2"},{"vid":"2144531","name":"Miranda Rempel","party":"","address":"919 W Red Fox Ln, Saratoga Springs, UT 84045","precinct":"25SR09","hd":"51","v_score":"2.744440783","decile":"5","lat":40.37585796002652,"lng":-111.9381047940104,"phone":"(327) 723-8163","sd":"22","ssbd":"10","lsbd":"School Board Lake Mountain 2"},{"vid":"2151641","name":"Maddux Schmidt-Cormier","party":"","address":"864 N Buffalo Dr, Saratoga Springs, UT 84045","precinct":"25SR09","hd":"51","v_score":"2.587603312","decile":"5","lat":40.37775884209483,"lng":-111.93590140023285,"phone":"(796) 389-9719","sd":"22","ssbd":"10","lsbd":"School Board Lake Mountain 2"},{"vid":"2156246","name":"Mrs. Carisa Osinski DDS","party":"Dem","address":"853 N Red Fox Ln, Saratoga Springs, UT 84045","precinct":"25SR09","hd":"51","v_score":"1.46627566","decile":"4","lat":40.37758191474738,"lng":-111.94010160898937,"phone":"(903) 252-2480","sd":"22","ssbd":"10","lsbd":"School Board Lake Mountain 2"},{"vid":"2172237","name":"Graham Corkery DDS","party":"","address":"924 W Pheasant Ln, Saratoga Springs, UT 84045","precinct":"25SR09","hd":"51","v_score":"0","decile":"1","lat":40.37395021196046,"lng":-111.93823096109223,"phone":"(182) 417-2004","sd":"22","ssbd":"10","lsbd":"School Board Lake Mountain 2"},{"vid":"7b56749a4897617339d92507c6e11a359d0d05f13a0641b2368dedfccbf18f97","name":"Myron Thiel","party":"","address":"832 N Red Fox Ln, Saratoga Springs, UT 84045","precinct":"25SR09","hd":"51","v_score":"2.817000428","decile":"6","lat":40.377158658354325,"lng":-111.93955609295827,"phone":"(169) 231-2956","sd":"22","ssbd":"10","lsbd":"School Board Lake Mountain 2"},{"vid":"668d480da0114a26ade9d834cfd028a81c337b33d279de04ed8e978f48057c6f","name":"Kiersten Runolfsson","party":"Dem","address":"883 W Buffalo Dr, Saratoga Springs, UT 84045","precinct":"25SR09","hd":"51","v_score":"22.55233704","decile":"10","lat":40.38034471900532,"lng":-111.93742153288123,"phone":"(362) 520-8527","sd":"22","ssbd":"10","lsbd":"School Board Lake Mountain 2"},{"vid":"2185245","name":"Drema Nitzsche","party":"Rep","address":"876 W Mountain Peak Dr, Saratoga Springs, UT 84045","precinct":"25SR09","hd":"51","v_score":"23.24977213","decile":"10","lat":40.37283251932757,"lng":-111.93710372337544,"phone":"(817) 253-4448","sd":"22","ssbd":"10","lsbd":"School Board Lake Mountain 2"},{"vid":"037859e17bcd9736c7ed8220dac593933612ed923be3f89703e7ae4f4411854c","name":"Ms. Kristine Bosco MD","party":"","address":"958 W Prairie Dog Way, Saratoga Springs, UT 84045","precinct":"25SR09","hd":"51","v_score":"0","decile":"1","lat":40.37496446854987,"lng":-111.93915536257472,"phone":"(608) 180-6647","sd":"22","ssbd":"10","lsbd":"School Board Lake Mountain 2"},{"vid":"40e11268103807eb903271de4b82bf26eac967df04262a3032eb8df4282c81e3","name":"Alexis Dooley","party":"Dem","address":"836 W Buffalo Dr, Saratoga Springs, UT 84045","precinct":"25SR09","hd":"51","v_score":"0","decile":"1","lat":40.37421783849896,"lng":-111.93623733728388,"phone":"(104) 105-5911","sd":"22","ssbd":"10","lsbd":"School Board Lake Mountain 2"},{"vid":"2223531","name":"Gale Morar","party":"Rep","address":"941 W Grouse Cir, Saratoga Springs, UT 84045","precinct":"25SR09","hd":"51","v_score":"2.315214949","decile":"5","lat":40.37547527030405,"lng":-111.93903498189852,"phone":"(207) 155-6457","sd":"22","ssbd":"10","lsbd":"School Board Lake Mountain 2"},{"vid":"07ca6a185defa2ed3c72b7a89d753b868dd8f3d22fe133b3f2a53f7241b7c676","name":"Mona Kutch-Feeney","party":"Dem","address":"1012 N Mustang Ln, Saratoga Springs, UT 84045","precinct":"25SR09","hd":"51","v_score":"0","decile":"1","lat":40.38041805026455,"lng":-111.93599560844419,"phone":"(546) 903-1059","sd":"22","ssbd":"10","lsbd":"School Board Lake Mountain 2"},{"vid":"2239417","name":"Peggie Armstrong","party":"Dem","address":"676 N Buffalo Dr, Saratoga Springs, UT 84045","precinct":"25SR09","hd":"51","v_score":"3.93832808","decile":"6","lat":40.374399290342424,"lng":-111.93651781228789,"phone":"(121) 598-5013","sd":"22","ssbd":"10","lsbd":"School Board Lake Mountain 2"},{"vid":"2243297","name":"Mr. Kolten Emmerich DDS","party":"Rep","address":"741 N Grouse Cir, Saratoga Springs, UT 84045","precinct":"25SR09","hd":"51","v_score":"3.93832808","decile":"6","lat":40.37551999282633,"lng":-111.93810969822378,"phone":"(872) 873-5368","sd":"22","ssbd":"10","lsbd":"School Board Lake Mountain 2"},{"vid":"36758a16cfb16a334fed6a8bc78ec2fecde7b20e8511781c6054f113bd8b7049","name":"Kirby Lang","party":"Rep","address":"879 N Joshua Dr, Saratoga Springs, UT 84045","precinct":"25SR09","hd":"51","v_score":"1.193887297","decile":"3","lat":40.37804156579589,"lng":-111.93732165146929,"phone":"(894) 923-7636","sd":"22","ssbd":"10","lsbd":"School Board Lake Mountain 2"},{"vid":"dde98c25fac3f72eea9a1e65c3724258b4dd0a7146c7754cf23566b72b2c73d0","name":"Autumn Kuphal","party":"","address":"1094 N Jack Rabbit Run, Saratoga Springs, UT 84045","precinct":"25SR09","hd":"51","v_score":"14.53919235","decile":"9","lat":40.38187046278851,"lng":-111.9370089794748,"phone":"(784) 154-7849","sd":"22","ssbd":"10","lsbd":"School Board Lake Mountain 2"},{"vid":"2280591","name":"Kindra Kirlin-Harber","party":"Rep","address":"962 N Rattler Rd, Saratoga Springs, UT 84045","precinct":"25SR09","hd":"51","v_score":"27.3835915","decile":"10","lat":40.37960794778912,"lng":-111.93761824061683,"phone":"(796) 126-1787","sd":"22","ssbd":"10","lsbd":"School Board Lake Mountain 2"},{"vid":"c3e43e1e215eb4cea9820535448e17a7ba44a37565abecf74661196576b05ff0","name":"Ms. Milda Skiles DVM","party":"Rep","address":"676 N Buffalo Dr, Saratoga Springs, UT 84045","precinct":"25SR09","hd":"51","v_score":"3.93832808","decile":"6","lat":40.374399290342424,"lng":-111.93651781228789,"phone":"(920) 569-2581","sd":"22","ssbd":"10","lsbd":"School Board Lake Mountain 2"},{"vid":"4ef67912db333f656a3f232d2703ef55a673e3d3c82ca17455bcbfede1fe2905","name":"Tommie Lynch","party":"Rep","address":"942 N Buffalo Dr, Saratoga Springs, UT 84045","precinct":"25SR09","hd":"51","v_score":"2.315214949","decile":"5","lat":40.37913092383188,"lng":-111.9358948579823,"phone":"(515) 987-3908","sd":"22","ssbd":"10","lsbd":"School Board Lake Mountain 2"},{"vid":"b942376cc4ead0b78400fbab39e98300bb07161b386b997a2f1ec6698a46afb6","name":"Mrs. Velda Lindgren","party":"","address":"592 N Meridian Dr, Saratoga Springs, UT 84045","precinct":"25SR09","hd":"51","v_score":"17.64290079","decile":"10","lat":40.37268721446045,"lng":-111.94345131554019,"phone":"(880) 266-7933","sd":"22","ssbd":"10","lsbd":"School Board Lake Mountain 2"},{"vid":"d90872b77aeafb8c9608a6a6232fb8ad7ccf7cd9cba9144aec35a47f54f54439","name":"Makayla Beatty PhD","party":"","address":"741 N Grouse Cir, Saratoga Springs, UT 84045","precinct":"25SR09","hd":"51","v_score":"3.93832808","decile":"6","lat":40.37551999282633,"lng":-111.93810969822378,"phone":"(411) 390-3309","sd":"22","ssbd":"10","lsbd":"School Board Lake Mountain 2"},{"vid":"2315708","name":"Candis Runolfsson","party":"","address":"854 W Tortoise Cir, Saratoga Springs, UT 84045","precinct":"25SR09","hd":"51","v_score":"0","decile":"1","lat":40.37908959451515,"lng":-111.93680316353816,"phone":"(749) 234-9755","sd":"22","ssbd":"10","lsbd":"School Board Lake Mountain 2"},{"vid":"2328644","name":"Jackie Willms","party":"Dem","address":"1014 N Jack Rabbit Run, Saratoga Springs, UT 84045","precinct":"25SR09","hd":"51","v_score":"6.027167436","decile":"7","lat":40.38034617064798,"lng":-111.93827930302258,"phone":"(673) 421-9863","sd":"22","ssbd":"10","lsbd":"School Board Lake Mountain 2"},{"vid":"2331345","name":"Burnice Zulauf","party":"","address":"916 W Mountain Peak Dr, Saratoga Springs, UT 84045","precinct":"25SR09","hd":"51","v_score":"0","decile":"1","lat":40.37277776518771,"lng":-111.93840819784592,"phone":"(771) 708-7687","sd":"22","ssbd":"10","lsbd":"School Board Lake Mountain 2"},{"vid":"2337822","name":"Vicky Konopelski","party":"Dem","address":"871 N Buffalo Dr, Saratoga Springs, UT 84045","precinct":"25SR09","hd":"51","v_score":"2.315214949","decile":"5","lat":40.377951781785555,"lng":-111.9363885086414,"phone":"(238) 504-8838","sd":"22","ssbd":"10","lsbd":"School Board Lake Mountain 2"},{"vid":"2345828","name":"Shannon Wisozk","party":"Dem","address":"884 W Red Fox Ln, Saratoga Springs, UT 84045","precinct":"25SR09","hd":"51","v_score":"0","decile":"1","lat":40.37618761669713,"lng":-111.93746533354553,"phone":"(344) 345-1517","sd":"22","ssbd":"10","lsbd":"School Board Lake Mountain 2"},{"vid":"2361690","name":"Kyleigh Green","party":"Dem","address":"862 W Buffalo Dr, Saratoga Springs, UT 84045","precinct":"25SR09","hd":"51","v_score":"1.193887297","decile":"3","lat":40.380566751092246,"lng":-111.93686205055452,"phone":"(454) 876-2766","sd":"22","ssbd":"10","lsbd":"School Board Lake Mountain 2"},{"vid":"2361897","name":"Grove Block MD","party":"","address":"1038 N Mustang Ln, Saratoga Springs, UT 84045","precinct":"25SR09","hd":"51","v_score":"1.121327652","decile":"3","lat":40.38097807994999,"lng":-111.9358213912431,"phone":"(983) 630-0858","sd":"22","ssbd":"10","lsbd":"School Board Lake Mountain 2"},{"vid":"2365375","name":"Mr. Lonny McCullough","party":"Rep","address":"876 W Mountain Peak Dr, Saratoga Springs, UT 84045","precinct":"25SR09","hd":"51","v_score":"23.24977213","decile":"10","lat":40.37283251932757,"lng":-111.93710372337544,"phone":"(294) 252-9643","sd":"22","ssbd":"10","lsbd":"School Board Lake Mountain 2"},{"vid":"2365560","name":"Glenn White-Breitenberg","party":"Rep","address":"897 W Buffalo Dr, Saratoga Springs, UT 84045","precinct":"25SR09","hd":"51","v_score":"3.93832808","decile":"6","lat":40.380457602709114,"lng":-111.93773312669167,"phone":"(266) 058-8106","sd":"22","ssbd":"10","lsbd":"School Board Lake Mountain 2"},{"vid":"2378782","name":"Mr. Darvin Cummings","party":"Dem","address":"843 W Buffalo Dr, Saratoga Springs, UT 84045","precinct":"25SR09","hd":"51","v_score":"3.93832808","decile":"6","lat":40.373984661924,"lng":-111.93645508490033,"phone":"(855) 765-1898","sd":"22","ssbd":"10","lsbd":"School Board Lake Mountain 2"},{"vid":"2391975","name":"Casimer Eichmann III","party":"","address":"901 W Prairie Dog Way, Saratoga Springs, UT 84045","precinct":"25SR09","hd":"51","v_score":"14.93113152","decile":"9","lat":40.3743375872135,"lng":-111.93777495096181,"phone":"(975) 499-4309","sd":"22","ssbd":"10","lsbd":"School Board Lake Mountain 2"},{"vid":"2397171","name":"Burley Dicki-Dare","party":"Rep","address":"1122 N Coyote Run, Saratoga Springs, UT 84045","precinct":"25SR09","hd":"51","v_score":"0","decile":"1","lat":40.38234948788346,"lng":-111.93778251754252,"phone":"(417) 156-3350","sd":"22","ssbd":"10","lsbd":"School Board Lake Mountain 2"},{"vid":"2399830","name":"Marlin Ebert-Kiehn","party":"","address":"682 N Badger Ln, Saratoga Springs, UT 84045","precinct":"25SR09","hd":"51","v_score":"0","decile":"1","lat":40.37455434058458,"lng":-111.93953770432583,"phone":"(361) 865-1038","sd":"22","ssbd":"10","lsbd":"School Board Lake Mountain 2"},{"vid":"2406791","name":"Karren Spencer DVM","party":"Rep","address":"871 W Prairie Dog Way, Saratoga Springs, UT 84045","precinct":"25SR09","hd":"51","v_score":"1.121327652","decile":"3","lat":40.37435537830477,"lng":-111.93707211131702,"phone":"(262) 959-7795","sd":"22","ssbd":"10","lsbd":"School Board Lake Mountain 2"},{"vid":"2406918","name":"Mrs. Casandra Abernathy DDS","party":"","address":"943 N Buffalo Dr, Saratoga Springs, UT 84045","precinct":"25SR09","hd":"51","v_score":"0","decile":"1","lat":40.379148183448386,"lng":-111.93645454918781,"phone":"(357) 731-5506","sd":"22","ssbd":"10","lsbd":"School Board Lake Mountain 2"},{"vid":"2410753","name":"Marius Medhurst","party":"Rep","address":"592 N Meridian Dr, Saratoga Springs, UT 84045","precinct":"25SR09","hd":"51","v_score":"11.75026697","decile":"9","lat":40.37268721446045,"lng":-111.94345131554019,"phone":"(361) 035-5670","sd":"22","ssbd":"10","lsbd":"School Board Lake Mountain 2"},{"vid":"2424557","name":"Aubrey Cole","party":"Dem","address":"859 W Rattler Rd, Saratoga Springs, UT 84045","precinct":"25SR09","hd":"51","v_score":"3.93832808","decile":"6","lat":40.37947461316159,"lng":-111.93678643029031,"phone":"(690) 157-6943","sd":"22","ssbd":"10","lsbd":"School Board Lake Mountain 2"},{"vid":"2424569","name":"Harper Morar","party":"","address":"859 W Rattler Rd, Saratoga Springs, UT 84045","precinct":"25SR09","hd":"51","v_score":"3.93832808","decile":"6","lat":40.37947461316159,"lng":-111.93678643029031,"phone":"(315) 844-7097","sd":"22","ssbd":"10","lsbd":"School Board Lake Mountain 2"},{"vid":"2425766","name":"Fawn Barton DVM","party":"","address":"973 N Jack Rabbit Run, Saratoga Springs, UT 84045","precinct":"25SR09","hd":"51","v_score":"0","decile":"1","lat":40.37981814886362,"lng":-111.93900130793195,"phone":"(620) 033-3843","sd":"22","ssbd":"10","lsbd":"School Board Lake Mountain 2"},{"vid":"2441605","name":"Kathaleen Stracke","party":"","address":"941 W Grouse Cir, Saratoga Springs, UT 84045","precinct":"25SR09","hd":"51","v_score":"2.315214949","decile":"5","lat":40.37547527030405,"lng":-111.93903498189852,"phone":"(348) 685-7803","sd":"22","ssbd":"10","lsbd":"School Board Lake Mountain 2"},{"vid":"2444293","name":"Mrs. Amey Dooley","party":"","address":"931 W Grouse Cir, Saratoga Springs, UT 84045","precinct":"25SR09","hd":"51","v_score":"1.121327652","decile":"3","lat":40.37525903110271,"lng":-111.93858520285694,"phone":"(812) 674-0806","sd":"22","ssbd":"10","lsbd":"School Board Lake Mountain 2"},{"vid":"2444449","name":"Berenice Pagac","party":"Rep","address":"914 W Red Fox Ln, Saratoga Springs, UT 84045","precinct":"25SR09","hd":"51","v_score":"1.121327652","decile":"3","lat":40.37632371316616,"lng":-111.93808622553402,"phone":"(813) 211-6635","sd":"22","ssbd":"10","lsbd":"School Board Lake Mountain 2"},{"vid":"2456683","name":"Derrell Ferry","party":"","address":"1031 N Coyote Run, Saratoga Springs, UT 84045","precinct":"25SR09","hd":"51","v_score":"2.315214949","decile":"5","lat":40.38083428107589,"lng":-111.9394835142516,"phone":"(327) 557-0703","sd":"22","ssbd":"10","lsbd":"School Board Lake Mountain 2"},{"vid":"2459101","name":"Dr. Clarke Koelpin PhD","party":"","address":"862 W Tortoise Cir, Saratoga Springs, UT 84045","precinct":"25SR09","hd":"51","v_score":"1.193887297","decile":"3","lat":40.37912493729087,"lng":-111.93704809381187,"phone":"(805) 908-2523","sd":"22","ssbd":"10","lsbd":"School Board Lake Mountain 2"},{"vid":"2460662","name":"Olin Kulas","party":"Rep","address":"858 W Red Hen Rd, Saratoga Springs, UT 84045","precinct":"25SR09","hd":"51","v_score":"1.193887297","decile":"3","lat":40.38324577941234,"lng":-111.93688223511832,"phone":"(641) 980-4099","sd":"22","ssbd":"10","lsbd":"School Board Lake Mountain 2"},{"vid":"2464699","name":"Mckinley Harvey-White","party":"Rep","address":"673 N Buffalo Dr, Saratoga Springs, UT 84045","precinct":"25SR09","hd":"51","v_score":"0","decile":"1","lat":40.37422294695091,"lng":-111.93680270161614,"phone":"(465) 081-7581","sd":"22","ssbd":"10","lsbd":"School Board Lake Mountain 2"},{"vid":"2480080","name":"Alferd Schulist","party":"Rep","address":"1014 N Jack Rabbit Run, Saratoga Springs, UT 84045","precinct":"25SR09","hd":"51","v_score":"9.40499548","decile":"8","lat":40.38034617064798,"lng":-111.93827930302258,"phone":"(556) 917-2612","sd":"22","ssbd":"10","lsbd":"School Board Lake Mountain 2"},{"vid":"2481900","name":"Gustavus Muller","party":"","address":"857 W Mustang Cir, Saratoga Springs, UT 84045","precinct":"25SR09","hd":"51","v_score":"0","decile":"1","lat":40.381013320511,"lng":-111.93703622591647,"phone":"(311) 881-6158","sd":"22","ssbd":"10","lsbd":"School Board Lake Mountain 2"},{"vid":"2482227","name":"Reynold Berge","party":"","address":"879 N Joshua Dr, Saratoga Springs, UT 84045","precinct":"25SR09","hd":"51","v_score":"1.193887297","decile":"3","lat":40.37804156579589,"lng":-111.93732165146929,"phone":"(784) 457-2494","sd":"22","ssbd":"10","lsbd":"School Board Lake Mountain 2"},{"vid":"2491812","name":"Faye Hartmann","party":"Dem","address":"961 N Rattler Rd, Saratoga Springs, UT 84045","precinct":"25SR09","hd":"51","v_score":"0","decile":"1","lat":40.379628012848386,"lng":-111.93800836055735,"phone":"(921) 835-5946","sd":"22","ssbd":"10","lsbd":"School Board Lake Mountain 2"},{"vid":"2492910","name":"Toshio Graham","party":"","address":"852 N Joshua Dr, Saratoga Springs, UT 84045","precinct":"25SR09","hd":"51","v_score":"0","decile":"1","lat":40.37751951620885,"lng":-111.93686936306028,"phone":"(598) 432-5715","sd":"22","ssbd":"10","lsbd":"School Board Lake Mountain 2"},{"vid":"2498426","name":"Mrs. Cathey Kihn","party":"Dem","address":"1122 N Coyote Run, Saratoga Springs, UT 84045","precinct":"25SR09","hd":"51","v_score":"0","decile":"1","lat":40.38234948788346,"lng":-111.93778251754252,"phone":"(146) 820-1315","sd":"22","ssbd":"10","lsbd":"School Board Lake Mountain 2"},{"vid":"2501667","name":"Willaim Schroeder","party":"Rep","address":"871 W Prairie Dog Way, Saratoga Springs, UT 84045","precinct":"25SR09","hd":"51","v_score":"1.193887297","decile":"3","lat":40.37435537830477,"lng":-111.93707211131702,"phone":"(153) 597-8018","sd":"22","ssbd":"10","lsbd":"School Board Lake Mountain 2"},{"vid":"2509002","name":"Myrl Wuckert IV","party":"","address":"639 N Badger Ln, Saratoga Springs, UT 84045","precinct":"25SR09","hd":"51","v_score":"0","decile":"1","lat":40.37364226539035,"lng":-111.94010675831224,"phone":"(866) 419-5350","sd":"22","ssbd":"10","lsbd":"School Board Lake Mountain 2"},{"vid":"2509466","name":"Lenon Bergnaum","party":"Dem","address":"982 W Burro Way, Saratoga Springs, UT 84045","precinct":"25SR09","hd":"51","v_score":"0","decile":"1","lat":40.37830099916403,"lng":-111.9395928097997,"phone":"(485) 117-6180","sd":"22","ssbd":"10","lsbd":"School Board Lake Mountain 2"},{"vid":"2511145","name":"Brisa Weber","party":"Dem","address":"937 N Rattler Rd, Saratoga Springs, UT 84045","precinct":"25SR09","hd":"51","v_score":"0","decile":"1","lat":40.37905966425851,"lng":-111.93815016197239,"phone":"(368) 201-2934","sd":"22","ssbd":"10","lsbd":"School Board Lake Mountain 2"},{"vid":"2516112","name":"Wendel Rempel","party":"Dem","address":"932 W Burro Way, Saratoga Springs, UT 84045","precinct":"25SR09","hd":"51","v_score":"1.193887297","decile":"4","lat":40.37705289455266,"lng":-111.9384036630395,"phone":"(892) 810-1637","sd":"22","ssbd":"10","lsbd":"School Board Lake Mountain 2"},{"vid":"2519381","name":"Dennis Kuphal","party":"Rep","address":"1112 N Coyote Run, Saratoga Springs, UT 84045","precinct":"25SR09","hd":"51","v_score":"4.069929862","decile":"6","lat":40.38211999449109,"lng":-111.93786503890124,"phone":"(213) 364-6840","sd":"22","ssbd":"10","lsbd":"School Board Lake Mountain 2"},{"vid":"2523886","name":"Sada Kuphal","party":"Dem","address":"621 N Badger Ln, Saratoga Springs, UT 84045","precinct":"25SR09","hd":"51","v_score":"1.193887297","decile":"4","lat":40.37336784206367,"lng":-111.94010700211501,"phone":"(985) 610-8342","sd":"22","ssbd":"10","lsbd":"School Board Lake Mountain 2"},{"vid":"2525427","name":"Wash Ledner","party":"","address":"953 W Prairie Dog Way, Saratoga Springs, UT 84045","precinct":"25SR09","hd":"51","v_score":"1.193887297","decile":"4","lat":40.374596437598385,"lng":-111.93911674394903,"phone":"(958) 441-2040","sd":"22","ssbd":"10","lsbd":"School Board Lake Mountain 2"},{"vid":"2526147","name":"Cielo Jenkins","party":"","address":"871 W Prairie Dog Way, Saratoga Springs, UT 84045","precinct":"25SR09","hd":"51","v_score":"0","decile":"1","lat":40.37435537830477,"lng":-111.93707211131702,"phone":"(933) 904-3704","sd":"22","ssbd":"10","lsbd":"School Board Lake Mountain 2"},{"vid":"2533020","name":"Dr. Nathalia Bins MD","party":"","address":"646 N Badger Ln, Saratoga Springs, UT 84045","precinct":"25SR09","hd":"51","v_score":"1.193887297","decile":"4","lat":40.373840817320264,"lng":-111.93952246243074,"phone":"(190) 138-8070","sd":"22","ssbd":"10","lsbd":"School Board Lake Mountain 2"},{"vid":"2537978","name":"Offie Ernser","party":"","address":"901 W Chukar Cir, Saratoga Springs, UT 84045","precinct":"25SR09","hd":"51","v_score":"0","decile":"1","lat":40.37735630218171,"lng":-111.93785832893082,"phone":"(838) 199-9106","sd":"22","ssbd":"10","lsbd":"School Board Lake Mountain 2"},{"vid":"2539150","name":"Woodson Ortiz","party":"","address":"879 N Red Fox Ln, Saratoga Springs, UT 84045","precinct":"25SR09","hd":"51","v_score":"1.193887297","decile":"4","lat":40.37803446024575,"lng":-111.9399536682518,"phone":"(572) 793-2986","sd":"22","ssbd":"10","lsbd":"School Board Lake Mountain 2"},{"vid":"2542253","name":"Diya Schulist","party":"Rep","address":"901 W Prairie Dog Way, Saratoga Springs, UT 84045","precinct":"25SR09","hd":"51","v_score":"5.407962308","decile":"7","lat":40.3743375872135,"lng":-111.93777495096181,"phone":"(550) 328-0018","sd":"22","ssbd":"10","lsbd":"School Board Lake Mountain 2"},{"vid":"2544849","name":"Calla Mraz","party":"","address":"1116 N Mustang Ln, Saratoga Springs, UT 84045","precinct":"25SR09","hd":"51","v_score":"2.817000428","decile":"6","lat":40.38235018699744,"lng":-111.93581484701623,"phone":"(867) 491-2839","sd":"22","ssbd":"10","lsbd":"School Board Lake Mountain 2"},{"vid":"2551299","name":"Mrs. Willow Beatty MD","party":"","address":"859 W Rattler Rd, Saratoga Springs, UT 84045","precinct":"25SR09","hd":"51","v_score":"1.193887297","decile":"4","lat":40.37947461316159,"lng":-111.93678643029031,"phone":"(818) 002-9305","sd":"22","ssbd":"10","lsbd":"School Board Lake Mountain 2"},{"vid":"2557929","name":"Alia Zemlak","party":"Dem","address":"871 N Buffalo Dr, Apt B, Saratoga Springs, UT 84045","precinct":"25SR09","hd":"51","v_score":"0","decile":"1","lat":40.377951781785555,"lng":-111.9363885086414,"phone":"(468) 423-4141","sd":"22","ssbd":"10","lsbd":"School Board Lake Mountain 2"},{"vid":"2561941","name":"Dawn Altenwerth","party":"Rep","address":"1081 N Coyote Run, Saratoga Springs, UT 84045","precinct":"25SR09","hd":"51","v_score":"12.768328","decile":"9","lat":40.381842388909895,"lng":-111.93871997960079,"phone":"(439) 526-8310","sd":"22","ssbd":"10","lsbd":"School Board Lake Mountain 2"},{"vid":"2577566","name":"Johney Connelly","party":"Rep","address":"1056 N Mustang Ln, Saratoga Springs, UT 84045","precinct":"25SR09","hd":"51","v_score":"1.193887297","decile":"4","lat":40.38125248446244,"lng":-111.93582008994355,"phone":"(963) 819-5504","sd":"22","ssbd":"10","lsbd":"School Board Lake Mountain 2"},{"vid":"2577725","name":"Miss Mercy Baumbach","party":"Dem","address":"1012 N Mustang Ln, Saratoga Springs, UT 84045","precinct":"25SR09","hd":"51","v_score":"1.193887297","decile":"4","lat":40.38041805026455,"lng":-111.93599560844419,"phone":"(299) 789-9043","sd":"22","ssbd":"10","lsbd":"School Board Lake Mountain 2"},{"vid":"2590028","name":"Shanequa DuBuque-Veum","party":"","address":"899 W Burro Way, Saratoga Springs, UT 84045","precinct":"25SR09","hd":"51","v_score":"1.193887297","decile":"4","lat":40.376592599756734,"lng":-111.93776359055036,"phone":"(277) 694-7677","sd":"22","ssbd":"10","lsbd":"School Board Lake Mountain 2"},{"vid":"2594068","name":"Karan Cremin","party":"Rep","address":"1049 N Coyote Run, Saratoga Springs, UT 84045","precinct":"25SR09","hd":"51","v_score":"0","decile":"1","lat":40.381117850244145,"lng":-111.93926039553163,"phone":"(747) 181-6057","sd":"22","ssbd":"10","lsbd":"School Board Lake Mountain 2"},{"vid":"2598950","name":"Amanda Upton","party":"","address":"941 W Grouse Cir, Saratoga Springs, UT 84045","precinct":"25SR09","hd":"51","v_score":"0","decile":"1","lat":40.37547527030405,"lng":-111.93903498189852,"phone":"(969) 072-5833","sd":"22","ssbd":"10","lsbd":"School Board Lake Mountain 2"},{"vid":"2600785","name":"Darren Hamill","party":"","address":"738 N Grouse Cir, Saratoga Springs, UT 84045","precinct":"25SR09","hd":"51","v_score":"0","decile":"1","lat":40.375482114625335,"lng":-111.93769625705764,"phone":"(384) 061-9955","sd":"22","ssbd":"10","lsbd":"School Board Lake Mountain 2"},{"vid":"2602824","name":"Claiborne Borer","party":"Dem","address":"757 N Badger Ln, Saratoga Springs, UT 84045","precinct":"25SR09","hd":"51","v_score":"3.711952487","decile":"6","lat":40.37578282624872,"lng":-111.93995399476145,"phone":"(583) 348-6754","sd":"22","ssbd":"10","lsbd":"School Board Lake Mountain 2"},{"vid":"2604260","name":"Britni Langworth-Champlin","party":"","address":"818 N Joshua Dr, Saratoga Springs, UT 84045","precinct":"25SR09","hd":"51","v_score":"0","decile":"1","lat":40.37666436191249,"lng":-111.93731052766353,"phone":"(656) 836-7794","sd":"22","ssbd":"10","lsbd":"School Board Lake Mountain 2"},{"vid":"2615335","name":"Myrl Ryan-Sipes","party":"Dem","address":"919 W Joshua Dr, Saratoga Springs, UT 84045","precinct":"25SR09","hd":"51","v_score":"0","decile":"1","lat":40.3785559916358,"lng":-111.9379794042974,"phone":"(933) 792-3746","sd":"22","ssbd":"10","lsbd":"School Board Lake Mountain 2"},{"vid":"2616712","name":"Schuyler Jakubowski","party":"Rep","address":"883 W Buffalo Dr, Saratoga Springs, UT 84045","precinct":"25SR09","hd":"51","v_score":"13.61907049","decile":"9","lat":40.38034471900532,"lng":-111.93742153288123,"phone":"(964) 491-6565","sd":"22","ssbd":"10","lsbd":"School Board Lake Mountain 2"},{"vid":"2621701","name":"Dr. Jaycie Batz DDS","party":"","address":"1014 N Jack Rabbit Run, Saratoga Springs, UT 84045","precinct":"25SR09","hd":"51","v_score":"0","decile":"1","lat":40.38034617064798,"lng":-111.93827930302258,"phone":"(572) 082-8971","sd":"22","ssbd":"10","lsbd":"School Board Lake Mountain 2"},{"vid":"2622123","name":"Jaylen Runte","party":"","address":"862 W Buffalo Dr, Saratoga Springs, UT 84045","precinct":"25SR09","hd":"51","v_score":"1.193887297","decile":"4","lat":40.380566751092246,"lng":-111.93686205055452,"phone":"(374) 173-3038","sd":"22","ssbd":"10","lsbd":"School Board Lake Mountain 2"},{"vid":"2629101","name":"Norine Abbott","party":"","address":"873 W Buffalo Dr, Saratoga Springs, UT 84045","precinct":"25SR09","hd":"51","v_score":"1.193887297","decile":"4","lat":40.38026147403725,"lng":-111.93716437757186,"phone":"(285) 696-5981","sd":"22","ssbd":"10","lsbd":"School Board Lake Mountain 2"},{"vid":"2634089","name":"Aryanna Fadel-Roberts","party":"Dem","address":"634 N Pheasant Cir, Saratoga Springs, UT 84045","precinct":"25SR09","hd":"51","v_score":"1.193887297","decile":"4","lat":40.37378432020996,"lng":-111.93867946338301,"phone":"(127) 998-3009","sd":"22","ssbd":"10","lsbd":"School Board Lake Mountain 2"},{"vid":"2640316","name":"Ms. Sharonda Blanda","party":"","address":"805 N Red Fox Ln, Saratoga Springs, UT 84045","precinct":"25SR09","hd":"51","v_score":"1.193887297","decile":"4","lat":40.376536440792464,"lng":-111.93987985875671,"phone":"(512) 515-4019","sd":"22","ssbd":"10","lsbd":"School Board Lake Mountain 2"},{"vid":"2641205","name":"Tab Torp","party":"Dem","address":"1091 N Mustang Ln, Saratoga Springs, UT 84045","precinct":"25SR09","hd":"51","v_score":"2.817000428","decile":"6","lat":40.38185683851914,"lng":-111.93653500167586,"phone":"(287) 227-2684","sd":"22","ssbd":"10","lsbd":"School Board Lake Mountain 2"},{"vid":"2643303","name":"Francina Altenwerth","party":"Rep","address":"982 N Buffalo Dr, Saratoga Springs, UT 84045","precinct":"25SR09","hd":"51","v_score":"2.817000428","decile":"6","lat":40.37983033907461,"lng":-111.93591427586789,"phone":"(757) 556-8501","sd":"22","ssbd":"10","lsbd":"School Board Lake Mountain 2"},{"vid":"2649022","name":"Terry Blick","party":"Dem","address":"672 N Badger Ln, Saratoga Springs, UT 84045","precinct":"25SR09","hd":"51","v_score":"4.069929862","decile":"6","lat":40.374274423622694,"lng":-111.93953791435194,"phone":"(591) 766-5305","sd":"22","ssbd":"10","lsbd":"School Board Lake Mountain 2"},{"vid":"2651497","name":"Berlin Kling","party":"","address":"892 N Buffalo Dr, Saratoga Springs, UT 84045","precinct":"25SR09","hd":"51","v_score":"1.193887297","decile":"4","lat":40.37830768019577,"lng":-111.93589876206053,"phone":"(798) 977-4542","sd":"22","ssbd":"10","lsbd":"School Board Lake Mountain 2"},{"vid":"2654911","name":"Mr. Titus Shields","party":"","address":"862 W Tortoise Cir, Saratoga Springs, UT 84045","precinct":"25SR09","hd":"51","v_score":"1.193887297","decile":"4","lat":40.37912493729087,"lng":-111.93704809381187,"phone":"(731) 653-3157","sd":"22","ssbd":"10","lsbd":"School Board Lake Mountain 2"},{"vid":"2662419","name":"Gene Kihn","party":"","address":"858 W Mustang Cir, Saratoga Springs, UT 84045","precinct":"25SR09","hd":"51","v_score":"0","decile":"1","lat":40.381192158216145,"lng":-111.9369863490778,"phone":"(288) 167-3960","sd":"22","ssbd":"10","lsbd":"School Board Lake Mountain 2"},{"vid":"2665858","name":"Miss London Gusikowski MD","party":"","address":"726 N Grouse Cir, Saratoga Springs, UT 84045","precinct":"25SR09","hd":"51","v_score":"0","decile":"1","lat":40.375259055372965,"lng":-111.93773221430324,"phone":"(531) 080-4246","sd":"22","ssbd":"10","lsbd":"School Board Lake Mountain 2"},{"vid":"2665859","name":"Pinkie Luettgen","party":"Dem","address":"726 N Grouse Cir, Saratoga Springs, UT 84045","precinct":"25SR09","hd":"51","v_score":"1.193887297","decile":"4","lat":40.375259055372965,"lng":-111.93773221430324,"phone":"(670) 846-3232","sd":"22","ssbd":"10","lsbd":"School Board Lake Mountain 2"},{"vid":"2666544","name":"Ura Koss","party":"","address":"884 W Red Fox Ln, Saratoga Springs, UT 84045","precinct":"25SR09","hd":"51","v_score":"1.193887297","decile":"4","lat":40.37618761669713,"lng":-111.93746533354553,"phone":"(563) 179-0135","sd":"22","ssbd":"10","lsbd":"School Board Lake Mountain 2"},{"vid":"2670360","name":"Jamel Ratke","party":"Rep","address":"916 W Mountain Peak Dr, Saratoga Springs, UT 84045","precinct":"25SR09","hd":"51","v_score":"0","decile":"2","lat":40.37277776518771,"lng":-111.93840819784592,"phone":"(703) 950-3029","sd":"22","ssbd":"10","lsbd":"School Board Lake Mountain 2"},{"vid":"2677540","name":"Cordelia Christiansen-Kiehn","party":"","address":"901 N Buffalo Dr, Saratoga Springs, UT 84045","precinct":"25SR09","hd":"51","v_score":"0","decile":"2","lat":40.378445728717864,"lng":-111.93648397422362,"phone":"(520) 987-5895","sd":"22","ssbd":"10","lsbd":"School Board Lake Mountain 2"},{"vid":"2678448","name":"Primus Lebsack MD","party":"Rep","address":"853 W Mustang Cir, Saratoga Springs, UT 84045","precinct":"25SR09","hd":"51","v_score":"0","decile":"2","lat":40.38093310617893,"lng":-111.93674240812652,"phone":"(970) 668-2977","sd":"22","ssbd":"10","lsbd":"School Board Lake Mountain 2"},{"vid":"2680583","name":"Hugo Padberg","party":"Rep","address":"846 W Mountain Peak Dr, Saratoga Springs, UT 84045","precinct":"25SR09","hd":"51","v_score":"0","decile":"2","lat":40.372745937569555,"lng":-111.93612943205397,"phone":"(655) 224-8384","sd":"22","ssbd":"10","lsbd":"School Board Lake Mountain 2"},{"vid":"2683191","name":"Ms. Mari Hermann DDS","party":"","address":"932 W Red Fox Ln, Saratoga Springs, UT 84045","precinct":"25SR09","hd":"51","v_score":"1.193887297","decile":"4","lat":40.376392205914165,"lng":-111.9383985922162,"phone":"(402) 837-3772","sd":"22","ssbd":"10","lsbd":"School Board Lake Mountain 2"},{"vid":"2686918","name":"Mayra Bogan","party":"Rep","address":"896 W Mountain Peak Dr, Saratoga Springs, UT 84045","precinct":"25SR09","hd":"51","v_score":"0","decile":"2","lat":40.372829225418606,"lng":-111.93774957613209,"phone":"(274) 213-1946","sd":"22","ssbd":"10","lsbd":"School Board Lake Mountain 2"},{"vid":"2691225","name":"Albertha Hills PhD","party":"","address":"546 N Slate Ct, Saratoga Springs, UT 84045","precinct":"25SR09","hd":"51","v_score":"0","decile":"2","lat":40.37217250061378,"lng":-111.9371065872634,"phone":"(776) 527-6564","sd":"22","ssbd":"10","lsbd":"School Board Lake Mountain 2"},{"vid":"2692440","name":"Hope Mertz PhD","party":"Rep","address":"628 N Fox Cir, Saratoga Springs, UT 84045","precinct":"25SR09","hd":"51","v_score":"1.193887297","decile":"4","lat":40.37354529687178,"lng":-111.93716173305404,"phone":"(115) 226-8584","sd":"22","ssbd":"10","lsbd":"School Board Lake Mountain 2"},{"vid":"2695942","name":"Billye Donnelly PhD","party":"Dem","address":"699 N Badger Ln, Saratoga Springs, UT 84045","precinct":"25SR09","hd":"51","v_score":"0","decile":"2","lat":40.37473995436486,"lng":-111.94010589036,"phone":"(908) 089-9643","sd":"22","ssbd":"10","lsbd":"School Board Lake Mountain 2"},{"vid":"2700260","name":"Mara Prosacco PhD","party":"","address":"852 W Jack Rabbit Run, Saratoga Springs, UT 84045","precinct":"25SR09","hd":"51","v_score":"0","decile":"2","lat":40.38250267994041,"lng":-111.93682502138552,"phone":"(787) 684-9846","sd":"22","ssbd":"10","lsbd":"School Board Lake Mountain 2"},{"vid":"2704863","name":"Mrs. Salome Gusikowski PhD","party":"","address":"821 N Buffalo Dr, Saratoga Springs, UT 84045","precinct":"25SR09","hd":"51","v_score":"1.193887297","decile":"4","lat":40.376986094584886,"lng":-111.93649154689297,"phone":"(429) 588-5030","sd":"22","ssbd":"10","lsbd":"School Board Lake Mountain 2"},{"vid":"2712194","name":"Ardell Parisian PhD","party":"","address":"807 N Buffalo Dr, Saratoga Springs, UT 84045","precinct":"25SR09","hd":"51","v_score":"1.193887297","decile":"4","lat":40.37677027189367,"lng":-111.93665257503149,"phone":"(331) 598-9762","sd":"22","ssbd":"10","lsbd":"School Board Lake Mountain 2"},{"vid":"2715671","name":"Elma Marvin","party":"Dem","address":"901 W Chukar Cir, Saratoga Springs, UT 84045","precinct":"25SR09","hd":"51","v_score":"0","decile":"2","lat":40.37735630218171,"lng":-111.93785832893082,"phone":"(747) 951-5900","sd":"22","ssbd":"10","lsbd":"School Board Lake Mountain 2"},{"vid":"2717102","name":"Harvey Harvey-Lesch","party":"","address":"914 W Pheasant Ln, Saratoga Springs, UT 84045","precinct":"25SR09","hd":"51","v_score":"0","decile":"2","lat":40.37376978860937,"lng":-111.93796577746461,"phone":"(235) 146-3205","sd":"22","ssbd":"10","lsbd":"School Board Lake Mountain 2"},{"vid":"2735737","name":"Sage Graham","party":"Rep","address":"907 W Mountain Peak Dr, Saratoga Springs, UT 84045","precinct":"25SR09","hd":"51","v_score":"0","decile":"2","lat":40.37233859804058,"lng":-111.9380503841915,"phone":"(461) 198-7724","sd":"22","ssbd":"10","lsbd":"School Board Lake Mountain 2"},{"vid":"2735973","name":"Era Botsford","party":"Dem","address":"899 W Burro Way, Saratoga Springs, UT 84045","precinct":"25SR09","hd":"51","v_score":"1.193887297","decile":"4","lat":40.376592599756734,"lng":-111.93776359055036,"phone":"(208) 097-8216","sd":"22","ssbd":"10","lsbd":"School Board Lake Mountain 2"},{"vid":"2750787","name":"Abe Spencer MD","party":"Dem","address":"858 W Red Hen Rd, Saratoga Springs, UT 84045","precinct":"25SR09","hd":"51","v_score":"2.876042565","decile":"6","lat":40.38324577941234,"lng":-111.93688223511832,"phone":"(223) 744-2670","sd":"22","ssbd":"10","lsbd":"School Board Lake Mountain 2"},{"vid":"2755784","name":"Valentin Schiller-Lowe","party":"","address":"919 W Red Fox Ln, Saratoga Springs, UT 84045","precinct":"25SR09","hd":"51","v_score":"1.193887297","decile":"4","lat":40.37585796002652,"lng":-111.9381047940104,"phone":"(294) 856-8393","sd":"22","ssbd":"10","lsbd":"School Board Lake Mountain 2"},{"vid":"2760989","name":"Miss Erlene Bogan","party":"Dem","address":"609 N Badger Ln, Saratoga Springs, UT 84045","precinct":"25SR09","hd":"51","v_score":"5.407962308","decile":"7","lat":40.37303808205847,"lng":-111.94003405567999,"phone":"(194) 101-0861","sd":"22","ssbd":"10","lsbd":"School Board Lake Mountain 2"},{"vid":"2770415","name":"Sharleen Collier","party":"Dem","address":"884 W Red Fox Ln, Saratoga Springs, UT 84045","precinct":"25SR09","hd":"51","v_score":"0","decile":"2","lat":40.37618761669713,"lng":-111.93746533354553,"phone":"(106) 312-1144","sd":"22","ssbd":"10","lsbd":"School Board Lake Mountain 2"},{"vid":"2771490","name":"Levina Reilly-Armstrong","party":"Dem","address":"941 W Grouse Cir, Saratoga Springs, UT 84045","precinct":"25SR09","hd":"51","v_score":"1.193887297","decile":"4","lat":40.37547527030405,"lng":-111.93903498189852,"phone":"(800) 878-7072","sd":"22","ssbd":"10","lsbd":"School Board Lake Mountain 2"},{"vid":"2776518","name":"Gabriela Kuhlman","party":"Rep","address":"991 N Coyote Run, Saratoga Springs, UT 84045","precinct":"25SR09","hd":"51","v_score":"0","decile":"2","lat":40.380082633184244,"lng":-111.9398572496251,"phone":"(830) 714-9197","sd":"22","ssbd":"10","lsbd":"School Board Lake Mountain 2"},{"vid":"2778797","name":"Elgin Dach I","party":"Dem","address":"1079 N Jack Rabbit Run, Saratoga Springs, UT 84045","precinct":"25SR09","hd":"51","v_score":"1.193887297","decile":"4","lat":40.38174426606137,"lng":-111.93779228365767,"phone":"(504) 344-5606","sd":"22","ssbd":"10","lsbd":"School Board Lake Mountain 2"},{"vid":"2779676","name":"Mandy McClure","party":"Rep","address":"883 W Prairie Dog Way, Saratoga Springs, UT 84045","precinct":"25SR09","hd":"51","v_score":"4.214075011","decile":"7","lat":40.374278457660296,"lng":-111.9374344394788,"phone":"(637) 409-5421","sd":"22","ssbd":"10","lsbd":"School Board Lake Mountain 2"},{"vid":"2781183","name":"Wende Ratke","party":"Rep","address":"558 N Trek Rd, Saratoga Springs, UT 84045","precinct":"25SR09","hd":"51","v_score":"0","decile":"2","lat":40.37241091777714,"lng":-111.93606226226804,"phone":"(773) 043-2961","sd":"22","ssbd":"10","lsbd":"School Board Lake Mountain 2"},{"vid":"2781273","name":"Jordin Rutherford","party":"Rep","address":"913 W Chukar Cir, Saratoga Springs, UT 84045","precinct":"25SR09","hd":"51","v_score":"0","decile":"2","lat":40.37741797545836,"lng":-111.9381200683451,"phone":"(432) 668-3975","sd":"22","ssbd":"10","lsbd":"School Board Lake Mountain 2"},{"vid":"2790832","name":"Dove O'Reilly PhD","party":"Dem","address":"862 W Tortoise Cir, Saratoga Springs, UT 84045","precinct":"25SR09","hd":"51","v_score":"0","decile":"2","lat":40.37912493729087,"lng":-111.93704809381187,"phone":"(963) 509-8263","sd":"22","ssbd":"10","lsbd":"School Board Lake Mountain 2"},{"vid":"2791653","name":"Dr. Phyllis Homenick MD","party":"","address":"729 N Badger Ln, Saratoga Springs, UT 84045","precinct":"25SR09","hd":"51","v_score":"4.069929862","decile":"7","lat":40.375288812129625,"lng":-111.94010543868707,"phone":"(429) 762-3483","sd":"22","ssbd":"10","lsbd":"School Board Lake Mountain 2"},{"vid":"2793260","name":"Mr. Juston Kutch II","party":"","address":"836 W Buffalo Dr, Saratoga Springs, UT 84045","precinct":"25SR09","hd":"51","v_score":"1.193887297","decile":"4","lat":40.37421783849896,"lng":-111.93623733728388,"phone":"(220) 502-8649","sd":"22","ssbd":"10","lsbd":"School Board Lake Mountain 2"},{"vid":"2793990","name":"Versie Tromp","party":"","address":"824 W Buffalo Dr, Saratoga Springs, UT 84045","precinct":"25SR09","hd":"51","v_score":"1.193887297","decile":"4","lat":40.374165912907195,"lng":-111.9359339280894,"phone":"(301) 626-2095","sd":"22","ssbd":"10","lsbd":"School Board Lake Mountain 2"},{"vid":"2804366","name":"Fleta Predovic","party":"","address":"747 N Buffalo Dr, Saratoga Springs, UT 84045","precinct":"25SR09","hd":"51","v_score":"1.193887297","decile":"4","lat":40.375669973813004,"lng":-111.93717998494678,"phone":"(842) 714-6639","sd":"22","ssbd":"10","lsbd":"School Board Lake Mountain 2"},{"vid":"2804845","name":"Gwenda Bergnaum DDS","party":"Rep","address":"941 W Grouse Cir, Saratoga Springs, UT 84045","precinct":"25SR09","hd":"51","v_score":"1.193887297","decile":"4","lat":40.37547527030405,"lng":-111.93903498189852,"phone":"(279) 735-3249","sd":"22","ssbd":"10","lsbd":"School Board Lake Mountain 2"},{"vid":"2804982","name":"Lacey Gorczany","party":"Dem","address":"1098 N Mustang Ln, Saratoga Springs, UT 84045","precinct":"25SR09","hd":"51","v_score":"0","decile":"2","lat":40.382075754794954,"lng":-111.9358161486751,"phone":"(531) 158-7384","sd":"22","ssbd":"10","lsbd":"School Board Lake Mountain 2"},{"vid":"2807814","name":"Diandra Howe","party":"","address":"1058 N Coyote Run, Saratoga Springs, UT 84045","precinct":"25SR09","hd":"51","v_score":"0","decile":"2","lat":40.38118083494943,"lng":-111.93861054809054,"phone":"(877) 955-0050","sd":"22","ssbd":"10","lsbd":"School Board Lake Mountain 2"},{"vid":"2812039","name":"Derl Block","party":"Dem","address":"694 N Buffalo Dr, Saratoga Springs, UT 84045","precinct":"25SR09","hd":"51","v_score":"1.193887297","decile":"4","lat":40.37466098875192,"lng":-111.93661564058704,"phone":"(352) 479-6506","sd":"22","ssbd":"10","lsbd":"School Board Lake Mountain 2"},{"vid":"2821773","name":"Hayward Yundt IV","party":"Rep","address":"694 N Buffalo Dr, Saratoga Springs, UT 84045","precinct":"25SR09","hd":"51","v_score":"2.876042565","decile":"6","lat":40.37466098875192,"lng":-111.93661564058704,"phone":"(404) 079-8143","sd":"22","ssbd":"10","lsbd":"School Board Lake Mountain 2"},{"vid":"2830593","name":"Tyrese Bartell","party":"Dem","address":"943 W Prairie Dog Way, Saratoga Springs, UT 84045","precinct":"25SR09","hd":"51","v_score":"0","decile":"2","lat":40.374559024161115,"lng":-111.93876079991578,"phone":"(983) 860-0684","sd":"22","ssbd":"10","lsbd":"School Board Lake Mountain 2"},{"vid":"2852505","name":"Micheal Lemke","party":"","address":"867 N Red Fox Ln, Saratoga Springs, UT 84045","precinct":"25SR09","hd":"51","v_score":"0","decile":"2","lat":40.37783818449831,"lng":-111.94003833702499,"phone":"(761) 241-5748","sd":"22","ssbd":"10","lsbd":"School Board Lake Mountain 2"},{"vid":"2853685","name":"Dr. Drury Gislason","party":"Dem","address":"828 W Red Hen Rd, Saratoga Springs, UT 84045","precinct":"25SR09","hd":"51","v_score":"1.193887297","decile":"4","lat":40.38319805611939,"lng":-111.93619673477156,"phone":"(707) 055-9298","sd":"22","ssbd":"10","lsbd":"School Board Lake Mountain 2"},{"vid":"2857686","name":"Yee Feil","party":"","address":"822 N Red Fox Ln, Saratoga Springs, UT 84045","precinct":"25SR09","hd":"51","v_score":"1.193887297","decile":"4","lat":40.37690503044471,"lng":-111.93944485619001,"phone":"(311) 667-7572","sd":"22","ssbd":"10","lsbd":"School Board Lake Mountain 2"},{"vid":"2860527","name":"Keith Gulgowski","party":"","address":"828 W Red Hen Rd, Saratoga Springs, UT 84045","precinct":"25SR09","hd":"51","v_score":"1.193887297","decile":"4","lat":40.38319805611939,"lng":-111.93619673477156,"phone":"(812) 479-1880","sd":"22","ssbd":"10","lsbd":"School Board Lake Mountain 2"},{"vid":"2860869","name":"Michial VonRueden","party":"Rep","address":"888 W Red Hen Rd, Saratoga Springs, UT 84045","precinct":"25SR09","hd":"51","v_score":"1.193887297","decile":"4","lat":40.38314704248881,"lng":-111.93759399672837,"phone":"(657) 947-4007","sd":"22","ssbd":"10","lsbd":"School Board Lake Mountain 2"},{"vid":"2884952","name":"Dr. Zenas Bosco","party":"Dem","address":"836 W Buffalo Dr, Saratoga Springs, UT 84045","precinct":"25SR09","hd":"51","v_score":"1.193887297","decile":"4","lat":40.37421783849896,"lng":-111.93623733728388,"phone":"(315) 271-2385","sd":"22","ssbd":"10","lsbd":"School Board Lake Mountain 2"},{"vid":"2885021","name":"Ms. Daijah Rutherford DVM","party":"Rep","address":"836 W Buffalo Dr, Saratoga Springs, UT 84045","precinct":"25SR09","hd":"51","v_score":"1.193887297","decile":"4","lat":40.37421783849896,"lng":-111.93623733728388,"phone":"(368) 681-4045","sd":"22","ssbd":"10","lsbd":"School Board Lake Mountain 2"},{"vid":"2887008","name":"Domenic Stracke","party":"","address":"1116 N Mustang Ln, Saratoga Springs, UT 84045","precinct":"25SR09","hd":"51","v_score":"0","decile":"2","lat":40.38235018699744,"lng":-111.93581484701623,"phone":"(276) 811-7549","sd":"22","ssbd":"10","lsbd":"School Board Lake Mountain 2"},{"vid":"2889600","name":"Antwon Lebsack MD","party":"Rep","address":"734 N Badger Ln, Saratoga Springs, UT 84045","precinct":"25SR09","hd":"51","v_score":"1.193887297","decile":"4","lat":40.37550729707312,"lng":-111.93943927843543,"phone":"(555) 425-8889","sd":"22","ssbd":"10","lsbd":"School Board Lake Mountain 2"},{"vid":"2889644","name":"Deana Roberts","party":"","address":"734 N Badger Ln, Saratoga Springs, UT 84045","precinct":"25SR09","hd":"51","v_score":"1.193887297","decile":"4","lat":40.37550729707312,"lng":-111.93943927843543,"phone":"(840) 881-1408","sd":"22","ssbd":"10","lsbd":"School Board Lake Mountain 2"},{"vid":"2889814","name":"Dale Bauch","party":"","address":"932 W Pheasant Ln, Saratoga Springs, UT 84045","precinct":"25SR09","hd":"51","v_score":"1.193887297","decile":"4","lat":40.374092600151364,"lng":-111.93848877476086,"phone":"(133) 817-7847","sd":"22","ssbd":"10","lsbd":"School Board Lake Mountain 2"},{"vid":"2899304","name":"Mr. Lyric Goldner II","party":"","address":"862 W Tortoise Cir, Saratoga Springs, UT 84045","precinct":"25SR09","hd":"51","v_score":"0","decile":"2","lat":40.37912493729087,"lng":-111.93704809381187,"phone":"(177) 594-0382","sd":"22","ssbd":"10","lsbd":"School Board Lake Mountain 2"},{"vid":"2914210","name":"Kolby Runolfsson","party":"Rep","address":"846 W Mountain Peak Dr, Saratoga Springs, UT 84045","precinct":"25SR09","hd":"51","v_score":"7.090117576","decile":"8","lat":40.372745937569555,"lng":-111.93612943205397,"phone":"(637) 981-5714","sd":"22","ssbd":"10","lsbd":"School Board Lake Mountain 2"},{"vid":"2915779","name":"Gwendolyn Bergstrom","party":"Rep","address":"1012 N Mustang Ln, Saratoga Springs, UT 84045","precinct":"25SR09","hd":"51","v_score":"0","decile":"2","lat":40.38041805026455,"lng":-111.93599560844419,"phone":"(160) 126-1270","sd":"22","ssbd":"10","lsbd":"School Board Lake Mountain 2"},{"vid":"2919711","name":"Aedan McCullough","party":"","address":"948 W Red Fox Ln, Saratoga Springs, UT 84045","precinct":"25SR09","hd":"51","v_score":"0","decile":"2","lat":40.37638643347153,"lng":-111.9387550809173,"phone":"(889) 918-8373","sd":"22","ssbd":"10","lsbd":"School Board Lake Mountain 2"},{"vid":"2929765","name":"Coy Oberbrunner","party":"","address":"643 N Fox Cir, Saratoga Springs, UT 84045","precinct":"25SR09","hd":"51","v_score":"0","decile":"2","lat":40.37381775009546,"lng":-111.93745816314191,"phone":"(850) 232-6329","sd":"22","ssbd":"10","lsbd":"School Board Lake Mountain 2"},{"vid":"2933764","name":"Dean Glover","party":"Rep","address":"643 N Fox Cir, Saratoga Springs, UT 84045","precinct":"25SR09","hd":"51","v_score":"2.876042565","decile":"6","lat":40.37381775009546,"lng":-111.93745816314191,"phone":"(962) 620-6409","sd":"22","ssbd":"10","lsbd":"School Board Lake Mountain 2"},{"vid":"2945783","name":"Kristian Rempel","party":"Dem","address":"902 W Red Fox Ln, Saratoga Springs, UT 84045","precinct":"25SR09","hd":"51","v_score":"0","decile":"2","lat":40.376255665581915,"lng":-111.93777579741625,"phone":"(753) 728-9120","sd":"22","ssbd":"10","lsbd":"School Board Lake Mountain 2"},{"vid":"2946415","name":"Marlon Koss","party":"Dem","address":"971 W Red Fox Ln, Saratoga Springs, UT 84045","precinct":"25SR09","hd":"51","v_score":"0","decile":"2","lat":40.376307012866725,"lng":-111.93933871098889,"phone":"(438) 023-1494","sd":"22","ssbd":"10","lsbd":"School Board Lake Mountain 2"},{"vid":"2948867","name":"Vernelle Nikolaus","party":"Rep","address":"828 W Red Hen Rd, Saratoga Springs, UT 84045","precinct":"25SR09","hd":"51","v_score":"0","decile":"2","lat":40.38319805611939,"lng":-111.93619673477156,"phone":"(424) 124-7672","sd":"22","ssbd":"10","lsbd":"School Board Lake Mountain 2"},{"vid":"2955889","name":"Lacie Leffler-Kulas","party":"Dem","address":"992 N Coyote Run, Saratoga Springs, UT 84045","precinct":"25SR09","hd":"51","v_score":"2.876042565","decile":"6","lat":40.37989748709415,"lng":-111.93944239773809,"phone":"(966) 063-2854","sd":"22","ssbd":"10","lsbd":"School Board Lake Mountain 2"},{"vid":"2955890","name":"Lauretta Hauck","party":"","address":"992 N Coyote Run, Saratoga Springs, UT 84045","precinct":"25SR09","hd":"51","v_score":"2.876042565","decile":"6","lat":40.37989748709415,"lng":-111.93944239773809,"phone":"(441) 323-7942","sd":"22","ssbd":"10","lsbd":"School Board Lake Mountain 2"},{"vid":"2963797","name":"Jayvon Bosco","party":"Rep","address":"932 W Red Fox Ln, Saratoga Springs, UT 84045","precinct":"25SR09","hd":"51","v_score":"0","decile":"2","lat":40.376392205914165,"lng":-111.9383985922162,"phone":"(242) 720-8217","sd":"22","ssbd":"10","lsbd":"School Board Lake Mountain 2"},{"vid":"2964635","name":"Jeb Armstrong","party":"","address":"859 W Pheasant Ln, Saratoga Springs, UT 84045","precinct":"25SR09","hd":"51","v_score":"0","decile":"2","lat":40.37311141640157,"lng":-111.93699847657709,"phone":"(190) 538-6019","sd":"22","ssbd":"10","lsbd":"School Board Lake Mountain 2"},{"vid":"2967818","name":"Joell Kunze","party":"Dem","address":"919 W Mountain Peak Dr, Saratoga Springs, UT 84045","precinct":"25SR09","hd":"51","v_score":"2.876042565","decile":"6","lat":40.372269316002075,"lng":-111.93831909355936,"phone":"(990) 996-5232","sd":"22","ssbd":"10","lsbd":"School Board Lake Mountain 2"},{"vid":"2968607","name":"Brionna Mohr","party":"Rep","address":"971 W Red Fox Ln, Saratoga Springs, UT 84045","precinct":"25SR09","hd":"51","v_score":"0","decile":"2","lat":40.376307012866725,"lng":-111.93933871098889,"phone":"(546) 160-9125","sd":"22","ssbd":"10","lsbd":"School Board Lake Mountain 2"},{"vid":"2968651","name":"Johnnie Langosh","party":"","address":"899 W Burro Way, Saratoga Springs, UT 84045","precinct":"25SR09","hd":"51","v_score":"0","decile":"2","lat":40.376592599756734,"lng":-111.93776359055036,"phone":"(519) 753-6487","sd":"22","ssbd":"10","lsbd":"School Board Lake Mountain 2"},{"vid":"2978636","name":"Mrs. Madisen Crist","party":"","address":"556 N Slate Ct, Saratoga Springs, UT 84045","precinct":"25SR09","hd":"51","v_score":"0","decile":"2","lat":40.37242289182404,"lng":-111.93721480539276,"phone":"(541) 486-9611","sd":"22","ssbd":"10","lsbd":"School Board Lake Mountain 2"},{"vid":"3009784","name":"Addisyn Grant","party":"Dem","address":"822 N Red Fox Ln, Saratoga Springs, UT 84045","precinct":"25SR09","hd":"51","v_score":"5.40460374","decile":"7","lat":40.37690503044471,"lng":-111.93944485619001,"phone":"(541) 277-5425","sd":"22","ssbd":"10","lsbd":"School Board Lake Mountain 2"},{"vid":"3043532","name":"Gerhardt Rolfson","party":"Dem","address":"1009 N Coyote Run, Saratoga Springs, UT 84045","precinct":"25SR09","hd":"51","v_score":"2.315214949","decile":"5","lat":40.380369556046034,"lng":-111.93978125897927,"phone":"(389) 409-7132","sd":"22","ssbd":"10","lsbd":"School Board Lake Mountain 2"},{"vid":"3046919","name":"Maybell Thiel","party":"","address":"543 N Slate Ct, Saratoga Springs, UT 84045","precinct":"25SR09","hd":"51","v_score":"2.315214949","decile":"5","lat":40.37211104164288,"lng":-111.93777275274778,"phone":"(975) 815-4865","sd":"22","ssbd":"10","lsbd":"School Board Lake Mountain 2"},{"vid":"3059615","name":"Ms. Tamera Durgan","party":"","address":"883 W Buffalo Dr, Saratoga Springs, UT 84045","precinct":"25SR09","hd":"51","v_score":"24.0186127","decile":"10","lat":40.38034471900532,"lng":-111.93742153288123,"phone":"(800) 195-3532","sd":"22","ssbd":"10","lsbd":"School Board Lake Mountain 2"},{"vid":"3073963","name":"Chris Oberbrunner","party":"Dem","address":"1078 N Jack Rabbit Run, Saratoga Springs, UT 84045","precinct":"25SR09","hd":"51","v_score":"1.121327652","decile":"3","lat":40.38166344104641,"lng":-111.9371776509504,"phone":"(243) 605-1594","sd":"22","ssbd":"10","lsbd":"School Board Lake Mountain 2"},{"vid":"3080399","name":"Chaz Rohan","party":"","address":"1049 N Coyote Run, Saratoga Springs, UT 84045","precinct":"25SR09","hd":"51","v_score":"2.315214949","decile":"5","lat":40.381117850244145,"lng":-111.93926039553163,"phone":"(513) 046-5464","sd":"22","ssbd":"10","lsbd":"School Board Lake Mountain 2"},{"vid":"d900adee5d34fb30b9ca8027c2f4a9437bd5ff719a9f6f2768cdc1400fef2726","name":"Jordi Botsford","party":"Dem","address":"856 W Mustang Cir, Saratoga Springs, UT 84045","precinct":"25SR09","hd":"51","v_score":"12.59867706","decile":"9","lat":40.38132995254806,"lng":-111.93682970778251,"phone":"(967) 554-3115","sd":"22","ssbd":"10","lsbd":"School Board Lake Mountain 2"},{"vid":"cdedfec1de66373f45f92e0894f2b246b1bda3deda537c607f2fa932e9a9dac2","name":"Anderson Block PhD","party":"","address":"858 W Rattler Rd, Saratoga Springs, UT 84045","precinct":"25SR09","hd":"51","v_score":"30.77068687","decile":"10","lat":40.37983510699749,"lng":-111.93681567223322,"phone":"(185) 052-7478","sd":"22","ssbd":"10","lsbd":"School Board Lake Mountain 2"},{"vid":"3127039","name":"Lavada Connelly","party":"","address":"858 W Rattler Rd, Saratoga Springs, UT 84045","precinct":"25SR09","hd":"51","v_score":"40.27488421","decile":"10","lat":40.37983510699749,"lng":-111.93681567223322,"phone":"(774) 786-0046","sd":"22","ssbd":"10","lsbd":"School Board Lake Mountain 2"},{"vid":"34e329a0225de4b6f82c802443e6b0ca43ca0ef59c5fd7d8c180e5654300bead","name":"Dr. Ruby Deckow Sr.","party":"Rep","address":"815 N Red Fox Ln, Saratoga Springs, UT 84045","precinct":"25SR09","hd":"51","v_score":"8.15240309","decile":"8","lat":40.376776620104664,"lng":-111.93998273746219,"phone":"(747) 603-7094","sd":"22","ssbd":"10","lsbd":"School Board Lake Mountain 2"},{"vid":"3212013","name":"Odell Jenkins","party":"","address":"1021 N Coyote Run, Saratoga Springs, UT 84045","precinct":"25SR09","hd":"51","v_score":"21.87045579","decile":"10","lat":40.38060984429704,"lng":-111.93962309977832,"phone":"(808) 340-8581","sd":"22","ssbd":"10","lsbd":"School Board Lake Mountain 2"},{"vid":"3216764","name":"Miss Tenika Prohaska DDS","party":"Dem","address":"926 W Mountain Peak Dr, Saratoga Springs, UT 84045","precinct":"25SR09","hd":"51","v_score":"18.62286557","decile":"10","lat":40.37276796052248,"lng":-111.93870904051208,"phone":"(340) 026-5026","sd":"22","ssbd":"10","lsbd":"School Board Lake Mountain 2"},{"vid":"3222327","name":"Clare Gleason-Farrell","party":"Dem","address":"939 W Grouse Cir, Saratoga Springs, UT 84045","precinct":"25SR09","hd":"51","v_score":"5.40460374","decile":"7","lat":40.37528380882318,"lng":-111.93888119614583,"phone":"(660) 977-7966","sd":"22","ssbd":"10","lsbd":"School Board Lake Mountain 2"},{"vid":"cded5c8e09da0635fc97e3af7b623779874514c520ee8f4c27036bc2dba9cc17","name":"Boysie Olson Sr.","party":"","address":"1012 N Mustang Ln, Saratoga Springs, UT 84045","precinct":"25SR09","hd":"51","v_score":"3.781490609","decile":"6","lat":40.38041805026455,"lng":-111.93599560844419,"phone":"(107) 181-8228","sd":"22","ssbd":"10","lsbd":"School Board Lake Mountain 2"},{"vid":"df8692f561cc27898b602d8f4db951efbc8d669273ab44211b91f69a32d8b388","name":"Joel Kohler","party":"Dem","address":"731 N Buffalo Dr, Saratoga Springs, UT 84045","precinct":"25SR09","hd":"51","v_score":"16.59712556","decile":"9","lat":40.37530102203007,"lng":-111.93717157565841,"phone":"(764) 928-6360","sd":"22","ssbd":"10","lsbd":"School Board Lake Mountain 2"},{"vid":"3268963","name":"Nichole Collins","party":"Rep","address":"899 W Burro Way, Saratoga Springs, UT 84045","precinct":"25SR09","hd":"51","v_score":"9.116556227","decile":"8","lat":40.376592599756734,"lng":-111.93776359055036,"phone":"(581) 225-5574","sd":"22","ssbd":"10","lsbd":"School Board Lake Mountain 2"},{"vid":"3277255","name":"Marybelle Murray-Kuhlman","party":"","address":"752 N Grouse Cir, Saratoga Springs, UT 84045","precinct":"25SR09","hd":"51","v_score":"11.23922619","decile":"9","lat":40.37574945858501,"lng":-111.93760962989965,"phone":"(685) 140-7790","sd":"22","ssbd":"10","lsbd":"School Board Lake Mountain 2"},{"vid":"3284526","name":"Chance Reilly","party":"Dem","address":"807 N Buffalo Dr, Saratoga Springs, UT 84045","precinct":"25SR09","hd":"51","v_score":"1.193887297","decile":"4","lat":40.37677027189367,"lng":-111.93665257503149,"phone":"(226) 695-3544","sd":"22","ssbd":"10","lsbd":"School Board Lake Mountain 2"},{"vid":"3314335","name":"Davy Davis","party":"","address":"919 W Mountain Peak Dr, Saratoga Springs, UT 84045","precinct":"25SR09","hd":"51","v_score":"14.07653899","decile":"9","lat":40.372269316002075,"lng":-111.93831909355936,"phone":"(888) 445-4988","sd":"22","ssbd":"10","lsbd":"School Board Lake Mountain 2"},{"vid":"3319113","name":"Connie Hermiston","party":"","address":"932 W Burro Way, Saratoga Springs, UT 84045","precinct":"25SR09","hd":"51","v_score":"3.781490609","decile":"6","lat":40.37705289455266,"lng":-111.9384036630395,"phone":"(991) 453-1704","sd":"22","ssbd":"10","lsbd":"School Board Lake Mountain 2"},{"vid":"3319194","name":"Richie McKenzie","party":"Dem","address":"932 W Burro Way, Saratoga Springs, UT 84045","precinct":"25SR09","hd":"51","v_score":"3.781490609","decile":"6","lat":40.37705289455266,"lng":-111.9384036630395,"phone":"(442) 109-7026","sd":"22","ssbd":"10","lsbd":"School Board Lake Mountain 2"},{"vid":"3346223","name":"Jaren Medhurst Jr.","party":"","address":"867 N Red Fox Ln, Saratoga Springs, UT 84045","precinct":"25SR09","hd":"51","v_score":"2.315214949","decile":"5","lat":40.37783818449831,"lng":-111.94003833702499,"phone":"(185) 598-4358","sd":"22","ssbd":"10","lsbd":"School Board Lake Mountain 2"},{"vid":"3346231","name":"Lelia Mraz","party":"","address":"867 N Red Fox Ln, Saratoga Springs, UT 84045","precinct":"25SR09","hd":"51","v_score":"8.363183621","decile":"8","lat":40.37783818449831,"lng":-111.94003833702499,"phone":"(894) 422-4600","sd":"22","ssbd":"10","lsbd":"School Board Lake Mountain 2"},{"vid":"3376625","name":"Quintin Jerde","party":"","address":"546 N Slate Ct, Saratoga Springs, UT 84045","precinct":"25SR09","hd":"51","v_score":"8.363183621","decile":"8","lat":40.37217250061378,"lng":-111.9371065872634,"phone":"(634) 710-0010","sd":"22","ssbd":"10","lsbd":"School Board Lake Mountain 2"},{"vid":"3391342","name":"Miss Danita Hudson","party":"","address":"862 W Buffalo Dr, Saratoga Springs, UT 84045","precinct":"25SR09","hd":"51","v_score":"6.74007049","decile":"8","lat":40.380566751092246,"lng":-111.93686205055452,"phone":"(710) 550-2321","sd":"22","ssbd":"10","lsbd":"School Board Lake Mountain 2"},{"vid":"163037c820bbd3807c492b86a7858eba904a14e653be8fd5bc31b721a52ef13d","name":"Leonce Dibbert","party":"Rep","address":"872 N Red Fox Ln, Saratoga Springs, UT 84045","precinct":"25SR09","hd":"51","v_score":"5.40460374","decile":"7","lat":40.37799675361037,"lng":-111.93957025580656,"phone":"(811) 789-5984","sd":"22","ssbd":"10","lsbd":"School Board Lake Mountain 2"},{"vid":"3394597","name":"Mellisa Stroman","party":"Dem","address":"851 W Pheasant Ln, Saratoga Springs, UT 84045","precinct":"25SR09","hd":"51","v_score":"0","decile":"2","lat":40.373211194247475,"lng":-111.93657262535895,"phone":"(496) 317-3802","sd":"22","ssbd":"10","lsbd":"School Board Lake Mountain 2"},{"vid":"290ff6283e7ddc91f47cb7e8817bb55a97c4ba1beda3c42185bc2200001e45c5","name":"Alyssa Weimann","party":"","address":"883 W Buffalo Dr, Saratoga Springs, UT 84045","precinct":"25SR09","hd":"51","v_score":"15.03795631","decile":"9","lat":40.38034471900532,"lng":-111.93742153288123,"phone":"(993) 517-3807","sd":"22","ssbd":"10","lsbd":"School Board Lake Mountain 2"},{"vid":"3411426","name":"Sondra Fay-Wisoky","party":"Dem","address":"1147 N Coyote Run, Saratoga Springs, UT 84045","precinct":"25SR09","hd":"51","v_score":"8.280646305","decile":"8","lat":40.38289507551121,"lng":-111.93814669817263,"phone":"(189) 728-3920","sd":"22","ssbd":"10","lsbd":"School Board Lake Mountain 2"},{"vid":"a909e81f0f5cec2b2f28318bab2ca8f02722368d0b5cae2dcd61330b087a91a3","name":"Jeanine Vandervort","party":"","address":"948 W Red Fox Ln, Saratoga Springs, UT 84045","precinct":"25SR09","hd":"51","v_score":"0","decile":"2","lat":40.37638643347153,"lng":-111.9387550809173,"phone":"(723) 614-8608","sd":"22","ssbd":"10","lsbd":"School Board Lake Mountain 2"},{"vid":"3566473","name":"Tate Hessel","party":"Rep","address":"1146 N Mustang Ln, Saratoga Springs, UT 84045","precinct":"25SR09","hd":"51","v_score":"0","decile":"2","lat":40.38291944674396,"lng":-111.93590903225095,"phone":"(358) 717-2158","sd":"22","ssbd":"10","lsbd":"School Board Lake Mountain 2"},{"vid":"3582868","name":"Caswell Schuppe","party":"Dem","address":"948 N Rattler Rd, Saratoga Springs, UT 84045","precinct":"25SR09","hd":"51","v_score":"12.77682377","decile":"9","lat":40.3792792068499,"lng":-111.93771465455144,"phone":"(809) 064-4305","sd":"22","ssbd":"10","lsbd":"School Board Lake Mountain 2"},{"vid":"4203895","name":"Cass Williamson-Armstrong","party":"Dem","address":"843 W Tortoise Cir, Saratoga Springs, UT 84045","precinct":"25SR09","hd":"51","v_score":"2.817000428","decile":"6","lat":40.37870938223781,"lng":-111.93645666687628,"phone":"(394) 833-5569","sd":"22","ssbd":"10","lsbd":"School Board Lake Mountain 2"},{"vid":"4444355","name":"Estill Gibson V","party":"","address":"931 W Burro Way, Saratoga Springs, UT 84045","precinct":"25SR09","hd":"51","v_score":"2.315214949","decile":"5","lat":40.37673579216648,"lng":-111.93847081442962,"phone":"(727) 058-8151","sd":"22","ssbd":"10","lsbd":"School Board Lake Mountain 2"},{"vid":"4456313","name":"Stuart Hintz-Windler","party":"Rep","address":"994 N Jack Rabbit Run, Saratoga Springs, UT 84045","precinct":"25SR09","hd":"51","v_score":"1.121327652","decile":"3","lat":40.380092795848405,"lng":-111.93833060466125,"phone":"(299) 019-6054","sd":"22","ssbd":"10","lsbd":"School Board Lake Mountain 2"},{"vid":"4612340","name":"Lucien Marvin","party":"Dem","address":"1081 N Coyote Run, Saratoga Springs, UT 84045","precinct":"25SR09","hd":"51","v_score":"19.85844558","decile":"10","lat":40.381842388909895,"lng":-111.93871997960079,"phone":"(906) 739-9112","sd":"22","ssbd":"10","lsbd":"School Board Lake Mountain 2"},{"vid":"4612341","name":"Makayla Ratke","party":"","address":"1081 N Coyote Run, Saratoga Springs, UT 84045","precinct":"25SR09","hd":"51","v_score":"22.58391448","decile":"10","lat":40.381842388909895,"lng":-111.93871997960079,"phone":"(925) 570-7900","sd":"22","ssbd":"10","lsbd":"School Board Lake Mountain 2"},{"vid":"5222965","name":"Mrs. Elois Kemmer PhD","party":"Dem","address":"634 N Pheasant Cir, Saratoga Springs, UT 84045","precinct":"25SR09","hd":"51","v_score":"32.13136775","decile":"10","lat":40.37378432020996,"lng":-111.93867946338301,"phone":"(395) 156-5587","sd":"22","ssbd":"10","lsbd":"School Board Lake Mountain 2"},{"vid":"86f923023676ae474fb8e4d94e61b1a674cca19d234c073dbb1fbbf439d583fb","name":"Chin Schumm","party":"Dem","address":"1098 N Mustang Ln, Saratoga Springs, UT 84045","precinct":"25SR09","hd":"51","v_score":"11.31772463","decile":"9","lat":40.382075754794954,"lng":-111.9358161486751,"phone":"(226) 968-0359","sd":"22","ssbd":"10","lsbd":"School Board Lake Mountain 2"},{"vid":"5537098","name":"Lupe Russel","party":"Dem","address":"1052 N Jack Rabbit Run, Saratoga Springs, UT 84045","precinct":"25SR09","hd":"51","v_score":"8.709634245","decile":"8","lat":40.380970914425504,"lng":-111.93775977344787,"phone":"(626) 754-5268","sd":"22","ssbd":"10","lsbd":"School Board Lake Mountain 2"},{"vid":"97f02dfba266db4c4f831957fdf97acf3f950c88bb5cda80b749d04654f66663","name":"Shyla Grady","party":"","address":"1041 N Mustang Ln, Saratoga Springs, UT 84045","precinct":"25SR09","hd":"51","v_score":"19.16525368","decile":"10","lat":40.38089047914709,"lng":-111.93639933899995,"phone":"(427) 796-6285","sd":"22","ssbd":"10","lsbd":"School Board Lake Mountain 2"},{"vid":"5543219","name":"Dr. Shelley Gislason PhD","party":"Rep","address":"907 W Mountain Peak Dr, Saratoga Springs, UT 84045","precinct":"25SR09","hd":"51","v_score":"5.273794831","decile":"7","lat":40.37233859804058,"lng":-111.9380503841915,"phone":"(990) 653-9938","sd":"22","ssbd":"10","lsbd":"School Board Lake Mountain 2"},{"vid":"5553189","name":"Johan Klein","party":"","address":"882 N Joshua Dr, Saratoga Springs, UT 84045","precinct":"25SR09","hd":"51","v_score":"0","decile":"3","lat":40.37822375093764,"lng":-111.93692382404242,"phone":"(787) 297-5667","sd":"22","ssbd":"10","lsbd":"School Board Lake Mountain 2"},{"vid":"5565772","name":"Maeve Barton","party":"","address":"951 N Rattler Rd, Saratoga Springs, UT 84045","precinct":"25SR09","hd":"51","v_score":"4.283276088","decile":"7","lat":40.3793699088904,"lng":-111.93810809399525,"phone":"(350) 254-6043","sd":"22","ssbd":"10","lsbd":"School Board Lake Mountain 2"},{"vid":"5860529","name":"Ignatz Hackett","party":"Dem","address":"926 W Mountain Peak Dr, Saratoga Springs, UT 84045","precinct":"25SR09","hd":"51","v_score":"6.896907962","decile":"8","lat":40.37276796052248,"lng":-111.93870904051208,"phone":"(933) 098-2845","sd":"22","ssbd":"10","lsbd":"School Board Lake Mountain 2"},{"vid":"5922260","name":"Mrs. Tawana Walsh MD","party":"","address":"838 W Jack Rabbit Run, Saratoga Springs, UT 84045","precinct":"25SR09","hd":"51","v_score":"5.40460374","decile":"7","lat":40.38257386406643,"lng":-111.93646621018857,"phone":"(362) 015-9294","sd":"22","ssbd":"10","lsbd":"School Board Lake Mountain 2"},{"vid":"6065772","name":"Marta Willms","party":"","address":"1049 N Coyote Run, Saratoga Springs, UT 84045","precinct":"25SR09","hd":"51","v_score":"5.40460374","decile":"7","lat":40.381117850244145,"lng":-111.93926039553163,"phone":"(849) 651-2832","sd":"22","ssbd":"10","lsbd":"School Board Lake Mountain 2"},{"vid":"6072937","name":"Herbert Cummings","party":"","address":"898 W Chukar Cir, Saratoga Springs, UT 84045","precinct":"25SR09","hd":"51","v_score":"8.280646305","decile":"8","lat":40.37767160530587,"lng":-111.9377324180364,"phone":"(653) 996-1086","sd":"22","ssbd":"10","lsbd":"School Board Lake Mountain 2"},{"vid":"6080473","name":"Ms. Ivonne Bradtke","party":"Rep","address":"752 N Badger Ln, Saratoga Springs, UT 84045","precinct":"25SR09","hd":"51","v_score":"1.121327652","decile":"3","lat":40.375749358629875,"lng":-111.93957514670626,"phone":"(519) 550-4553","sd":"22","ssbd":"10","lsbd":"School Board Lake Mountain 2"},{"vid":"6084154","name":"Lockie Ledner DVM","party":"Rep","address":"873 W Buffalo Dr, Saratoga Springs, UT 84045","precinct":"25SR09","hd":"51","v_score":"5.40460374","decile":"7","lat":40.38026147403725,"lng":-111.93716437757186,"phone":"(584) 444-3688","sd":"22","ssbd":"10","lsbd":"School Board Lake Mountain 2"},{"vid":"6085852","name":"Mr. Major Brekke MD","party":"","address":"844 W Rattler Rd, Saratoga Springs, UT 84045","precinct":"25SR09","hd":"51","v_score":"14.40879056","decile":"9","lat":40.37980111850333,"lng":-111.93639619490968,"phone":"(903) 064-9176","sd":"22","ssbd":"10","lsbd":"School Board Lake Mountain 2"},{"vid":"6099766","name":"Bernhard Pfeffer","party":"","address":"931 W Burro Way, Saratoga Springs, UT 84045","precinct":"25SR09","hd":"51","v_score":"2.315214949","decile":"5","lat":40.37673579216648,"lng":-111.93847081442962,"phone":"(466) 075-5124","sd":"22","ssbd":"10","lsbd":"School Board Lake Mountain 2"},{"vid":"6145470","name":"Elmina Tromp","party":"Dem","address":"618 N Pheasant Cir, Saratoga Springs, UT 84045","precinct":"25SR09","hd":"51","v_score":"2.660162957","decile":"5","lat":40.373243833375916,"lng":-111.9385616019341,"phone":"(460) 843-9086","sd":"22","ssbd":"10","lsbd":"School Board Lake Mountain 2"},{"vid":"6146335","name":"Icie Dicki","party":"Dem","address":"843 W Tortoise Cir, Saratoga Springs, UT 84045","precinct":"25SR09","hd":"51","v_score":"5.40460374","decile":"7","lat":40.37870938223781,"lng":-111.93645666687628,"phone":"(136) 220-7616","sd":"22","ssbd":"10","lsbd":"School Board Lake Mountain 2"},{"vid":"5643dd39aa20a5cd5094c9b4b12d29edd47897e5c89a7cd5dc58a6c19545f5b7","name":"Dr. Ronaldo Homenick","party":"Rep","address":"898 W Chukar Cir, Saratoga Springs, UT 84045","precinct":"25SR09","hd":"51","v_score":"10.8238813","decile":"9","lat":40.37767160530587,"lng":-111.9377324180364,"phone":"(383) 458-5638","sd":"22","ssbd":"10","lsbd":"School Board Lake Mountain 2"},{"vid":"6164720","name":"Lilyanna Denesik","party":"","address":"536 N Slate Ct, Saratoga Springs, UT 84045","precinct":"25SR09","hd":"51","v_score":"1.193887297","decile":"4","lat":40.37202276998045,"lng":-111.93723333851112,"phone":"(475) 540-9661","sd":"22","ssbd":"10","lsbd":"School Board Lake Mountain 2"},{"vid":"6169269","name":"Mr. Orla Nader","party":"","address":"916 W Mountain Peak Dr, Saratoga Springs, UT 84045","precinct":"25SR09","hd":"51","v_score":"3.93832808","decile":"6","lat":40.37277776518771,"lng":-111.93840819784592,"phone":"(259) 571-5555","sd":"22","ssbd":"10","lsbd":"School Board Lake Mountain 2"},{"vid":"6188116","name":"Ms. Kathleen Schiller PhD","party":"Rep","address":"916 W Mountain Peak Dr, Saratoga Springs, UT 84045","precinct":"25SR09","hd":"51","v_score":"3.93832808","decile":"6","lat":40.37277776518771,"lng":-111.93840819784592,"phone":"(889) 479-7482","sd":"22","ssbd":"10","lsbd":"School Board Lake Mountain 2"},{"vid":"6203592","name":"Carlos Weissnat","party":"","address":"859 W Red Hen Rd, Saratoga Springs, UT 84045","precinct":"25SR09","hd":"51","v_score":"1.121327652","decile":"3","lat":40.38278414858004,"lng":-111.93677822158705,"phone":"(671) 791-8139","sd":"22","ssbd":"10","lsbd":"School Board Lake Mountain 2"},{"vid":"6242362","name":"Alford Terry","party":"Dem","address":"1094 N Jack Rabbit Run, Saratoga Springs, UT 84045","precinct":"25SR09","hd":"51","v_score":"39.30976877","decile":"10","lat":40.38187046278851,"lng":-111.9370089794748,"phone":"(258) 740-1264","sd":"22","ssbd":"10","lsbd":"School Board Lake Mountain 2"},{"vid":"6243392","name":"Tab Bode","party":"","address":"862 W Tortoise Cir, Saratoga Springs, UT 84045","precinct":"25SR09","hd":"51","v_score":"5.40460374","decile":"7","lat":40.37912493729087,"lng":-111.93704809381187,"phone":"(717) 716-1825","sd":"22","ssbd":"10","lsbd":"School Board Lake Mountain 2"},{"vid":"6247480","name":"Elta Tremblay-Kassulke","party":"","address":"836 W Buffalo Dr, Saratoga Springs, UT 84045","precinct":"25SR09","hd":"51","v_score":"1.193887297","decile":"4","lat":40.37421783849896,"lng":-111.93623733728388,"phone":"(857) 699-7497","sd":"22","ssbd":"10","lsbd":"School Board Lake Mountain 2"},{"vid":"4f5ca6655e47b19c565be913d9d653ce555217c368a7ec0d30d03d307c6e89ec","name":"Squire Marvin","party":"Dem","address":"832 N Joshua Dr, Saratoga Springs, UT 84045","precinct":"25SR09","hd":"51","v_score":"1.121327652","decile":"3","lat":40.3771016608173,"lng":-111.93697714704865,"phone":"(574) 078-5201","sd":"22","ssbd":"10","lsbd":"School Board Lake Mountain 2"},{"vid":"6263396","name":"Concepcion Towne","party":"","address":"717 N Badger Ln, Saratoga Springs, UT 84045","precinct":"25SR09","hd":"51","v_score":"30.77068687","decile":"10","lat":40.37501438319016,"lng":-111.9401056826695,"phone":"(824) 699-8690","sd":"22","ssbd":"10","lsbd":"School Board Lake Mountain 2"},{"vid":"6263405","name":"Mr. Conley Flatley III","party":"Rep","address":"717 N Badger Ln, Saratoga Springs, UT 84045","precinct":"25SR09","hd":"51","v_score":"30.77068687","decile":"10","lat":40.37501438319016,"lng":-111.9401056826695,"phone":"(280) 746-9307","sd":"22","ssbd":"10","lsbd":"School Board Lake Mountain 2"},{"vid":"6277577","name":"Brittany Greenholt","party":"","address":"859 W Rattler Rd, Saratoga Springs, UT 84045","precinct":"25SR09","hd":"51","v_score":"3.93832808","decile":"6","lat":40.37947461316159,"lng":-111.93678643029031,"phone":"(162) 120-2019","sd":"22","ssbd":"10","lsbd":"School Board Lake Mountain 2"},{"vid":"6284671","name":"Abe Yundt-Thiel","party":"Dem","address":"924 N Buffalo Dr, Saratoga Springs, UT 84045","precinct":"25SR09","hd":"51","v_score":"12.65668843","decile":"9","lat":40.37885649083278,"lng":-111.93589615856317,"phone":"(638) 547-3736","sd":"22","ssbd":"10","lsbd":"School Board Lake Mountain 2"},{"vid":"183d397f624801e72660df524afdac688d4e197c2573cc52329e2852a3be22bf","name":"Dr. Stanley O'Kon II","party":"","address":"609 N Badger Ln, Saratoga Springs, UT 84045","precinct":"25SR09","hd":"51","v_score":"8.15240309","decile":"8","lat":40.37303808205847,"lng":-111.94003405567999,"phone":"(720) 050-7071","sd":"22","ssbd":"10","lsbd":"School Board Lake Mountain 2"},{"vid":"6302112","name":"Annmarie Hintz","party":"Rep","address":"1091 N Mustang Ln, Saratoga Springs, UT 84045","precinct":"25SR09","hd":"51","v_score":"2.315214949","decile":"5","lat":40.38185683851914,"lng":-111.93653500167586,"phone":"(462) 472-8788","sd":"22","ssbd":"10","lsbd":"School Board Lake Mountain 2"},{"vid":"6340022","name":"Aedan Leffler","party":"Rep","address":"1078 N Coyote Run, Saratoga Springs, UT 84045","precinct":"25SR09","hd":"51","v_score":"19.18667211","decile":"10","lat":40.3816332988466,"lng":-111.93823025889141,"phone":"(449) 485-5311","sd":"22","ssbd":"10","lsbd":"School Board Lake Mountain 2"},{"vid":"6352486","name":"Mercer Buckridge","party":"","address":"913 W Chukar Cir, Saratoga Springs, UT 84045","precinct":"25SR09","hd":"51","v_score":"10.60886045","decile":"9","lat":40.37741797545836,"lng":-111.9381200683451,"phone":"(756) 450-3285","sd":"22","ssbd":"10","lsbd":"School Board Lake Mountain 2"},{"vid":"6354262","name":"Chester Hansen","party":"Dem","address":"673 N Buffalo Dr, Saratoga Springs, UT 84045","precinct":"25SR09","hd":"51","v_score":"5.40460374","decile":"7","lat":40.37422294695091,"lng":-111.93680270161614,"phone":"(900) 473-7034","sd":"22","ssbd":"10","lsbd":"School Board Lake Mountain 2"},{"vid":"6357123","name":"Karma Goyette","party":"Rep","address":"1122 N Coyote Run, Saratoga Springs, UT 84045","precinct":"25SR09","hd":"51","v_score":"0","decile":"3","lat":40.38234948788346,"lng":-111.93778251754252,"phone":"(969) 446-2738","sd":"22","ssbd":"10","lsbd":"School Board Lake Mountain 2"},{"vid":"6365372","name":"Latoyia Fay","party":"","address":"924 N Buffalo Dr, Saratoga Springs, UT 84045","precinct":"25SR09","hd":"51","v_score":"15.53273099","decile":"9","lat":40.37885649083278,"lng":-111.93589615856317,"phone":"(890) 964-3452","sd":"22","ssbd":"10","lsbd":"School Board Lake Mountain 2"},{"vid":"6368641","name":"Rhett Huels","party":"Rep","address":"859 W Rattler Rd, Saratoga Springs, UT 84045","precinct":"25SR09","hd":"51","v_score":"3.93832808","decile":"6","lat":40.37947461316159,"lng":-111.93678643029031,"phone":"(114) 143-1993","sd":"22","ssbd":"10","lsbd":"School Board Lake Mountain 2"},{"vid":"6378362","name":"Mrs. Iola Mayer PhD","party":"","address":"536 N Slate Ct, Saratoga Springs, UT 84045","precinct":"25SR09","hd":"51","v_score":"3.93832808","decile":"6","lat":40.37202276998045,"lng":-111.93723333851112,"phone":"(512) 516-0936","sd":"22","ssbd":"10","lsbd":"School Board Lake Mountain 2"},{"vid":"6380877","name":"Dustan Hudson","party":"Dem","address":"768 N Badger Ln, Saratoga Springs, UT 84045","precinct":"25SR09","hd":"51","v_score":"3.781490609","decile":"6","lat":40.37603295996691,"lng":-111.93973403975376,"phone":"(493) 092-2496","sd":"22","ssbd":"10","lsbd":"School Board Lake Mountain 2"},{"vid":"6381859","name":"Dr. Lorean Haley PhD","party":"Dem","address":"828 W Red Hen Rd, Saratoga Springs, UT 84045","precinct":"25SR09","hd":"51","v_score":"8.347511332","decile":"8","lat":40.38319805611939,"lng":-111.93619673477156,"phone":"(805) 379-9982","sd":"22","ssbd":"10","lsbd":"School Board Lake Mountain 2"},{"vid":"7e1aa7b11c56e14c5b4edf3e50e186d75e6f521e93136bc8ec5c18f7071f5a34","name":"Christiana McGlynn-Rath","party":"","address":"901 W Chukar Cir, Saratoga Springs, UT 84045","precinct":"25SR09","hd":"51","v_score":"9.757278238","decile":"8","lat":40.37735630218171,"lng":-111.93785832893082,"phone":"(800) 574-9241","sd":"22","ssbd":"10","lsbd":"School Board Lake Mountain 2"},{"vid":"6421587","name":"Minerva Lindgren","party":"","address":"973 N Jack Rabbit Run, Saratoga Springs, UT 84045","precinct":"25SR09","hd":"51","v_score":"11.05053808","decile":"9","lat":40.37981814886362,"lng":-111.93900130793195,"phone":"(350) 884-2191","sd":"22","ssbd":"10","lsbd":"School Board Lake Mountain 2"},{"vid":"5b2340718507d010bb7eef722ad019f263f9409533787da8068ba929ccaa0212","name":"Evelina Bradtke","party":"Dem","address":"556 N Slate Ct, Saratoga Springs, UT 84045","precinct":"25SR09","hd":"51","v_score":"3.93832808","decile":"6","lat":40.37242289182404,"lng":-111.93721480539276,"phone":"(631) 277-6218","sd":"22","ssbd":"10","lsbd":"School Board Lake Mountain 2"},