[{"vid":"814919","name":"Jemima Funk","party":"Rep","address":"328 W Birch Dr, Saratoga Springs, UT 84045","precinct":"25SR30","hd":"51","v_score":"3.93832808","decile":"6","lat":40.31179820449116,"lng":-111.9015811033712,"phone":"(926) 038-2471","sd":"22","ssbd":"10","lsbd":"School Board Lake Mountain 7"},{"vid":"815129","name":"Ms. Grecia Mertz","party":"Dem","address":"363 W Fox Hollow Dr, Saratoga Springs, UT 84045","precinct":"25SR30","hd":"51","v_score":"3.93832808","decile":"6","lat":40.310132990157456,"lng":-111.90052624237023,"phone":"(299) 374-0831","sd":"22","ssbd":"10","lsbd":"School Board Lake Mountain 7"},{"vid":"a7c39e6dd57b754a4a128d4660e3249c15a9b99c839cb5472928defd579b92c1","name":"Ludwig DuBuque","party":"Dem","address":"532 W Kit Fox Dr, Saratoga Springs, UT 84045","precinct":"25SR30","hd":"51","v_score":"3.93832808","decile":"6","lat":40.31107505765316,"lng":-111.90489003146536,"phone":"(253) 499-4392","sd":"22","ssbd":"10","lsbd":"School Board Lake Mountain 7"},{"vid":"1249674","name":"Tianna Ritchie","party":"Dem","address":"226 W Summerhill Dr, Saratoga Springs, UT 84045","precinct":"25SR30","hd":"51","v_score":"18.14065566","decile":"10","lat":40.31498543571793,"lng":-111.90164714832399,"phone":"(135) 781-3584","sd":"22","ssbd":"10","lsbd":"School Board Lake Mountain 7"},{"vid":"1249688","name":"Irvine Hilll","party":"Rep","address":"226 W Summerhill Dr, Saratoga Springs, UT 84045","precinct":"25SR30","hd":"51","v_score":"18.14065566","decile":"10","lat":40.31498543571793,"lng":-111.90164714832399,"phone":"(199) 910-8786","sd":"22","ssbd":"10","lsbd":"School Board Lake Mountain 7"},{"vid":"1253420","name":"Buelah Hickle DVM","party":"Dem","address":"177 W Stillwater Dr, Saratoga Springs, UT 84045","precinct":"25SR30","hd":"51","v_score":"39.30976877","decile":"10","lat":40.31213531521829,"lng":-111.89715638682137,"phone":"(503) 941-9438","sd":"22","ssbd":"10","lsbd":"School Board Lake Mountain 7"},{"vid":"1256473","name":"Amelie Schaden","party":"Dem","address":"288 W Shadow Ridge Dr, Saratoga Springs, UT 84045","precinct":"25SR30","hd":"51","v_score":"20.01823733","decile":"10","lat":40.31457400358584,"lng":-111.90240022925357,"phone":"(896) 513-2341","sd":"22","ssbd":"10","lsbd":"School Board Lake Mountain 7"},{"vid":"1256645","name":"Miss Fleda Spencer DDS","party":"Dem","address":"438 W Stillwater Dr, Saratoga Springs, UT 84045","precinct":"25SR30","hd":"51","v_score":"1.193887297","decile":"3","lat":40.312864052825056,"lng":-111.9055667891424,"phone":"(698) 282-4454","sd":"22","ssbd":"10","lsbd":"School Board Lake Mountain 7"},{"vid":"1258490","name":"Mr. Shirley Lebsack","party":"Rep","address":"2816 S Silver Fox Cir, Saratoga Springs, UT 84045","precinct":"25SR30","hd":"51","v_score":"2.315214949","decile":"5","lat":40.31106200049651,"lng":-111.8937393978026,"phone":"(804) 604-2722","sd":"22","ssbd":"10","lsbd":"School Board Lake Mountain 7"},{"vid":"1288071","name":"Vance Miller-Hammes","party":"Rep","address":"228 W Rosewood Dr, Saratoga Springs, UT 84045","precinct":"25SR30","hd":"51","v_score":"5.40460374","decile":"7","lat":40.314605026555874,"lng":-111.89864683874345,"phone":"(714) 421-6657","sd":"22","ssbd":"10","lsbd":"School Board Lake Mountain 7"},{"vid":"1318423","name":"Dr. Amerigo Lebsack","party":"","address":"114 W Silver Fox Ln, Saratoga Springs, UT 84045","precinct":"25SR30","hd":"51","v_score":"2.817000428","decile":"6","lat":40.31024812041417,"lng":-111.89391834233956,"phone":"(819) 402-9129","sd":"22","ssbd":"10","lsbd":"School Board Lake Mountain 7"},{"vid":"1318424","name":"Adan Klocko-Fritsch","party":"Rep","address":"114 W Silver Fox Ln, Saratoga Springs, UT 84045","precinct":"25SR30","hd":"51","v_score":"2.817000428","decile":"6","lat":40.31024812041417,"lng":-111.89391834233956,"phone":"(243) 687-8174","sd":"22","ssbd":"10","lsbd":"School Board Lake Mountain 7"},{"vid":"1318802","name":"Harl Lubowitz-Hahn","party":"","address":"2879 S Kollman Ln, Saratoga Springs, UT 84045","precinct":"25SR30","hd":"51","v_score":"11.99595736","decile":"9","lat":40.30952098614609,"lng":-111.9054192640376,"phone":"(307) 019-1773","sd":"22","ssbd":"10","lsbd":"School Board Lake Mountain 7"},{"vid":"1319848","name":"Gale Blanda","party":"","address":"271 W Shadow Ridge Dr, Saratoga Springs, UT 84045","precinct":"25SR30","hd":"51","v_score":"14.6203782","decile":"9","lat":40.31423761621913,"lng":-111.90172461104007,"phone":"(138) 553-4304","sd":"22","ssbd":"10","lsbd":"School Board Lake Mountain 7"},{"vid":"1335135","name":"Carly Crist","party":"","address":"358 W Birch Dr, Saratoga Springs, UT 84045","precinct":"25SR30","hd":"51","v_score":"7.24185597","decile":"8","lat":40.31176693152472,"lng":-111.9027271205687,"phone":"(120) 594-1248","sd":"22","ssbd":"10","lsbd":"School Board Lake Mountain 7"},{"vid":"81919655416014f93c1dbe3107967ec0264d145fdae505b357a7e34695b28ec8","name":"Katy McCullough PhD","party":"Dem","address":"2852 S Day Lilly Dr, Saratoga Springs, UT 84045","precinct":"25SR30","hd":"51","v_score":"5.40460374","decile":"7","lat":40.310340192928386,"lng":-111.89950281935238,"phone":"(188) 240-8856","sd":"22","ssbd":"10","lsbd":"School Board Lake Mountain 7"},{"vid":"1344577","name":"Blanchie Block","party":"","address":"236 W Summerhill Dr, Saratoga Springs, UT 84045","precinct":"25SR30","hd":"51","v_score":"2.315214949","decile":"5","lat":40.315054579755724,"lng":-111.90202384628347,"phone":"(778) 267-0204","sd":"22","ssbd":"10","lsbd":"School Board Lake Mountain 7"},{"vid":"1346368","name":"Essex Eichmann-McClure","party":"Rep","address":"157 W Ivy Ln, Saratoga Springs, UT 84045","precinct":"25SR30","hd":"51","v_score":"4.069929862","decile":"6","lat":40.313791149786255,"lng":-111.89686161878745,"phone":"(553) 613-5168","sd":"22","ssbd":"10","lsbd":"School Board Lake Mountain 7"},{"vid":"1351926","name":"Orra Anderson","party":"Rep","address":"2868 S Cottontail Loop, Saratoga Springs, UT 84045","precinct":"25SR30","hd":"51","v_score":"2.315214949","decile":"5","lat":40.310058880392916,"lng":-111.89548787161485,"phone":"(601) 793-1141","sd":"22","ssbd":"10","lsbd":"School Board Lake Mountain 7"},{"vid":"1353703","name":"Othel Murray III","party":"Rep","address":"391 W Birch Dr, Saratoga Springs, UT 84045","precinct":"25SR30","hd":"51","v_score":"3.781490609","decile":"6","lat":40.31144395831712,"lng":-111.90340136301846,"phone":"(823) 714-2293","sd":"22","ssbd":"10","lsbd":"School Board Lake Mountain 7"},{"vid":"1361799","name":"Aurthur Aufderhar","party":"Rep","address":"214 W Stillwater Dr, Saratoga Springs, UT 84045","precinct":"25SR30","hd":"51","v_score":"5.40460374","decile":"7","lat":40.312584108989796,"lng":-111.89849971694922,"phone":"(355) 970-3175","sd":"22","ssbd":"10","lsbd":"School Board Lake Mountain 7"},{"vid":"1363491","name":"Ms. Georgia Jones DDS","party":"Dem","address":"372 W Stillwater Dr, Saratoga Springs, UT 84045","precinct":"25SR30","hd":"51","v_score":"4.079907534","decile":"7","lat":40.31323140496577,"lng":-111.90403561433389,"phone":"(930) 365-5152","sd":"22","ssbd":"10","lsbd":"School Board Lake Mountain 7"},{"vid":"1364155","name":"Lucie Corwin","party":"Rep","address":"212 W Summerhill Dr, Saratoga Springs, UT 84045","precinct":"25SR30","hd":"51","v_score":"1.121327652","decile":"3","lat":40.31498744923992,"lng":-111.90101614956987,"phone":"(840) 766-0324","sd":"22","ssbd":"10","lsbd":"School Board Lake Mountain 7"},{"vid":"1366185","name":"Raiden Rodriguez","party":"Dem","address":"25 W Stillwater Dr, Saratoga Springs, UT 84045","precinct":"25SR30","hd":"51","v_score":"5.40460374","decile":"7","lat":40.31527306212816,"lng":-111.89510649993184,"phone":"(337) 413-4602","sd":"22","ssbd":"10","lsbd":"School Board Lake Mountain 7"},{"vid":"1375469","name":"Isamar Quitzon","party":"Rep","address":"344 W Stillwater Dr, Saratoga Springs, UT 84045","precinct":"25SR30","hd":"51","v_score":"10.67330764","decile":"9","lat":40.31350022496059,"lng":-111.90341914816513,"phone":"(834) 038-9947","sd":"22","ssbd":"10","lsbd":"School Board Lake Mountain 7"},{"vid":"9f44fb91bbd5504122447fe1081a32584ca2a4a3f10ee888f8e00d4bb883f2ec","name":"Cory Watsica","party":"","address":"2853 S Island Fox Ln, Saratoga Springs, UT 84045","precinct":"25SR30","hd":"51","v_score":"15.45904733","decile":"9","lat":40.31027244038125,"lng":-111.90444883541575,"phone":"(390) 718-9756","sd":"22","ssbd":"10","lsbd":"School Board Lake Mountain 7"},{"vid":"1377366","name":"Emery Leuschke","party":"","address":"2752 S Spring Meadow Dr, Saratoga Springs, UT 84045","precinct":"25SR30","hd":"51","v_score":"5.40460374","decile":"7","lat":40.31208137612868,"lng":-111.90389713957184,"phone":"(540) 769-2043","sd":"22","ssbd":"10","lsbd":"School Board Lake Mountain 7"},{"vid":"1394460","name":"Luda Jast DVM","party":"Rep","address":"271 W Shadow Ridge Dr, Saratoga Springs, UT 84045","precinct":"25SR30","hd":"51","v_score":"12.74279652","decile":"9","lat":40.31423761621913,"lng":-111.90172461104007,"phone":"(114) 417-8396","sd":"22","ssbd":"10","lsbd":"School Board Lake Mountain 7"},{"vid":"1407296","name":"Anders Block PhD","party":"Dem","address":"2733 S Lavender Ln, Saratoga Springs, UT 84045","precinct":"25SR30","hd":"51","v_score":"0","decile":"1","lat":40.31245444645252,"lng":-111.89465354770024,"phone":"(427) 910-9234","sd":"22","ssbd":"10","lsbd":"School Board Lake Mountain 7"},{"vid":"1407491","name":"Nakita Kuhlman","party":"Rep","address":"157 W Ivy Ln, Saratoga Springs, UT 84045","precinct":"25SR30","hd":"51","v_score":"4.069929862","decile":"6","lat":40.313791149786255,"lng":-111.89686161878745,"phone":"(553) 847-0278","sd":"22","ssbd":"10","lsbd":"School Board Lake Mountain 7"},{"vid":"1414993","name":"Mrs. Lesley Dare","party":"","address":"542 W Kit Fox Dr, Saratoga Springs, UT 84045","precinct":"25SR30","hd":"51","v_score":"2.587603312","decile":"5","lat":40.31098523221374,"lng":-111.90515220410227,"phone":"(822) 958-0803","sd":"22","ssbd":"10","lsbd":"School Board Lake Mountain 7"},{"vid":"1418135","name":"Miss Karin Kessler PhD","party":"","address":"2836 S Village Court Rd, Saratoga Springs, UT 84045","precinct":"25SR30","hd":"51","v_score":"3.93832808","decile":"6","lat":40.31060303105176,"lng":-111.89431876194539,"phone":"(445) 219-3914","sd":"22","ssbd":"10","lsbd":"School Board Lake Mountain 7"},{"vid":"1424179","name":"Ruth Beatty","party":"Dem","address":"399 W Fox Hollow Dr, Saratoga Springs, UT 84045","precinct":"25SR30","hd":"51","v_score":"2.817000428","decile":"6","lat":40.310057093331146,"lng":-111.90142289116872,"phone":"(160) 651-4666","sd":"22","ssbd":"10","lsbd":"School Board Lake Mountain 7"},{"vid":"1424499","name":"Miss Azaria Orn","party":"Rep","address":"2726 S Wildflower Dr, Saratoga Springs, UT 84045","precinct":"25SR30","hd":"51","v_score":"5.40460374","decile":"7","lat":40.31253848930317,"lng":-111.89307675830213,"phone":"(239) 887-0858","sd":"22","ssbd":"10","lsbd":"School Board Lake Mountain 7"},{"vid":"1425237","name":"Tameka Armstrong MD","party":"","address":"2622 S Shadow Ridge Dr, Saratoga Springs, UT 84045","precinct":"25SR30","hd":"51","v_score":"1.121327652","decile":"3","lat":40.31453750404185,"lng":-111.90123289201186,"phone":"(293) 493-4419","sd":"22","ssbd":"10","lsbd":"School Board Lake Mountain 7"},{"vid":"1426493","name":"Ms. Iza Franecki DVM","party":"Rep","address":"25 W Stillwater Dr, Saratoga Springs, UT 84045","precinct":"25SR30","hd":"51","v_score":"5.40460374","decile":"7","lat":40.31527306212816,"lng":-111.89510649993184,"phone":"(615) 087-4164","sd":"22","ssbd":"10","lsbd":"School Board Lake Mountain 7"},{"vid":"d70dc70f16b74cbbbb20741bfb1da8919eb05ec9c375d18c848f867942a89d6c","name":"Dr. Trinidad Doyle PhD","party":"","address":"24 W Hollyhock Cir, Saratoga Springs, UT 84045","precinct":"25SR30","hd":"51","v_score":"6.724398202","decile":"8","lat":40.31420605432014,"lng":-111.89408070604232,"phone":"(628) 953-8924","sd":"22","ssbd":"10","lsbd":"School Board Lake Mountain 7"},{"vid":"1427286","name":"Carina Botsford","party":"","address":"24 W Hollyhock Cir, Saratoga Springs, UT 84045","precinct":"25SR30","hd":"51","v_score":"10.43635069","decile":"9","lat":40.31420605432014,"lng":-111.89408070604232,"phone":"(729) 552-0722","sd":"22","ssbd":"10","lsbd":"School Board Lake Mountain 7"},{"vid":"1427619","name":"Mariela Schmitt","party":"Rep","address":"2635 S Lost Creek Cir, Saratoga Springs, UT 84045","precinct":"25SR30","hd":"51","v_score":"2.660162957","decile":"5","lat":40.31430318938486,"lng":-111.90062566480309,"phone":"(747) 480-4988","sd":"22","ssbd":"10","lsbd":"School Board Lake Mountain 7"},{"vid":"1430708","name":"Docia Runolfsson","party":"","address":"423 W Fox Hollow Dr, Saratoga Springs, UT 84045","precinct":"25SR30","hd":"51","v_score":"8.347511332","decile":"8","lat":40.309870212834205,"lng":-111.90195187241238,"phone":"(931) 684-0435","sd":"22","ssbd":"10","lsbd":"School Board Lake Mountain 7"},{"vid":"4f17eaefac325098931993fd1b383706f5665607880eb2baf07163ba608d070d","name":"Kaden Sauer","party":"Dem","address":"2661 S Lavender Ln, Saratoga Springs, UT 84045","precinct":"25SR30","hd":"51","v_score":"4.064235245","decile":"6","lat":40.31379070728408,"lng":-111.89484936840937,"phone":"(579) 566-2613","sd":"22","ssbd":"10","lsbd":"School Board Lake Mountain 7"},{"vid":"1444213","name":"Mr. Cordaro Windler IV","party":"Dem","address":"2713 S Ivy Ln, Saratoga Springs, UT 84045","precinct":"25SR30","hd":"51","v_score":"10.52632313","decile":"9","lat":40.31291810970168,"lng":-111.89824146049897,"phone":"(714) 557-3890","sd":"22","ssbd":"10","lsbd":"School Board Lake Mountain 7"},{"vid":"1454375","name":"Annis Dietrich DDS","party":"Rep","address":"2753 S Ivy Ln, Saratoga Springs, UT 84045","precinct":"25SR30","hd":"51","v_score":"1.193887297","decile":"3","lat":40.31215113658652,"lng":-111.898172855439,"phone":"(983) 273-9106","sd":"22","ssbd":"10","lsbd":"School Board Lake Mountain 7"},{"vid":"1460040","name":"Elna Reilly","party":"","address":"2857 S Fox Pointe Dr, Saratoga Springs, UT 84045","precinct":"25SR30","hd":"51","v_score":"3.93832808","decile":"6","lat":40.31025955593619,"lng":-111.90335199138526,"phone":"(473) 033-1165","sd":"22","ssbd":"10","lsbd":"School Board Lake Mountain 7"},{"vid":"1464331","name":"Miss Elisabeth Monahan","party":"","address":"214 W Stillwater Dr, Saratoga Springs, UT 84045","precinct":"25SR30","hd":"51","v_score":"16.34438361","decile":"9","lat":40.312584108989796,"lng":-111.89849971694922,"phone":"(865) 275-6529","sd":"22","ssbd":"10","lsbd":"School Board Lake Mountain 7"},{"vid":"1464801","name":"Ms. Merilyn Kohler","party":"Dem","address":"2559 S Colt Dr, Saratoga Springs, UT 84045","precinct":"25SR30","hd":"51","v_score":"0","decile":"1","lat":40.315487554571085,"lng":-111.90555256198425,"phone":"(477) 704-4817","sd":"22","ssbd":"10","lsbd":"School Board Lake Mountain 7"},{"vid":"1469217","name":"Edward Stracke III","party":"Rep","address":"2652 S Spring Meadow Dr, Saratoga Springs, UT 84045","precinct":"25SR30","hd":"51","v_score":"3.93832808","decile":"6","lat":40.3139545130295,"lng":-111.90450597501624,"phone":"(428) 489-8557","sd":"22","ssbd":"10","lsbd":"School Board Lake Mountain 7"},{"vid":"1471220","name":"Javion Nolan","party":"","address":"222 W Fox Hollow Dr, Saratoga Springs, UT 84045","precinct":"25SR30","hd":"51","v_score":"19.87411787","decile":"10","lat":40.311091653410024,"lng":-111.89712825970517,"phone":"(799) 388-3823","sd":"22","ssbd":"10","lsbd":"School Board Lake Mountain 7"},{"vid":"1471222","name":"Glenwood Gislason","party":"","address":"222 W Fox Hollow Dr, Saratoga Springs, UT 84045","precinct":"25SR30","hd":"51","v_score":"12.57725863","decile":"9","lat":40.311091653410024,"lng":-111.89712825970517,"phone":"(960) 422-5854","sd":"22","ssbd":"10","lsbd":"School Board Lake Mountain 7"},{"vid":"1546520","name":"Antoine Corkery","party":"Dem","address":"2866 S Kollman Ln, Saratoga Springs, UT 84045","precinct":"25SR30","hd":"51","v_score":"3.93832808","decile":"6","lat":40.30988461078185,"lng":-111.90484320823131,"phone":"(916) 119-8366","sd":"22","ssbd":"10","lsbd":"School Board Lake Mountain 7"},{"vid":"1546522","name":"Miss Treena Hoppe DDS","party":"","address":"2866 S Kollman Ln, Saratoga Springs, UT 84045","precinct":"25SR30","hd":"51","v_score":"3.93832808","decile":"6","lat":40.30988461078185,"lng":-111.90484320823131,"phone":"(211) 205-6993","sd":"22","ssbd":"10","lsbd":"School Board Lake Mountain 7"},{"vid":"e29a4fedc56f1cbdc76a54c7ba5856e5b85a1a6cb1b786d52030151cd2f4fc44","name":"Lucero Skiles","party":"","address":"53 W Silver Fox Ln, Saratoga Springs, UT 84045","precinct":"25SR30","hd":"51","v_score":"5.40460374","decile":"7","lat":40.31033573456703,"lng":-111.89239088479674,"phone":"(942) 954-1798","sd":"22","ssbd":"10","lsbd":"School Board Lake Mountain 7"},{"vid":"1558239","name":"Hortense Hyatt MD","party":"Rep","address":"234 W Stillwater Dr, Saratoga Springs, UT 84045","precinct":"25SR30","hd":"51","v_score":"24.04214313","decile":"10","lat":40.31310406962722,"lng":-111.89942350538206,"phone":"(138) 517-5653","sd":"22","ssbd":"10","lsbd":"School Board Lake Mountain 7"},{"vid":"1566435","name":"Mr. Jereme Prohaska DVM","party":"Rep","address":"153 W Sweetbriar Ln, Saratoga Springs, UT 84045","precinct":"25SR30","hd":"51","v_score":"31.23782764","decile":"10","lat":40.3115315337237,"lng":-111.89595913321563,"phone":"(708) 257-0486","sd":"22","ssbd":"10","lsbd":"School Board Lake Mountain 7"},{"vid":"154220a1b32872f8643e2b18fe3bba0ace6634ab1aa7f155a2043b72b5c243c9","name":"Sheridan Gutmann","party":"Dem","address":"2611 S Colt Dr, Saratoga Springs, UT 84045","precinct":"25SR30","hd":"51","v_score":"5.258122542","decile":"7","lat":40.314578290200856,"lng":-111.90550416491251,"phone":"(298) 522-0016","sd":"22","ssbd":"10","lsbd":"School Board Lake Mountain 7"},{"vid":"1594806","name":"Yaretzi Pouros","party":"Dem","address":"2894 S Fox Pointe Dr, Saratoga Springs, UT 84045","precinct":"25SR30","hd":"51","v_score":"5.40460374","decile":"7","lat":40.30965860148104,"lng":-111.90246599373258,"phone":"(771) 578-1976","sd":"22","ssbd":"10","lsbd":"School Board Lake Mountain 7"},{"vid":"1602438","name":"Junius Herman","party":"","address":"137 W Silver Fox Ln, Saratoga Springs, UT 84045","precinct":"25SR30","hd":"51","v_score":"2.315214949","decile":"5","lat":40.309805526495005,"lng":-111.89436238297307,"phone":"(826) 326-5653","sd":"22","ssbd":"10","lsbd":"School Board Lake Mountain 7"},{"vid":"3df8d223850660dbcc011774c76ddfcdf09bf4c2092ac5e60dcd384ab525f99d","name":"Ozie Harris","party":"Dem","address":"2652 S Spring Meadow Dr, Saratoga Springs, UT 84045","precinct":"25SR30","hd":"51","v_score":"2.315214949","decile":"5","lat":40.3139545130295,"lng":-111.90450597501624,"phone":"(569) 377-2881","sd":"22","ssbd":"10","lsbd":"School Board Lake Mountain 7"},{"vid":"1629862","name":"Dr. Pablo Romaguera III","party":"","address":"2678 S Wildflower Dr, Saratoga Springs, UT 84045","precinct":"25SR30","hd":"51","v_score":"1.193887297","decile":"3","lat":40.31351005753376,"lng":-111.8938647552922,"phone":"(436) 261-9688","sd":"22","ssbd":"10","lsbd":"School Board Lake Mountain 7"},{"vid":"1643348","name":"Blake Lowe","party":"Rep","address":"2820 S Silver Fox Cir, Saratoga Springs, UT 84045","precinct":"25SR30","hd":"51","v_score":"0","decile":"1","lat":40.311057690236716,"lng":-111.8934159157771,"phone":"(581) 810-2831","sd":"22","ssbd":"10","lsbd":"School Board Lake Mountain 7"},{"vid":"1644669","name":"Courtney Ziemann","party":"Dem","address":"2608 S Clover Cir, Saratoga Springs, UT 84045","precinct":"25SR30","hd":"51","v_score":"2.315214949","decile":"5","lat":40.31471024395805,"lng":-111.89451228236373,"phone":"(747) 690-9715","sd":"22","ssbd":"10","lsbd":"School Board Lake Mountain 7"},{"vid":"1651605","name":"Mimi Bayer-Lind","party":"Dem","address":"2824 S Village Court Rd, Saratoga Springs, UT 84045","precinct":"25SR30","hd":"51","v_score":"13.35204966","decile":"9","lat":40.31079156076948,"lng":-111.89432056396586,"phone":"(461) 926-1078","sd":"22","ssbd":"10","lsbd":"School Board Lake Mountain 7"},{"vid":"1662990","name":"Clotilda Beer","party":"","address":"344 W Stillwater Dr, Saratoga Springs, UT 84045","precinct":"25SR30","hd":"51","v_score":"13.61621523","decile":"9","lat":40.31350022496059,"lng":-111.90341914816513,"phone":"(541) 230-4855","sd":"22","ssbd":"10","lsbd":"School Board Lake Mountain 7"},{"vid":"1663017","name":"Ashely Cremin","party":"","address":"148 W Sweetbriar Ln, Saratoga Springs, UT 84045","precinct":"25SR30","hd":"51","v_score":"11.46588297","decile":"9","lat":40.311893058760255,"lng":-111.89608493451945,"phone":"(469) 319-6189","sd":"22","ssbd":"10","lsbd":"School Board Lake Mountain 7"},{"vid":"1666822","name":"Wiley Graham","party":"","address":"2754 S Ivy Ln, Saratoga Springs, UT 84045","precinct":"25SR30","hd":"51","v_score":"19.30937315","decile":"10","lat":40.3121513708114,"lng":-111.89772440865465,"phone":"(232) 430-8087","sd":"22","ssbd":"10","lsbd":"School Board Lake Mountain 7"},{"vid":"1683002","name":"Breonna Kerluke","party":"Rep","address":"2658 S Ivy Cir, Saratoga Springs, UT 84045","precinct":"25SR30","hd":"51","v_score":"3.781490609","decile":"6","lat":40.31357021790235,"lng":-111.89687177561859,"phone":"(492) 559-2065","sd":"22","ssbd":"10","lsbd":"School Board Lake Mountain 7"},{"vid":"1693069","name":"Milford Kutch","party":"Dem","address":"2868 S Cottontail Loop, Saratoga Springs, UT 84045","precinct":"25SR30","hd":"51","v_score":"1.193887297","decile":"3","lat":40.310058880392916,"lng":-111.89548787161485,"phone":"(648) 345-8848","sd":"22","ssbd":"10","lsbd":"School Board Lake Mountain 7"},{"vid":"1693177","name":"Mrs. Hertha Haley DVM","party":"Dem","address":"512 W Kit Fox Dr, Saratoga Springs, UT 84045","precinct":"25SR30","hd":"51","v_score":"4.15282392","decile":"7","lat":40.31107829416138,"lng":-111.90432362140051,"phone":"(140) 546-4358","sd":"22","ssbd":"10","lsbd":"School Board Lake Mountain 7"},{"vid":"72f9b39e40b6820d8abd3003351eafd727b5de47bb426fe9fcb2aa7154b8cec6","name":"Mrs. Chaka Ullrich","party":"","address":"2843 S Island Fox Ln, Saratoga Springs, UT 84045","precinct":"25SR30","hd":"51","v_score":"8.363183621","decile":"8","lat":40.310440061651896,"lng":-111.9044273967598,"phone":"(781) 043-8688","sd":"22","ssbd":"10","lsbd":"School Board Lake Mountain 7"},{"vid":"1735436","name":"Yadiel Abshire-Harvey","party":"","address":"2868 S Cottontail Loop, Saratoga Springs, UT 84045","precinct":"25SR30","hd":"51","v_score":"0","decile":"1","lat":40.310058880392916,"lng":-111.89548787161485,"phone":"(930) 951-0189","sd":"22","ssbd":"10","lsbd":"School Board Lake Mountain 7"},{"vid":"1740327","name":"Darwyn Gibson-Konopelski","party":"","address":"164 W Ivy Ln, Saratoga Springs, UT 84045","precinct":"25SR30","hd":"51","v_score":"15.45904733","decile":"9","lat":40.31378974512529,"lng":-111.89758546007637,"phone":"(534) 593-6593","sd":"22","ssbd":"10","lsbd":"School Board Lake Mountain 7"},{"vid":"1745868","name":"Captain Hoppe","party":"","address":"473 W Fox Hollow Dr, Saratoga Springs, UT 84045","precinct":"25SR30","hd":"51","v_score":"2.660162957","decile":"5","lat":40.309402551623,"lng":-111.90283243869011,"phone":"(739) 013-7839","sd":"22","ssbd":"10","lsbd":"School Board Lake Mountain 7"},{"vid":"1765630","name":"Mr. Nicholas Barton V","party":"","address":"2711 S Day Lilly Dr, Saratoga Springs, UT 84045","precinct":"25SR30","hd":"51","v_score":"1.623113131","decile":"4","lat":40.31290090997939,"lng":-111.9005893335092,"phone":"(254) 996-7598","sd":"22","ssbd":"10","lsbd":"School Board Lake Mountain 7"},{"vid":"a4d561d6fd9e1c380b5e513313c5f7310288300063e2483080b0d0bde8665ae9","name":"Denine Mayer","party":"","address":"63 W Silver Fox Ln, Saratoga Springs, UT 84045","precinct":"25SR30","hd":"51","v_score":"0","decile":"1","lat":40.310241195452306,"lng":-111.89268949494067,"phone":"(974) 215-1816","sd":"22","ssbd":"10","lsbd":"School Board Lake Mountain 7"},{"vid":"1769545","name":"Ella Kiehn","party":"Dem","address":"202 W Cottontail Loop, Saratoga Springs, UT 84045","precinct":"25SR30","hd":"51","v_score":"1.121327652","decile":"3","lat":40.31036373265509,"lng":-111.89615054650189,"phone":"(535) 310-9379","sd":"22","ssbd":"10","lsbd":"School Board Lake Mountain 7"},{"vid":"1771201","name":"Artie Satterfield","party":"Dem","address":"2653 S Spring Meadow Dr, Saratoga Springs, UT 84045","precinct":"25SR30","hd":"51","v_score":"2.315214949","decile":"5","lat":40.31398657034411,"lng":-111.90490776364143,"phone":"(132) 068-1622","sd":"22","ssbd":"10","lsbd":"School Board Lake Mountain 7"},{"vid":"1791596","name":"Merl Treutel","party":"Dem","address":"294 W Summerhill Dr, Saratoga Springs, UT 84045","precinct":"25SR30","hd":"51","v_score":"5.40460374","decile":"7","lat":40.31497868826801,"lng":-111.9037449119621,"phone":"(172) 935-3463","sd":"22","ssbd":"10","lsbd":"School Board Lake Mountain 7"},{"vid":"1799308","name":"Dr. Bryce Schmeler Jr.","party":"Rep","address":"152 W Fox Hollow Dr, Saratoga Springs, UT 84045","precinct":"25SR30","hd":"51","v_score":"3.93832808","decile":"6","lat":40.311130302816004,"lng":-111.89514116904903,"phone":"(198) 790-6230","sd":"22","ssbd":"10","lsbd":"School Board Lake Mountain 7"},{"vid":"1809343","name":"Jacquline Nicolas","party":"","address":"294 W Summerhill Dr, Saratoga Springs, UT 84045","precinct":"25SR30","hd":"51","v_score":"5.40460374","decile":"7","lat":40.31497868826801,"lng":-111.9037449119621,"phone":"(862) 600-8080","sd":"22","ssbd":"10","lsbd":"School Board Lake Mountain 7"},{"vid":"6176f030a94db70f8c59b4df3c67a6f2605ea4f3024df1dd1259006597b510a6","name":"Margaretha Stanton","party":"Rep","address":"2757 S Sunrise Peak Cir, Saratoga Springs, UT 84045","precinct":"25SR30","hd":"51","v_score":"3.781490609","decile":"6","lat":40.312014683153336,"lng":-111.9056143976965,"phone":"(553) 059-7384","sd":"22","ssbd":"10","lsbd":"School Board Lake Mountain 7"},{"vid":"1816778","name":"Josiephine O'Kon","party":"","address":"2852 S Kollman Ln, Saratoga Springs, UT 84045","precinct":"25SR30","hd":"51","v_score":"1.193887297","decile":"3","lat":40.31027371313992,"lng":-111.90492260409714,"phone":"(684) 235-2699","sd":"22","ssbd":"10","lsbd":"School Board Lake Mountain 7"},{"vid":"5913075720916bc6878f1417f1a71973ed6861984bea9e408bc65700f0d6f280","name":"Chin Weimann IV","party":"","address":"2829 S Gray Fox Ave, Saratoga Springs, UT 84045","precinct":"25SR30","hd":"51","v_score":"14.429009","decile":"9","lat":40.310673343384316,"lng":-111.90239390257825,"phone":"(577) 219-9828","sd":"22","ssbd":"10","lsbd":"School Board Lake Mountain 7"},{"vid":"1833060","name":"Clarance Nolan","party":"","address":"2724 S Village Court Rd, Saratoga Springs, UT 84045","precinct":"25SR30","hd":"51","v_score":"6.724398202","decile":"8","lat":40.312719074411596,"lng":-111.89591793300794,"phone":"(226) 684-4676","sd":"22","ssbd":"10","lsbd":"School Board Lake Mountain 7"},{"vid":"59ed346a0982868ed72fcd54d99de33bbe981fcdd4ba54ed4265a24191ae35e2","name":"Frank Torphy","party":"Dem","address":"2894 S Fox Pointe Dr, Saratoga Springs, UT 84045","precinct":"25SR30","hd":"51","v_score":"6.032296384","decile":"7","lat":40.30965860148104,"lng":-111.90246599373258,"phone":"(427) 973-4433","sd":"22","ssbd":"10","lsbd":"School Board Lake Mountain 7"},{"vid":"1847466","name":"Christion O'Connell","party":"Rep","address":"2832 S Silver Fox Cir, Saratoga Springs, UT 84045","precinct":"25SR30","hd":"51","v_score":"7.947838735","decile":"8","lat":40.310697780756655,"lng":-111.89325196385681,"phone":"(224) 500-1434","sd":"22","ssbd":"10","lsbd":"School Board Lake Mountain 7"},{"vid":"1849925","name":"Cohen Von","party":"Rep","address":"228 W Cottontail Loop, Saratoga Springs, UT 84045","precinct":"25SR30","hd":"51","v_score":"0","decile":"1","lat":40.31040748820404,"lng":-111.89686854072514,"phone":"(399) 883-2328","sd":"22","ssbd":"10","lsbd":"School Board Lake Mountain 7"},{"vid":"1852441","name":"Fernanda Hintz","party":"Dem","address":"2654 S Stillwater Dr, Saratoga Springs, UT 84045","precinct":"25SR30","hd":"51","v_score":"5.659072284","decile":"7","lat":40.313884190242234,"lng":-111.89539650277179,"phone":"(778) 191-1296","sd":"22","ssbd":"10","lsbd":"School Board Lake Mountain 7"},{"vid":"1855790","name":"Mr. Jaydin Botsford","party":"Dem","address":"314 W Stillwater Dr, Saratoga Springs, UT 84045","precinct":"25SR30","hd":"51","v_score":"5.40460374","decile":"7","lat":40.31375448317961,"lng":-111.90260377736617,"phone":"(385) 729-5735","sd":"22","ssbd":"10","lsbd":"School Board Lake Mountain 7"},{"vid":"1859313","name":"Patrice Gutmann","party":"Dem","address":"232 W Wildwood Dr, Saratoga Springs, UT 84045","precinct":"25SR30","hd":"51","v_score":"10.89074633","decile":"9","lat":40.31395387694843,"lng":-111.89919318320304,"phone":"(804) 748-3672","sd":"22","ssbd":"10","lsbd":"School Board Lake Mountain 7"},{"vid":"1873872","name":"Mrs. Beatriz Steuber MD","party":"Dem","address":"2724 S Day Lilly Dr, Saratoga Springs, UT 84045","precinct":"25SR30","hd":"51","v_score":"2.315214949","decile":"5","lat":40.31272793738494,"lng":-111.90021034200566,"phone":"(790) 784-3822","sd":"22","ssbd":"10","lsbd":"School Board Lake Mountain 7"},{"vid":"1874362","name":"Russ Dare DDS","party":"Dem","address":"2638 S Wildflower Dr, Saratoga Springs, UT 84045","precinct":"25SR30","hd":"51","v_score":"3.93832808","decile":"6","lat":40.31406975149097,"lng":-111.89441321694602,"phone":"(406) 787-7731","sd":"22","ssbd":"10","lsbd":"School Board Lake Mountain 7"},{"vid":"1874678","name":"Leslie Lakin-Parisian","party":"","address":"2626 S Colt Dr, Saratoga Springs, UT 84045","precinct":"25SR30","hd":"51","v_score":"0","decile":"1","lat":40.314279743448154,"lng":-111.90466635172211,"phone":"(336) 748-8879","sd":"22","ssbd":"10","lsbd":"School Board Lake Mountain 7"},{"vid":"1880485","name":"Brennon Wolff","party":"Rep","address":"2618 S Lost Creek Cir, Saratoga Springs, UT 84045","precinct":"25SR30","hd":"51","v_score":"1.121327652","decile":"3","lat":40.31455936033639,"lng":-111.90020445672182,"phone":"(295) 223-9855","sd":"22","ssbd":"10","lsbd":"School Board Lake Mountain 7"},{"vid":"1c17f38f946cea5d1998e989f5543ce2d2cb35f40cb80cc4cde9199c6d816478","name":"Zeta Kuphal-Bartoletti","party":"Rep","address":"363 W Stillwater Dr, Saratoga Springs, UT 84045","precinct":"25SR30","hd":"51","v_score":"5.40460374","decile":"7","lat":40.31286758717083,"lng":-111.90352389711715,"phone":"(554) 036-8910","sd":"22","ssbd":"10","lsbd":"School Board Lake Mountain 7"},{"vid":"f5cb1e41f73858cc2bc174e5af87770a2ec5808fae887e0045fc999cb6b4a44e","name":"Mr. Marsh Mueller Sr.","party":"","address":"2879 S Village Court Rd, Saratoga Springs, UT 84045","precinct":"25SR30","hd":"51","v_score":"0","decile":"1","lat":40.30985645762019,"lng":-111.89490200438522,"phone":"(226) 295-3886","sd":"22","ssbd":"10","lsbd":"School Board Lake Mountain 7"},{"vid":"1902677","name":"Burney Gusikowski-Dooley","party":"Dem","address":"224 W Wildwood Dr, Saratoga Springs, UT 84045","precinct":"25SR30","hd":"51","v_score":"0","decile":"1","lat":40.31373811836855,"lng":-111.89914703605227,"phone":"(851) 044-8810","sd":"22","ssbd":"10","lsbd":"School Board Lake Mountain 7"},{"vid":"1914232","name":"Jarad Nikolaus","party":"","address":"2852 S Day Lilly Dr, Saratoga Springs, UT 84045","precinct":"25SR30","hd":"51","v_score":"9.40499548","decile":"8","lat":40.310340192928386,"lng":-111.89950281935238,"phone":"(726) 899-5840","sd":"22","ssbd":"10","lsbd":"School Board Lake Mountain 7"},{"vid":"f41b139752b1b023335e6b6f228cc08f3dc2ab9530dd14812923216886dca3ae","name":"Mr. Rolland Weber DDS","party":"","address":"363 W Stillwater Dr, Saratoga Springs, UT 84045","precinct":"25SR30","hd":"51","v_score":"0","decile":"1","lat":40.31286758717083,"lng":-111.90352389711715,"phone":"(554) 219-9040","sd":"22","ssbd":"10","lsbd":"School Board Lake Mountain 7"},{"vid":"1916897","name":"Iris Gutmann PhD","party":"Dem","address":"2724 S Day Lilly Dr, Saratoga Springs, UT 84045","precinct":"25SR30","hd":"51","v_score":"5.40460374","decile":"7","lat":40.31272793738494,"lng":-111.90021034200566,"phone":"(954) 311-5128","sd":"22","ssbd":"10","lsbd":"School Board Lake Mountain 7"},{"vid":"1927495","name":"Cornelious Veum DVM","party":"Rep","address":"316 W Shadow Ridge Dr, Saratoga Springs, UT 84045","precinct":"25SR30","hd":"51","v_score":"3.781490609","decile":"6","lat":40.31467003123577,"lng":-111.90343911915117,"phone":"(567) 579-5820","sd":"22","ssbd":"10","lsbd":"School Board Lake Mountain 7"},{"vid":"1932586","name":"Marty Raynor","party":"","address":"216 W Rosewood Dr, Saratoga Springs, UT 84045","precinct":"25SR30","hd":"51","v_score":"0","decile":"1","lat":40.31452006820732,"lng":-111.89844945704266,"phone":"(552) 547-0805","sd":"22","ssbd":"10","lsbd":"School Board Lake Mountain 7"},{"vid":"1942268","name":"Jenna Welch","party":"","address":"161 W Sweetbriar Ln, Saratoga Springs, UT 84045","precinct":"25SR30","hd":"51","v_score":"2.587603312","decile":"5","lat":40.31147163722538,"lng":-111.89627526416311,"phone":"(335) 664-9009","sd":"22","ssbd":"10","lsbd":"School Board Lake Mountain 7"},{"vid":"1944213","name":"Jeanna Kutch-Armstrong","party":"","address":"192 W Stillwater Dr, Saratoga Springs, UT 84045","precinct":"25SR30","hd":"51","v_score":"0","decile":"1","lat":40.31251024453131,"lng":-111.89779925934774,"phone":"(633) 071-0232","sd":"22","ssbd":"10","lsbd":"School Board Lake Mountain 7"},{"vid":"1947496","name":"Amina Friesen","party":"Dem","address":"148 W Sweetbriar Ln, Saratoga Springs, UT 84045","precinct":"25SR30","hd":"51","v_score":"8.507303088","decile":"8","lat":40.311893058760255,"lng":-111.89608493451945,"phone":"(175) 695-0852","sd":"22","ssbd":"10","lsbd":"School Board Lake Mountain 7"},{"vid":"1950018","name":"Adell Miller PhD","party":"Rep","address":"232 W Wildwood Dr, Saratoga Springs, UT 84045","precinct":"25SR30","hd":"51","v_score":"7.947838735","decile":"8","lat":40.31395387694843,"lng":-111.89919318320304,"phone":"(865) 596-9649","sd":"22","ssbd":"10","lsbd":"School Board Lake Mountain 7"},{"vid":"1966835","name":"Adelbert Rath I","party":"Rep","address":"2713 S Ivy Ln, Saratoga Springs, UT 84045","precinct":"25SR30","hd":"51","v_score":"10.52632313","decile":"9","lat":40.31291810970168,"lng":-111.89824146049897,"phone":"(301) 196-2102","sd":"22","ssbd":"10","lsbd":"School Board Lake Mountain 7"},{"vid":"1990344","name":"Jens Heller","party":"","address":"2892 S Kollman Ln, Saratoga Springs, UT 84045","precinct":"25SR30","hd":"51","v_score":"2.315214949","decile":"5","lat":40.3095013385807,"lng":-111.90474582239752,"phone":"(780) 477-5226","sd":"22","ssbd":"10","lsbd":"School Board Lake Mountain 7"},{"vid":"1997469","name":"Gwen Gerhold","party":"Rep","address":"186 W Sweetbriar Ln, Saratoga Springs, UT 84045","precinct":"25SR30","hd":"51","v_score":"3.93832808","decile":"6","lat":40.311779348654895,"lng":-111.89723188666973,"phone":"(318) 784-9320","sd":"22","ssbd":"10","lsbd":"School Board Lake Mountain 7"},{"vid":"2002188","name":"Alonzo Casper","party":"","address":"158 W Summerhill Dr, Saratoga Springs, UT 84045","precinct":"25SR30","hd":"51","v_score":"0","decile":"1","lat":40.31499477096324,"lng":-111.89870632549352,"phone":"(584) 951-6064","sd":"22","ssbd":"10","lsbd":"School Board Lake Mountain 7"},{"vid":"570b74422e24e291db84cf64c417eea5720d02707ab40d3ac69ef02bcbaa2df2","name":"Olan Bergstrom","party":"Rep","address":"2879 S Village Court Rd, Saratoga Springs, UT 84045","precinct":"25SR30","hd":"51","v_score":"4.409183253","decile":"7","lat":40.30985645762019,"lng":-111.89490200438522,"phone":"(232) 509-9517","sd":"22","ssbd":"10","lsbd":"School Board Lake Mountain 7"},{"vid":"2002293","name":"Garrick Runolfsdottir","party":"Rep","address":"209 W Wildwood Dr, Saratoga Springs, UT 84045","precinct":"25SR30","hd":"51","v_score":"13.84932621","decile":"9","lat":40.313106694531776,"lng":-111.8988598202801,"phone":"(566) 676-7675","sd":"22","ssbd":"10","lsbd":"School Board Lake Mountain 7"},{"vid":"7fac34b9300e9fd429d9455901aa7ed204d2d4be4357250af50fc4ecaecb1386","name":"Mr. Carlisle Mante III","party":"Rep","address":"2829 S Silver Fox Cir, Saratoga Springs, UT 84045","precinct":"25SR30","hd":"51","v_score":"14.06712934","decile":"9","lat":40.310690302734706,"lng":-111.89377769972188,"phone":"(551) 394-8999","sd":"22","ssbd":"10","lsbd":"School Board Lake Mountain 7"},{"vid":"2007992","name":"Levar Lehner","party":"","address":"236 W Summerhill Dr, Saratoga Springs, UT 84045","precinct":"25SR30","hd":"51","v_score":"1.877581675","decile":"5","lat":40.315054579755724,"lng":-111.90202384628347,"phone":"(166) 307-4242","sd":"22","ssbd":"10","lsbd":"School Board Lake Mountain 7"},{"vid":"2012982","name":"Alto Reilly PhD","party":"Rep","address":"189 W Sweetbriar Ln, Saratoga Springs, UT 84045","precinct":"25SR30","hd":"51","v_score":"18.36340365","decile":"10","lat":40.31142866674075,"lng":-111.89726990247698,"phone":"(891) 872-6350","sd":"22","ssbd":"10","lsbd":"School Board Lake Mountain 7"},{"vid":"2013033","name":"Yuridia Hilll-Spencer","party":"","address":"364 W Fox Hollow Dr, Saratoga Springs, UT 84045","precinct":"25SR30","hd":"51","v_score":"0","decile":"1","lat":40.31058207401766,"lng":-111.9006349570249,"phone":"(373) 834-9243","sd":"22","ssbd":"10","lsbd":"School Board Lake Mountain 7"},{"vid":"2015400","name":"Bette Russel","party":"","address":"532 W Kit Fox Dr, Saratoga Springs, UT 84045","precinct":"25SR30","hd":"51","v_score":"3.93832808","decile":"6","lat":40.31107505765316,"lng":-111.90489003146536,"phone":"(449) 498-5379","sd":"22","ssbd":"10","lsbd":"School Board Lake Mountain 7"},{"vid":"2022991","name":"Purl Reichel","party":"Rep","address":"382 W Kit Fox Dr, Saratoga Springs, UT 84045","precinct":"25SR30","hd":"51","v_score":"0","decile":"1","lat":40.31100018681329,"lng":-111.90143141248846,"phone":"(449) 248-2348","sd":"22","ssbd":"10","lsbd":"School Board Lake Mountain 7"},{"vid":"2028916","name":"Betsy Koepp-Corwin","party":"Rep","address":"2788 S Sunrise Peak Cir, Saratoga Springs, UT 84045","precinct":"25SR30","hd":"51","v_score":"1.121327652","decile":"3","lat":40.31148328353487,"lng":-111.90502569038796,"phone":"(115) 600-8587","sd":"22","ssbd":"10","lsbd":"School Board Lake Mountain 7"},{"vid":"2028920","name":"Jessy Beatty","party":"Dem","address":"392 W Kit Fox Dr, Saratoga Springs, UT 84045","precinct":"25SR30","hd":"51","v_score":"1.121327652","decile":"3","lat":40.31109269870349,"lng":-111.90179682417931,"phone":"(789) 264-1576","sd":"22","ssbd":"10","lsbd":"School Board Lake Mountain 7"},{"vid":"2030927","name":"Fredy Windler","party":"Rep","address":"117 W Silver Fox Ln, Saratoga Springs, UT 84045","precinct":"25SR30","hd":"51","v_score":"9.616113056","decile":"8","lat":40.309868656637036,"lng":-111.89382730723275,"phone":"(415) 006-3382","sd":"22","ssbd":"10","lsbd":"School Board Lake Mountain 7"},{"vid":"2041189","name":"Mateo Legros","party":"Dem","address":"254 W Ivy Ln, Saratoga Springs, UT 84045","precinct":"25SR30","hd":"51","v_score":"2.315214949","decile":"5","lat":40.311791003839026,"lng":-111.89941140824922,"phone":"(706) 745-0235","sd":"22","ssbd":"10","lsbd":"School Board Lake Mountain 7"},{"vid":"2047708","name":"Jack Koepp-Thiel","party":"Dem","address":"2807 S Village Court Rd, Saratoga Springs, UT 84045","precinct":"25SR30","hd":"51","v_score":"2.744440783","decile":"5","lat":40.31113190517671,"lng":-111.89485152040106,"phone":"(324) 291-9238","sd":"22","ssbd":"10","lsbd":"School Board Lake Mountain 7"},{"vid":"2057942","name":"Dwan Leuschke DVM","party":"","address":"287 W Shadow Ridge Dr, Saratoga Springs, UT 84045","precinct":"25SR30","hd":"51","v_score":"2.817000428","decile":"6","lat":40.314225062337954,"lng":-111.9023688526673,"phone":"(474) 850-1046","sd":"22","ssbd":"10","lsbd":"School Board Lake Mountain 7"},{"vid":"7cf4f6dcdd374d92e869fffa0105c6aeb693ed8082cea2940d6589615572cddb","name":"Dr. Arland Bernier","party":"Rep","address":"2633 S Colt Dr, Saratoga Springs, UT 84045","precinct":"25SR30","hd":"51","v_score":"13.61621523","decile":"9","lat":40.314156763646935,"lng":-111.90533080165538,"phone":"(697) 673-8599","sd":"22","ssbd":"10","lsbd":"School Board Lake Mountain 7"},{"vid":"ec38249ef1729d57af3a6e49bb90132a5b07322374cf57297a3aa78e1c9c3d07","name":"Ananias Bernhard","party":"Rep","address":"234 W Ivy Ln, Saratoga Springs, UT 84045","precinct":"25SR30","hd":"51","v_score":"3.93832808","decile":"6","lat":40.31173748082543,"lng":-111.89869016273258,"phone":"(503) 124-8837","sd":"22","ssbd":"10","lsbd":"School Board Lake Mountain 7"},{"vid":"9a632242344993deb97c5d514379a6f82a0bc1c18681b68b44c92ebf050b9469","name":"Jeanetta Wuckert-Abernathy","party":"","address":"353 W Stillwater Dr, Saratoga Springs, UT 84045","precinct":"25SR30","hd":"51","v_score":"3.93832808","decile":"6","lat":40.31299486505125,"lng":-111.90330715627663,"phone":"(192) 975-2054","sd":"22","ssbd":"10","lsbd":"School Board Lake Mountain 7"},{"vid":"3acbc8bc93ad63df809db85ac4872fc6eb3b6adb2bd01b66ed9b049e6ad1b39d","name":"Maximus Gerhold","party":"","address":"2768 S Village Court Rd, Saratoga Springs, UT 84045","precinct":"25SR30","hd":"51","v_score":"3.781490609","decile":"6","lat":40.311798984599015,"lng":-111.89465892350462,"phone":"(344) 114-4359","sd":"22","ssbd":"10","lsbd":"School Board Lake Mountain 7"},{"vid":"2120425","name":"Loran Quigley","party":"","address":"2818 S Silver Fox Ln, Saratoga Springs, UT 84045","precinct":"25SR30","hd":"51","v_score":"6.881235673","decile":"8","lat":40.31098814810637,"lng":-111.89222996840357,"phone":"(535) 048-9215","sd":"22","ssbd":"10","lsbd":"School Board Lake Mountain 7"},{"vid":"2c0cf2748a55a7d573d00c56f87d7afae05a5a0c75c2bd8f4ed43632be55b514","name":"Miss Alani Klocko DVM","party":"","address":"2676 S Spring Meadow Dr, Saratoga Springs, UT 84045","precinct":"25SR30","hd":"51","v_score":"18.8869446","decile":"10","lat":40.313464508547405,"lng":-111.90463946580496,"phone":"(985) 451-9085","sd":"22","ssbd":"10","lsbd":"School Board Lake Mountain 7"},{"vid":"2139524","name":"Marva Dare","party":"","address":"2849 S Kollman Ln, Saratoga Springs, UT 84045","precinct":"25SR30","hd":"51","v_score":"2.315214949","decile":"5","lat":40.31021187669314,"lng":-111.90550264797984,"phone":"(141) 618-2609","sd":"22","ssbd":"10","lsbd":"School Board Lake Mountain 7"},{"vid":"5525b69fea4a79f061ccfe7fd0196cd8329c9ffdc39eed77dfe9f95cecdbe454","name":"Dr. Ottie Braun","party":"Rep","address":"2857 S Marten Ln, Saratoga Springs, UT 84045","precinct":"25SR30","hd":"51","v_score":"17.23075141","decile":"9","lat":40.310135872314866,"lng":-111.89888632905021,"phone":"(567) 773-3318","sd":"22","ssbd":"10","lsbd":"School Board Lake Mountain 7"},{"vid":"8c3e8b4fa83963d0419749665d31a5d579c533e02de97246100acf1e2c2a2d53","name":"Emeline Jacobi PhD","party":"Dem","address":"2836 S Village Court Rd, Saratoga Springs, UT 84045","precinct":"25SR30","hd":"51","v_score":"2.315214949","decile":"5","lat":40.31060303105176,"lng":-111.89431876194539,"phone":"(230) 719-7249","sd":"22","ssbd":"10","lsbd":"School Board Lake Mountain 7"},{"vid":"0fba3438246d401feb0e5277369b519e85e6729af8aadd9ca1d58ea19d228616","name":"Mr. Ransom Ledner","party":"Rep","address":"527 W Fox Hollow Dr, Saratoga Springs, UT 84045","precinct":"25SR30","hd":"51","v_score":"2.817000428","decile":"6","lat":40.308862930748454,"lng":-111.90385261909739,"phone":"(194) 394-5042","sd":"22","ssbd":"10","lsbd":"School Board Lake Mountain 7"},{"vid":"9711aa7f34a627e802ec7519ab900465f3fb475a074c2dc3e32bc628e837feba","name":"Loney Turner","party":"","address":"2829 S Silver Fox Cir, Saratoga Springs, UT 84045","precinct":"25SR30","hd":"51","v_score":"9.498154327","decile":"8","lat":40.310690302734706,"lng":-111.89377769972188,"phone":"(970) 583-4532","sd":"22","ssbd":"10","lsbd":"School Board Lake Mountain 7"},{"vid":"6940d96b4b841880308af02401a91607a0c395e4d0dd0fa8f066573ee9dd5bdd","name":"Achsah Jones","party":"","address":"2742 S Sunrise Peak Cir, Saratoga Springs, UT 84045","precinct":"25SR30","hd":"51","v_score":"5.331806201","decile":"7","lat":40.31241806240926,"lng":-111.90505376947621,"phone":"(574) 655-1646","sd":"22","ssbd":"10","lsbd":"School Board Lake Mountain 7"},{"vid":"154623a09b4a9c8b89d8ae8246e82e3a89962dceb22693acede6f636776c878b","name":"Dr. Sonia Moore MD","party":"Dem","address":"408 W Stillwater Dr, Saratoga Springs, UT 84045","precinct":"25SR30","hd":"51","v_score":"1.121327652","decile":"3","lat":40.31279758475328,"lng":-111.90475437686447,"phone":"(788) 587-2130","sd":"22","ssbd":"10","lsbd":"School Board Lake Mountain 7"},{"vid":"775968ef394b51c933786880d89175100eda0cde6b898ff695f1c069db24ee26","name":"Miss Virgia Towne MD","party":"Dem","address":"2768 S Village Court Rd, Saratoga Springs, UT 84045","precinct":"25SR30","hd":"51","v_score":"2.315214949","decile":"5","lat":40.311798984599015,"lng":-111.89465892350462,"phone":"(417) 328-1032","sd":"22","ssbd":"10","lsbd":"School Board Lake Mountain 7"},{"vid":"2211723","name":"Concetta Pouros DVM","party":"Dem","address":"2724 S Day Lilly Dr, Saratoga Springs, UT 84045","precinct":"25SR30","hd":"51","v_score":"5.258122542","decile":"7","lat":40.31272793738494,"lng":-111.90021034200566,"phone":"(265) 212-1096","sd":"22","ssbd":"10","lsbd":"School Board Lake Mountain 7"},{"vid":"d16be4b0e46bc338cff1597afb67ea7c9035c2e2396dc1fa45992fff87fcb913","name":"Tanika Crona-Satterfield","party":"","address":"2857 S Marten Ln, Saratoga Springs, UT 84045","precinct":"25SR30","hd":"51","v_score":"5.429380732","decile":"7","lat":40.310135872314866,"lng":-111.89888632905021,"phone":"(653) 654-6650","sd":"22","ssbd":"10","lsbd":"School Board Lake Mountain 7"},{"vid":"2224472","name":"Dr. Isam Kuhn","party":"Rep","address":"2733 S Bellflower Cir, Saratoga Springs, UT 84045","precinct":"25SR30","hd":"51","v_score":"3.93832808","decile":"6","lat":40.312468237780784,"lng":-111.89934754353976,"phone":"(459) 872-0205","sd":"22","ssbd":"10","lsbd":"School Board Lake Mountain 7"},{"vid":"64e40195eff97625f775a663fb521e9dbefca36f665787c53794a349275efb7f","name":"Mr. Arjun Cruickshank","party":"","address":"376 W Kit Fox Dr, Saratoga Springs, UT 84045","precinct":"25SR30","hd":"51","v_score":"1.121327652","decile":"3","lat":40.31102011091998,"lng":-111.90122995457699,"phone":"(990) 453-9821","sd":"22","ssbd":"10","lsbd":"School Board Lake Mountain 7"},{"vid":"2229413","name":"Miss Myrtle Kihn","party":"Dem","address":"2914 S Kollman Ln, Saratoga Springs, UT 84045","precinct":"25SR30","hd":"51","v_score":"1.193887297","decile":"3","lat":40.309013267507396,"lng":-111.9045702057073,"phone":"(572) 399-2178","sd":"22","ssbd":"10","lsbd":"School Board Lake Mountain 7"},{"vid":"60423bce427a33e6fb319644061546818b8a46b328eec1a8731c09a3492f818f","name":"Orilla Kirlin","party":"Rep","address":"341 W Fox Hollow Dr, Saratoga Springs, UT 84045","precinct":"25SR30","hd":"51","v_score":"21.91879917","decile":"10","lat":40.310191586710005,"lng":-111.89990472910581,"phone":"(522) 957-4468","sd":"22","ssbd":"10","lsbd":"School Board Lake Mountain 7"},{"vid":"2231220","name":"Alexandr Kulas","party":"","address":"2628 S Lost Creek Cir, Saratoga Springs, UT 84045","precinct":"25SR30","hd":"51","v_score":"1.121327652","decile":"3","lat":40.3143247127904,"lng":-111.90019735165193,"phone":"(318) 775-3882","sd":"22","ssbd":"10","lsbd":"School Board Lake Mountain 7"},{"vid":"1974e50f547aa8e863771c132ac6711ded9c13e6e1a542a4789929e25bb646a4","name":"Joeseph Bednar","party":"Rep","address":"2751 S Sandalwood Cir, Saratoga Springs, UT 84045","precinct":"25SR30","hd":"51","v_score":"9.772950527","decile":"8","lat":40.31215003447374,"lng":-111.90328137930769,"phone":"(346) 464-2190","sd":"22","ssbd":"10","lsbd":"School Board Lake Mountain 7"},{"vid":"5d017c1dbfef36c3f55e5da826e9bd33a93a0f8873034800fa096b4c0d7cf540","name":"Miss Maribel Rau","party":"","address":"182 W Stillwater Dr, Saratoga Springs, UT 84045","precinct":"25SR30","hd":"51","v_score":"10.60886045","decile":"9","lat":40.31250450930185,"lng":-111.89736004125784,"phone":"(219) 194-3105","sd":"22","ssbd":"10","lsbd":"School Board Lake Mountain 7"},{"vid":"2249383","name":"Lew Prohaska","party":"Dem","address":"182 W Stillwater Dr, Saratoga Springs, UT 84045","precinct":"25SR30","hd":"51","v_score":"7.650280567","decile":"8","lat":40.31250450930185,"lng":-111.89736004125784,"phone":"(639) 113-6229","sd":"22","ssbd":"10","lsbd":"School Board Lake Mountain 7"},{"vid":"255582eb239bd59214e90e2687276a3688e93564ee5fa55710c07a89b826d0fa","name":"Alpheus Collins","party":"Dem","address":"2674 S Ivy Cir, Saratoga Springs, UT 84045","precinct":"25SR30","hd":"51","v_score":"18.40784221","decile":"10","lat":40.31310294952052,"lng":-111.89679220532885,"phone":"(603) 097-4586","sd":"22","ssbd":"10","lsbd":"School Board Lake Mountain 7"},{"vid":"2252007","name":"Ms. Tatia Kiehn","party":"Dem","address":"2832 S Fox Pointe Dr, Saratoga Springs, UT 84045","precinct":"25SR30","hd":"51","v_score":"5.703020665","decile":"7","lat":40.31069026343145,"lng":-111.90283966249247,"phone":"(735) 230-5635","sd":"22","ssbd":"10","lsbd":"School Board Lake Mountain 7"},{"vid":"2254581","name":"Nolie Windler","party":"","address":"2868 S Cottontail Loop, Saratoga Springs, UT 84045","precinct":"25SR30","hd":"51","v_score":"2.315214949","decile":"5","lat":40.310058880392916,"lng":-111.89548787161485,"phone":"(948) 625-7093","sd":"22","ssbd":"10","lsbd":"School Board Lake Mountain 7"},{"vid":"bad53faa3ed30428d7e2c079c54ef0a3b43e3da72431ca7b47a082681b7c3b32","name":"Joey Gerlach MD","party":"Rep","address":"2868 S Cottontail Loop, Saratoga Springs, UT 84045","precinct":"25SR30","hd":"51","v_score":"2.315214949","decile":"5","lat":40.310058880392916,"lng":-111.89548787161485,"phone":"(591) 057-0468","sd":"22","ssbd":"10","lsbd":"School Board Lake Mountain 7"},{"vid":"9e941171c2960b08fcf7885a6b1af3f643e3f8ee9b34aba356e7a38c912fb8a6","name":"Mr. Liam Watsica","party":"","address":"246 W Fox Hollow Dr, Saratoga Springs, UT 84045","precinct":"25SR30","hd":"51","v_score":"3.997370217","decile":"6","lat":40.31106598371134,"lng":-111.8979971749096,"phone":"(635) 548-2007","sd":"22","ssbd":"10","lsbd":"School Board Lake Mountain 7"},{"vid":"2261764","name":"Drucilla Dare-Dietrich","party":"","address":"2819 S Silver Fox Ln, Saratoga Springs, UT 84045","precinct":"25SR30","hd":"51","v_score":"1.121327652","decile":"3","lat":40.3110623230504,"lng":-111.89283019878474,"phone":"(369) 288-3229","sd":"22","ssbd":"10","lsbd":"School Board Lake Mountain 7"},{"vid":"79e3b3bb7bba45e1319677aa3adba464b8d73e631e085f54d7fddae9f789b92f","name":"Ebb Rowe","party":"","address":"2658 S Ivy Cir, Saratoga Springs, UT 84045","precinct":"25SR30","hd":"51","v_score":"1.121327652","decile":"3","lat":40.31357021790235,"lng":-111.89687177561859,"phone":"(646) 101-1584","sd":"22","ssbd":"10","lsbd":"School Board Lake Mountain 7"},{"vid":"02b9b704017f3c63d643057884c7895a08b9dcf4b5e9100d38cfcb1e09688df3","name":"Immanuel Greenholt","party":"","address":"242 W Stillwater Dr, Saratoga Springs, UT 84045","precinct":"25SR30","hd":"51","v_score":"0","decile":"1","lat":40.313389310795536,"lng":-111.89991438086057,"phone":"(965) 471-8581","sd":"22","ssbd":"10","lsbd":"School Board Lake Mountain 7"},{"vid":"070f4901da0882aea9e40e85e080f5fb1b99b232801fca110e354f047fc691ac","name":"Theodora Hettinger","party":"Dem","address":"246 W Fox Hollow Dr, Saratoga Springs, UT 84045","precinct":"25SR30","hd":"51","v_score":"6.814370645","decile":"8","lat":40.31106598371134,"lng":-111.8979971749096,"phone":"(523) 655-9160","sd":"22","ssbd":"10","lsbd":"School Board Lake Mountain 7"},{"vid":"1fd121364e15a4323a5be603e502efb1de31dfc8102dbd7c3ca8e93a18b8a6a2","name":"Arturo Hettinger","party":"Rep","address":"2832 S Fox Pointe Dr, Saratoga Springs, UT 84045","precinct":"25SR30","hd":"51","v_score":"1.193887297","decile":"3","lat":40.31069026343145,"lng":-111.90283966249247,"phone":"(733) 285-4359","sd":"22","ssbd":"10","lsbd":"School Board Lake Mountain 7"},{"vid":"35cee42c0ea7c90a2cfe60381692d67578988a5d4a85c1136e8b2e77a50fbc89","name":"Wilbur Kshlerin","party":"Dem","address":"302 W Birch Dr, Saratoga Springs, UT 84045","precinct":"25SR30","hd":"51","v_score":"6.881235673","decile":"8","lat":40.31199433031183,"lng":-111.90105720419531,"phone":"(444) 081-6353","sd":"22","ssbd":"10","lsbd":"School Board Lake Mountain 7"},{"vid":"e780ce184bfd7ae914007066a94101b0e0452a39ef62782bda816d7095094750","name":"Alonza Reilly","party":"","address":"353 W Stillwater Dr, Saratoga Springs, UT 84045","precinct":"25SR30","hd":"51","v_score":"1.623113131","decile":"5","lat":40.31299486505125,"lng":-111.90330715627663,"phone":"(388) 306-8268","sd":"22","ssbd":"10","lsbd":"School Board Lake Mountain 7"},{"vid":"2301440","name":"Myranda Ernser","party":"","address":"182 W Stillwater Dr, Saratoga Springs, UT 84045","precinct":"25SR30","hd":"51","v_score":"29.80442172","decile":"10","lat":40.31250450930185,"lng":-111.89736004125784,"phone":"(628) 077-0898","sd":"22","ssbd":"10","lsbd":"School Board Lake Mountain 7"},{"vid":"2315611","name":"Miss Candy Bartell DDS","party":"","address":"2702 S Ivy Cir, Saratoga Springs, UT 84045","precinct":"25SR30","hd":"51","v_score":"1.46627566","decile":"4","lat":40.31294367278026,"lng":-111.89696108144813,"phone":"(568) 855-8005","sd":"22","ssbd":"10","lsbd":"School Board Lake Mountain 7"},{"vid":"2317434","name":"Zollie Bashirian","party":"Rep","address":"231 W Ivy Ln, Saratoga Springs, UT 84045","precinct":"25SR30","hd":"51","v_score":"1.193887297","decile":"3","lat":40.31143841410611,"lng":-111.89869700172838,"phone":"(249) 882-6735","sd":"22","ssbd":"10","lsbd":"School Board Lake Mountain 7"},{"vid":"2318835","name":"Cecelia Steuber","party":"Rep","address":"344 W Stillwater Dr, Saratoga Springs, UT 84045","precinct":"25SR30","hd":"51","v_score":"2.315214949","decile":"5","lat":40.31350022496059,"lng":-111.90341914816513,"phone":"(339) 558-3120","sd":"22","ssbd":"10","lsbd":"School Board Lake Mountain 7"},{"vid":"2325738","name":"Deirdre Reichert","party":"","address":"2863 S Fox Pointe Dr, Saratoga Springs, UT 84045","precinct":"25SR30","hd":"51","v_score":"3.93832808","decile":"6","lat":40.31006481700955,"lng":-111.90330199984605,"phone":"(784) 082-3952","sd":"22","ssbd":"10","lsbd":"School Board Lake Mountain 7"},{"vid":"2326670","name":"Mylee Stoltenberg","party":"Dem","address":"2843 S Fox Pointe Dr, Saratoga Springs, UT 84045","precinct":"25SR30","hd":"51","v_score":"2.315214949","decile":"5","lat":40.31045632633316,"lng":-111.90347380765576,"phone":"(592) 356-8785","sd":"22","ssbd":"10","lsbd":"School Board Lake Mountain 7"},{"vid":"2332372","name":"Macarthur Flatley","party":"","address":"314 W Birch Dr, Saratoga Springs, UT 84045","precinct":"25SR30","hd":"51","v_score":"1.623113131","decile":"5","lat":40.311771445560794,"lng":-111.90133656190693,"phone":"(192) 947-8551","sd":"22","ssbd":"10","lsbd":"School Board Lake Mountain 7"},{"vid":"2332636","name":"Colon Bashirian","party":"","address":"152 W Fox Hollow Dr, Saratoga Springs, UT 84045","precinct":"25SR30","hd":"51","v_score":"2.817000428","decile":"6","lat":40.311130302816004,"lng":-111.89514116904903,"phone":"(521) 806-5839","sd":"22","ssbd":"10","lsbd":"School Board Lake Mountain 7"},{"vid":"2333450","name":"Beckett Rau V","party":"Dem","address":"2863 S Fox Pointe Dr, Saratoga Springs, UT 84045","precinct":"25SR30","hd":"51","v_score":"3.93832808","decile":"6","lat":40.31006481700955,"lng":-111.90330199984605,"phone":"(318) 385-4290","sd":"22","ssbd":"10","lsbd":"School Board Lake Mountain 7"},{"vid":"2341819","name":"Stanton Schimmel","party":"","address":"2698 S Wildflower Dr, Saratoga Springs, UT 84045","precinct":"25SR30","hd":"51","v_score":"2.315214949","decile":"5","lat":40.313148871680006,"lng":-111.89345911368449,"phone":"(173) 722-2565","sd":"22","ssbd":"10","lsbd":"School Board Lake Mountain 7"},{"vid":"2341927","name":"Desmond Conn","party":"Rep","address":"2638 S Wildflower Dr, Saratoga Springs, UT 84045","precinct":"25SR30","hd":"51","v_score":"3.93832808","decile":"6","lat":40.31406975149097,"lng":-111.89441321694602,"phone":"(176) 424-2300","sd":"22","ssbd":"10","lsbd":"School Board Lake Mountain 7"},{"vid":"2343939","name":"Devonte Berge","party":"Rep","address":"331 W Stillwater Dr, Saratoga Springs, UT 84045","precinct":"25SR30","hd":"51","v_score":"17.77840782","decile":"10","lat":40.313233444515085,"lng":-111.90276876024008,"phone":"(985) 045-4522","sd":"22","ssbd":"10","lsbd":"School Board Lake Mountain 7"},{"vid":"2350618","name":"Alys Mitchell-Carter","party":"","address":"2829 S Gray Fox Ave, Saratoga Springs, UT 84045","precinct":"25SR30","hd":"51","v_score":"1.193887297","decile":"3","lat":40.310673343384316,"lng":-111.90239390257825,"phone":"(391) 369-1534","sd":"22","ssbd":"10","lsbd":"School Board Lake Mountain 7"},{"vid":"2357392","name":"Sharyn Pollich","party":"Rep","address":"342 W Fox Hollow Dr, Saratoga Springs, UT 84045","precinct":"25SR30","hd":"51","v_score":"1.193887297","decile":"3","lat":40.31058868671982,"lng":-111.90008683167711,"phone":"(158) 473-1535","sd":"22","ssbd":"10","lsbd":"School Board Lake Mountain 7"},{"vid":"2359196","name":"Alvira Champlin DVM","party":"Rep","address":"491 W Fox Hollow Dr, Saratoga Springs, UT 84045","precinct":"25SR30","hd":"51","v_score":"1.121327652","decile":"3","lat":40.309144018121465,"lng":-111.90317919227569,"phone":"(888) 944-9761","sd":"22","ssbd":"10","lsbd":"School Board Lake Mountain 7"},{"vid":"2368969","name":"Felicity Hauck","party":"","address":"2653 S Spring Meadow Dr, Saratoga Springs, UT 84045","precinct":"25SR30","hd":"51","v_score":"0","decile":"1","lat":40.31398657034411,"lng":-111.90490776364143,"phone":"(774) 484-9173","sd":"22","ssbd":"10","lsbd":"School Board Lake Mountain 7"},{"vid":"2373137","name":"Violeta Lesch DVM","party":"Rep","address":"2711 S Wildflower Dr, Saratoga Springs, UT 84045","precinct":"25SR30","hd":"51","v_score":"2.315214949","decile":"5","lat":40.31278697689374,"lng":-111.89366974014186,"phone":"(977) 659-5676","sd":"22","ssbd":"10","lsbd":"School Board Lake Mountain 7"},{"vid":"2382455","name":"Howard Crist","party":"Rep","address":"2738 S Sandalwood Cir, Saratoga Springs, UT 84045","precinct":"25SR30","hd":"51","v_score":"10.69563809","decile":"9","lat":40.312610986518905,"lng":-111.90313245972244,"phone":"(948) 277-1459","sd":"22","ssbd":"10","lsbd":"School Board Lake Mountain 7"},{"vid":"2382465","name":"Mr. Jerald Lebsack DVM","party":"","address":"2738 S Sandalwood Cir, Saratoga Springs, UT 84045","precinct":"25SR30","hd":"51","v_score":"3.93832808","decile":"6","lat":40.312610986518905,"lng":-111.90313245972244,"phone":"(982) 945-6388","sd":"22","ssbd":"10","lsbd":"School Board Lake Mountain 7"},{"vid":"2385109","name":"Tricia Morar","party":"","address":"2742 S Sunrise Peak Cir, Saratoga Springs, UT 84045","precinct":"25SR30","hd":"51","v_score":"9.567299636","decile":"8","lat":40.31241806240926,"lng":-111.90505376947621,"phone":"(242) 929-4825","sd":"22","ssbd":"10","lsbd":"School Board Lake Mountain 7"},{"vid":"2391365","name":"Shirlene Streich","party":"","address":"2738 S Sandalwood Cir, Saratoga Springs, UT 84045","precinct":"25SR30","hd":"51","v_score":"2.315214949","decile":"5","lat":40.312610986518905,"lng":-111.90313245972244,"phone":"(735) 458-8951","sd":"22","ssbd":"10","lsbd":"School Board Lake Mountain 7"},{"vid":"2393652","name":"Mr. Earley Zieme","party":"Dem","address":"2745 S Bellflower Cir, Saratoga Springs, UT 84045","precinct":"25SR30","hd":"51","v_score":"9.093943379","decile":"8","lat":40.31226936166696,"lng":-111.89902139630699,"phone":"(905) 042-4336","sd":"22","ssbd":"10","lsbd":"School Board Lake Mountain 7"},{"vid":"2394147","name":"Hansel Hahn","party":"Rep","address":"363 W Stillwater Dr, Saratoga Springs, UT 84045","precinct":"25SR30","hd":"51","v_score":"2.315214949","decile":"5","lat":40.31286758717083,"lng":-111.90352389711715,"phone":"(396) 559-5845","sd":"22","ssbd":"10","lsbd":"School Board Lake Mountain 7"},{"vid":"2398245","name":"Kalyn Schroeder","party":"Rep","address":"2773 S Sunrise Peak Cir, Saratoga Springs, UT 84045","precinct":"25SR30","hd":"51","v_score":"20.30022439","decile":"10","lat":40.31172019686493,"lng":-111.90550823564352,"phone":"(850) 891-7872","sd":"22","ssbd":"10","lsbd":"School Board Lake Mountain 7"},{"vid":"2398650","name":"Zavier Reichert-Kerluke","party":"","address":"256 W Shadow Ridge Dr, Saratoga Springs, UT 84045","precinct":"25SR30","hd":"51","v_score":"3.93832808","decile":"6","lat":40.314527565574835,"lng":-111.90156512183518,"phone":"(818) 810-4238","sd":"22","ssbd":"10","lsbd":"School Board Lake Mountain 7"},{"vid":"2402234","name":"Adalynn Johns PhD","party":"Rep","address":"2722 S Lavender Ln, Saratoga Springs, UT 84045","precinct":"25SR30","hd":"51","v_score":"0","decile":"1","lat":40.312707231182614,"lng":-111.89432174364622,"phone":"(174) 951-7817","sd":"22","ssbd":"10","lsbd":"School Board Lake Mountain 7"},{"vid":"2408418","name":"Alverda Ritchie","party":"Dem","address":"2836 S Village Court Rd, Saratoga Springs, UT 84045","precinct":"25SR30","hd":"51","v_score":"3.93832808","decile":"6","lat":40.31060303105176,"lng":-111.89431876194539,"phone":"(769) 431-6365","sd":"22","ssbd":"10","lsbd":"School Board Lake Mountain 7"},{"vid":"2408455","name":"Dr. Jeramie Hoeger","party":"Rep","address":"256 W Shadow Ridge Dr, Saratoga Springs, UT 84045","precinct":"25SR30","hd":"51","v_score":"6.52928996","decile":"7","lat":40.314527565574835,"lng":-111.90156512183518,"phone":"(635) 263-4457","sd":"22","ssbd":"10","lsbd":"School Board Lake Mountain 7"},{"vid":"2419695","name":"Dr. Troy Upton DVM","party":"","address":"2863 S Fox Pointe Dr, Saratoga Springs, UT 84045","precinct":"25SR30","hd":"51","v_score":"3.93832808","decile":"6","lat":40.31006481700955,"lng":-111.90330199984605,"phone":"(232) 018-5896","sd":"22","ssbd":"10","lsbd":"School Board Lake Mountain 7"},{"vid":"2424128","name":"Haiden Beahan","party":"Dem","address":"202 W Cottontail Loop, Saratoga Springs, UT 84045","precinct":"25SR30","hd":"51","v_score":"1.121327652","decile":"3","lat":40.31036373265509,"lng":-111.89615054650189,"phone":"(419) 095-7125","sd":"22","ssbd":"10","lsbd":"School Board Lake Mountain 7"},{"vid":"2425948","name":"Olive Kshlerin","party":"Dem","address":"411 W Fox Hollow Dr, Saratoga Springs, UT 84045","precinct":"25SR30","hd":"51","v_score":"2.315214949","decile":"5","lat":40.309984115146996,"lng":-111.90169666504467,"phone":"(830) 589-1791","sd":"22","ssbd":"10","lsbd":"School Board Lake Mountain 7"},{"vid":"2430060","name":"Mykel O'Hara","party":"Rep","address":"2902 S Kollman Ln, Saratoga Springs, UT 84045","precinct":"25SR30","hd":"51","v_score":"0","decile":"1","lat":40.30930717757683,"lng":-111.90466381614037,"phone":"(260) 172-1060","sd":"22","ssbd":"10","lsbd":"School Board Lake Mountain 7"},{"vid":"2430115","name":"Mr. Milburn Koss","party":"","address":"2833 S Cottontail Loop, Saratoga Springs, UT 84045","precinct":"25SR30","hd":"51","v_score":"1.623113131","decile":"5","lat":40.31068737411245,"lng":-111.8958295778753,"phone":"(379) 063-6621","sd":"22","ssbd":"10","lsbd":"School Board Lake Mountain 7"},{"vid":"2432628","name":"Dr. Eustace Dach","party":"","address":"172 W Summerhill Dr, Saratoga Springs, UT 84045","precinct":"25SR30","hd":"51","v_score":"2.315214949","decile":"5","lat":40.3149929921103,"lng":-111.89927096551796,"phone":"(642) 950-4069","sd":"22","ssbd":"10","lsbd":"School Board Lake Mountain 7"},{"vid":"2437552","name":"Kareen Baumbach II","party":"Rep","address":"2816 S Silver Fox Cir, Saratoga Springs, UT 84045","precinct":"25SR30","hd":"51","v_score":"1.121327652","decile":"3","lat":40.31106200049651,"lng":-111.8937393978026,"phone":"(617) 548-9671","sd":"22","ssbd":"10","lsbd":"School Board Lake Mountain 7"},{"vid":"2437569","name":"Vickie Lebsack-Stroman","party":"Rep","address":"2628 S Lost Creek Cir, Saratoga Springs, UT 84045","precinct":"25SR30","hd":"51","v_score":"2.315214949","decile":"5","lat":40.3143247127904,"lng":-111.90019735165193,"phone":"(918) 536-0071","sd":"22","ssbd":"10","lsbd":"School Board Lake Mountain 7"},{"vid":"2457361","name":"Dillion Legros","party":"","address":"2871 S Island Fox Ln, Saratoga Springs, UT 84045","precinct":"25SR30","hd":"51","v_score":"1.121327652","decile":"3","lat":40.30991169567549,"lng":-111.90436821374045,"phone":"(210) 113-5718","sd":"22","ssbd":"10","lsbd":"School Board Lake Mountain 7"},{"vid":"2464448","name":"Mr. Finis Eichmann","party":"Rep","address":"212 W Wildwood Dr, Saratoga Springs, UT 84045","precinct":"25SR30","hd":"51","v_score":"1.623113131","decile":"5","lat":40.3134926770319,"lng":-111.89857005888025,"phone":"(660) 400-4209","sd":"22","ssbd":"10","lsbd":"School Board Lake Mountain 7"},{"vid":"2468355","name":"Mckinley Cummings III","party":"","address":"234 W Ivy Ln, Saratoga Springs, UT 84045","precinct":"25SR30","hd":"51","v_score":"0","decile":"1","lat":40.31173748082543,"lng":-111.89869016273258,"phone":"(997) 863-2995","sd":"22","ssbd":"10","lsbd":"School Board Lake Mountain 7"},{"vid":"2475159","name":"Salvatore Klein","party":"Dem","address":"358 W Birch Dr, Saratoga Springs, UT 84045","precinct":"25SR30","hd":"51","v_score":"0","decile":"1","lat":40.31176693152472,"lng":-111.9027271205687,"phone":"(653) 788-8826","sd":"22","ssbd":"10","lsbd":"School Board Lake Mountain 7"},{"vid":"2478799","name":"Aniya Kilback","party":"","address":"2862 S Day Lilly Dr, Saratoga Springs, UT 84045","precinct":"25SR30","hd":"51","v_score":"1.193887297","decile":"3","lat":40.31014306131793,"lng":-111.89940868352853,"phone":"(208) 271-4521","sd":"22","ssbd":"10","lsbd":"School Board Lake Mountain 7"},{"vid":"2480414","name":"Commodore Leffler","party":"","address":"2654 S Lost Creek Cir, Saratoga Springs, UT 84045","precinct":"25SR30","hd":"51","v_score":"8.085704327","decile":"8","lat":40.313788922887206,"lng":-111.90014488795055,"phone":"(265) 328-2915","sd":"22","ssbd":"10","lsbd":"School Board Lake Mountain 7"},{"vid":"2480898","name":"Tom Boyle","party":"","address":"527 W Fox Hollow Dr, Saratoga Springs, UT 84045","precinct":"25SR30","hd":"51","v_score":"1.193887297","decile":"3","lat":40.308862930748454,"lng":-111.90385261909739,"phone":"(156) 950-1020","sd":"22","ssbd":"10","lsbd":"School Board Lake Mountain 7"},{"vid":"2484185","name":"Aleck Smitham","party":"","address":"2818 S Day Lilly Dr, Saratoga Springs, UT 84045","precinct":"25SR30","hd":"51","v_score":"1.193887297","decile":"3","lat":40.31093449124612,"lng":-111.8996713279913,"phone":"(242) 322-8552","sd":"22","ssbd":"10","lsbd":"School Board Lake Mountain 7"},{"vid":"2484792","name":"Lorenzo Greenfelder","party":"","address":"2654 S Lost Creek Cir, Saratoga Springs, UT 84045","precinct":"25SR30","hd":"51","v_score":"8.085704327","decile":"8","lat":40.313788922887206,"lng":-111.90014488795055,"phone":"(179) 237-0524","sd":"22","ssbd":"10","lsbd":"School Board Lake Mountain 7"},{"vid":"2484857","name":"Kamden Feest","party":"Dem","address":"2742 S Sunrise Peak Cir, Saratoga Springs, UT 84045","precinct":"25SR30","hd":"51","v_score":"1.193887297","decile":"3","lat":40.31241806240926,"lng":-111.90505376947621,"phone":"(803) 117-4545","sd":"22","ssbd":"10","lsbd":"School Board Lake Mountain 7"},{"vid":"2487664","name":"Letty Frami-Hermiston","party":"","address":"63 W Silver Fox Ln, Saratoga Springs, UT 84045","precinct":"25SR30","hd":"51","v_score":"1.193887297","decile":"3","lat":40.310241195452306,"lng":-111.89268949494067,"phone":"(693) 225-6396","sd":"22","ssbd":"10","lsbd":"School Board Lake Mountain 7"},{"vid":"2488423","name":"Clive Eichmann","party":"","address":"2818 S Day Lilly Dr, Saratoga Springs, UT 84045","precinct":"25SR30","hd":"51","v_score":"1.193887297","decile":"3","lat":40.31093449124612,"lng":-111.8996713279913,"phone":"(796) 281-1276","sd":"22","ssbd":"10","lsbd":"School Board Lake Mountain 7"},{"vid":"2493693","name":"Abbey Satterfield","party":"Rep","address":"513 W Fox Hollow Dr, Saratoga Springs, UT 84045","precinct":"25SR30","hd":"51","v_score":"5.360235423","decile":"7","lat":40.308943531846026,"lng":-111.90362518439633,"phone":"(118) 770-7274","sd":"22","ssbd":"10","lsbd":"School Board Lake Mountain 7"},{"vid":"2493721","name":"Bush Yundt DDS","party":"","address":"2820 S Silver Fox Cir, Saratoga Springs, UT 84045","precinct":"25SR30","hd":"51","v_score":"1.193887297","decile":"3","lat":40.311057690236716,"lng":-111.8934159157771,"phone":"(479) 699-3095","sd":"22","ssbd":"10","lsbd":"School Board Lake Mountain 7"},{"vid":"2496489","name":"Doretta Gerlach","party":"","address":"2728 S Lavender Ln, Saratoga Springs, UT 84045","precinct":"25SR30","hd":"51","v_score":"0","decile":"1","lat":40.31256431615772,"lng":-111.8940859131484,"phone":"(800) 825-4072","sd":"22","ssbd":"10","lsbd":"School Board Lake Mountain 7"},{"vid":"2501537","name":"Tasia Nader","party":"Rep","address":"2751 S Sandalwood Cir, Saratoga Springs, UT 84045","precinct":"25SR30","hd":"51","v_score":"0","decile":"1","lat":40.31215003447374,"lng":-111.90328137930769,"phone":"(105) 770-2954","sd":"22","ssbd":"10","lsbd":"School Board Lake Mountain 7"},{"vid":"2502000","name":"Mr. Ananias Lowe IV","party":"Rep","address":"2754 S Ivy Ln, Saratoga Springs, UT 84045","precinct":"25SR30","hd":"51","v_score":"3.711952487","decile":"6","lat":40.3121513708114,"lng":-111.89772440865465,"phone":"(545) 718-8643","sd":"22","ssbd":"10","lsbd":"School Board Lake Mountain 7"},{"vid":"2505684","name":"Laci Kling MD","party":"Dem","address":"2654 S Lost Creek Cir, Saratoga Springs, UT 84045","precinct":"25SR30","hd":"51","v_score":"1.193887297","decile":"3","lat":40.313788922887206,"lng":-111.90014488795055,"phone":"(943) 924-9824","sd":"22","ssbd":"10","lsbd":"School Board Lake Mountain 7"},{"vid":"2507051","name":"Marleigh Corkery-DuBuque","party":"Dem","address":"164 W Ivy Ln, Saratoga Springs, UT 84045","precinct":"25SR30","hd":"51","v_score":"17.91436947","decile":"10","lat":40.31378974512529,"lng":-111.89758546007637,"phone":"(961) 051-1026","sd":"22","ssbd":"10","lsbd":"School Board Lake Mountain 7"},{"vid":"2509013","name":"Ardella Gusikowski","party":"","address":"2747 S Spring Meadow Dr, Saratoga Springs, UT 84045","precinct":"25SR30","hd":"51","v_score":"0","decile":"1","lat":40.31225390442595,"lng":-111.90454073878676,"phone":"(780) 530-1070","sd":"22","ssbd":"10","lsbd":"School Board Lake Mountain 7"},{"vid":"2510560","name":"Antonia Lakin","party":"","address":"2724 S Village Court Rd, Saratoga Springs, UT 84045","precinct":"25SR30","hd":"51","v_score":"0","decile":"1","lat":40.312719074411596,"lng":-111.89591793300794,"phone":"(968) 520-3520","sd":"22","ssbd":"10","lsbd":"School Board Lake Mountain 7"},{"vid":"2514459","name":"Deon Konopelski","party":"Dem","address":"2646 S Shadow Ridge Dr, Saratoga Springs, UT 84045","precinct":"25SR30","hd":"51","v_score":"0","decile":"1","lat":40.314064809919266,"lng":-111.90119229876319,"phone":"(611) 848-6595","sd":"22","ssbd":"10","lsbd":"School Board Lake Mountain 7"},{"vid":"2516852","name":"Zaria Pagac","party":"","address":"2724 S Village Court Rd, Saratoga Springs, UT 84045","precinct":"25SR30","hd":"51","v_score":"0","decile":"1","lat":40.312719074411596,"lng":-111.89591793300794,"phone":"(251) 939-9234","sd":"22","ssbd":"10","lsbd":"School Board Lake Mountain 7"},{"vid":"2517491","name":"Troy Kuhic","party":"Dem","address":"162 W Stillwater Dr, Saratoga Springs, UT 84045","precinct":"25SR30","hd":"51","v_score":"2.817000428","decile":"6","lat":40.31261818496155,"lng":-111.89671666921727,"phone":"(224) 600-2408","sd":"22","ssbd":"10","lsbd":"School Board Lake Mountain 7"},{"vid":"2519610","name":"Bradyn Hettinger II","party":"Rep","address":"2661 S Lavender Ln, Saratoga Springs, UT 84045","precinct":"25SR30","hd":"51","v_score":"1.193887297","decile":"4","lat":40.31379070728408,"lng":-111.89484936840937,"phone":"(716) 277-3999","sd":"22","ssbd":"10","lsbd":"School Board Lake Mountain 7"},{"vid":"2520889","name":"Kadence Osinski DVM","party":"Dem","address":"321 W Stillwater Dr, Saratoga Springs, UT 84045","precinct":"25SR30","hd":"51","v_score":"0","decile":"1","lat":40.31334259801926,"lng":-111.90254317701599,"phone":"(109) 011-3756","sd":"22","ssbd":"10","lsbd":"School Board Lake Mountain 7"},{"vid":"2524678","name":"Kali Collier","party":"Dem","address":"2818 S Silver Fox Ln, Saratoga Springs, UT 84045","precinct":"25SR30","hd":"51","v_score":"2.817000428","decile":"6","lat":40.31098814810637,"lng":-111.89222996840357,"phone":"(496) 756-9367","sd":"22","ssbd":"10","lsbd":"School Board Lake Mountain 7"},{"vid":"2528490","name":"Miss Adrienne Raynor","party":"Rep","address":"2869 S Kollman Ln, Saratoga Springs, UT 84045","precinct":"25SR30","hd":"51","v_score":"9.907118004","decile":"8","lat":40.30971233217837,"lng":-111.90536260646194,"phone":"(235) 441-0751","sd":"22","ssbd":"10","lsbd":"School Board Lake Mountain 7"},{"vid":"2531733","name":"Beryl Kshlerin","party":"Dem","address":"213 W Wildwood Dr, Saratoga Springs, UT 84045","precinct":"25SR30","hd":"51","v_score":"0","decile":"1","lat":40.31326497101407,"lng":-111.89911817394587,"phone":"(250) 024-4076","sd":"22","ssbd":"10","lsbd":"School Board Lake Mountain 7"},{"vid":"2540560","name":"Lindsay Russel","party":"","address":"2748 S Village Court Rd, Saratoga Springs, UT 84045","precinct":"25SR30","hd":"51","v_score":"2.817000428","decile":"6","lat":40.31228449079537,"lng":-111.89506601766921,"phone":"(886) 816-0623","sd":"22","ssbd":"10","lsbd":"School Board Lake Mountain 7"},{"vid":"2543568","name":"Dr. Lucio Abernathy I","party":"Dem","address":"567 W Fox Hollow Dr, Saratoga Springs, UT 84045","precinct":"25SR30","hd":"51","v_score":"0","decile":"1","lat":40.308664337847546,"lng":-111.90496473910707,"phone":"(656) 030-9756","sd":"22","ssbd":"10","lsbd":"School Board Lake Mountain 7"},{"vid":"2543582","name":"Joni Carroll DVM","party":"Dem","address":"43 W Silver Fox Ln, Saratoga Springs, UT 84045","precinct":"25SR30","hd":"51","v_score":"1.193887297","decile":"4","lat":40.310444061931314,"lng":-111.89226268018898,"phone":"(425) 723-4578","sd":"22","ssbd":"10","lsbd":"School Board Lake Mountain 7"},{"vid":"2544243","name":"Idabelle Lynch","party":"","address":"2832 S Silver Fox Cir, Saratoga Springs, UT 84045","precinct":"25SR30","hd":"51","v_score":"0","decile":"1","lat":40.310697780756655,"lng":-111.89325196385681,"phone":"(299) 928-9758","sd":"22","ssbd":"10","lsbd":"School Board Lake Mountain 7"},{"vid":"2550883","name":"Harrell Wunsch","party":"Rep","address":"2823 S Kollman Ln, Saratoga Springs, UT 84045","precinct":"25SR30","hd":"51","v_score":"1.193887297","decile":"4","lat":40.31095445191361,"lng":-111.90541497715616,"phone":"(800) 281-7095","sd":"22","ssbd":"10","lsbd":"School Board Lake Mountain 7"},{"vid":"2553891","name":"Dr. Arielle Wolff","party":"Dem","address":"152 W Fox Hollow Dr, Saratoga Springs, UT 84045","precinct":"25SR30","hd":"51","v_score":"0","decile":"1","lat":40.311130302816004,"lng":-111.89514116904903,"phone":"(205) 733-8499","sd":"22","ssbd":"10","lsbd":"School Board Lake Mountain 7"},{"vid":"2559486","name":"Luciano Koch","party":"Rep","address":"2742 S Sunrise Peak Cir, Saratoga Springs, UT 84045","precinct":"25SR30","hd":"51","v_score":"1.193887297","decile":"4","lat":40.31241806240926,"lng":-111.90505376947621,"phone":"(379) 416-5948","sd":"22","ssbd":"10","lsbd":"School Board Lake Mountain 7"},{"vid":"2559678","name":"Etta Kreiger","party":"","address":"2727 S Lavender Ln, Saratoga Springs, UT 84045","precinct":"25SR30","hd":"51","v_score":"4.214075011","decile":"7","lat":40.3126142419771,"lng":-111.89487671526045,"phone":"(572) 624-4437","sd":"22","ssbd":"10","lsbd":"School Board Lake Mountain 7"},{"vid":"2561537","name":"Vallie Haley","party":"","address":"202 W Cottontail Loop, Saratoga Springs, UT 84045","precinct":"25SR30","hd":"51","v_score":"0","decile":"1","lat":40.31036373265509,"lng":-111.89615054650189,"phone":"(108) 979-9640","sd":"22","ssbd":"10","lsbd":"School Board Lake Mountain 7"},{"vid":"2562385","name":"Jermaine McClure","party":"Rep","address":"414 W Kit Fox Dr, Saratoga Springs, UT 84045","precinct":"25SR30","hd":"51","v_score":"2.817000428","decile":"6","lat":40.31108945945592,"lng":-111.90236332335706,"phone":"(593) 220-5185","sd":"22","ssbd":"10","lsbd":"School Board Lake Mountain 7"},{"vid":"2567319","name":"Pennie Hermiston","party":"","address":"2836 S Village Court Rd, Saratoga Springs, UT 84045","precinct":"25SR30","hd":"51","v_score":"1.193887297","decile":"4","lat":40.31060303105176,"lng":-111.89431876194539,"phone":"(386) 105-5076","sd":"22","ssbd":"10","lsbd":"School Board Lake Mountain 7"},{"vid":"2573579","name":"Lenord Crona","party":"","address":"378 W Birch Dr, Saratoga Springs, UT 84045","precinct":"25SR30","hd":"51","v_score":"1.193887297","decile":"4","lat":40.31177172863377,"lng":-111.90308048156511,"phone":"(817) 974-1258","sd":"22","ssbd":"10","lsbd":"School Board Lake Mountain 7"},{"vid":"2573771","name":"Ms. Maleah Bogisich DDS","party":"Rep","address":"2764 S Spring Meadow Dr, Saratoga Springs, UT 84045","precinct":"25SR30","hd":"51","v_score":"0","decile":"1","lat":40.31179094147542,"lng":-111.90395308367597,"phone":"(940) 091-7975","sd":"22","ssbd":"10","lsbd":"School Board Lake Mountain 7"},{"vid":"2593868","name":"Miss Cherry Rau","party":"Dem","address":"2722 S Lavender Ln, Saratoga Springs, UT 84045","precinct":"25SR30","hd":"51","v_score":"1.193887297","decile":"4","lat":40.312707231182614,"lng":-111.89432174364622,"phone":"(216) 672-5927","sd":"22","ssbd":"10","lsbd":"School Board Lake Mountain 7"},{"vid":"2600436","name":"Dr. Birt Kuvalis I","party":"","address":"2696 S Ivy Ln, Saratoga Springs, UT 84045","precinct":"25SR30","hd":"51","v_score":"1.193887297","decile":"4","lat":40.313103514429294,"lng":-111.89793410747941,"phone":"(158) 711-8305","sd":"22","ssbd":"10","lsbd":"School Board Lake Mountain 7"},{"vid":"2601537","name":"Dr. Rod Bosco","party":"Rep","address":"176 W Fox Hollow Dr, Saratoga Springs, UT 84045","precinct":"25SR30","hd":"51","v_score":"1.193887297","decile":"4","lat":40.31112546394945,"lng":-111.89600151128846,"phone":"(114) 053-9964","sd":"22","ssbd":"10","lsbd":"School Board Lake Mountain 7"},{"vid":"2606333","name":"Ofelia Bartoletti","party":"","address":"272 W Cottontail Loop, Saratoga Springs, UT 84045","precinct":"25SR30","hd":"51","v_score":"5.693042993","decile":"7","lat":40.3103916391442,"lng":-111.89811603038835,"phone":"(754) 277-6944","sd":"22","ssbd":"10","lsbd":"School Board Lake Mountain 7"},{"vid":"2606342","name":"Tayler Steuber","party":"Dem","address":"272 W Cottontail Loop, Saratoga Springs, UT 84045","precinct":"25SR30","hd":"51","v_score":"6.528952915","decile":"7","lat":40.3103916391442,"lng":-111.89811603038835,"phone":"(988) 847-6914","sd":"22","ssbd":"10","lsbd":"School Board Lake Mountain 7"},{"vid":"2606498","name":"Dr. Juluis Ruecker","party":"Dem","address":"196 W Summerhill Dr, Saratoga Springs, UT 84045","precinct":"25SR30","hd":"51","v_score":"1.193887297","decile":"4","lat":40.314989659757664,"lng":-111.9003220910591,"phone":"(331) 691-8207","sd":"22","ssbd":"10","lsbd":"School Board Lake Mountain 7"},{"vid":"2616823","name":"Ras Corkery","party":"Rep","address":"2857 S Fox Pointe Dr, Saratoga Springs, UT 84045","precinct":"25SR30","hd":"51","v_score":"1.193887297","decile":"4","lat":40.31025955593619,"lng":-111.90335199138526,"phone":"(829) 808-8629","sd":"22","ssbd":"10","lsbd":"School Board Lake Mountain 7"},{"vid":"2618095","name":"Grayling Purdy-Bechtelar","party":"Rep","address":"2638 S Stillwater Dr, Saratoga Springs, UT 84045","precinct":"25SR30","hd":"51","v_score":"0","decile":"1","lat":40.314264386196434,"lng":-111.89556952919693,"phone":"(290) 564-5842","sd":"22","ssbd":"10","lsbd":"School Board Lake Mountain 7"},{"vid":"2625021","name":"Dejuan Kemmer","party":"Dem","address":"358 W Birch Dr, Saratoga Springs, UT 84045","precinct":"25SR30","hd":"51","v_score":"2.817000428","decile":"6","lat":40.31176693152472,"lng":-111.9027271205687,"phone":"(792) 567-4912","sd":"22","ssbd":"10","lsbd":"School Board Lake Mountain 7"},{"vid":"2630790","name":"Nakia Ryan-Parker","party":"Rep","address":"373 W Fox Hollow Dr, Saratoga Springs, UT 84045","precinct":"25SR30","hd":"51","v_score":"1.193887297","decile":"4","lat":40.31014574232136,"lng":-111.90077717351427,"phone":"(592) 424-7337","sd":"22","ssbd":"10","lsbd":"School Board Lake Mountain 7"},{"vid":"2639724","name":"Trinidad Steuber","party":"Dem","address":"2869 S Kollman Ln, Saratoga Springs, UT 84045","precinct":"25SR30","hd":"51","v_score":"2.817000428","decile":"6","lat":40.30971233217837,"lng":-111.90536260646194,"phone":"(940) 519-4154","sd":"22","ssbd":"10","lsbd":"School Board Lake Mountain 7"},{"vid":"2644358","name":"Mr. Raymundo Toy II","party":"","address":"2638 S Wildflower Dr, Saratoga Springs, UT 84045","precinct":"25SR30","hd":"51","v_score":"1.623113131","decile":"5","lat":40.31406975149097,"lng":-111.89441321694602,"phone":"(276) 902-0209","sd":"22","ssbd":"10","lsbd":"School Board Lake Mountain 7"},{"vid":"2646565","name":"Mrs. Donia Nikolaus DDS","party":"","address":"258 W Cottontail Loop, Saratoga Springs, UT 84045","precinct":"25SR30","hd":"51","v_score":"4.069929862","decile":"6","lat":40.310416291213755,"lng":-111.89780023045674,"phone":"(239) 950-3971","sd":"22","ssbd":"10","lsbd":"School Board Lake Mountain 7"},{"vid":"2647101","name":"Ms. Kayleigh Monahan","party":"","address":"2574 S Colt Dr, Saratoga Springs, UT 84045","precinct":"25SR30","hd":"51","v_score":"1.193887297","decile":"4","lat":40.31521709816719,"lng":-111.90555165558413,"phone":"(845) 034-5912","sd":"22","ssbd":"10","lsbd":"School Board Lake Mountain 7"},{"vid":"2648857","name":"Uriel Howell","party":"Dem","address":"83 W Wildflower Dr, Saratoga Springs, UT 84045","precinct":"25SR30","hd":"51","v_score":"0","decile":"1","lat":40.31144968023194,"lng":-111.893947049327,"phone":"(930) 734-6717","sd":"22","ssbd":"10","lsbd":"School Board Lake Mountain 7"},{"vid":"2649482","name":"Lavada Bernier","party":"","address":"2574 S Colt Dr, Saratoga Springs, UT 84045","precinct":"25SR30","hd":"51","v_score":"0","decile":"1","lat":40.31521709816719,"lng":-111.90555165558413,"phone":"(368) 653-7076","sd":"22","ssbd":"10","lsbd":"School Board Lake Mountain 7"},{"vid":"2656080","name":"Grayson Schulist","party":"","address":"2876 S Island Fox Ln, Saratoga Springs, UT 84045","precinct":"25SR30","hd":"51","v_score":"1.193887297","decile":"4","lat":40.30987755737122,"lng":-111.90372159685508,"phone":"(745) 014-8211","sd":"22","ssbd":"10","lsbd":"School Board Lake Mountain 7"},{"vid":"2659430","name":"Alissa Skiles","party":"Rep","address":"2751 S Sandalwood Cir, Saratoga Springs, UT 84045","precinct":"25SR30","hd":"51","v_score":"0","decile":"1","lat":40.31215003447374,"lng":-111.90328137930769,"phone":"(742) 578-2582","sd":"22","ssbd":"10","lsbd":"School Board Lake Mountain 7"},{"vid":"2659899","name":"Dr. Jean Gerhold","party":"Dem","address":"2761 S Spring Meadow Dr, Saratoga Springs, UT 84045","precinct":"25SR30","hd":"51","v_score":"1.193887297","decile":"4","lat":40.31194729511288,"lng":-111.9044411311665,"phone":"(817) 434-1600","sd":"22","ssbd":"10","lsbd":"School Board Lake Mountain 7"},{"vid":"2662308","name":"Emmet Hodkiewicz","party":"","address":"2674 S Ivy Cir, Saratoga Springs, UT 84045","precinct":"25SR30","hd":"51","v_score":"0","decile":"1","lat":40.31310294952052,"lng":-111.89679220532885,"phone":"(137) 185-5338","sd":"22","ssbd":"10","lsbd":"School Board Lake Mountain 7"},{"vid":"2662479","name":"Dr. Will Padberg","party":"Rep","address":"2653 S Spring Meadow Dr, Saratoga Springs, UT 84045","precinct":"25SR30","hd":"51","v_score":"1.193887297","decile":"4","lat":40.31398657034411,"lng":-111.90490776364143,"phone":"(167) 969-9885","sd":"22","ssbd":"10","lsbd":"School Board Lake Mountain 7"},{"vid":"2673415","name":"Delia Becker","party":"Rep","address":"2678 S Wildflower Dr, Saratoga Springs, UT 84045","precinct":"25SR30","hd":"51","v_score":"0","decile":"2","lat":40.31351005753376,"lng":-111.8938647552922,"phone":"(247) 648-8566","sd":"22","ssbd":"10","lsbd":"School Board Lake Mountain 7"},{"vid":"2679826","name":"Juliann Schuster","party":"","address":"363 W Stillwater Dr, Saratoga Springs, UT 84045","precinct":"25SR30","hd":"51","v_score":"0","decile":"2","lat":40.31286758717083,"lng":-111.90352389711715,"phone":"(493) 842-5060","sd":"22","ssbd":"10","lsbd":"School Board Lake Mountain 7"},{"vid":"2683030","name":"Mr. Randell Hane Sr.","party":"","address":"66 W Wildflower Dr, Saratoga Springs, UT 84045","precinct":"25SR30","hd":"51","v_score":"1.193887297","decile":"4","lat":40.31189979220985,"lng":-111.8937874611789,"phone":"(149) 395-0304","sd":"22","ssbd":"10","lsbd":"School Board Lake Mountain 7"},{"vid":"2690658","name":"Mr. Deon Hayes IV","party":"","address":"2663 S Ivy Cir, Saratoga Springs, UT 84045","precinct":"25SR30","hd":"51","v_score":"0","decile":"2","lat":40.31352485320988,"lng":-111.8973144122878,"phone":"(478) 041-3614","sd":"22","ssbd":"10","lsbd":"School Board Lake Mountain 7"},{"vid":"2694214","name":"Maury Wisozk","party":"Dem","address":"294 W Stillwater Dr, Saratoga Springs, UT 84045","precinct":"25SR30","hd":"51","v_score":"0","decile":"2","lat":40.313864168117554,"lng":-111.90204787697608,"phone":"(127) 416-5203","sd":"22","ssbd":"10","lsbd":"School Board Lake Mountain 7"},{"vid":"2696565","name":"Dovie Reilly","party":"","address":"156 W Fox Hollow Dr, Saratoga Springs, UT 84045","precinct":"25SR30","hd":"51","v_score":"2.876042565","decile":"6","lat":40.31112867017806,"lng":-111.89542794937627,"phone":"(728) 279-3811","sd":"22","ssbd":"10","lsbd":"School Board Lake Mountain 7"},{"vid":"2703380","name":"Miss Oney Hayes","party":"Rep","address":"2853 S Gray Fox Ave, Saratoga Springs, UT 84045","precinct":"25SR30","hd":"51","v_score":"1.193887297","decile":"4","lat":40.31011461178914,"lng":-111.90232208072675,"phone":"(729) 370-9450","sd":"22","ssbd":"10","lsbd":"School Board Lake Mountain 7"},{"vid":"2706912","name":"Dimitrios Jenkins","party":"","address":"2738 S Sandalwood Cir, Saratoga Springs, UT 84045","precinct":"25SR30","hd":"51","v_score":"0","decile":"2","lat":40.312610986518905,"lng":-111.90313245972244,"phone":"(161) 359-2461","sd":"22","ssbd":"10","lsbd":"School Board Lake Mountain 7"},{"vid":"2712040","name":"Shane Satterfield","party":"Rep","address":"123 W Silver Fox Ln, Saratoga Springs, UT 84045","precinct":"25SR30","hd":"51","v_score":"4.069929862","decile":"7","lat":40.30982602967321,"lng":-111.89409643519116,"phone":"(370) 880-4487","sd":"22","ssbd":"10","lsbd":"School Board Lake Mountain 7"},{"vid":"2713261","name":"Caryl Zemlak","party":"Rep","address":"251 W Ivy Ln, Saratoga Springs, UT 84045","precinct":"25SR30","hd":"51","v_score":"1.193887297","decile":"4","lat":40.3113815243175,"lng":-111.89926653754226,"phone":"(704) 802-0139","sd":"22","ssbd":"10","lsbd":"School Board Lake Mountain 7"},{"vid":"2714726","name":"Tayler Bruen-Gusikowski","party":"Dem","address":"228 W Rosewood Dr, Saratoga Springs, UT 84045","precinct":"25SR30","hd":"51","v_score":"0","decile":"2","lat":40.314605026555874,"lng":-111.89864683874345,"phone":"(413) 654-8618","sd":"22","ssbd":"10","lsbd":"School Board Lake Mountain 7"},{"vid":"2727320","name":"Mr. Algernon Terry II","party":"Dem","address":"2836 S Village Court Rd, Saratoga Springs, UT 84045","precinct":"25SR30","hd":"51","v_score":"0","decile":"2","lat":40.31060303105176,"lng":-111.89431876194539,"phone":"(697) 268-1623","sd":"22","ssbd":"10","lsbd":"School Board Lake Mountain 7"},{"vid":"2727717","name":"Jonnie Beer-Tromp","party":"Dem","address":"364 W Fox Hollow Dr, Saratoga Springs, UT 84045","precinct":"25SR30","hd":"51","v_score":"0","decile":"2","lat":40.31058207401766,"lng":-111.9006349570249,"phone":"(972) 326-5074","sd":"22","ssbd":"10","lsbd":"School Board Lake Mountain 7"},{"vid":"2729463","name":"Theadore Okuneva","party":"Dem","address":"411 W Fox Hollow Dr, Saratoga Springs, UT 84045","precinct":"25SR30","hd":"51","v_score":"1.193887297","decile":"4","lat":40.309984115146996,"lng":-111.90169666504467,"phone":"(191) 080-5541","sd":"22","ssbd":"10","lsbd":"School Board Lake Mountain 7"},{"vid":"2729566","name":"Danae Kuhlman","party":"","address":"2814 S Silver Fox Ln, Saratoga Springs, UT 84045","precinct":"25SR30","hd":"51","v_score":"0","decile":"2","lat":40.311076341882824,"lng":-111.89249419325871,"phone":"(678) 009-2067","sd":"22","ssbd":"10","lsbd":"School Board Lake Mountain 7"},{"vid":"2729596","name":"Brittany Kohler-Bergstrom","party":"","address":"114 W Silver Fox Ln, Saratoga Springs, UT 84045","precinct":"25SR30","hd":"51","v_score":"0","decile":"2","lat":40.31024812041417,"lng":-111.89391834233956,"phone":"(877) 121-3362","sd":"22","ssbd":"10","lsbd":"School Board Lake Mountain 7"},{"vid":"2734649","name":"Amado Pouros","party":"Dem","address":"2832 S Day Lilly Dr, Saratoga Springs, UT 84045","precinct":"25SR30","hd":"51","v_score":"1.193887297","decile":"4","lat":40.31071408558548,"lng":-111.89968826340429,"phone":"(796) 135-0710","sd":"22","ssbd":"10","lsbd":"School Board Lake Mountain 7"},{"vid":"2735341","name":"Coralie O'Reilly","party":"","address":"188 W Summerhill Dr, Saratoga Springs, UT 84045","precinct":"25SR30","hd":"51","v_score":"0","decile":"2","lat":40.31499045185071,"lng":-111.90006970596643,"phone":"(773) 452-5647","sd":"22","ssbd":"10","lsbd":"School Board Lake Mountain 7"},{"vid":"2740688","name":"Mrs. Devon Keeling DVM","party":"Rep","address":"222 W Fox Hollow Dr, Saratoga Springs, UT 84045","precinct":"25SR30","hd":"51","v_score":"7.090117576","decile":"8","lat":40.311091653410024,"lng":-111.89712825970517,"phone":"(961) 881-8813","sd":"22","ssbd":"10","lsbd":"School Board Lake Mountain 7"},{"vid":"2747384","name":"Dr. Javon DuBuque","party":"Rep","address":"2728 S Lavender Ln, Saratoga Springs, UT 84045","precinct":"25SR30","hd":"51","v_score":"0","decile":"2","lat":40.31256431615772,"lng":-111.8940859131484,"phone":"(546) 329-6637","sd":"22","ssbd":"10","lsbd":"School Board Lake Mountain 7"},{"vid":"2750135","name":"Elsie Schmidt","party":"Dem","address":"2711 S Wildflower Dr, Saratoga Springs, UT 84045","precinct":"25SR30","hd":"51","v_score":"0","decile":"2","lat":40.31278697689374,"lng":-111.89366974014186,"phone":"(260) 880-9246","sd":"22","ssbd":"10","lsbd":"School Board Lake Mountain 7"},{"vid":"2760569","name":"Ernest Armstrong I","party":"Rep","address":"227 W Ivy Ln, Saratoga Springs, UT 84045","precinct":"25SR30","hd":"51","v_score":"1.193887297","decile":"4","lat":40.31147897264836,"lng":-111.8983748294212,"phone":"(905) 857-1747","sd":"22","ssbd":"10","lsbd":"School Board Lake Mountain 7"},{"vid":"2777465","name":"Candy Durgan","party":"Rep","address":"2771 S Ivy Ln, Saratoga Springs, UT 84045","precinct":"25SR30","hd":"51","v_score":"1.193887297","decile":"4","lat":40.31184380010023,"lng":-111.89833330007647,"phone":"(328) 237-7692","sd":"22","ssbd":"10","lsbd":"School Board Lake Mountain 7"},{"vid":"2777598","name":"Mrs. Shay Monahan MD","party":"","address":"2764 S Day Lilly Dr, Saratoga Springs, UT 84045","precinct":"25SR30","hd":"51","v_score":"5.407962308","decile":"7","lat":40.311914048698185,"lng":-111.89999014920441,"phone":"(922) 094-9286","sd":"22","ssbd":"10","lsbd":"School Board Lake Mountain 7"},{"vid":"2778562","name":"Joesph O'Reilly","party":"Rep","address":"123 W Silver Fox Ln, Saratoga Springs, UT 84045","precinct":"25SR30","hd":"51","v_score":"0","decile":"2","lat":40.30982602967321,"lng":-111.89409643519116,"phone":"(865) 153-0996","sd":"22","ssbd":"10","lsbd":"School Board Lake Mountain 7"},{"vid":"2780233","name":"Adele Ondricka","party":"Rep","address":"152 W Fox Hollow Dr, Saratoga Springs, UT 84045","precinct":"25SR30","hd":"51","v_score":"0","decile":"2","lat":40.311130302816004,"lng":-111.89514116904903,"phone":"(846) 776-8654","sd":"22","ssbd":"10","lsbd":"School Board Lake Mountain 7"},{"vid":"2782902","name":"Latoria Jakubowski-Feil","party":"","address":"316 W Shadow Ridge Dr, Saratoga Springs, UT 84045","precinct":"25SR30","hd":"51","v_score":"2.876042565","decile":"6","lat":40.31467003123577,"lng":-111.90343911915117,"phone":"(142) 663-7335","sd":"22","ssbd":"10","lsbd":"School Board Lake Mountain 7"},{"vid":"2782950","name":"Nelda Thiel","party":"","address":"251 W Ivy Ln, Saratoga Springs, UT 84045","precinct":"25SR30","hd":"51","v_score":"1.193887297","decile":"4","lat":40.3113815243175,"lng":-111.89926653754226,"phone":"(264) 838-5975","sd":"22","ssbd":"10","lsbd":"School Board Lake Mountain 7"},{"vid":"2784147","name":"Vinnie Toy","party":"Rep","address":"2744 S Sandalwood Cir, Saratoga Springs, UT 84045","precinct":"25SR30","hd":"51","v_score":"0","decile":"2","lat":40.31239615029647,"lng":-111.90300638795351,"phone":"(557) 275-9369","sd":"22","ssbd":"10","lsbd":"School Board Lake Mountain 7"},{"vid":"2785539","name":"Delton Hirthe-Bashirian","party":"Rep","address":"28 W Periwinkle Cir, Saratoga Springs, UT 84045","precinct":"25SR30","hd":"51","v_score":"0","decile":"2","lat":40.31175067432262,"lng":-111.89260332232094,"phone":"(612) 894-6760","sd":"22","ssbd":"10","lsbd":"School Board Lake Mountain 7"},{"vid":"2791948","name":"Erastus Lindgren","party":"Rep","address":"2838 S Cottontail Loop, Saratoga Springs, UT 84045","precinct":"25SR30","hd":"51","v_score":"0","decile":"2","lat":40.3105110922211,"lng":-111.89533236324016,"phone":"(702) 294-8320","sd":"22","ssbd":"10","lsbd":"School Board Lake Mountain 7"},{"vid":"2792120","name":"Wilber Koss","party":"Dem","address":"2688 S Wildflower Dr, Saratoga Springs, UT 84045","precinct":"25SR30","hd":"51","v_score":"0","decile":"2","lat":40.31329839251111,"lng":-111.89369449269576,"phone":"(436) 309-8359","sd":"22","ssbd":"10","lsbd":"School Board Lake Mountain 7"},{"vid":"2792777","name":"Mose Will DVM","party":"","address":"2853 S Gray Fox Ave, Saratoga Springs, UT 84045","precinct":"25SR30","hd":"51","v_score":"0","decile":"2","lat":40.31011461178914,"lng":-111.90232208072675,"phone":"(114) 804-5742","sd":"22","ssbd":"10","lsbd":"School Board Lake Mountain 7"},{"vid":"2793306","name":"Dr. Anthony Larkin PhD","party":"Rep","address":"79 W Wildflower Dr, Saratoga Springs, UT 84045","precinct":"25SR30","hd":"51","v_score":"1.193887297","decile":"4","lat":40.311528905997484,"lng":-111.89368001563422,"phone":"(634) 244-8951","sd":"22","ssbd":"10","lsbd":"School Board Lake Mountain 7"},{"vid":"2794038","name":"Miss Kaylen Rath","party":"","address":"2669 S Wildflower Dr, Saratoga Springs, UT 84045","precinct":"25SR30","hd":"51","v_score":"0","decile":"2","lat":40.313619468912044,"lng":-111.89456240046573,"phone":"(800) 727-5140","sd":"22","ssbd":"10","lsbd":"School Board Lake Mountain 7"},{"vid":"2794222","name":"Bascom Hilpert","party":"Dem","address":"232 W Stillwater Dr, Saratoga Springs, UT 84045","precinct":"25SR30","hd":"51","v_score":"0","decile":"2","lat":40.31296079006167,"lng":-111.8992062084844,"phone":"(765) 336-1402","sd":"22","ssbd":"10","lsbd":"School Board Lake Mountain 7"},{"vid":"2795003","name":"Myrta Jones","party":"Dem","address":"2757 S Sunrise Peak Cir, Saratoga Springs, UT 84045","precinct":"25SR30","hd":"51","v_score":"3.93832808","decile":"6","lat":40.312014683153336,"lng":-111.9056143976965,"phone":"(374) 936-0999","sd":"22","ssbd":"10","lsbd":"School Board Lake Mountain 7"},{"vid":"2796108","name":"Penelope Stark","party":"Rep","address":"2838 S Cottontail Loop, Saratoga Springs, UT 84045","precinct":"25SR30","hd":"51","v_score":"0","decile":"2","lat":40.3105110922211,"lng":-111.89533236324016,"phone":"(392) 341-4728","sd":"22","ssbd":"10","lsbd":"School Board Lake Mountain 7"},{"vid":"2796268","name":"Leon Huels","party":"Dem","address":"246 W Fox Hollow Dr, Saratoga Springs, UT 84045","precinct":"25SR30","hd":"51","v_score":"1.193887297","decile":"4","lat":40.31106598371134,"lng":-111.8979971749096,"phone":"(733) 696-4345","sd":"22","ssbd":"10","lsbd":"School Board Lake Mountain 7"},{"vid":"2796602","name":"Phoebe Renner","party":"","address":"2608 S Clover Cir, Saratoga Springs, UT 84045","precinct":"25SR30","hd":"51","v_score":"1.193887297","decile":"4","lat":40.31471024395805,"lng":-111.89451228236373,"phone":"(793) 401-6359","sd":"22","ssbd":"10","lsbd":"School Board Lake Mountain 7"},{"vid":"2797820","name":"Romona Dickinson PhD","party":"Rep","address":"2738 S Sandalwood Cir, Saratoga Springs, UT 84045","precinct":"25SR30","hd":"51","v_score":"1.193887297","decile":"4","lat":40.312610986518905,"lng":-111.90313245972244,"phone":"(422) 217-3709","sd":"22","ssbd":"10","lsbd":"School Board Lake Mountain 7"},{"vid":"2801578","name":"Mrs. China Willms DDS","party":"","address":"2888 S Island Fox Ln, Saratoga Springs, UT 84045","precinct":"25SR30","hd":"51","v_score":"0","decile":"2","lat":40.30972412650121,"lng":-111.90368624618624,"phone":"(721) 331-2841","sd":"22","ssbd":"10","lsbd":"School Board Lake Mountain 7"},{"vid":"2804297","name":"Andria Bode","party":"Dem","address":"2726 S Wildflower Dr, Saratoga Springs, UT 84045","precinct":"25SR30","hd":"51","v_score":"0","decile":"2","lat":40.31253848930317,"lng":-111.89307675830213,"phone":"(203) 320-9774","sd":"22","ssbd":"10","lsbd":"School Board Lake Mountain 7"},{"vid":"2804991","name":"Rogers Daniel","party":"Dem","address":"424 W Stillwater Dr, Saratoga Springs, UT 84045","precinct":"25SR30","hd":"51","v_score":"1.193887297","decile":"4","lat":40.3127357906467,"lng":-111.90526261637346,"phone":"(639) 421-0490","sd":"22","ssbd":"10","lsbd":"School Board Lake Mountain 7"},{"vid":"2808419","name":"Goldia Sipes-Goyette","party":"","address":"2696 S Ivy Ln, Saratoga Springs, UT 84045","precinct":"25SR30","hd":"51","v_score":"0","decile":"2","lat":40.313103514429294,"lng":-111.89793410747941,"phone":"(998) 245-4553","sd":"22","ssbd":"10","lsbd":"School Board Lake Mountain 7"},{"vid":"2816177","name":"Christian Kshlerin-Bartoletti","party":"Dem","address":"2862 S Day Lilly Dr, Saratoga Springs, UT 84045","precinct":"25SR30","hd":"51","v_score":"0","decile":"2","lat":40.31014306131793,"lng":-111.89940868352853,"phone":"(901) 068-0156","sd":"22","ssbd":"10","lsbd":"School Board Lake Mountain 7"},{"vid":"2817399","name":"Angel Dooley","party":"Dem","address":"2608 S Clover Cir, Saratoga Springs, UT 84045","precinct":"25SR30","hd":"51","v_score":"1.193887297","decile":"4","lat":40.31471024395805,"lng":-111.89451228236373,"phone":"(661) 886-9396","sd":"22","ssbd":"10","lsbd":"School Board Lake Mountain 7"},{"vid":"2819087","name":"Texanna Kozey","party":"Dem","address":"2663 S Ivy Cir, Saratoga Springs, UT 84045","precinct":"25SR30","hd":"51","v_score":"1.193887297","decile":"4","lat":40.31352485320988,"lng":-111.8973144122878,"phone":"(709) 868-3222","sd":"22","ssbd":"10","lsbd":"School Board Lake Mountain 7"},{"vid":"2820497","name":"Rowena Larson-Dare","party":"","address":"229 W Wildwood Dr, Saratoga Springs, UT 84045","precinct":"25SR30","hd":"51","v_score":"1.193887297","decile":"4","lat":40.313770991989365,"lng":-111.89964942891918,"phone":"(962) 299-6628","sd":"22","ssbd":"10","lsbd":"School Board Lake Mountain 7"},{"vid":"2821528","name":"Deneen Brown","party":"Rep","address":"466 W Kit Fox Dr, Saratoga Springs, UT 84045","precinct":"25SR30","hd":"51","v_score":"1.193887297","decile":"4","lat":40.311083171254545,"lng":-111.90346609412187,"phone":"(914) 834-1454","sd":"22","ssbd":"10","lsbd":"School Board Lake Mountain 7"},