[{"id":"928","name":"Corrie DuBuque","party":"Dem","address":"2012 N Churchill Rd, Saratoga Springs, UT 84045","precinct":"25SR03","hd":"51","v_score":"25.51666305","decile":"10","lat":40.398873137105,"lng":-111.934076076149},{"id":"1852","name":"Torie Quigley","party":"Rep","address":"531 W Jack Frost Way, Saratoga Springs, UT 84045","precinct":"25SR03","hd":"51","v_score":"3.93832808","decile":"6","lat":40.40443701599,"lng":-111.933402267571},{"id":"2503","name":"Blain Swift","party":"Dem","address":"552 W Muskmelon Way, Saratoga Springs, UT 84045","precinct":"25SR03","hd":"51","v_score":"6.881235673","decile":"8","lat":40.402094883316,"lng":-111.933518789487},{"id":"2715","name":"Rylan Weimann","party":"Dem","address":"2053 N Belmont Dr, Saratoga Springs, UT 84045","precinct":"25SR03","hd":"51","v_score":"1.193887297","decile":"3","lat":40.399095920454,"lng":-111.935203352162},{"id":"2811","name":"Gerard O'Connell","party":"Rep","address":"654 W Pimlico Dr, Saratoga Springs, UT 84045","precinct":"25SR03","hd":"51","v_score":"1.121327652","decile":"3","lat":40.399040798266,"lng":-111.934686278686},{"id":"2838","name":"Flonnie Adams-Zulauf","party":"","address":"1996 N Belmont Dr, Saratoga Springs, UT 84045","precinct":"25SR03","hd":"51","v_score":"1.193887297","decile":"3","lat":40.398686656958,"lng":-111.935034281855},{"id":"3956","name":"Lane Lind","party":"","address":"502 W Jack Frost Way, Saratoga Springs, UT 84045","precinct":"25SR03","hd":"51","v_score":"5.40460374","decile":"7","lat":40.404489023989,"lng":-111.933160276498},{"id":"4081","name":"Deegan Wilderman","party":"Rep","address":"2036 N Elderberry Dr, Saratoga Springs, UT 84045","precinct":"25SR03","hd":"51","v_score":"26.8582098","decile":"10","lat":40.399184286284,"lng":-111.936456718773},{"id":"4482","name":"Samatha Schmeler","party":"Rep","address":"733 W Wild Hyacinth Dr, Saratoga Springs, UT 84045","precinct":"25SR03","hd":"51","v_score":"18.71796766","decile":"10","lat":40.397966711299,"lng":-111.936060905389},{"id":"4711","name":"Dr. Parker Kassulke MD","party":"Dem","address":"546 W Autumn Sky Dr, Saratoga Springs, UT 84045","precinct":"25SR03","hd":"51","v_score":"31.68604227","decile":"10","lat":40.405433239735,"lng":-111.933993107828},{"id":"5073","name":"Roxanne Sporer-Huels","party":"Dem","address":"2221 N Elderberry Dr, Saratoga Springs, UT 84045","precinct":"25SR03","hd":"51","v_score":"4.465184987","decile":"7","lat":40.399239372712,"lng":-111.936767918332},{"id":"5095","name":"Javier Raynor","party":"","address":"2042 N Belmont Dr, Saratoga Springs, UT 84045","precinct":"25SR03","hd":"51","v_score":"4.639704383","decile":"7","lat":40.399067137374,"lng":-111.935051225544},{"id":"5318","name":"Dr. Kamryn Grady MD","party":"Dem","address":"723 W Hydrangea Way, Saratoga Springs, UT 84045","precinct":"25SR03","hd":"51","v_score":"1.121327652","decile":"3","lat":40.397057711415,"lng":-111.936239603626},{"id":"5635","name":"Mrs. Marquita O'Conner PhD","party":"","address":"2018 N Churchill Rd, Saratoga Springs, UT 84045","precinct":"25SR03","hd":"51","v_score":"5.40460374","decile":"7","lat":40.39891512514,"lng":-111.934075476315},{"id":"5807","name":"Elisha Hane","party":"Dem","address":"2062 N Elderberry Dr, Saratoga Springs, UT 84045","precinct":"25SR03","hd":"51","v_score":"3.997370217","decile":"6","lat":40.399497067926,"lng":-111.937027192387},{"id":"6569","name":"Gladyce Bergnaum DVM","party":"","address":"687 W Saratoga Chase Dr, Saratoga Springs, UT 84045","precinct":"25SR03","hd":"51","v_score":"9.207031979","decile":"8","lat":40.397966711238,"lng":-111.93527214326},{"id":"6594","name":"Presley Schroeder-Mitchell","party":"Rep","address":"2039 N Elderberry Dr, Saratoga Springs, UT 84045","precinct":"25SR03","hd":"51","v_score":"3.93832808","decile":"6","lat":40.398428826825,"lng":-111.93603136469},{"id":"7080","name":"Ahmad Dicki","party":"","address":"2244 N Honeydew Dr, Saratoga Springs, UT 84045","precinct":"25SR03","hd":"51","v_score":"19.3272208","decile":"10","lat":40.402707944152,"lng":-111.932153387438},{"id":"7098","name":"Emmitt Greenfelder-Corwin","party":"","address":"718 W Hydrangea Way, Saratoga Springs, UT 84045","precinct":"25SR03","hd":"51","v_score":"25.88476528","decile":"10","lat":40.397172302796,"lng":-111.936191500643},{"id":"7907","name":"Louella Purdy-Kihn","party":"","address":"2003 N Churchill Rd, Saratoga Springs, UT 84045","precinct":"25SR03","hd":"51","v_score":"0","decile":"1","lat":40.39859014762,"lng":-111.934235518156},{"id":"8180","name":"Cap Yundt-Bednar","party":"Rep","address":"2007 N Churchill Rd, Saratoga Springs, UT 84045","precinct":"25SR03","hd":"51","v_score":"9.116556227","decile":"8","lat":40.398609638819,"lng":-111.934234371613},{"id":"8235","name":"Ason Hauck","party":"","address":"461 W Autumn Sky Dr, Saratoga Springs, UT 84045","precinct":"25SR03","hd":"51","v_score":"2.315214949","decile":"5","lat":40.405319710209,"lng":-111.932666852727},{"id":"9656","name":"Lala Bradtke","party":"Rep","address":"602 W Crenshaw Ct, Saratoga Springs, UT 84045","precinct":"25SR03","hd":"51","v_score":"1.193887297","decile":"3","lat":40.403840508308,"lng":-111.934527283458},{"id":"9744","name":"Ava Rohan","party":"","address":"738 W Wild Hyacinth Dr, Saratoga Springs, UT 84045","precinct":"25SR03","hd":"51","v_score":"2.587603312","decile":"5","lat":40.39808130269,"lng":-111.936143914163},{"id":"9759","name":"Shayla Skiles","party":"Rep","address":"602 W Crenshaw Ct, Saratoga Springs, UT 84045","precinct":"25SR03","hd":"51","v_score":"1.193887297","decile":"3","lat":40.403840508308,"lng":-111.934527283458},{"id":"9840","name":"Caylee Koch","party":"Rep","address":"572 W Muskmelon Way, Saratoga Springs, UT 84045","precinct":"25SR03","hd":"51","v_score":"3.93832808","decile":"6","lat":40.402218257871,"lng":-111.933765456291},{"id":"9964","name":"Jevon Christiansen-Hartmann","party":"","address":"2389 Autumn Sky Dr, Saratoga Springs, UT 84045","precinct":"25SR03","hd":"51","v_score":"3.93832808","decile":"6","lat":40.405179741396,"lng":-111.934400994669},{"id":"11011","name":"Elbert Lindgren","party":"Dem","address":"2043 N Belmont Dr, Saratoga Springs, UT 84045","precinct":"25SR03","hd":"51","v_score":"5.40460374","decile":"7","lat":40.399044503376,"lng":-111.935200617218},{"id":"11287","name":"Destini Lesch","party":"Dem","address":"2062 N Elderberry Dr, Saratoga Springs, UT 84045","precinct":"25SR03","hd":"51","v_score":"6.52928996","decile":"7","lat":40.399497067926,"lng":-111.937027192387},{"id":"11417","name":"Janel Abernathy","party":"","address":"547 W Jack Frost Way, Saratoga Springs, UT 84045","precinct":"25SR03","hd":"51","v_score":"2.315214949","decile":"5","lat":40.404546673504,"lng":-111.933766994539},{"id":"11856","name":"Marti Jacobi","party":"Rep","address":"2043 N Belmont Dr, Saratoga Springs, UT 84045","precinct":"25SR03","hd":"51","v_score":"5.40460374","decile":"7","lat":40.399044503376,"lng":-111.935200617218},{"id":"11975","name":"Rosita Quitzon","party":"Dem","address":"1894 N Elderberry Dr, Saratoga Springs, UT 84045","precinct":"25SR03","hd":"51","v_score":"0","decile":"1","lat":40.396896408564,"lng":-111.935830233373},{"id":"12817","name":"Mistie Borer","party":"","address":"497 W Jack Frost Way, Saratoga Springs, UT 84045","precinct":"25SR03","hd":"51","v_score":"7.166934593","decile":"8","lat":40.404617739781,"lng":-111.932893402654},{"id":"14380","name":"Mr. Jordi Macejkovic","party":"Dem","address":"2129 N Elderberry Dr, Saratoga Springs, UT 84045","precinct":"25SR03","hd":"51","v_score":"2.315214949","decile":"5","lat":40.398879264567,"lng":-111.936307494116},{"id":"14460","name":"Mignon Franecki PhD","party":"","address":"619 W Cantelope Ct, Saratoga Springs, UT 84045","precinct":"25SR03","hd":"51","v_score":"0","decile":"1","lat":40.40299724606,"lng":-111.934649602006},{"id":"17181","name":"Normand Haag II","party":"Dem","address":"477 W Jack Frost Way, Saratoga Springs, UT 84045","precinct":"25SR03","hd":"51","v_score":"5.40460374","decile":"7","lat":40.404691514325,"lng":-111.932580998277},{"id":"17206","name":"Dr. Isadore Stiedemann II","party":"Dem","address":"2036 N Elderberry Dr, Saratoga Springs, UT 84045","precinct":"25SR03","hd":"51","v_score":"26.8582098","decile":"10","lat":40.399184286284,"lng":-111.936456718773},{"id":"17253","name":"Frederic McCullough-Rice","party":"Dem","address":"597 W Crenshaw Ct, Saratoga Springs, UT 84045","precinct":"25SR03","hd":"51","v_score":"5.40460374","decile":"7","lat":40.403727504142,"lng":-111.934558822807},{"id":"17512","name":"Deetta Heller","party":"Dem","address":"2137 N Elderberry Dr, Saratoga Springs, UT 84045","precinct":"25SR03","hd":"51","v_score":"15.43762891","decile":"9","lat":40.398907796598,"lng":-111.936336671078},{"id":"17695","name":"Mr. Dennis Cummerata II","party":"","address":"2008 N Elderberry Dr, Saratoga Springs, UT 84045","precinct":"25SR03","hd":"51","v_score":"16.89562538","decile":"9","lat":40.398721036964,"lng":-111.936019113855},{"id":"18426","name":"Lavona Rempel","party":"Dem","address":"589 W Crenshaw Ct, Saratoga Springs, UT 84045","precinct":"25SR03","hd":"51","v_score":"2.587603312","decile":"5","lat":40.403721034381,"lng":-111.934534561214},{"id":"20235","name":"Bernie Bradtke","party":"Rep","address":"528 W Pumpkin Patch Dr, Saratoga Springs, UT 84045","precinct":"25SR03","hd":"51","v_score":"2.315214949","decile":"5","lat":40.402526133017,"lng":-111.932863419099},{"id":"20666","name":"Nonie Rosenbaum PhD","party":"Rep","address":"764 W Hydrangea Way, Saratoga Springs, UT 84045","precinct":"25SR03","hd":"51","v_score":"9.61867875","decile":"8","lat":40.397172302839,"lng":-111.936744684771},{"id":"21758","name":"Avon Bauch","party":"","address":"2053 N Belmont Dr, Saratoga Springs, UT 84045","precinct":"25SR03","hd":"51","v_score":"0","decile":"1","lat":40.399095920454,"lng":-111.935203352162},{"id":"22487","name":"Woody Champlin","party":"","address":"2029 N Elderberry Dr, Saratoga Springs, UT 84045","precinct":"25SR03","hd":"51","v_score":"5.40460374","decile":"7","lat":40.398373195312,"lng":-111.936012820861},{"id":"23022","name":"Jeremie Nader","party":"Rep","address":"569 W Jack Frost Way, Saratoga Springs, UT 84045","precinct":"25SR03","hd":"51","v_score":"14.95117867","decile":"9","lat":40.404644244124,"lng":-111.934057829938},{"id":"23481","name":"Nathanial Hagenes","party":"Dem","address":"569 W Jack Frost Way, Saratoga Springs, UT 84045","precinct":"25SR03","hd":"51","v_score":"11.99259879","decile":"9","lat":40.404644244124,"lng":-111.934057829938},{"id":"23699","name":"Ms. Cornelia Prosacco","party":"","address":"2012 N Belmont Dr, Saratoga Springs, UT 84045","precinct":"25SR03","hd":"51","v_score":"3.781490609","decile":"6","lat":40.398787333901,"lng":-111.935037363789},{"id":"23894","name":"Dr. Lizzie Morissette PhD","party":"Rep","address":"1944 N Elderberry Dr, Saratoga Springs, UT 84045","precinct":"25SR03","hd":"51","v_score":"3.781490609","decile":"6","lat":40.397341899606,"lng":-111.935818583613},{"id":"24004","name":"Dezzie Murazik","party":"","address":"2023 N Belmont Dr, Saratoga Springs, UT 84045","precinct":"25SR03","hd":"51","v_score":"27.07869334","decile":"10","lat":40.398825008,"lng":-111.935189029116},{"id":"24283","name":"Keena Rogahn","party":"","address":"568 W Pumpkin Patch Dr, Saratoga Springs, UT 84045","precinct":"25SR03","hd":"51","v_score":"7.947838735","decile":"8","lat":40.402867338413,"lng":-111.933541972077},{"id":"25024","name":"Harvy Upton","party":"Dem","address":"737 W Hydrangea Way, Saratoga Springs, UT 84045","precinct":"25SR03","hd":"51","v_score":"16.78552823","decile":"9","lat":40.397057711428,"lng":-111.936407964013},{"id":"25107","name":"Diane Wiza","party":"Dem","address":"557 W Pumpkin Patch Dr, Saratoga Springs, UT 84045","precinct":"25SR03","hd":"51","v_score":"8.363183621","decile":"8","lat":40.402683831703,"lng":-111.933436800149},{"id":"25520","name":"Dr. Konner Thiel III","party":"Dem","address":"2008 N Churchill Rd, Saratoga Springs, UT 84045","precinct":"25SR03","hd":"51","v_score":"0","decile":"1","lat":40.398845145081,"lng":-111.934076476039},{"id":"25585","name":"Tera Skiles","party":"","address":"2012 N Churchill Rd, Saratoga Springs, UT 84045","precinct":"25SR03","hd":"51","v_score":"0","decile":"1","lat":40.398873137105,"lng":-111.934076076149},{"id":"26062","name":"Dr. Jacquline Lehner DDS","party":"Dem","address":"2096 N Wild Hyacinth Dr, Saratoga Springs, UT 84045","precinct":"25SR03","hd":"51","v_score":"3.781490609","decile":"6","lat":40.398081302677,"lng":-111.935971967385},{"id":"26288","name":"Hamza Hamill","party":"","address":"2221 N Elderberry Dr, Saratoga Springs, UT 84045","precinct":"25SR03","hd":"51","v_score":"6.881235673","decile":"8","lat":40.399239372712,"lng":-111.936767918332},{"id":"26416","name":"Rand Konopelski","party":"","address":"2121 N Elderberry Dr, Saratoga Springs, UT 84045","precinct":"25SR03","hd":"51","v_score":"4.13679489","decile":"7","lat":40.398840154152,"lng":-111.936275904945},{"id":"26471","name":"Kamari Pagac","party":"Dem","address":"727 W Wild Hyacinth Dr, Saratoga Springs, UT 84045","precinct":"25SR03","hd":"51","v_score":"8.347511332","decile":"8","lat":40.397966711298,"lng":-111.936043117791},{"id":"26755","name":"Manning Treutel","party":"","address":"553 W Muskmelon Way, Saratoga Springs, UT 84045","precinct":"25SR03","hd":"51","v_score":"13.33063124","decile":"9","lat":40.401998588533,"lng":-111.933600359491},{"id":"26830","name":"Bliss Huel","party":"","address":"643 W Saratoga Chase Dr, Saratoga Springs, UT 84045","precinct":"25SR03","hd":"51","v_score":"10.52632313","decile":"9","lat":40.397975711167,"lng":-111.934351554232},{"id":"28759","name":"Dr. Gage Olson","party":"Rep","address":"484 W Jack Frost Way, Saratoga Springs, UT 84045","precinct":"25SR03","hd":"51","v_score":"1.46627566","decile":"4","lat":40.404605191623,"lng":-111.932911084151},{"id":"29536","name":"Olena Christiansen","party":"Rep","address":"2363 N Elderberry Cir, Saratoga Springs, UT 84045","precinct":"25SR03","hd":"51","v_score":"9.82542041","decile":"8","lat":40.399795361616,"lng":-111.937576724407},{"id":"29860","name":"Dr. Ceylon Blanda","party":"Rep","address":"2012 N Belmont Dr, Saratoga Springs, UT 84045","precinct":"25SR03","hd":"51","v_score":"3.781490609","decile":"6","lat":40.398787333901,"lng":-111.935037363789},{"id":"30061","name":"Kami Ritchie","party":"","address":"2012 N Churchill Rd, Saratoga Springs, UT 84045","precinct":"25SR03","hd":"51","v_score":"25.65721174","decile":"10","lat":40.398873137105,"lng":-111.934076076149},{"id":"30658","name":"Theresia Johnson","party":"","address":"2013 N Churchill Rd, Saratoga Springs, UT 84045","precinct":"25SR03","hd":"51","v_score":"19.08400665","decile":"10","lat":40.398638875618,"lng":-111.934232651797},{"id":"30796","name":"Marely Johns-Schaefer","party":"Dem","address":"593 W Casaba Ct, Saratoga Springs, UT 84045","precinct":"25SR03","hd":"51","v_score":"8.363183621","decile":"8","lat":40.402279788535,"lng":-111.934404711476},{"id":"31005","name":"Dr. Skyler Schuster","party":"","address":"2129 N Elderberry Dr, Saratoga Springs, UT 84045","precinct":"25SR03","hd":"51","v_score":"1.121327652","decile":"3","lat":40.398879264567,"lng":-111.936307494116},{"id":"31497","name":"Flavia Bartell","party":"Rep","address":"2153 N Elderberry Dr, Saratoga Springs, UT 84045","precinct":"25SR03","hd":"51","v_score":"1.193887297","decile":"3","lat":40.39897688166,"lng":-111.936416118876},{"id":"31656","name":"Ms. Elle Murazik","party":"Rep","address":"2153 N Elderberry Dr, Saratoga Springs, UT 84045","precinct":"25SR03","hd":"51","v_score":"2.660162957","decile":"5","lat":40.39897688166,"lng":-111.936416118876},{"id":"32110","name":"Lem Spencer","party":"Rep","address":"568 W Pumpkin Patch Dr, Saratoga Springs, UT 84045","precinct":"25SR03","hd":"51","v_score":"5.40460374","decile":"7","lat":40.402867338413,"lng":-111.933541972077},{"id":"32468","name":"Dr. Chadwick Ortiz II","party":"Dem","address":"2389 Autumn Sky Dr, Saratoga Springs, UT 84045","precinct":"25SR03","hd":"51","v_score":"3.93832808","decile":"6","lat":40.405179741396,"lng":-111.934400994669},{"id":"32728","name":"Cayden Pfannerstill-Lynch","party":"Dem","address":"476 W Jack Frost Way, Saratoga Springs, UT 84045","precinct":"25SR03","hd":"51","v_score":"3.781490609","decile":"6","lat":40.404676733515,"lng":-111.932782442961},{"id":"33000","name":"Lanette Metz","party":"","address":"1994 N Churchill Rd, Saratoga Springs, UT 84045","precinct":"25SR03","hd":"51","v_score":"7.650280567","decile":"8","lat":40.398747172999,"lng":-111.934077875653},{"id":"33301","name":"Mr. Lonzo Ondricka Jr.","party":"Dem","address":"1992 N Churchill Rd, Saratoga Springs, UT 84045","precinct":"25SR03","hd":"51","v_score":"0","decile":"1","lat":40.398733176987,"lng":-111.934078075598},{"id":"33547","name":"Dr. Joaquin Cormier","party":"","address":"739 W Wild Hyacinth Dr, Saratoga Springs, UT 84045","precinct":"25SR03","hd":"51","v_score":"8.421194992","decile":"8","lat":40.397966711301,"lng":-111.936078692987},{"id":"33811","name":"Cathi Harber-Stokes","party":"Dem","address":"738 W Hydrangea Way, Saratoga Springs, UT 84045","precinct":"25SR03","hd":"51","v_score":"1.121327652","decile":"3","lat":40.397172302815,"lng":-111.936432015481},{"id":"33892","name":"Dr. Farris Beier","party":"Rep","address":"502 W Jack Frost Way, Saratoga Springs, UT 84045","precinct":"25SR03","hd":"51","v_score":"3.781490609","decile":"6","lat":40.404489023989,"lng":-111.933160276498},{"id":"34159","name":"Shaneka Koelpin-Daugherty","party":"Dem","address":"2008 N Churchill Rd, Saratoga Springs, UT 84045","precinct":"25SR03","hd":"51","v_score":"0","decile":"1","lat":40.398845145081,"lng":-111.934076476039},{"id":"35130","name":"Anibal Murazik","party":"","address":"2273 N Elderberry Dr, Saratoga Springs, UT 84045","precinct":"25SR03","hd":"51","v_score":"1.193887297","decile":"3","lat":40.399393774431,"lng":-111.937092683575},{"id":"36112","name":"Miss Levina Green DDS","party":"Dem","address":"712 W Blue Violet Dr, Saratoga Springs, UT 84045","precinct":"25SR03","hd":"51","v_score":"4.069929862","decile":"6","lat":40.396477715878,"lng":-111.936105486628},{"id":"36451","name":"Maya Murphy DDS","party":"","address":"484 W Jack Frost Way, Saratoga Springs, UT 84045","precinct":"25SR03","hd":"51","v_score":"1.121327652","decile":"3","lat":40.404605191623,"lng":-111.932911084151},{"id":"40748","name":"Rafaela Schulist","party":"","address":"2049 N Belmont Dr, Saratoga Springs, UT 84045","precinct":"25SR03","hd":"51","v_score":"7.153624035","decile":"8","lat":40.399075353623,"lng":-111.935202258185},{"id":"41937","name":"Felicie Simonis-Kozey","party":"","address":"764 W Hydrangea Way, Saratoga Springs, UT 84045","precinct":"25SR03","hd":"51","v_score":"9.61867875","decile":"8","lat":40.397172302839,"lng":-111.936744684771},{"id":"42243","name":"Cordero Rogahn-Pollich","party":"Dem","address":"529 W Crenshaw Way, Saratoga Springs, UT 84045","precinct":"25SR03","hd":"51","v_score":"0","decile":"1","lat":40.403286453718,"lng":-111.932994190452},{"id":"42691","name":"Lavern Wilderman Jr.","party":"Dem","address":"592 W Cantelope Ct, Saratoga Springs, UT 84045","precinct":"25SR03","hd":"51","v_score":"0","decile":"1","lat":40.403118072723,"lng":-111.934616797824},{"id":"43116","name":"Dr. Citlali Cummerata","party":"","address":"2093 N Elderberry Dr, Saratoga Springs, UT 84045","precinct":"25SR03","hd":"51","v_score":"0","decile":"1","lat":40.398703895342,"lng":-111.936176438768},{"id":"43806","name":"Michelina Wintheiser","party":"","address":"608 W Cantelope Ct, Saratoga Springs, UT 84045","precinct":"25SR03","hd":"51","v_score":"7.159318653","decile":"8","lat":40.4031131476,"lng":-111.934653189031},{"id":"46433","name":"Trinidad Kiehn","party":"Dem","address":"2086 N Elderberry Dr, Saratoga Springs, UT 84045","precinct":"25SR03","hd":"51","v_score":"0","decile":"1","lat":40.399815578538,"lng":-111.937422496904},{"id":"46623","name":"Ms. Glennie Berge PhD","party":"","address":"747 W Blue Violet Dr, Saratoga Springs, UT 84045","precinct":"25SR03","hd":"51","v_score":"1.193887297","decile":"3","lat":40.396360451537,"lng":-111.93642006222},{"id":"49228","name":"Garret Brown MD","party":"","address":"1992 N Elderberry Dr, Saratoga Springs, UT 84045","precinct":"25SR03","hd":"51","v_score":"0","decile":"1","lat":40.398410327847,"lng":-111.935869956019},{"id":"49277","name":"Spencer Anderson","party":"Dem","address":"739 W Wild Hyacinth Dr, Saratoga Springs, UT 84045","precinct":"25SR03","hd":"51","v_score":"2.315214949","decile":"5","lat":40.397966711301,"lng":-111.936078692987},{"id":"49510","name":"Worth Quigley","party":"","address":"1992 N Elderberry Dr, Saratoga Springs, UT 84045","precinct":"25SR03","hd":"51","v_score":"6.724398202","decile":"8","lat":40.398410327847,"lng":-111.935869956019},{"id":"50812","name":"Dione Heidenreich","party":"","address":"2293 N Elderberry Dr, Saratoga Springs, UT 84045","precinct":"25SR03","hd":"51","v_score":"17.98456202","decile":"10","lat":40.399470192862,"lng":-111.937230753836},{"id":"52001","name":"Frona Kris","party":"Rep","address":"601 W Cantelope Ct, Saratoga Springs, UT 84045","precinct":"25SR03","hd":"51","v_score":"19.24455128","decile":"10","lat":40.403002786823,"lng":-111.934608661898},{"id":"52034","name":"Cleon Jaskolski","party":"Rep","address":"531 W Muskmelon Way, Saratoga Springs, UT 84045","precinct":"25SR03","hd":"51","v_score":"2.315214949","decile":"5","lat":40.401848482263,"lng":-111.933333381652},{"id":"52791","name":"Omari Larkin","party":"Rep","address":"621 W Casaba Ct, Saratoga Springs, UT 84045","precinct":"25SR03","hd":"51","v_score":"26.41733837","decile":"10","lat":40.402255935558,"lng":-111.934473785732},{"id":"53221","name":"Unknown Hodkiewicz","party":"Dem","address":"2234 N Honeydew Dr, Saratoga Springs, UT 84045","precinct":"25SR03","hd":"51","v_score":"3.781490609","decile":"6","lat":40.402614629657,"lng":-111.932166572018},{"id":"53426","name":"Kellen Franecki-Grady","party":"Dem","address":"584 W Crenshaw Ct, Saratoga Springs, UT 84045","precinct":"25SR03","hd":"51","v_score":"2.587603312","decile":"5","lat":40.403825951346,"lng":-111.934472694872},{"id":"53458","name":"Linsey Wolf-Hilpert","party":"","address":"551 W Crenshaw Way, Saratoga Springs, UT 84045","precinct":"25SR03","hd":"51","v_score":"7.008419981","decile":"8","lat":40.403388518839,"lng":-111.933350490368},{"id":"53746","name":"Caryn Kuhlman","party":"Dem","address":"2018 N Belmont Dr, Saratoga Springs, UT 84045","precinct":"25SR03","hd":"51","v_score":"2.587603312","decile":"5","lat":40.398825087754,"lng":-111.935038519514},{"id":"54578","name":"Dr. Dwane Kuvalis II","party":"Dem","address":"2129 N Elderberry Dr, Saratoga Springs, UT 84045","precinct":"25SR03","hd":"51","v_score":"2.315214949","decile":"5","lat":40.398879264567,"lng":-111.936307494116},{"id":"55260","name":"Reynaldo Hackett DVM","party":"Rep","address":"2241 N Honeydew Dr, Saratoga Springs, UT 84045","precinct":"25SR03","hd":"51","v_score":"0","decile":"1","lat":40.402682763319,"lng":-111.932307432386},{"id":"55754","name":"Milda Shields","party":"Rep","address":"536 W Autumn Sky Dr, Saratoga Springs, UT 84045","precinct":"25SR03","hd":"51","v_score":"1.121327652","decile":"3","lat":40.405434301682,"lng":-111.933828774184},{"id":"56610","name":"Andrea Powlowski","party":"Dem","address":"2381 N Elderberry Cir, Saratoga Springs, UT 84045","precinct":"25SR03","hd":"51","v_score":"2.315214949","decile":"5","lat":40.399888443713,"lng":-111.937635585125},{"id":"56612","name":"Aliza Wolff","party":"Dem","address":"2381 N Elderberry Cir, Saratoga Springs, UT 84045","precinct":"25SR03","hd":"51","v_score":"2.315214949","decile":"5","lat":40.399888443713,"lng":-111.937635585125},{"id":"58660","name":"Enriqueta Turcotte-Mueller","party":"Dem","address":"2293 N Elderberry Dr, Saratoga Springs, UT 84045","precinct":"25SR03","hd":"51","v_score":"13.92577445","decile":"9","lat":40.399470192862,"lng":-111.937230753836},{"id":"58989","name":"Dr. Hayward Larkin PhD","party":"","address":"2121 N Elderberry Dr, Saratoga Springs, UT 84045","precinct":"25SR03","hd":"51","v_score":"5.258122542","decile":"7","lat":40.398840154152,"lng":-111.936275904945},{"id":"61821","name":"Rohan Ernser","party":"Dem","address":"1983 N Churchill Rd, Saratoga Springs, UT 84045","precinct":"25SR03","hd":"51","v_score":"3.93832808","decile":"6","lat":40.39848863549,"lng":-111.934236150925},{"id":"62097","name":"Kavon Schmidt","party":"","address":"728 W Wild Hyacinth Dr, Saratoga Springs, UT 84045","precinct":"25SR03","hd":"51","v_score":"0","decile":"1","lat":40.398081302692,"lng":-111.936173560159},{"id":"62843","name":"Kael Morissette-Krajcik","party":"Dem","address":"2043 N Belmont Dr, Saratoga Springs, UT 84045","precinct":"25SR03","hd":"51","v_score":"1.121327652","decile":"3","lat":40.399044503376,"lng":-111.935200617218},{"id":"62947","name":"Ms. Myah Daniel PhD","party":"Rep","address":"2038 N Churchill Rd, Saratoga Springs, UT 84045","precinct":"25SR03","hd":"51","v_score":"3.93832808","decile":"6","lat":40.399055711023,"lng":-111.934074068044},{"id":"63136","name":"Mr. Jaeden Heathcote","party":"Dem","address":"1998 N Churchill Rd, Saratoga Springs, UT 84045","precinct":"25SR03","hd":"51","v_score":"0","decile":"1","lat":40.398775165022,"lng":-111.934077475763},{"id":"63205","name":"Florence Marquardt-Runte","party":"","address":"498 W Autumn Sky Dr, Saratoga Springs, UT 84045","precinct":"25SR03","hd":"51","v_score":"2.817000428","decile":"6","lat":40.405434301638,"lng":-111.933247813448},{"id":"63982","name":"Nada Nolan","party":"","address":"2049 N Elderberry Dr, Saratoga Springs, UT 84045","precinct":"25SR03","hd":"51","v_score":"2.315214949","decile":"5","lat":40.39847921901,"lng":-111.936052547777},{"id":"64115","name":"Abelardo Sauer","party":"","address":"547 W Jack Frost Way, Saratoga Springs, UT 84045","precinct":"25SR03","hd":"51","v_score":"2.315214949","decile":"5","lat":40.404546673504,"lng":-111.933766994539},{"id":"65703","name":"Dr. Glynn Cronin","party":"","address":"1988 N Belmont Dr, Saratoga Springs, UT 84045","precinct":"25SR03","hd":"51","v_score":"0","decile":"1","lat":40.398636318487,"lng":-111.935032740888},{"id":"66178","name":"Netta Kessler-Herzog","party":"","address":"532 W Jack Frost Way, Saratoga Springs, UT 84045","precinct":"25SR03","hd":"51","v_score":"1.121327652","decile":"3","lat":40.404664717041,"lng":-111.933745605139},{"id":"68463","name":"Dr. Jiles O'Connell DVM","party":"","address":"598 W Crenshaw Ct, Saratoga Springs, UT 84045","precinct":"25SR03","hd":"51","v_score":"8.173821515","decile":"8","lat":40.403837273427,"lng":-111.934515152661},{"id":"68528","name":"Charmaine Glover-Mohr","party":"","address":"598 W Crenshaw Ct, Saratoga Springs, UT 84045","precinct":"25SR03","hd":"51","v_score":"8.173821515","decile":"8","lat":40.403837273427,"lng":-111.934515152661},{"id":"69203","name":"Angelia Gusikowski DDS","party":"","address":"1998 N Belmont Dr, Saratoga Springs, UT 84045","precinct":"25SR03","hd":"51","v_score":"1.193887297","decile":"3","lat":40.398699241576,"lng":-111.935034667097},{"id":"69367","name":"Dr. Marvel Cremin","party":"","address":"1983 N Elderberry Dr, Saratoga Springs, UT 84045","precinct":"25SR03","hd":"51","v_score":"1.121327652","decile":"3","lat":40.398127219478,"lng":-111.93596603818},{"id":"69393","name":"Paul McDermott-Schuppe","party":"Dem","address":"526 W Autumn Sky Dr, Saratoga Springs, UT 84045","precinct":"25SR03","hd":"51","v_score":"2.817000428","decile":"6","lat":40.405434301671,"lng":-111.93367588978},{"id":"69433","name":"Izayah Cole","party":"Dem","address":"1998 N Belmont Dr, Saratoga Springs, UT 84045","precinct":"25SR03","hd":"51","v_score":"1.193887297","decile":"3","lat":40.398699241576,"lng":-111.935034667097},{"id":"69498","name":"Susan Jaskolski DVM","party":"Dem","address":"633 W Saratoga Chase Dr, Saratoga Springs, UT 84045","precinct":"25SR03","hd":"51","v_score":"1.193887297","decile":"3","lat":40.397975201875,"lng":-111.934015752128},{"id":"70110","name":"Humphrey Satterfield I","party":"Dem","address":"603 W Crenshaw Ct, Saratoga Springs, UT 84045","precinct":"25SR03","hd":"51","v_score":"3.93832808","decile":"6","lat":40.403732356463,"lng":-111.934577019003},{"id":"70511","name":"Amanda Hackett","party":"","address":"2028 N Churchill Rd, Saratoga Springs, UT 84045","precinct":"25SR03","hd":"51","v_score":"1.121327652","decile":"3","lat":40.398985105198,"lng":-111.934074476591},{"id":"70600","name":"Joette Eichmann MD","party":"Dem","address":"712 W Blue Violet Dr, Saratoga Springs, UT 84045","precinct":"25SR03","hd":"51","v_score":"12.08307454","decile":"9","lat":40.396477715878,"lng":-111.936105486628},{"id":"70601","name":"Lafe Reinger-O'Kon","party":"","address":"712 W Blue Violet Dr, Saratoga Springs, UT 84045","precinct":"25SR03","hd":"51","v_score":"12.08307454","decile":"9","lat":40.396477715878,"lng":-111.936105486628},{"id":"71713","name":"Fannie Welch DDS","party":"Rep","address":"549 W Muskmelon Way, Saratoga Springs, UT 84045","precinct":"25SR03","hd":"51","v_score":"1.121327652","decile":"3","lat":40.401973805016,"lng":-111.933554539386},{"id":"72468","name":"Ladonna Murray-Treutel","party":"","address":"728 W Hydrangea Way, Saratoga Springs, UT 84045","precinct":"25SR03","hd":"51","v_score":"3.93832808","decile":"6","lat":40.397172302805,"lng":-111.936311758062},{"id":"72520","name":"Ilma Boyle","party":"Rep","address":"579 W Muskmelon Way, Saratoga Springs, UT 84045","precinct":"25SR03","hd":"51","v_score":"13.42110699","decile":"9","lat":40.402176529144,"lng":-111.933931609243},{"id":"73182","name":"Merlyn Ullrich-Hayes","party":"Rep","address":"541 W Muskmelon Way, Saratoga Springs, UT 84045","precinct":"25SR03","hd":"51","v_score":"3.93832808","decile":"6","lat":40.401918106014,"lng":-111.93345624706},{"id":"76137","name":"Rory Rosenbaum","party":"Dem","address":"2214 N Honeydew Dr, Saratoga Springs, UT 84045","precinct":"25SR03","hd":"51","v_score":"1.121327652","decile":"3","lat":40.402438400479,"lng":-111.932209415562},{"id":"76147","name":"Curt Klocko","party":"Dem","address":"563 W Jack Frost Way, Saratoga Springs, UT 84045","precinct":"25SR03","hd":"51","v_score":"0","decile":"1","lat":40.404617633955,"lng":-111.933978511193},{"id":"76759","name":"Leonce Steuber DDS","party":"Rep","address":"673 W Saratoga Chase Dr, Saratoga Springs, UT 84045","precinct":"25SR03","hd":"51","v_score":"0","decile":"1","lat":40.397966711218,"lng":-111.935008202777},{"id":"76945","name":"Jamil Rodriguez-Crooks","party":"","address":"531 W Muskmelon Way, Saratoga Springs, UT 84045","precinct":"25SR03","hd":"51","v_score":"6.814370645","decile":"8","lat":40.401848482263,"lng":-111.933333381652},{"id":"76964","name":"Vira Anderson","party":"","address":"507 W Autumn Sky Dr, Saratoga Springs, UT 84045","precinct":"25SR03","hd":"51","v_score":"1.121327652","decile":"3","lat":40.405319710263,"lng":-111.933370120986},{"id":"77296","name":"Mr. Isai Barton III","party":"Rep","address":"1999 N Churchill Rd, Saratoga Springs, UT 84045","precinct":"25SR03","hd":"51","v_score":"2.315214949","decile":"5","lat":40.398570656421,"lng":-111.9342366647},{"id":"77860","name":"Santina Marvin","party":"Rep","address":"572 W Crenshaw Ct, Saratoga Springs, UT 84045","precinct":"25SR03","hd":"51","v_score":"1.121327652","decile":"3","lat":40.403816246704,"lng":-111.934436302481},{"id":"78023","name":"Kody Wisozk","party":"","address":"2029 N Elderberry Dr, Saratoga Springs, UT 84045","precinct":"25SR03","hd":"51","v_score":"3.93832808","decile":"6","lat":40.398373195312,"lng":-111.936012820861},{"id":"78029","name":"Sunshine Nicolas","party":"Rep","address":"553 W Muskmelon Way, Saratoga Springs, UT 84045","precinct":"25SR03","hd":"51","v_score":"7.650280567","decile":"8","lat":40.401998588533,"lng":-111.933600359491},{"id":"78181","name":"Rowan Hahn","party":"Rep","address":"543 W Crenshaw Way, Saratoga Springs, UT 84045","precinct":"25SR03","hd":"51","v_score":"2.315214949","decile":"5","lat":40.403351404249,"lng":-111.933220926762},{"id":"78882","name":"Herschel Parisian","party":"Dem","address":"522 W Jack Frost Way, Saratoga Springs, UT 84045","precinct":"25SR03","hd":"51","v_score":"1.121327652","decile":"3","lat":40.40458897332,"lng":-111.933502208284},{"id":"79074","name":"Olen Hills-Bruen","party":"","address":"594 W Casaba Ct, Saratoga Springs, UT 84045","precinct":"25SR03","hd":"51","v_score":"2.744440783","decile":"5","lat":40.402382446935,"lng":-111.934471791957},{"id":"79083","name":"Haylee Bernier-Armstrong","party":"Dem","address":"543 W Crenshaw Way, Saratoga Springs, UT 84045","precinct":"25SR03","hd":"51","v_score":"1.121327652","decile":"3","lat":40.403351404249,"lng":-111.933220926762},{"id":"79494","name":"Alma Ebert MD","party":"Dem","address":"471 W Autumn Sky Dr, Saratoga Springs, UT 84045","precinct":"25SR03","hd":"51","v_score":"1.121327652","decile":"3","lat":40.405319710221,"lng":-111.932819737131},{"id":"82074","name":"Diandra Witting","party":"Rep","address":"548 W Jack Frost Way, Saratoga Springs, UT 84045","precinct":"25SR03","hd":"51","v_score":"5.360235423","decile":"7","lat":40.40471743052,"lng":-111.933902731796},{"id":"82097","name":"Ephram Spencer","party":"Dem","address":"548 W Jack Frost Way, Saratoga Springs, UT 84045","precinct":"25SR03","hd":"51","v_score":"5.360235423","decile":"7","lat":40.40471743052,"lng":-111.933902731796},{"id":"82286","name":"Rosalie West","party":"Rep","address":"596 W Crenshaw Ct, Saratoga Springs, UT 84045","precinct":"25SR03","hd":"51","v_score":"1.193887297","decile":"3","lat":40.403835655987,"lng":-111.934509087263},{"id":"83116","name":"Myrta Upton","party":"Dem","address":"531 W Muskmelon Way, Saratoga Springs, UT 84045","precinct":"25SR03","hd":"51","v_score":"1.193887297","decile":"3","lat":40.401848482263,"lng":-111.933333381652},{"id":"83216","name":"Duwayne Conn","party":"","address":"477 W Jack Frost Way, Saratoga Springs, UT 84045","precinct":"25SR03","hd":"51","v_score":"5.858606566","decile":"7","lat":40.404691514325,"lng":-111.932580998277},{"id":"83577","name":"Gibson Mohr-Zulauf","party":"Rep","address":"719 W Wild Hyacinth Dr, Saratoga Springs, UT 84045","precinct":"25SR03","hd":"51","v_score":"3.93832808","decile":"6","lat":40.397966711296,"lng":-111.936019400994},{"id":"83784","name":"Dr. Candice Bauch","party":"Rep","address":"553 W Muskmelon Way, Saratoga Springs, UT 84045","precinct":"25SR03","hd":"51","v_score":"1.193887297","decile":"3","lat":40.401998588533,"lng":-111.933600359491},{"id":"84896","name":"Kelsey Cormier","party":"Rep","address":"2224 N Honeydew Dr, Saratoga Springs, UT 84045","precinct":"25SR03","hd":"51","v_score":"0","decile":"1","lat":40.402527153215,"lng":-111.93218715472},{"id":"87464","name":"Burnett Langworth","party":"","address":"514 W Pumpkin Patch Dr, Saratoga Springs, UT 84045","precinct":"25SR03","hd":"51","v_score":"3.711952487","decile":"6","lat":40.402429840221,"lng":-111.932626521899},{"id":"88693","name":"Vivian O'Hara","party":"Rep","address":"594 W Crenshaw Ct, Saratoga Springs, UT 84045","precinct":"25SR03","hd":"51","v_score":"1.193887297","decile":"4","lat":40.403834038547,"lng":-111.934503021864},{"id":"89456","name":"Carole Toy","party":"Rep","address":"528 W Pumpkin Patch Dr, Saratoga Springs, UT 84045","precinct":"25SR03","hd":"51","v_score":"0","decile":"1","lat":40.402526133017,"lng":-111.932863419099},{"id":"93483","name":"Ulysses Hahn-Konopelski","party":"Dem","address":"1983 N Churchill Rd, Saratoga Springs, UT 84045","precinct":"25SR03","hd":"51","v_score":"1.193887297","decile":"4","lat":40.39848863549,"lng":-111.934236150925},{"id":"93509","name":"Mindy Baumbach-Marks","party":"Dem","address":"1998 N Elderberry Dr, Saratoga Springs, UT 84045","precinct":"25SR03","hd":"51","v_score":"15.1758219","decile":"9","lat":40.398529326069,"lng":-111.93591596206},{"id":"93515","name":"Jerrod Berge-Bechtelar","party":"","address":"1998 N Elderberry Dr, Saratoga Springs, UT 84045","precinct":"25SR03","hd":"51","v_score":"15.1758219","decile":"9","lat":40.398529326069,"lng":-111.93591596206},{"id":"93544","name":"Wilbert Raynor","party":"Rep","address":"1908 N Elderberry Dr, Saratoga Springs, UT 84045","precinct":"25SR03","hd":"51","v_score":"2.817000428","decile":"6","lat":40.396958701128,"lng":-111.935828615376},{"id":"93987","name":"Mohammad Harris","party":"Rep","address":"2349 N Elderberry Cir, Saratoga Springs, UT 84045","precinct":"25SR03","hd":"51","v_score":"1.193887297","decile":"4","lat":40.399713599786,"lng":-111.937521965065},{"id":"94522","name":"Miriam Murray","party":"","address":"1984 N Elderberry Dr, Saratoga Springs, UT 84045","precinct":"25SR03","hd":"51","v_score":"1.193887297","decile":"4","lat":40.398246810129,"lng":-111.935822525342},{"id":"94935","name":"Winifred Howell-Kreiger","party":"Rep","address":"1993 N Wild Hyacinth Dr, Saratoga Springs, UT 84045","precinct":"25SR03","hd":"51","v_score":"0","decile":"1","lat":40.397966711302,"lng":-111.936101032293},{"id":"95057","name":"Blanca Parker","party":"Rep","address":"2234 N Honeydew Dr, Saratoga Springs, UT 84045","precinct":"25SR03","hd":"51","v_score":"1.193887297","decile":"4","lat":40.402614629657,"lng":-111.932166572018},{"id":"95359","name":"Inger McDermott","party":"Rep","address":"1993 N Wild Hyacinth Dr, Saratoga Springs, UT 84045","precinct":"25SR03","hd":"51","v_score":"0","decile":"1","lat":40.397966711302,"lng":-111.936101032293},{"id":"95498","name":"Pat Feeney","party":"Rep","address":"511 W Jack Frost Way, Saratoga Springs, UT 84045","precinct":"25SR03","hd":"51","v_score":"0","decile":"1","lat":40.40451526316,"lng":-111.933037801546},{"id":"96183","name":"Karsyn Parisian","party":"Dem","address":"581 W Crenshaw Ct, Saratoga Springs, UT 84045","precinct":"25SR03","hd":"51","v_score":"0","decile":"1","lat":40.40371456462,"lng":-111.93451029962},{"id":"96447","name":"Leigh Gusikowski","party":"Rep","address":"2369 N Elderberry Cir, Saratoga Springs, UT 84045","precinct":"25SR03","hd":"51","v_score":"1.193887297","decile":"4","lat":40.399826388981,"lng":-111.937596344646},{"id":"96721","name":"Ms. Aryanna Cummings","party":"","address":"476 W Jack Frost Way, Saratoga Springs, UT 84045","precinct":"25SR03","hd":"51","v_score":"2.817000428","decile":"6","lat":40.404676733515,"lng":-111.932782442961},{"id":"97289","name":"Yesenia Romaguera-Schaden","party":"Rep","address":"592 W Cantelope Ct, Saratoga Springs, UT 84045","precinct":"25SR03","hd":"51","v_score":"1.623113131","decile":"5","lat":40.403118072723,"lng":-111.934616797824},{"id":"98248","name":"Lucio Kilback","party":"","address":"2103 N Elderberry Dr, Saratoga Springs, UT 84045","precinct":"25SR03","hd":"51","v_score":"2.817000428","decile":"6","lat":40.398755073255,"lng":-111.936210557364},{"id":"98709","name":"Pamala Lowe","party":"","address":"2013 N Belmont Dr, Saratoga Springs, UT 84045","precinct":"25SR03","hd":"51","v_score":"5.407962308","decile":"7","lat":40.39876393559,"lng":-111.935187159561},{"id":"99248","name":"Velma Gibson","party":"","address":"579 W Muskmelon Way, Saratoga Springs, UT 84045","precinct":"25SR03","hd":"51","v_score":"1.193887297","decile":"4","lat":40.402176529144,"lng":-111.933931609243},{"id":"99636","name":"Isamar Ernser","party":"Rep","address":"2059 N Elderberry Dr, Saratoga Springs, UT 84045","precinct":"25SR03","hd":"51","v_score":"1.193887297","decile":"4","lat":40.398533585301,"lng":-111.936076710563},{"id":"99801","name":"Raelynn Thompson","party":"Dem","address":"733 W Wild Hyacinth Dr, Saratoga Springs, UT 84045","precinct":"25SR03","hd":"51","v_score":"1.193887297","decile":"4","lat":40.397966711299,"lng":-111.936060905389},{"id":"100296","name":"Lizbeth Baumbach","party":"","address":"748 W Wild Hyacinth Dr, Saratoga Springs, UT 84045","precinct":"25SR03","hd":"51","v_score":"4.069929862","decile":"6","lat":40.398081302688,"lng":-111.936114268167},{"id":"100761","name":"Katina Heathcote","party":"","address":"481 W Jack Frost Way, Saratoga Springs, UT 84045","precinct":"25SR03","hd":"51","v_score":"1.193887297","decile":"4","lat":40.404693812913,"lng":-111.932637313579},{"id":"101246","name":"Dr. Talia Prosacco","party":"Dem","address":"603 W Casaba Ct, Saratoga Springs, UT 84045","precinct":"25SR03","hd":"51","v_score":"7.090117576","decile":"8","lat":40.402271269614,"lng":-111.934429380853},{"id":"101379","name":"Pierce Schimmel","party":"Rep","address":"552 W Pumpkin Patch Dr, Saratoga Springs, UT 84045","precinct":"25SR03","hd":"51","v_score":"0","decile":"2","lat":40.402730096241,"lng":-111.933258761619},{"id":"101433","name":"Earlean Kunze","party":"","address":"1988 N Belmont Dr, Saratoga Springs, UT 84045","precinct":"25SR03","hd":"51","v_score":"1.193887297","decile":"4","lat":40.398636318487,"lng":-111.935032740888},{"id":"101590","name":"Mrs. Charley Lehner","party":"","address":"1996 N Belmont Dr, Saratoga Springs, UT 84045","precinct":"25SR03","hd":"51","v_score":"1.193887297","decile":"4","lat":40.398686656958,"lng":-111.935034281855},{"id":"102989","name":"Francisco Rempel","party":"Dem","address":"531 W Muskmelon Way, Saratoga Springs, UT 84045","precinct":"25SR03","hd":"51","v_score":"1.193887297","decile":"4","lat":40.401848482263,"lng":-111.933333381652},{"id":"103924","name":"Andrae Langworth","party":"","address":"556 W Jack Frost Way, Saratoga Springs, UT 84045","precinct":"25SR03","hd":"51","v_score":"0","decile":"2","lat":40.404743787259,"lng":-111.933981295125},{"id":"104103","name":"Sariah Schmidt","party":"Rep","address":"477 W Jack Frost Way, Saratoga Springs, UT 84045","precinct":"25SR03","hd":"51","v_score":"0","decile":"2","lat":40.404691514325,"lng":-111.932580998277},{"id":"104771","name":"Caleigh Casper-Heaney","party":"Dem","address":"2169 N Elderberry Dr, Saratoga Springs, UT 84045","precinct":"25SR03","hd":"51","v_score":"0","decile":"2","lat":40.399045966723,"lng":-111.936495566675},{"id":"105200","name":"Early Abbott","party":"Rep","address":"571 W Muskmelon Way, Saratoga Springs, UT 84045","precinct":"25SR03","hd":"51","v_score":"0","decile":"2","lat":40.402112384062,"lng":-111.933832014604},{"id":"105396","name":"Dr. Calvin Gislason","party":"Dem","address":"2032 N Churchill Rd, Saratoga Springs, UT 84045","precinct":"25SR03","hd":"51","v_score":"0","decile":"2","lat":40.399013097222,"lng":-111.934074076701},{"id":"105598","name":"Jeromy Ritchie","party":"Dem","address":"2224 N Honeydew Dr, Saratoga Springs, UT 84045","precinct":"25SR03","hd":"51","v_score":"1.193887297","decile":"4","lat":40.402527153215,"lng":-111.93218715472},{"id":"106037","name":"Mr. Ernest Welch DVM","party":"Rep","address":"592 W Cantelope Ct, Saratoga Springs, UT 84045","precinct":"25SR03","hd":"51","v_score":"1.193887297","decile":"4","lat":40.403118072723,"lng":-111.934616797824},{"id":"107285","name":"Santos King PhD","party":"Dem","address":"548 W Jack Frost Way, Saratoga Springs, UT 84045","precinct":"25SR03","hd":"51","v_score":"0","decile":"2","lat":40.40471743052,"lng":-111.933902731796},{"id":"107505","name":"Winton Wyman","party":"","address":"2121 N Elderberry Dr, Saratoga Springs, UT 84045","precinct":"25SR03","hd":"51","v_score":"1.193887297","decile":"4","lat":40.398840154152,"lng":-111.936275904945},{"id":"108365","name":"Dr. Dejon Greenholt IV","party":"Rep","address":"1999 N Churchill Rd, Saratoga Springs, UT 84045","precinct":"25SR03","hd":"51","v_score":"0","decile":"2","lat":40.398570656421,"lng":-111.9342366647},{"id":"108617","name":"Dr. Brain Labadie","party":"Dem","address":"2274 N Honeydew Dr, Saratoga Springs, UT 84045","precinct":"25SR03","hd":"51","v_score":"0","decile":"2","lat":40.4029901658,"lng":-111.932161848944},{"id":"110964","name":"Mrs. Deirdre Mohr","party":"Dem","address":"709 W Wild Hyacinth Dr, Saratoga Springs, UT 84045","precinct":"25SR03","hd":"51","v_score":"8.284004873","decile":"8","lat":40.397966711294,"lng":-111.935989754998},{"id":"111459","name":"Dr. Elsworth Quitzon","party":"Dem","address":"2073 N Elderberry Dr, Saratoga Springs, UT 84045","precinct":"25SR03","hd":"51","v_score":"0","decile":"2","lat":40.398601539517,"lng":-111.936108201574},{"id":"112162","name":"Lorenzo Bode","party":"Rep","address":"584 W Crenshaw Ct, Saratoga Springs, UT 84045","precinct":"25SR03","hd":"51","v_score":"1.193887297","decile":"4","lat":40.403825951346,"lng":-111.934472694872},{"id":"113535","name":"Bena Murray-Reinger","party":"Rep","address":"572 W Crenshaw Ct, Saratoga Springs, UT 84045","precinct":"25SR03","hd":"51","v_score":"0","decile":"2","lat":40.403816246704,"lng":-111.934436302481},{"id":"114402","name":"Williemae Von","party":"Rep","address":"719 W Wild Hyacinth Dr, Saratoga Springs, UT 84045","precinct":"25SR03","hd":"51","v_score":"0","decile":"2","lat":40.397966711296,"lng":-111.936019400994},{"id":"114740","name":"Malaya Lang DDS","party":"Rep","address":"477 W Jack Frost Way, Saratoga Springs, UT 84045","precinct":"25SR03","hd":"51","v_score":"0","decile":"2","lat":40.404691514325,"lng":-111.932580998277},{"id":"114819","name":"Cosmo Becker Sr.","party":"","address":"544 W Crenshaw Way, Saratoga Springs, UT 84045","precinct":"25SR03","hd":"51","v_score":"1.193887297","decile":"4","lat":40.403467936205,"lng":-111.933200334685},{"id":"115439","name":"Gannon Sporer","party":"","address":"548 W Jack Frost Way, Saratoga Springs, UT 84045","precinct":"25SR03","hd":"51","v_score":"0","decile":"2","lat":40.40471743052,"lng":-111.933902731796},{"id":"115947","name":"Vidal Feest","party":"","address":"2183 N Elderberry Dr, Saratoga Springs, UT 84045","precinct":"25SR03","hd":"51","v_score":"0","decile":"2","lat":40.399104760618,"lng":-111.936565127644},{"id":"118870","name":"Buck Connelly","party":"","address":"2272 N Honeydew Dr, Saratoga Springs, UT 84045","precinct":"25SR03","hd":"51","v_score":"0","decile":"2","lat":40.402972798206,"lng":-111.932156886778},{"id":"119970","name":"Abner Robel","party":"Dem","address":"2363 Autumn Sky Dr, Saratoga Springs, UT 84045","precinct":"25SR03","hd":"51","v_score":"1.193887297","decile":"4","lat":40.40543430167,"lng":-111.933664657456},{"id":"121230","name":"Ferne Bashirian","party":"","address":"2363 Autumn Sky Dr, Saratoga Springs, UT 84045","precinct":"25SR03","hd":"51","v_score":"1.193887297","decile":"4","lat":40.40543430167,"lng":-111.933664657456},{"id":"122747","name":"Mr. Garnett Douglas Sr.","party":"Dem","address":"2273 N Elderberry Dr, Saratoga Springs, UT 84045","precinct":"25SR03","hd":"51","v_score":"1.193887297","decile":"4","lat":40.399393774431,"lng":-111.937092683575},{"id":"124514","name":"Dr. Asbury O'Hara","party":"Dem","address":"584 W Crenshaw Ct, Saratoga Springs, UT 84045","precinct":"25SR03","hd":"51","v_score":"0","decile":"2","lat":40.403825951346,"lng":-111.934472694872},{"id":"124627","name":"Mr. Torrence Corwin","party":"Dem","address":"2018 N Belmont Dr, Saratoga Springs, UT 84045","precinct":"25SR03","hd":"51","v_score":"0","decile":"2","lat":40.398825087754,"lng":-111.935038519514},{"id":"125480","name":"Braelyn Schultz-Renner","party":"Dem","address":"2059 N Elderberry Dr, Saratoga Springs, UT 84045","precinct":"25SR03","hd":"51","v_score":"0","decile":"2","lat":40.398533585301,"lng":-111.936076710563},{"id":"126529","name":"Dr. Jeanetta Cremin DDS","party":"","address":"2241 N Honeydew Dr, Saratoga Springs, UT 84045","precinct":"25SR03","hd":"51","v_score":"0","decile":"2","lat":40.402682763319,"lng":-111.932307432386},{"id":"128380","name":"Menachem Kshlerin PhD","party":"Rep","address":"1993 N Churchill Rd, Saratoga Springs, UT 84045","precinct":"25SR03","hd":"51","v_score":"2.876042565","decile":"6","lat":40.398537396648,"lng":-111.934237776291},{"id":"129257","name":"Dedric Abbott-Wolf","party":"Dem","address":"2067 N Elderberry Dr, Saratoga Springs, UT 84045","precinct":"25SR03","hd":"51","v_score":"0","decile":"2","lat":40.398577078335,"lng":-111.936096040792},{"id":"129503","name":"Deetta Howell","party":"Dem","address":"481 W Jack Frost Way, Saratoga Springs, UT 84045","precinct":"25SR03","hd":"51","v_score":"2.876042565","decile":"6","lat":40.404693812913,"lng":-111.932637313579},{"id":"130610","name":"Deana Windler","party":"Rep","address":"2041 N Wild Hyacinth Dr, Saratoga Springs, UT 84045","precinct":"25SR03","hd":"51","v_score":"0","decile":"2","lat":40.397966711308,"lng":-111.936171463993},{"id":"131115","name":"Bell Torp","party":"Dem","address":"572 W Muskmelon Way, Saratoga Springs, UT 84045","precinct":"25SR03","hd":"51","v_score":"0","decile":"2","lat":40.402218257871,"lng":-111.933765456291},{"id":"131566","name":"Attie Parisian","party":"Rep","address":"1993 N Churchill Rd, Saratoga Springs, UT 84045","precinct":"25SR03","hd":"51","v_score":"2.876042565","decile":"6","lat":40.398537396648,"lng":-111.934237776291},{"id":"133067","name":"Camille Mann","party":"Rep","address":"708 W Hydrangea Way, Saratoga Springs, UT 84045","precinct":"25SR03","hd":"51","v_score":"0","decile":"2","lat":40.397172302787,"lng":-111.936071243224},{"id":"133598","name":"Mr. Aedan Russel","party":"Dem","address":"2067 N Elderberry Dr, Saratoga Springs, UT 84045","precinct":"25SR03","hd":"51","v_score":"0","decile":"2","lat":40.398577078335,"lng":-111.936096040792},{"id":"133763","name":"Alyssia Dietrich","party":"Rep","address":"542 W Jack Frost Way, Saratoga Springs, UT 84045","precinct":"25SR03","hd":"51","v_score":"0","decile":"2","lat":40.404697662965,"lng":-111.9338438093},{"id":"134678","name":"Mr. Terrence Wisoky DVM","party":"","address":"584 W Crenshaw Ct, Saratoga Springs, UT 84045","precinct":"25SR03","hd":"51","v_score":"3.781490609","decile":"6","lat":40.403825951346,"lng":-111.934472694872},{"id":"134685","name":"Dr. Nia Cole","party":"","address":"2023 N Churchill Rd, Saratoga Springs, UT 84045","precinct":"25SR03","hd":"51","v_score":"5.40460374","decile":"7","lat":40.398687603615,"lng":-111.934229785438},{"id":"134957","name":"Alma Cummerata","party":"Rep","address":"2263 N Elderberry Dr, Saratoga Springs, UT 84045","precinct":"25SR03","hd":"51","v_score":"5.40460374","decile":"7","lat":40.399366553023,"lng":-111.937026331413},{"id":"135247","name":"Chloie Littel","party":"Dem","address":"596 W Crenshaw Ct, Saratoga Springs, UT 84045","precinct":"25SR03","hd":"51","v_score":"5.40460374","decile":"7","lat":40.403835655987,"lng":-111.934509087263},{"id":"135577","name":"Deasia Auer","party":"","address":"478 W Jack Frost Way, Saratoga Springs, UT 84045","precinct":"25SR03","hd":"51","v_score":"3.93832808","decile":"6","lat":40.404660888679,"lng":-111.932822833892},{"id":"136035","name":"Ronny Moore","party":"","address":"477 W Jack Frost Way, Saratoga Springs, UT 84045","precinct":"25SR03","hd":"51","v_score":"5.40460374","decile":"7","lat":40.404691514325,"lng":-111.932580998277},{"id":"136540","name":"Lydia Langosh","party":"","address":"651 W Saratoga Chase Dr, Saratoga Springs, UT 84045","precinct":"25SR03","hd":"51","v_score":"3.93832808","decile":"6","lat":40.397971925994,"lng":-111.934607795001},{"id":"136658","name":"Hurbert Heller-Johns","party":"Rep","address":"553 W Muskmelon Way, Saratoga Springs, UT 84045","precinct":"25SR03","hd":"51","v_score":"12.07513611","decile":"9","lat":40.401998588533,"lng":-111.933600359491},{"id":"136685","name":"Ashlea Grant-Auer","party":"","address":"683 W Saratoga Chase Dr, Saratoga Springs, UT 84045","precinct":"25SR03","hd":"51","v_score":"5.40460374","decile":"7","lat":40.397966711236,"lng":-111.9352365013},{"id":"136813","name":"Ruth Spencer","party":"Dem","address":"708 W Hydrangea Way, Saratoga Springs, UT 84045","precinct":"25SR03","hd":"51","v_score":"14.09683725","decile":"9","lat":40.397172302787,"lng":-111.936071243224},{"id":"136882","name":"Chiquita Pfeffer","party":"Dem","address":"2001 N Wild Hyacinth Dr, Saratoga Springs, UT 84045","precinct":"25SR03","hd":"51","v_score":"10.87722212","decile":"9","lat":40.397966711303,"lng":-111.936112770909},{"id":"136998","name":"Buddie Runte","party":"Rep","address":"481 W Jack Frost Way, Saratoga Springs, UT 84045","precinct":"25SR03","hd":"51","v_score":"11.37977487","decile":"9","lat":40.404693812913,"lng":-111.932637313579},{"id":"137201","name":"Henrietta Jerde","party":"Rep","address":"2272 N Honeydew Dr, Saratoga Springs, UT 84045","precinct":"25SR03","hd":"51","v_score":"4.210716443","decile":"7","lat":40.402972798206,"lng":-111.932156886778},{"id":"137694","name":"Dr. Lacy Fahey","party":"","address":"519 W Crenshaw Way, Saratoga Springs, UT 84045","precinct":"25SR03","hd":"51","v_score":"3.93832808","decile":"6","lat":40.403240060482,"lng":-111.932832235945},{"id":"137747","name":"Mrs. Deneen Jast","party":"Dem","address":"2021 N Belmont Dr, Saratoga Springs, UT 84045","precinct":"25SR03","hd":"51","v_score":"16.2066738","decile":"9","lat":40.398812793518,"lng":-111.935188655205},{"id":"137927","name":"Coley Lockman II","party":"","address":"508 W Crenshaw Way, Saratoga Springs, UT 84045","precinct":"25SR03","hd":"51","v_score":"0","decile":"2","lat":40.403300920553,"lng":-111.932617298459},{"id":"138049","name":"Olga Kihn","party":"Dem","address":"598 W Cantelope Ct, Saratoga Springs, UT 84045","precinct":"25SR03","hd":"51","v_score":"2.587603312","decile":"5","lat":40.403116225802,"lng":-111.934630444527},{"id":"138130","name":"Dudley Krajcik Sr.","party":"Rep","address":"1982 N Belmont Dr, Saratoga Springs, UT 84045","precinct":"25SR03","hd":"51","v_score":"5.40460374","decile":"7","lat":40.398598564633,"lng":-111.935031585163},{"id":"138264","name":"Aliya Bernhard","party":"","address":"2241 N Honeydew Dr, Saratoga Springs, UT 84045","precinct":"25SR03","hd":"51","v_score":"3.781490609","decile":"6","lat":40.402682763319,"lng":-111.932307432386},{"id":"138278","name":"Joseluis Hansen","party":"","address":"508 W Crenshaw Way, Saratoga Springs, UT 84045","precinct":"25SR03","hd":"51","v_score":"2.315214949","decile":"5","lat":40.403300920553,"lng":-111.932617298459},{"id":"138482","name":"Amberly Schimmel","party":"Rep","address":"1917 N Lemongrass Dr, Saratoga Springs, UT 84045","precinct":"25SR03","hd":"51","v_score":"5.40460374","decile":"7","lat":40.396783781974,"lng":-111.937189811611},{"id":"139005","name":"Mrs. Ronda Hansen","party":"","address":"2017 N Churchill Rd, Saratoga Springs, UT 84045","precinct":"25SR03","hd":"51","v_score":"5.40460374","decile":"7","lat":40.398658366817,"lng":-111.934231505254},{"id":"139264","name":"Kassandra Crooks","party":"Rep","address":"2059 N Elderberry Dr, Saratoga Springs, UT 84045","precinct":"25SR03","hd":"51","v_score":"5.40460374","decile":"7","lat":40.398533585301,"lng":-111.936076710563},{"id":"139527","name":"Ms. Erlene Wehner","party":"Rep","address":"2002 N Belmont Dr, Saratoga Springs, UT 84045","precinct":"25SR03","hd":"51","v_score":"5.40460374","decile":"7","lat":40.398724410812,"lng":-111.93503543758},{"id":"139618","name":"Kingston Block DVM","party":"","address":"598 W Cantelope Ct, Saratoga Springs, UT 84045","precinct":"25SR03","hd":"51","v_score":"3.781490609","decile":"6","lat":40.403116225802,"lng":-111.934630444527},{"id":"139864","name":"Adrain Mueller","party":"","address":"491 W Jack Frost Way, Saratoga Springs, UT 84045","precinct":"25SR03","hd":"51","v_score":"11.23922619","decile":"9","lat":40.404664864759,"lng":-111.932813887711},{"id":"139869","name":"Ms. Irine Leannon","party":"","address":"491 W Jack Frost Way, Saratoga Springs, UT 84045","precinct":"25SR03","hd":"51","v_score":"17.96776993","decile":"10","lat":40.404664864759,"lng":-111.932813887711},{"id":"139871","name":"Mr. Garner Smith MD","party":"","address":"556 W Jack Frost Way, Saratoga Springs, UT 84045","precinct":"25SR03","hd":"51","v_score":"8.280646305","decile":"8","lat":40.404743787259,"lng":-111.933981295125},{"id":"139872","name":"Melville Collier","party":"","address":"556 W Jack Frost Way, Saratoga Springs, UT 84045","precinct":"25SR03","hd":"51","v_score":"11.99259879","decile":"9","lat":40.404743787259,"lng":-111.933981295125},{"id":"139925","name":"Mr. Frances Hagenes Jr.","party":"Rep","address":"544 W Crenshaw Way, Saratoga Springs, UT 84045","precinct":"25SR03","hd":"51","v_score":"16.2066738","decile":"9","lat":40.403467936205,"lng":-111.933200334685},{"id":"139926","name":"Cleon Quigley","party":"Dem","address":"544 W Crenshaw Way, Saratoga Springs, UT 84045","precinct":"25SR03","hd":"51","v_score":"16.2066738","decile":"9","lat":40.403467936205,"lng":-111.933200334685},{"id":"140056","name":"Lannie Stracke","party":"","address":"598 W Cantelope Ct, Saratoga Springs, UT 84045","precinct":"25SR03","hd":"51","v_score":"2.744440783","decile":"5","lat":40.403116225802,"lng":-111.934630444527},{"id":"140154","name":"Ozell Predovic","party":"","address":"2369 N Elderberry Cir, Saratoga Springs, UT 84045","precinct":"25SR03","hd":"51","v_score":"1.46627566","decile":"4","lat":40.399826388981,"lng":-111.937596344646},{"id":"140245","name":"Jalisa Strosin MD","party":"Dem","address":"1998 N Churchill Rd, Saratoga Springs, UT 84045","precinct":"25SR03","hd":"51","v_score":"0","decile":"2","lat":40.398775165022,"lng":-111.934077475763},{"id":"140325","name":"Newt Rolfson","party":"","address":"471 W Autumn Sky Dr, Saratoga Springs, UT 84045","precinct":"25SR03","hd":"51","v_score":"2.315214949","decile":"5","lat":40.405319710221,"lng":-111.932819737131},{"id":"140427","name":"Dr. Leighton Schumm","party":"Dem","address":"2241 N Honeydew Dr, Saratoga Springs, UT 84045","precinct":"25SR03","hd":"51","v_score":"2.315214949","decile":"5","lat":40.402682763319,"lng":-111.932307432386},{"id":"140619","name":"Dr. Charles Yundt","party":"Rep","address":"644 W Pimlico Dr, Saratoga Springs, UT 84045","precinct":"25SR03","hd":"51","v_score":"9.072524954","decile":"8","lat":40.399058157309,"lng":-111.934602376617},{"id":"141070","name":"Dr. Arthor Ondricka DVM","party":"Rep","address":"2263 N Elderberry Dr, Saratoga Springs, UT 84045","precinct":"25SR03","hd":"51","v_score":"8.507303088","decile":"8","lat":40.399366553023,"lng":-111.937026331413},{"id":"141210","name":"Elvera Krajcik-Kris","party":"","address":"2239 N Elderberry Dr, Saratoga Springs, UT 84045","precinct":"25SR03","hd":"51","v_score":"0","decile":"2","lat":40.399298260585,"lng":-111.936879384628},{"id":"142768","name":"Jay Osinski Sr.","party":"","address":"2044 N Belmont Dr, Saratoga Springs, UT 84045","precinct":"25SR03","hd":"51","v_score":"5.40460374","decile":"7","lat":40.399076778076,"lng":-111.935051738346},{"id":"143225","name":"Marlyn Vandervort-Farrell","party":"","address":"511 W Jack Frost Way, Saratoga Springs, UT 84045","precinct":"25SR03","hd":"51","v_score":"2.315214949","decile":"5","lat":40.40451526316,"lng":-111.933037801546},{"id":"143305","name":"Sheilah Swift","party":"","address":"571 W Muskmelon Way, Saratoga Springs, UT 84045","precinct":"25SR03","hd":"51","v_score":"6.724398202","decile":"8","lat":40.402112384062,"lng":-111.933832014604},{"id":"143504","name":"Vallie Kemmer DDS","party":"","address":"2073 N Elderberry Dr, Saratoga Springs, UT 84045","precinct":"25SR03","hd":"51","v_score":"5.40460374","decile":"7","lat":40.398601539517,"lng":-111.936108201574},{"id":"143505","name":"Erwin Blanda","party":"","address":"2073 N Elderberry Dr, Saratoga Springs, UT 84045","precinct":"25SR03","hd":"51","v_score":"5.40460374","decile":"7","lat":40.398601539517,"lng":-111.936108201574},{"id":"144055","name":"Jaye Emard","party":"","address":"2074 N Elderberry Dr, Saratoga Springs, UT 84045","precinct":"25SR03","hd":"51","v_score":"5.273794831","decile":"7","lat":40.399642704623,"lng":-111.937248480286},{"id":"144084","name":"Mr. Keyshawn Kunze","party":"","address":"546 W Autumn Sky Dr, Saratoga Springs, UT 84045","precinct":"25SR03","hd":"51","v_score":"34.62894986","decile":"10","lat":40.405433239735,"lng":-111.933993107828},{"id":"144195","name":"Trinidad Hahn-Lemke","party":"","address":"2073 N Elderberry Dr, Saratoga Springs, UT 84045","precinct":"25SR03","hd":"51","v_score":"1.121327652","decile":"3","lat":40.398601539517,"lng":-111.936108201574},{"id":"145141","name":"Miss Julissa Hickle DVM","party":"Rep","address":"571 W Muskmelon Way, Saratoga Springs, UT 84045","precinct":"25SR03","hd":"51","v_score":"3.781490609","decile":"6","lat":40.402112384062,"lng":-111.933832014604},{"id":"145183","name":"Zeb Casper","party":"Dem","address":"621 W Casaba Ct, Saratoga Springs, UT 84045","precinct":"25SR03","hd":"51","v_score":"28.94490108","decile":"10","lat":40.402255935558,"lng":-111.934473785732},{"id":"145365","name":"Diana Dibbert-Sanford","party":"Dem","address":"2039 N Elderberry Dr, Saratoga Springs, UT 84045","precinct":"25SR03","hd":"51","v_score":"3.93832808","decile":"6","lat":40.398428826825,"lng":-111.93603136469},{"id":"145614","name":"Emery Rolfson-Nolan","party":"Rep","address":"527 W Autumn Sky Dr, Saratoga Springs, UT 84045","precinct":"25SR03","hd":"51","v_score":"8.363183621","decile":"8","lat":40.405319710287,"lng":-111.933675889795},{"id":"146523","name":"Darvin Gottlieb","party":"Dem","address":"522 W Jack Frost Way, Saratoga Springs, UT 84045","precinct":"25SR03","hd":"51","v_score":"2.315214949","decile":"5","lat":40.40458897332,"lng":-111.933502208284},{"id":"146690","name":"Essie Bauch","party":"Rep","address":"2183 N Elderberry Dr, Saratoga Springs, UT 84045","precinct":"25SR03","hd":"51","v_score":"5.40460374","decile":"7","lat":40.399104760618,"lng":-111.936565127644},{"id":"157272","name":"Dr. Kayden Breitenberg","party":"","address":"748 W Blue Violet Dr, Saratoga Springs, UT 84045","precinct":"25SR03","hd":"51","v_score":"11.72035151","decile":"9","lat":40.396474878169,"lng":-111.936440339358},{"id":"158037","name":"Mrs. Ocie Hodkiewicz","party":"Rep","address":"719 W Wild Hyacinth Dr, Saratoga Springs, UT 84045","precinct":"25SR03","hd":"51","v_score":"2.817000428","decile":"6","lat":40.397966711296,"lng":-111.936019400994},{"id":"160858","name":"Dayanara Runolfsson-Smitham","party":"Rep","address":"677 W Saratoga Chase Dr, Saratoga Springs, UT 84045","precinct":"25SR03","hd":"51","v_score":"26.41733837","decile":"10","lat":40.397966711232,"lng":-111.93518303836},{"id":"162422","name":"Alvera Weimann","party":"","address":"2113 N Elderberry Dr, Saratoga Springs, UT 84045","precinct":"25SR03","hd":"51","v_score":"2.315214949","decile":"5","lat":40.398801043738,"lng":-111.936244315774},{"id":"162746","name":"Maricela Stanton","party":"Dem","address":"591 W Cantelope Ct, Saratoga Springs, UT 84045","precinct":"25SR03","hd":"51","v_score":"15.00919004","decile":"9","lat":40.403005865025,"lng":-111.934585917394},{"id":"164042","name":"Una Casper MD","party":"Rep","address":"2186 N Honeydew Dr, Saratoga Springs, UT 84045","precinct":"25SR03","hd":"51","v_score":"5.40460374","decile":"7","lat":40.402130472547,"lng":-111.932339795074},{"id":"164785","name":"Lashawn Larkin","party":"","address":"2254 N Honeydew Dr, Saratoga Springs, UT 84045","precinct":"25SR03","hd":"51","v_score":"3.781490609","decile":"6","lat":40.402801602095,"lng":-111.932143563686},{"id":"164844","name":"Dr. Kane Armstrong Jr.","party":"Rep","address":"592 W Cantelope Ct, Saratoga Springs, UT 84045","precinct":"25SR03","hd":"51","v_score":"19.16525368","decile":"10","lat":40.403118072723,"lng":-111.934616797824},{"id":"165480","name":"Tate Miller","party":"","address":"2018 N Belmont Dr, Saratoga Springs, UT 84045","precinct":"25SR03","hd":"51","v_score":"4.210716443","decile":"7","lat":40.398825087754,"lng":-111.935038519514},{"id":"165791","name":"Kevon McKenzie","party":"","address":"727 W Wild Hyacinth Dr, Saratoga Springs, UT 84045","precinct":"25SR03","hd":"51","v_score":"5.40460374","decile":"7","lat":40.397966711298,"lng":-111.936043117791},{"id":"167198","name":"Monika Mueller-Leannon","party":"","address":"581 W Crenshaw Ct, Saratoga Springs, UT 84045","precinct":"25SR03","hd":"51","v_score":"1.121327652","decile":"3","lat":40.40371456462,"lng":-111.93451029962},{"id":"167532","name":"Karan Erdman","party":"Dem","address":"748 W Wild Hyacinth Dr, Saratoga Springs, UT 84045","precinct":"25SR03","hd":"51","v_score":"8.280646305","decile":"8","lat":40.398081302688,"lng":-111.936114268167},{"id":"171455","name":"Miss Kellie Funk","party":"","address":"536 W Autumn Sky Dr, Saratoga Springs, UT 84045","precinct":"25SR03","hd":"51","v_score":"1.121327652","decile":"3","lat":40.405434301682,"lng":-111.933828774184},{"id":"171847","name":"Ms. Gwyneth Gleason PhD","party":"","address":"1983 Belmont Dr, Saratoga Springs, UT 84045","precinct":"25SR03","hd":"51","v_score":"23.40074712","decile":"10","lat":40.39858071836,"lng":-111.935181550895},{"id":"172557","name":"Tinie Rice-Mills","party":"Dem","address":"2274 N Muskmelon Way, Saratoga Springs, UT 84045","precinct":"25SR03","hd":"51","v_score":"11.9931021","decile":"9","lat":40.403498210294,"lng":-111.93420628906},{"id":"173792","name":"Emmie Rau","party":"","address":"512 W Jack Frost Way, Saratoga Springs, UT 84045","precinct":"25SR03","hd":"51","v_score":"19.73852681","decile":"10","lat":40.404538998654,"lng":-111.933331242391},{"id":"174124","name":"Eveline Tremblay","party":"Rep","address":"553 W Muskmelon Way, Saratoga Springs, UT 84045","precinct":"25SR03","hd":"51","v_score":"12.07513611","decile":"9","lat":40.401998588533,"lng":-111.933600359491},{"id":"174782","name":"Mrs. Marcie Keeling MD","party":"Dem","address":"591 W Cantelope Ct, Saratoga Springs, UT 84045","precinct":"25SR03","hd":"51","v_score":"8.363183621","decile":"8","lat":40.403005865025,"lng":-111.934585917394},{"id":"175064","name":"Brion Cummings MD","party":"Rep","address":"667 W Saratoga Chase Dr, Saratoga Springs, UT 84045","precinct":"25SR03","hd":"51","v_score":"17.42538181","decile":"9","lat":40.397966711213,"lng":-111.934935103477},{"id":"175174","name":"Kian Altenwerth","party":"","address":"2234 N Honeydew Dr, Saratoga Springs, UT 84045","precinct":"25SR03","hd":"51","v_score":"5.40460374","decile":"7","lat":40.402614629657,"lng":-111.932166572018},{"id":"175723","name":"Mr. Dandre Rice","party":"Dem","address":"518 W Crenshaw Way, Saratoga Springs, UT 84045","precinct":"25SR03","hd":"51","v_score":"5.40460374","decile":"7","lat":40.40334731379,"lng":-111.932779252967},{"id":"175729","name":"Jennie Wiegand","party":"","address":"603 W Crenshaw Ct, Saratoga Springs, UT 84045","precinct":"25SR03","hd":"51","v_score":"13.35204966","decile":"9","lat":40.403732356463,"lng":-111.934577019003},{"id":"175927","name":"Mr. Warner Harvey","party":"","address":"724 W Blue Violet Dr, Saratoga Springs, UT 84045","precinct":"25SR03","hd":"51","v_score":"15.45904733","decile":"9","lat":40.396476769975,"lng":-111.936217104204},{"id":"177043","name":"Rolanda Hilll","party":"","address":"507 W Autumn Sky Dr, Saratoga Springs, UT 84045","precinct":"25SR03","hd":"51","v_score":"0","decile":"3","lat":40.405319710263,"lng":-111.933370120986},{"id":"177377","name":"Dr. Hays Crist PhD","party":"Rep","address":"536 W Pumpkin Patch Dr, Saratoga Springs, UT 84045","precinct":"25SR03","hd":"51","v_score":"3.781490609","decile":"6","lat":40.402592903183,"lng":-111.932994463309},{"id":"180322","name":"Dr. Ole Dickinson I","party":"Rep","address":"2234 N Honeydew Dr, Saratoga Springs, UT 84045","precinct":"25SR03","hd":"51","v_score":"5.40460374","decile":"7","lat":40.402614629657,"lng":-111.932166572018},{"id":"180619","name":"Erling Roberts I","party":"Rep","address":"2053 N Belmont Dr, Saratoga Springs, UT 84045","precinct":"25SR03","hd":"51","v_score":"8.347511332","decile":"8","lat":40.399095920454,"lng":-111.935203352162},{"id":"181104","name":"Dr. Manda Luettgen","party":"","address":"748 W Wild Hyacinth Dr, Saratoga Springs, UT 84045","precinct":"25SR03","hd":"51","v_score":"8.280646305","decile":"8","lat":40.398081302688,"lng":-111.936114268167}]