[{"id":"368","name":"Jemima Funk","party":"Rep","address":"328 W Birch Dr, Saratoga Springs, UT 84045","precinct":"25SR30","hd":"51","v_score":"3.93832808","decile":"6","lat":40.311635383435,"lng":-111.901488383388},{"id":"369","name":"Ms. Grecia Mertz","party":"Dem","address":"363 W Fox Hollow Dr, Saratoga Springs, UT 84045","precinct":"25SR30","hd":"51","v_score":"3.93832808","decile":"6","lat":40.310270718496,"lng":-111.900794636137},{"id":"513","name":"Ludwig DuBuque","party":"Dem","address":"532 W Kit Fox Dr, Saratoga Springs, UT 84045","precinct":"25SR30","hd":"51","v_score":"3.93832808","decile":"6","lat":40.310880310108,"lng":-111.904491971434},{"id":"1297","name":"Tianna Ritchie","party":"Dem","address":"226 W Summerhill Dr, Saratoga Springs, UT 84045","precinct":"25SR30","hd":"51","v_score":"18.14065566","decile":"10","lat":40.315157675442,"lng":-111.901477539415},{"id":"1298","name":"Irvine Hilll","party":"Rep","address":"226 W Summerhill Dr, Saratoga Springs, UT 84045","precinct":"25SR30","hd":"51","v_score":"18.14065566","decile":"10","lat":40.315157675442,"lng":-111.901477539415},{"id":"1422","name":"Buelah Hickle DVM","party":"Dem","address":"177 W Stillwater Dr, Saratoga Springs, UT 84045","precinct":"25SR30","hd":"51","v_score":"39.30976877","decile":"10","lat":40.312264835938,"lng":-111.897672496446},{"id":"1612","name":"Amelie Schaden","party":"Dem","address":"288 W Shadow Ridge Dr, Saratoga Springs, UT 84045","precinct":"25SR30","hd":"51","v_score":"20.01823733","decile":"10","lat":40.314395776648,"lng":-111.904239443719},{"id":"1626","name":"Miss Fleda Spencer DDS","party":"Dem","address":"438 W Stillwater Dr, Saratoga Springs, UT 84045","precinct":"25SR30","hd":"51","v_score":"1.193887297","decile":"3","lat":40.312612357763,"lng":-111.905355747228},{"id":"1684","name":"Mr. Shirley Lebsack","party":"Rep","address":"2816 S Silver Fox Cir, Saratoga Springs, UT 84045","precinct":"25SR30","hd":"51","v_score":"2.315214949","decile":"5","lat":40.310732920952,"lng":-111.893433884052},{"id":"2549","name":"Vance Miller-Hammes","party":"Rep","address":"228 W Rosewood Dr, Saratoga Springs, UT 84045","precinct":"25SR30","hd":"51","v_score":"5.40460374","decile":"7","lat":40.314415019471,"lng":-111.898577079223},{"id":"3608","name":"Dr. Amerigo Lebsack","party":"","address":"114 W Silver Fox Ln, Saratoga Springs, UT 84045","precinct":"25SR30","hd":"51","v_score":"2.817000428","decile":"6","lat":40.310102460695,"lng":-111.893808884733},{"id":"3609","name":"Adan Klocko-Fritsch","party":"Rep","address":"114 W Silver Fox Ln, Saratoga Springs, UT 84045","precinct":"25SR30","hd":"51","v_score":"2.817000428","decile":"6","lat":40.310102460695,"lng":-111.893808884733},{"id":"3741","name":"Gale Blanda","party":"","address":"271 W Shadow Ridge Dr, Saratoga Springs, UT 84045","precinct":"25SR30","hd":"51","v_score":"14.6203782","decile":"9","lat":40.314342545794,"lng":-111.901939675957},{"id":"4349","name":"Carly Crist","party":"","address":"358 W Birch Dr, Saratoga Springs, UT 84045","precinct":"25SR30","hd":"51","v_score":"7.24185597","decile":"8","lat":40.311619218764,"lng":-111.902813894581},{"id":"4370","name":"Katy McCullough PhD","party":"Dem","address":"2852 S Day Lilly Dr, Saratoga Springs, UT 84045","precinct":"25SR30","hd":"51","v_score":"5.40460374","decile":"7","lat":40.31016226056,"lng":-111.899594420378},{"id":"4723","name":"Blanchie Block","party":"","address":"236 W Summerhill Dr, Saratoga Springs, UT 84045","precinct":"25SR30","hd":"51","v_score":"2.315214949","decile":"5","lat":40.315143186379,"lng":-111.901752831988},{"id":"5009","name":"Roxane McGlynn-Zieme","party":"Rep","address":"2853 S Village Court Rd, Saratoga Springs, UT 84045","precinct":"25SR30","hd":"51","v_score":"1.193887297","decile":"3","lat":40.310328009698,"lng":-111.894627560147},{"id":"5088","name":"Orra Anderson","party":"Rep","address":"2868 S Cottontail Loop, Saratoga Springs, UT 84045","precinct":"25SR30","hd":"51","v_score":"2.315214949","decile":"5","lat":40.310066059346,"lng":-111.898570077096},{"id":"5170","name":"Othel Murray III","party":"Rep","address":"391 W Birch Dr, Saratoga Springs, UT 84045","precinct":"25SR30","hd":"51","v_score":"3.781490609","decile":"6","lat":40.311503718546,"lng":-111.903259959753},{"id":"5554","name":"Aurthur Aufderhar","party":"Rep","address":"214 W Stillwater Dr, Saratoga Springs, UT 84045","precinct":"25SR30","hd":"51","v_score":"5.40460374","decile":"7","lat":40.312408948682,"lng":-111.89858604629},{"id":"5600","name":"Ms. Georgia Jones DDS","party":"Dem","address":"372 W Stillwater Dr, Saratoga Springs, UT 84045","precinct":"25SR30","hd":"51","v_score":"4.079907534","decile":"7","lat":40.312999105699,"lng":-111.903826797897},{"id":"5621","name":"Lucie Corwin","party":"Rep","address":"212 W Summerhill Dr, Saratoga Springs, UT 84045","precinct":"25SR30","hd":"51","v_score":"1.121327652","decile":"3","lat":40.3151594114,"lng":-111.90110952215},{"id":"5665","name":"Raiden Rodriguez","party":"Dem","address":"25 W Stillwater Dr, Saratoga Springs, UT 84045","precinct":"25SR30","hd":"51","v_score":"5.40460374","decile":"7","lat":40.312511562582,"lng":-111.896294434893},{"id":"5889","name":"Isamar Quitzon","party":"Rep","address":"344 W Stillwater Dr, Saratoga Springs, UT 84045","precinct":"25SR30","hd":"51","v_score":"10.67330764","decile":"9","lat":40.3132720317,"lng":-111.903238815881},{"id":"5972","name":"Emery Leuschke","party":"","address":"2752 S Spring Meadow Dr, Saratoga Springs, UT 84045","precinct":"25SR30","hd":"51","v_score":"5.40460374","decile":"7","lat":40.312178866046,"lng":-111.904130690713},{"id":"7050","name":"Luda Jast DVM","party":"Rep","address":"271 W Shadow Ridge Dr, Saratoga Springs, UT 84045","precinct":"25SR30","hd":"51","v_score":"12.74279652","decile":"9","lat":40.314342545794,"lng":-111.901939675957},{"id":"7622","name":"Anders Block PhD","party":"Dem","address":"2733 S Lavender Ln, Saratoga Springs, UT 84045","precinct":"25SR30","hd":"51","v_score":"0","decile":"1","lat":40.312742493108,"lng":-111.894753894398},{"id":"8058","name":"Mrs. Lesley Dare","party":"","address":"542 W Kit Fox Dr, Saratoga Springs, UT 84045","precinct":"25SR30","hd":"51","v_score":"2.587603312","decile":"5","lat":40.310880310116,"lng":-111.904592810026},{"id":"8309","name":"Miss Karin Kessler PhD","party":"","address":"2836 S Village Court Rd, Saratoga Springs, UT 84045","precinct":"25SR30","hd":"51","v_score":"3.93832808","decile":"6","lat":40.310657646867,"lng":-111.894480824729},{"id":"8489","name":"Ruth Beatty","party":"Dem","address":"399 W Fox Hollow Dr, Saratoga Springs, UT 84045","precinct":"25SR30","hd":"51","v_score":"2.817000428","decile":"6","lat":40.310101871735,"lng":-111.901571420506},{"id":"8501","name":"Miss Azaria Orn","party":"Rep","address":"2726 S Wildflower Dr, Saratoga Springs, UT 84045","precinct":"25SR30","hd":"51","v_score":"5.40460374","decile":"7","lat":40.313032838167,"lng":-111.893596312218},{"id":"8550","name":"Tameka Armstrong MD","party":"","address":"2622 S Shadow Ridge Dr, Saratoga Springs, UT 84045","precinct":"25SR30","hd":"51","v_score":"1.121327652","decile":"3","lat":40.31444291049,"lng":-111.901771568047},{"id":"8633","name":"Ms. Iza Franecki DVM","party":"Rep","address":"25 W Stillwater Dr, Saratoga Springs, UT 84045","precinct":"25SR30","hd":"51","v_score":"5.40460374","decile":"7","lat":40.312511562582,"lng":-111.896294434893},{"id":"8683","name":"Dr. Trinidad Doyle PhD","party":"","address":"24 W Hollyhock Cir, Saratoga Springs, UT 84045","precinct":"25SR30","hd":"51","v_score":"6.724398202","decile":"8","lat":40.313988589045,"lng":-111.894300229987},{"id":"8684","name":"Carina Botsford","party":"","address":"24 W Hollyhock Cir, Saratoga Springs, UT 84045","precinct":"25SR30","hd":"51","v_score":"10.43635069","decile":"9","lat":40.313988589045,"lng":-111.894300229987},{"id":"8719","name":"Mariela Schmitt","party":"Rep","address":"2635 S Lost Creek Cir, Saratoga Springs, UT 84045","precinct":"25SR30","hd":"51","v_score":"2.660162957","decile":"5","lat":40.314052443543,"lng":-111.900472080717},{"id":"8841","name":"Docia Runolfsson","party":"","address":"423 W Fox Hollow Dr, Saratoga Springs, UT 84045","precinct":"25SR30","hd":"51","v_score":"8.347511332","decile":"8","lat":40.309931504021,"lng":-111.902109551187},{"id":"9132","name":"Kaden Sauer","party":"Dem","address":"2661 S Lavender Ln, Saratoga Springs, UT 84045","precinct":"25SR30","hd":"51","v_score":"4.064235245","decile":"6","lat":40.31326047233,"lng":-111.894840789047},{"id":"9244","name":"Cristen Keebler","party":"","address":"2824 S Kit Fox Dr, Saratoga Springs, UT 84045","precinct":"25SR30","hd":"51","v_score":"2.660162957","decile":"5","lat":40.310650414863,"lng":-111.901246097508},{"id":"9279","name":"Mr. Cordaro Windler IV","party":"Dem","address":"2713 S Ivy Ln, Saratoga Springs, UT 84045","precinct":"25SR30","hd":"51","v_score":"10.52632313","decile":"9","lat":40.312191907681,"lng":-111.898023788188},{"id":"9325","name":"Zora Monahan","party":"Dem","address":"52 W Wildflower Dr, Saratoga Springs, UT 84045","precinct":"25SR30","hd":"51","v_score":"1.121327652","decile":"3","lat":40.311519056109,"lng":-111.894548417248},{"id":"9771","name":"Annis Dietrich DDS","party":"Rep","address":"2753 S Ivy Ln, Saratoga Springs, UT 84045","precinct":"25SR30","hd":"51","v_score":"1.193887297","decile":"3","lat":40.311958263315,"lng":-111.898056004241},{"id":"9933","name":"Elna Reilly","party":"","address":"2857 S Fox Pointe Dr, Saratoga Springs, UT 84045","precinct":"25SR30","hd":"51","v_score":"3.93832808","decile":"6","lat":40.310089921808,"lng":-111.903187834557},{"id":"10237","name":"Miss Elisabeth Monahan","party":"","address":"214 W Stillwater Dr, Saratoga Springs, UT 84045","precinct":"25SR30","hd":"51","v_score":"16.34438361","decile":"9","lat":40.312408948682,"lng":-111.89858604629},{"id":"10259","name":"Ms. Merilyn Kohler","party":"Dem","address":"2559 S Colt Dr, Saratoga Springs, UT 84045","precinct":"25SR30","hd":"51","v_score":"0","decile":"1","lat":40.315335206357,"lng":-111.90533187301},{"id":"10433","name":"Edward Stracke III","party":"Rep","address":"2652 S Spring Meadow Dr, Saratoga Springs, UT 84045","precinct":"25SR30","hd":"51","v_score":"3.93832808","decile":"6","lat":40.313368837417,"lng":-111.904765985502},{"id":"10511","name":"Javion Nolan","party":"","address":"222 W Fox Hollow Dr, Saratoga Springs, UT 84045","precinct":"25SR30","hd":"51","v_score":"19.87411787","decile":"10","lat":40.310921628766,"lng":-111.89722453711},{"id":"10512","name":"Glenwood Gislason","party":"","address":"222 W Fox Hollow Dr, Saratoga Springs, UT 84045","precinct":"25SR30","hd":"51","v_score":"12.57725863","decile":"9","lat":40.310921628766,"lng":-111.89722453711},{"id":"14207","name":"Lucero Skiles","party":"","address":"53 W Silver Fox Ln, Saratoga Springs, UT 84045","precinct":"25SR30","hd":"51","v_score":"5.40460374","decile":"7","lat":40.310393349941,"lng":-111.892637940952},{"id":"14711","name":"Hortense Hyatt MD","party":"Rep","address":"234 W Stillwater Dr, Saratoga Springs, UT 84045","precinct":"25SR30","hd":"51","v_score":"24.04214313","decile":"10","lat":40.312796084083,"lng":-111.899412922057},{"id":"15242","name":"Mr. Jereme Prohaska DVM","party":"Rep","address":"153 W Sweetbriar Ln, Saratoga Springs, UT 84045","precinct":"25SR30","hd":"51","v_score":"31.23782764","decile":"10","lat":40.311601136443,"lng":-111.896112777789},{"id":"15708","name":"Sheridan Gutmann","party":"Dem","address":"2611 S Colt Dr, Saratoga Springs, UT 84045","precinct":"25SR30","hd":"51","v_score":"5.258122542","decile":"7","lat":40.314737059578,"lng":-111.905325765787},{"id":"16751","name":"Yaretzi Pouros","party":"Dem","address":"2894 S Fox Pointe Dr, Saratoga Springs, UT 84045","precinct":"25SR30","hd":"51","v_score":"5.40460374","decile":"7","lat":40.309656930801,"lng":-111.902711180977},{"id":"17082","name":"Junius Herman","party":"","address":"137 W Silver Fox Ln, Saratoga Springs, UT 84045","precinct":"25SR30","hd":"51","v_score":"2.315214949","decile":"5","lat":40.309992150957,"lng":-111.893767062721},{"id":"17634","name":"Ozie Harris","party":"Dem","address":"2652 S Spring Meadow Dr, Saratoga Springs, UT 84045","precinct":"25SR30","hd":"51","v_score":"2.315214949","decile":"5","lat":40.313368837417,"lng":-111.904765985502},{"id":"18416","name":"Dr. Pablo Romaguera III","party":"","address":"2678 S Wildflower Dr, Saratoga Springs, UT 84045","precinct":"25SR30","hd":"51","v_score":"1.193887297","decile":"3","lat":40.313582607875,"lng":-111.894186150961},{"id":"19168","name":"Blake Lowe","party":"Rep","address":"2820 S Silver Fox Cir, Saratoga Springs, UT 84045","precinct":"25SR30","hd":"51","v_score":"0","decile":"1","lat":40.310713333845,"lng":-111.893422734472},{"id":"19746","name":"Mimi Bayer-Lind","party":"Dem","address":"2824 S Village Court Rd, Saratoga Springs, UT 84045","precinct":"25SR30","hd":"51","v_score":"13.35204966","decile":"9","lat":40.310766008723,"lng":-111.894481989896},{"id":"20553","name":"Clotilda Beer","party":"","address":"344 W Stillwater Dr, Saratoga Springs, UT 84045","precinct":"25SR30","hd":"51","v_score":"13.61621523","decile":"9","lat":40.3132720317,"lng":-111.903238815881},{"id":"20556","name":"Ashely Cremin","party":"","address":"148 W Sweetbriar Ln, Saratoga Springs, UT 84045","precinct":"25SR30","hd":"51","v_score":"11.46588297","decile":"9","lat":40.311727709541,"lng":-111.896107171385},{"id":"20796","name":"Wiley Graham","party":"","address":"2754 S Ivy Ln, Saratoga Springs, UT 84045","precinct":"25SR30","hd":"51","v_score":"19.30937315","decile":"10","lat":40.311914587759,"lng":-111.897916082113},{"id":"21495","name":"Breonna Kerluke","party":"Rep","address":"2658 S Ivy Cir, Saratoga Springs, UT 84045","precinct":"25SR30","hd":"51","v_score":"3.781490609","decile":"6","lat":40.31352046633,"lng":-111.896981577103},{"id":"22030","name":"Milford Kutch","party":"Dem","address":"2868 S Cottontail Loop, Saratoga Springs, UT 84045","precinct":"25SR30","hd":"51","v_score":"1.193887297","decile":"3","lat":40.310066059346,"lng":-111.898570077096},{"id":"22042","name":"Mrs. Hertha Haley DVM","party":"Dem","address":"512 W Kit Fox Dr, Saratoga Springs, UT 84045","precinct":"25SR30","hd":"51","v_score":"4.15282392","decile":"7","lat":40.310880310092,"lng":-111.90429029425},{"id":"24163","name":"Yadiel Abshire-Harvey","party":"","address":"2868 S Cottontail Loop, Saratoga Springs, UT 84045","precinct":"25SR30","hd":"51","v_score":"0","decile":"1","lat":40.310066059346,"lng":-111.898570077096},{"id":"24688","name":"Captain Hoppe","party":"","address":"473 W Fox Hollow Dr, Saratoga Springs, UT 84045","precinct":"25SR30","hd":"51","v_score":"2.660162957","decile":"5","lat":40.309590711492,"lng":-111.902801635594},{"id":"25795","name":"Mr. Nicholas Barton V","party":"","address":"2711 S Day Lilly Dr, Saratoga Springs, UT 84045","precinct":"25SR30","hd":"51","v_score":"1.623113131","decile":"4","lat":40.312977347166,"lng":-111.900377223344},{"id":"25844","name":"Denine Mayer","party":"","address":"63 W Silver Fox Ln, Saratoga Springs, UT 84045","precinct":"25SR30","hd":"51","v_score":"0","decile":"1","lat":40.310344169739,"lng":-111.892787238022},{"id":"26020","name":"Ella Kiehn","party":"Dem","address":"202 W Cottontail Loop, Saratoga Springs, UT 84045","precinct":"25SR30","hd":"51","v_score":"1.121327652","decile":"3","lat":40.310768198573,"lng":-111.895671807681},{"id":"26105","name":"Artie Satterfield","party":"Dem","address":"2653 S Spring Meadow Dr, Saratoga Springs, UT 84045","precinct":"25SR30","hd":"51","v_score":"2.315214949","decile":"5","lat":40.313314990027,"lng":-111.904903524644},{"id":"27201","name":"Merl Treutel","party":"Dem","address":"294 W Summerhill Dr, Saratoga Springs, UT 84045","precinct":"25SR30","hd":"51","v_score":"5.40460374","decile":"7","lat":40.315115057936,"lng":-111.903718274305},{"id":"27669","name":"Dr. Bryce Schmeler Jr.","party":"Rep","address":"152 W Fox Hollow Dr, Saratoga Springs, UT 84045","precinct":"25SR30","hd":"51","v_score":"3.93832808","decile":"6","lat":40.310942105292,"lng":-111.895458320804},{"id":"28260","name":"Jacquline Nicolas","party":"","address":"294 W Summerhill Dr, Saratoga Springs, UT 84045","precinct":"25SR30","hd":"51","v_score":"5.40460374","decile":"7","lat":40.315115057936,"lng":-111.903718274305},{"id":"28639","name":"Margaretha Stanton","party":"Rep","address":"2757 S Sunrise Peak Cir, Saratoga Springs, UT 84045","precinct":"25SR30","hd":"51","v_score":"3.781490609","decile":"6","lat":40.311997022151,"lng":-111.905231482404},{"id":"29376","name":"Chin Weimann IV","party":"","address":"2829 S Gray Fox Ave, Saratoga Springs, UT 84045","precinct":"25SR30","hd":"51","v_score":"14.429009","decile":"9","lat":40.310593757431,"lng":-111.902179232507},{"id":"29562","name":"Clarance Nolan","party":"","address":"2724 S Village Court Rd, Saratoga Springs, UT 84045","precinct":"25SR30","hd":"51","v_score":"6.724398202","decile":"8","lat":40.312426929788,"lng":-111.895659130911},{"id":"30400","name":"Frank Torphy","party":"Dem","address":"2894 S Fox Pointe Dr, Saratoga Springs, UT 84045","precinct":"25SR30","hd":"51","v_score":"6.032296384","decile":"7","lat":40.309656930801,"lng":-111.902711180977},{"id":"30861","name":"Christion O'Connell","party":"Rep","address":"2832 S Silver Fox Cir, Saratoga Springs, UT 84045","precinct":"25SR30","hd":"51","v_score":"7.947838735","decile":"8","lat":40.310654572524,"lng":-111.893389285733},{"id":"31012","name":"Cohen Von","party":"Rep","address":"228 W Cottontail Loop, Saratoga Springs, UT 84045","precinct":"25SR30","hd":"51","v_score":"0","decile":"1","lat":40.310148187716,"lng":-111.895809226847},{"id":"31145","name":"Fernanda Hintz","party":"Dem","address":"2654 S Stillwater Dr, Saratoga Springs, UT 84045","precinct":"25SR30","hd":"51","v_score":"5.659072284","decile":"7","lat":40.314055814064,"lng":-111.895768879197},{"id":"31422","name":"Mr. Jaydin Botsford","party":"Dem","address":"314 W Stillwater Dr, Saratoga Springs, UT 84045","precinct":"25SR30","hd":"51","v_score":"5.40460374","decile":"7","lat":40.313553409335,"lng":-111.902571032317},{"id":"31637","name":"Patrice Gutmann","party":"Dem","address":"232 W Wildwood Dr, Saratoga Springs, UT 84045","precinct":"25SR30","hd":"51","v_score":"10.89074633","decile":"9","lat":40.313368346963,"lng":-111.898787762661},{"id":"32447","name":"Mrs. Beatriz Steuber MD","party":"Dem","address":"2724 S Day Lilly Dr, Saratoga Springs, UT 84045","precinct":"25SR30","hd":"51","v_score":"2.315214949","decile":"5","lat":40.312716524642,"lng":-111.900295928164},{"id":"32519","name":"Russ Dare DDS","party":"Dem","address":"2638 S Wildflower Dr, Saratoga Springs, UT 84045","precinct":"25SR30","hd":"51","v_score":"3.93832808","decile":"6","lat":40.314073067179,"lng":-111.894562204316},{"id":"32575","name":"Leslie Lakin-Parisian","party":"","address":"2626 S Colt Dr, Saratoga Springs, UT 84045","precinct":"25SR30","hd":"51","v_score":"0","decile":"1","lat":40.314685907561,"lng":-111.905174269645},{"id":"33121","name":"Brennon Wolff","party":"Rep","address":"2618 S Lost Creek Cir, Saratoga Springs, UT 84045","precinct":"25SR30","hd":"51","v_score":"1.121327652","decile":"3","lat":40.314190146266,"lng":-111.900319202356},{"id":"33626","name":"Zeta Kuphal-Bartoletti","party":"Rep","address":"363 W Stillwater Dr, Saratoga Springs, UT 84045","precinct":"25SR30","hd":"51","v_score":"5.40460374","decile":"7","lat":40.313111442095,"lng":-111.903285935444},{"id":"33873","name":"Mr. Marsh Mueller Sr.","party":"","address":"2879 S Village Court Rd, Saratoga Springs, UT 84045","precinct":"25SR30","hd":"51","v_score":"0","decile":"1","lat":40.309788831989,"lng":-111.894681506808},{"id":"34639","name":"Burney Gusikowski-Dooley","party":"Dem","address":"224 W Wildwood Dr, Saratoga Springs, UT 84045","precinct":"25SR30","hd":"51","v_score":"0","decile":"1","lat":40.313282994172,"lng":-111.8986333148},{"id":"35584","name":"Jarad Nikolaus","party":"","address":"2852 S Day Lilly Dr, Saratoga Springs, UT 84045","precinct":"25SR30","hd":"51","v_score":"9.40499548","decile":"8","lat":40.31016226056,"lng":-111.899594420378},{"id":"35623","name":"Mr. Rolland Weber DDS","party":"","address":"363 W Stillwater Dr, Saratoga Springs, UT 84045","precinct":"25SR30","hd":"51","v_score":"0","decile":"1","lat":40.313111442095,"lng":-111.903285935444},{"id":"35811","name":"Iris Gutmann PhD","party":"Dem","address":"2724 S Day Lilly Dr, Saratoga Springs, UT 84045","precinct":"25SR30","hd":"51","v_score":"5.40460374","decile":"7","lat":40.312716524642,"lng":-111.900295928164},{"id":"36567","name":"Cornelious Veum DVM","party":"Rep","address":"316 W Shadow Ridge Dr, Saratoga Springs, UT 84045","precinct":"25SR30","hd":"51","v_score":"3.781490609","decile":"6","lat":40.314451034665,"lng":-111.90372150306},{"id":"36855","name":"Marty Raynor","party":"","address":"216 W Rosewood Dr, Saratoga Springs, UT 84045","precinct":"25SR30","hd":"51","v_score":"0","decile":"1","lat":40.31431917089,"lng":-111.898559324024},{"id":"37409","name":"Jenna Welch","party":"","address":"161 W Sweetbriar Ln, Saratoga Springs, UT 84045","precinct":"25SR30","hd":"51","v_score":"2.587603312","decile":"5","lat":40.311566004878,"lng":-111.896257028509},{"id":"37502","name":"Jeanna Kutch-Armstrong","party":"","address":"192 W Stillwater Dr, Saratoga Springs, UT 84045","precinct":"25SR30","hd":"51","v_score":"0","decile":"1","lat":40.312380687102,"lng":-111.897761830997},{"id":"37751","name":"Amina Friesen","party":"Dem","address":"148 W Sweetbriar Ln, Saratoga Springs, UT 84045","precinct":"25SR30","hd":"51","v_score":"8.507303088","decile":"8","lat":40.311727709541,"lng":-111.896107171385},{"id":"37935","name":"Adell Miller PhD","party":"Rep","address":"232 W Wildwood Dr, Saratoga Springs, UT 84045","precinct":"25SR30","hd":"51","v_score":"7.947838735","decile":"8","lat":40.313368346963,"lng":-111.898787762661},{"id":"38870","name":"Adelbert Rath I","party":"Rep","address":"2713 S Ivy Ln, Saratoga Springs, UT 84045","precinct":"25SR30","hd":"51","v_score":"10.52632313","decile":"9","lat":40.312191907681,"lng":-111.898023788188},{"id":"41647","name":"Gwen Gerhold","party":"Rep","address":"186 W Sweetbriar Ln, Saratoga Springs, UT 84045","precinct":"25SR30","hd":"51","v_score":"3.93832808","decile":"6","lat":40.311641401073,"lng":-111.896714746194},{"id":"41965","name":"Olan Bergstrom","party":"Rep","address":"2879 S Village Court Rd, Saratoga Springs, UT 84045","precinct":"25SR30","hd":"51","v_score":"4.409183253","decile":"7","lat":40.309788831989,"lng":-111.894681506808},{"id":"41967","name":"Garrick Runolfsdottir","party":"Rep","address":"209 W Wildwood Dr, Saratoga Springs, UT 84045","precinct":"25SR30","hd":"51","v_score":"13.84932621","decile":"9","lat":40.313030474676,"lng":-111.898377852476},{"id":"42091","name":"Mr. Carlisle Mante III","party":"Rep","address":"2829 S Silver Fox Cir, Saratoga Springs, UT 84045","precinct":"25SR30","hd":"51","v_score":"14.06712934","decile":"9","lat":40.310628532186,"lng":-111.893538282652},{"id":"42297","name":"Levar Lehner","party":"","address":"236 W Summerhill Dr, Saratoga Springs, UT 84045","precinct":"25SR30","hd":"51","v_score":"1.877581675","decile":"5","lat":40.315143186379,"lng":-111.901752831988},{"id":"42668","name":"Alto Reilly PhD","party":"Rep","address":"189 W Sweetbriar Ln, Saratoga Springs, UT 84045","precinct":"25SR30","hd":"51","v_score":"18.36340365","decile":"10","lat":40.311533438702,"lng":-111.896776288769},{"id":"42676","name":"Yuridia Hilll-Spencer","party":"","address":"364 W Fox Hollow Dr, Saratoga Springs, UT 84045","precinct":"25SR30","hd":"51","v_score":"0","decile":"1","lat":40.310385309867,"lng":-111.900622196236},{"id":"42900","name":"Bette Russel","party":"","address":"532 W Kit Fox Dr, Saratoga Springs, UT 84045","precinct":"25SR30","hd":"51","v_score":"3.93832808","decile":"6","lat":40.310880310108,"lng":-111.904491971434},{"id":"43468","name":"Purl Reichel","party":"Rep","address":"382 W Kit Fox Dr, Saratoga Springs, UT 84045","precinct":"25SR30","hd":"51","v_score":"0","decile":"1","lat":40.310904887788,"lng":-111.901858826704},{"id":"43926","name":"Betsy Koepp-Corwin","party":"Rep","address":"2788 S Sunrise Peak Cir, Saratoga Springs, UT 84045","precinct":"25SR30","hd":"51","v_score":"1.121327652","decile":"3","lat":40.311717303936,"lng":-111.905392084687},{"id":"43927","name":"Jessy Beatty","party":"Dem","address":"392 W Kit Fox Dr, Saratoga Springs, UT 84045","precinct":"25SR30","hd":"51","v_score":"1.121327652","decile":"3","lat":40.310905643272,"lng":-111.901933996759},{"id":"44041","name":"Fredy Windler","party":"Rep","address":"117 W Silver Fox Ln, Saratoga Springs, UT 84045","precinct":"25SR30","hd":"51","v_score":"9.616113056","decile":"8","lat":40.310058798244,"lng":-111.893546635493},{"id":"44704","name":"Mateo Legros","party":"Dem","address":"254 W Ivy Ln, Saratoga Springs, UT 84045","precinct":"25SR30","hd":"51","v_score":"2.315214949","decile":"5","lat":40.311600893778,"lng":-111.899137210518},{"id":"45050","name":"Jack Koepp-Thiel","party":"Dem","address":"2807 S Village Court Rd, Saratoga Springs, UT 84045","precinct":"25SR30","hd":"51","v_score":"2.744440783","decile":"5","lat":40.311227000754,"lng":-111.894631524336},{"id":"45851","name":"Dwan Leuschke DVM","party":"","address":"287 W Shadow Ridge Dr, Saratoga Springs, UT 84045","precinct":"25SR30","hd":"51","v_score":"2.817000428","decile":"6","lat":40.314362746336,"lng":-111.902353391486},{"id":"47462","name":"Dr. Arland Bernier","party":"Rep","address":"2633 S Colt Dr, Saratoga Springs, UT 84045","precinct":"25SR30","hd":"51","v_score":"13.61621523","decile":"9","lat":40.314522046794,"lng":-111.905320283495},{"id":"48020","name":"Ananias Bernhard","party":"Rep","address":"234 W Ivy Ln, Saratoga Springs, UT 84045","precinct":"25SR30","hd":"51","v_score":"3.93832808","decile":"6","lat":40.311622046812,"lng":-111.898840863425},{"id":"48381","name":"Jeanetta Wuckert-Abernathy","party":"","address":"353 W Stillwater Dr, Saratoga Springs, UT 84045","precinct":"25SR30","hd":"51","v_score":"3.93832808","decile":"6","lat":40.313244168361,"lng":-111.90301460631},{"id":"50293","name":"Hubert Towne-Langworth","party":"","address":"49 W Perriwinkle Cir, Saratoga Springs, UT 84045","precinct":"25SR30","hd":"51","v_score":"29.97811154","decile":"10","lat":40.311753332314,"lng":-111.893106702572},{"id":"50309","name":"Maximus Gerhold","party":"","address":"2768 S Village Court Rd, Saratoga Springs, UT 84045","precinct":"25SR30","hd":"51","v_score":"3.781490609","decile":"6","lat":40.311869555297,"lng":-111.894910070394},{"id":"50625","name":"Loran Quigley","party":"","address":"2818 S Silver Fox Ln, Saratoga Springs, UT 84045","precinct":"25SR30","hd":"51","v_score":"6.881235673","decile":"8","lat":40.310631048402,"lng":-111.892453946555},{"id":"50846","name":"Miss Alani Klocko DVM","party":"","address":"2676 S Spring Meadow Dr, Saratoga Springs, UT 84045","precinct":"25SR30","hd":"51","v_score":"18.8869446","decile":"10","lat":40.313109125949,"lng":-111.904629440544},{"id":"52863","name":"Dr. Ottie Braun","party":"Rep","address":"2857 S Marten Ln, Saratoga Springs, UT 84045","precinct":"25SR30","hd":"51","v_score":"17.23075141","decile":"9","lat":40.310322038676,"lng":-111.898883091173},{"id":"55077","name":"Emeline Jacobi PhD","party":"Dem","address":"2836 S Village Court Rd, Saratoga Springs, UT 84045","precinct":"25SR30","hd":"51","v_score":"2.315214949","decile":"5","lat":40.310657646867,"lng":-111.894480824729},{"id":"55331","name":"Mr. Ransom Ledner","party":"Rep","address":"527 W Fox Hollow Dr, Saratoga Springs, UT 84045","precinct":"25SR30","hd":"51","v_score":"2.817000428","decile":"6","lat":40.308953535406,"lng":-111.903973197701},{"id":"55940","name":"Loney Turner","party":"","address":"2829 S Silver Fox Cir, Saratoga Springs, UT 84045","precinct":"25SR30","hd":"51","v_score":"9.498154327","decile":"8","lat":40.310628532186,"lng":-111.893538282652},{"id":"56641","name":"Achsah Jones","party":"","address":"2742 S Sunrise Peak Cir, Saratoga Springs, UT 84045","precinct":"25SR30","hd":"51","v_score":"5.331806201","decile":"7","lat":40.312124006525,"lng":-111.905377159769},{"id":"57318","name":"Dr. Sonia Moore MD","party":"Dem","address":"408 W Stillwater Dr, Saratoga Springs, UT 84045","precinct":"25SR30","hd":"51","v_score":"1.121327652","decile":"3","lat":40.312702015526,"lng":-111.904695885539},{"id":"57979","name":"Miss Virgia Towne MD","party":"Dem","address":"2768 S Village Court Rd, Saratoga Springs, UT 84045","precinct":"25SR30","hd":"51","v_score":"2.315214949","decile":"5","lat":40.311869555297,"lng":-111.894910070394},{"id":"58094","name":"Concetta Pouros DVM","party":"Dem","address":"2724 S Day Lilly Dr, Saratoga Springs, UT 84045","precinct":"25SR30","hd":"51","v_score":"5.258122542","decile":"7","lat":40.312716524642,"lng":-111.900295928164},{"id":"58182","name":"Tanika Crona-Satterfield","party":"","address":"2857 S Marten Ln, Saratoga Springs, UT 84045","precinct":"25SR30","hd":"51","v_score":"5.429380732","decile":"7","lat":40.310322038676,"lng":-111.898883091173},{"id":"59533","name":"Mr. Arjun Cruickshank","party":"","address":"376 W Kit Fox Dr, Saratoga Springs, UT 84045","precinct":"25SR30","hd":"51","v_score":"1.121327652","decile":"3","lat":40.310904434498,"lng":-111.901813724671},{"id":"59944","name":"Orilla Kirlin","party":"Rep","address":"341 W Fox Hollow Dr, Saratoga Springs, UT 84045","precinct":"25SR30","hd":"51","v_score":"21.91879917","decile":"10","lat":40.31027071847,"lng":-111.900451665293},{"id":"59954","name":"Alexandr Kulas","party":"","address":"2628 S Lost Creek Cir, Saratoga Springs, UT 84045","precinct":"25SR30","hd":"51","v_score":"1.121327652","decile":"3","lat":40.314103058206,"lng":-111.900320835269},{"id":"61130","name":"Miss Maribel Rau","party":"","address":"182 W Stillwater Dr, Saratoga Springs, UT 84045","precinct":"25SR30","hd":"51","v_score":"10.60886045","decile":"9","lat":40.312378071425,"lng":-111.897573503314},{"id":"61584","name":"Lew Prohaska","party":"Dem","address":"182 W Stillwater Dr, Saratoga Springs, UT 84045","precinct":"25SR30","hd":"51","v_score":"7.650280567","decile":"8","lat":40.312378071425,"lng":-111.897573503314},{"id":"61735","name":"Alpheus Collins","party":"Dem","address":"2674 S Ivy Cir, Saratoga Springs, UT 84045","precinct":"25SR30","hd":"51","v_score":"18.40784221","decile":"10","lat":40.313471581587,"lng":-111.896973994711},{"id":"61763","name":"Ms. Tatia Kiehn","party":"Dem","address":"2832 S Fox Pointe Dr, Saratoga Springs, UT 84045","precinct":"25SR30","hd":"51","v_score":"5.703020665","decile":"7","lat":40.310378212697,"lng":-111.903063814573},{"id":"61994","name":"Nolie Windler","party":"","address":"2868 S Cottontail Loop, Saratoga Springs, UT 84045","precinct":"25SR30","hd":"51","v_score":"2.315214949","decile":"5","lat":40.310066059346,"lng":-111.898570077096},{"id":"62224","name":"Joey Gerlach MD","party":"Rep","address":"2868 S Cottontail Loop, Saratoga Springs, UT 84045","precinct":"25SR30","hd":"51","v_score":"2.315214949","decile":"5","lat":40.310066059346,"lng":-111.898570077096},{"id":"62411","name":"Mr. Liam Watsica","party":"","address":"246 W Fox Hollow Dr, Saratoga Springs, UT 84045","precinct":"25SR30","hd":"51","v_score":"3.997370217","decile":"6","lat":40.310913877437,"lng":-111.897805890012},{"id":"62645","name":"Drucilla Dare-Dietrich","party":"","address":"2819 S Silver Fox Ln, Saratoga Springs, UT 84045","precinct":"25SR30","hd":"51","v_score":"1.121327652","decile":"3","lat":40.310091579159,"lng":-111.89347014668},{"id":"63358","name":"Ebb Rowe","party":"","address":"2658 S Ivy Cir, Saratoga Springs, UT 84045","precinct":"25SR30","hd":"51","v_score":"1.121327652","decile":"3","lat":40.31352046633,"lng":-111.896981577103},{"id":"63606","name":"Immanuel Greenholt","party":"","address":"242 W Stillwater Dr, Saratoga Springs, UT 84045","precinct":"25SR30","hd":"51","v_score":"0","decile":"1","lat":40.313055501256,"lng":-111.899811231024},{"id":"63970","name":"Theodora Hettinger","party":"Dem","address":"246 W Fox Hollow Dr, Saratoga Springs, UT 84045","precinct":"25SR30","hd":"51","v_score":"6.814370645","decile":"8","lat":40.310913877437,"lng":-111.897805890012},{"id":"63993","name":"Arturo Hettinger","party":"Rep","address":"2832 S Fox Pointe Dr, Saratoga Springs, UT 84045","precinct":"25SR30","hd":"51","v_score":"1.193887297","decile":"3","lat":40.310378212697,"lng":-111.903063814573},{"id":"64669","name":"Wilbur Kshlerin","party":"Dem","address":"302 W Birch Dr, Saratoga Springs, UT 84045","precinct":"25SR30","hd":"51","v_score":"6.881235673","decile":"8","lat":40.311951969325,"lng":-111.900453202146},{"id":"66340","name":"Alonza Reilly","party":"","address":"353 W Stillwater Dr, Saratoga Springs, UT 84045","precinct":"25SR30","hd":"51","v_score":"1.623113131","decile":"5","lat":40.313244168361,"lng":-111.90301460631},{"id":"66472","name":"Myranda Ernser","party":"","address":"182 W Stillwater Dr, Saratoga Springs, UT 84045","precinct":"25SR30","hd":"51","v_score":"29.80442172","decile":"10","lat":40.312378071425,"lng":-111.897573503314},{"id":"67506","name":"Miss Candy Bartell DDS","party":"","address":"2702 S Ivy Cir, Saratoga Springs, UT 84045","precinct":"25SR30","hd":"51","v_score":"1.46627566","decile":"4","lat":40.313397825941,"lng":-111.896971682321},{"id":"67678","name":"Zollie Bashirian","party":"Rep","address":"231 W Ivy Ln, Saratoga Springs, UT 84045","precinct":"25SR30","hd":"51","v_score":"1.193887297","decile":"3","lat":40.3115128989,"lng":-111.898764154502},{"id":"67807","name":"Cecelia Steuber","party":"Rep","address":"344 W Stillwater Dr, Saratoga Springs, UT 84045","precinct":"25SR30","hd":"51","v_score":"2.315214949","decile":"5","lat":40.3132720317,"lng":-111.903238815881},{"id":"68324","name":"Deirdre Reichert","party":"","address":"2863 S Fox Pointe Dr, Saratoga Springs, UT 84045","precinct":"25SR30","hd":"51","v_score":"3.93832808","decile":"6","lat":40.310015868736,"lng":-111.903144225908},{"id":"68349","name":"Dr. Landin Blick","party":"Rep","address":"2788 S Village Court Rd, Saratoga Springs, UT 84045","precinct":"25SR30","hd":"51","v_score":"14.76685823","decile":"9","lat":40.311521110811,"lng":-111.894546839942},{"id":"68404","name":"Mylee Stoltenberg","party":"Dem","address":"2843 S Fox Pointe Dr, Saratoga Springs, UT 84045","precinct":"25SR30","hd":"51","v_score":"2.315214949","decile":"5","lat":40.310331672996,"lng":-111.903214480113},{"id":"68988","name":"Macarthur Flatley","party":"","address":"314 W Birch Dr, Saratoga Springs, UT 84045","precinct":"25SR30","hd":"51","v_score":"1.623113131","decile":"5","lat":40.311793796941,"lng":-111.90094122191},{"id":"69030","name":"Colon Bashirian","party":"","address":"152 W Fox Hollow Dr, Saratoga Springs, UT 84045","precinct":"25SR30","hd":"51","v_score":"2.817000428","decile":"6","lat":40.310942105292,"lng":-111.895458320804},{"id":"69198","name":"Beckett Rau V","party":"Dem","address":"2863 S Fox Pointe Dr, Saratoga Springs, UT 84045","precinct":"25SR30","hd":"51","v_score":"3.93832808","decile":"6","lat":40.310015868736,"lng":-111.903144225908},{"id":"69833","name":"Stanton Schimmel","party":"","address":"2698 S Wildflower Dr, Saratoga Springs, UT 84045","precinct":"25SR30","hd":"51","v_score":"2.315214949","decile":"5","lat":40.31334090822,"lng":-111.893965657999},{"id":"69844","name":"Desmond Conn","party":"Rep","address":"2638 S Wildflower Dr, Saratoga Springs, UT 84045","precinct":"25SR30","hd":"51","v_score":"3.93832808","decile":"6","lat":40.314073067179,"lng":-111.894562204316},{"id":"70009","name":"Devonte Berge","party":"Rep","address":"331 W Stillwater Dr, Saratoga Springs, UT 84045","precinct":"25SR30","hd":"51","v_score":"17.77840782","decile":"10","lat":40.313481468164,"lng":-111.902377742615},{"id":"70648","name":"Alys Mitchell-Carter","party":"","address":"2829 S Gray Fox Ave, Saratoga Springs, UT 84045","precinct":"25SR30","hd":"51","v_score":"1.193887297","decile":"3","lat":40.310593757431,"lng":-111.902179232507},{"id":"71190","name":"Sharyn Pollich","party":"Rep","address":"342 W Fox Hollow Dr, Saratoga Springs, UT 84045","precinct":"25SR30","hd":"51","v_score":"1.193887297","decile":"3","lat":40.310385309846,"lng":-111.900349219441},{"id":"71343","name":"Alvira Champlin DVM","party":"Rep","address":"491 W Fox Hollow Dr, Saratoga Springs, UT 84045","precinct":"25SR30","hd":"51","v_score":"1.121327652","decile":"3","lat":40.309324092367,"lng":-111.903196175224},{"id":"72215","name":"Felicity Hauck","party":"","address":"2653 S Spring Meadow Dr, Saratoga Springs, UT 84045","precinct":"25SR30","hd":"51","v_score":"0","decile":"1","lat":40.313314990027,"lng":-111.904903524644},{"id":"72613","name":"Violeta Lesch DVM","party":"Rep","address":"2711 S Wildflower Dr, Saratoga Springs, UT 84045","precinct":"25SR30","hd":"51","v_score":"2.315214949","decile":"5","lat":40.31320575071,"lng":-111.89401861621},{"id":"73301","name":"Tricia Morar","party":"","address":"2742 S Sunrise Peak Cir, Saratoga Springs, UT 84045","precinct":"25SR30","hd":"51","v_score":"9.567299636","decile":"8","lat":40.312124006525,"lng":-111.905377159769},{"id":"74219","name":"Hansel Hahn","party":"Rep","address":"363 W Stillwater Dr, Saratoga Springs, UT 84045","precinct":"25SR30","hd":"51","v_score":"2.315214949","decile":"5","lat":40.313111442095,"lng":-111.903285935444},{"id":"74571","name":"Kalyn Schroeder","party":"Rep","address":"2773 S Sunrise Peak Cir, Saratoga Springs, UT 84045","precinct":"25SR30","hd":"51","v_score":"20.30022439","decile":"10","lat":40.311855560382,"lng":-111.905236673679},{"id":"74923","name":"Adalynn Johns PhD","party":"Rep","address":"2722 S Lavender Ln, Saratoga Springs, UT 84045","precinct":"25SR30","hd":"51","v_score":"0","decile":"1","lat":40.313362207266,"lng":-111.894683434572},{"id":"75507","name":"Alverda Ritchie","party":"Dem","address":"2836 S Village Court Rd, Saratoga Springs, UT 84045","precinct":"25SR30","hd":"51","v_score":"3.93832808","decile":"6","lat":40.310657646867,"lng":-111.894480824729},{"id":"76424","name":"Dr. Troy Upton DVM","party":"","address":"2863 S Fox Pointe Dr, Saratoga Springs, UT 84045","precinct":"25SR30","hd":"51","v_score":"3.93832808","decile":"6","lat":40.310015868736,"lng":-111.903144225908},{"id":"76849","name":"Haiden Beahan","party":"Dem","address":"202 W Cottontail Loop, Saratoga Springs, UT 84045","precinct":"25SR30","hd":"51","v_score":"1.121327652","decile":"3","lat":40.310768198573,"lng":-111.895671807681},{"id":"77041","name":"Olive Kshlerin","party":"Dem","address":"411 W Fox Hollow Dr, Saratoga Springs, UT 84045","precinct":"25SR30","hd":"51","v_score":"2.315214949","decile":"5","lat":40.310024200456,"lng":-111.9018462574},{"id":"77610","name":"Dr. Eustace Dach","party":"","address":"172 W Summerhill Dr, Saratoga Springs, UT 84045","precinct":"25SR30","hd":"51","v_score":"2.315214949","decile":"5","lat":40.315144590007,"lng":-111.898747851734},{"id":"77915","name":"Jabez Ebert","party":"Dem","address":"2816 S Kit Fox Dr, Saratoga Springs, UT 84045","precinct":"25SR30","hd":"51","v_score":"5.191257514","decile":"7","lat":40.310683737512,"lng":-111.901251268259},{"id":"78162","name":"Kareen Baumbach II","party":"Rep","address":"2816 S Silver Fox Cir, Saratoga Springs, UT 84045","precinct":"25SR30","hd":"51","v_score":"1.121327652","decile":"3","lat":40.310732920952,"lng":-111.893433884052},{"id":"78165","name":"Vickie Lebsack-Stroman","party":"Rep","address":"2628 S Lost Creek Cir, Saratoga Springs, UT 84045","precinct":"25SR30","hd":"51","v_score":"2.315214949","decile":"5","lat":40.314103058206,"lng":-111.900320835269},{"id":"78857","name":"Ms. Carolyn Herzog DVM","party":"Rep","address":"392 W Birch Dr, Saratoga Springs, UT 84045","precinct":"25SR30","hd":"51","v_score":"2.315214949","decile":"5","lat":40.311624536954,"lng":-111.903752400344},{"id":"81443","name":"Mr. Finis Eichmann","party":"Rep","address":"212 W Wildwood Dr, Saratoga Springs, UT 84045","precinct":"25SR30","hd":"51","v_score":"1.623113131","decile":"5","lat":40.313161236553,"lng":-111.898400238124},{"id":"81846","name":"Mckinley Cummings III","party":"","address":"234 W Ivy Ln, Saratoga Springs, UT 84045","precinct":"25SR30","hd":"51","v_score":"0","decile":"1","lat":40.311622046812,"lng":-111.898840863425},{"id":"82495","name":"Salvatore Klein","party":"Dem","address":"358 W Birch Dr, Saratoga Springs, UT 84045","precinct":"25SR30","hd":"51","v_score":"0","decile":"1","lat":40.311619218764,"lng":-111.902813894581},{"id":"82855","name":"Aniya Kilback","party":"","address":"2862 S Day Lilly Dr, Saratoga Springs, UT 84045","precinct":"25SR30","hd":"51","v_score":"1.193887297","decile":"3","lat":40.309929148411,"lng":-111.899538237242},{"id":"83015","name":"Commodore Leffler","party":"","address":"2654 S Lost Creek Cir, Saratoga Springs, UT 84045","precinct":"25SR30","hd":"51","v_score":"8.085704327","decile":"8","lat":40.313876629252,"lng":-111.900325080841},{"id":"83083","name":"Tom Boyle","party":"","address":"527 W Fox Hollow Dr, Saratoga Springs, UT 84045","precinct":"25SR30","hd":"51","v_score":"1.193887297","decile":"3","lat":40.308953535406,"lng":-111.903973197701},{"id":"83430","name":"Aleck Smitham","party":"","address":"2818 S Day Lilly Dr, Saratoga Springs, UT 84045","precinct":"25SR30","hd":"51","v_score":"1.193887297","decile":"3","lat":40.31080888634,"lng":-111.899799722043},{"id":"83483","name":"Lorenzo Greenfelder","party":"","address":"2654 S Lost Creek Cir, Saratoga Springs, UT 84045","precinct":"25SR30","hd":"51","v_score":"8.085704327","decile":"8","lat":40.313876629252,"lng":-111.900325080841},{"id":"83490","name":"Kamden Feest","party":"Dem","address":"2742 S Sunrise Peak Cir, Saratoga Springs, UT 84045","precinct":"25SR30","hd":"51","v_score":"1.193887297","decile":"3","lat":40.312124006525,"lng":-111.905377159769},{"id":"83756","name":"Letty Frami-Hermiston","party":"","address":"63 W Silver Fox Ln, Saratoga Springs, UT 84045","precinct":"25SR30","hd":"51","v_score":"1.193887297","decile":"3","lat":40.310344169739,"lng":-111.892787238022},{"id":"83839","name":"Clive Eichmann","party":"","address":"2818 S Day Lilly Dr, Saratoga Springs, UT 84045","precinct":"25SR30","hd":"51","v_score":"1.193887297","decile":"3","lat":40.31080888634,"lng":-111.899799722043},{"id":"84364","name":"Abbey Satterfield","party":"Rep","address":"513 W Fox Hollow Dr, Saratoga Springs, UT 84045","precinct":"25SR30","hd":"51","v_score":"5.360235423","decile":"7","lat":40.309054215092,"lng":-111.903754219355},{"id":"84374","name":"Bush Yundt DDS","party":"","address":"2820 S Silver Fox Cir, Saratoga Springs, UT 84045","precinct":"25SR30","hd":"51","v_score":"1.193887297","decile":"3","lat":40.310713333845,"lng":-111.893422734472},{"id":"84653","name":"Doretta Gerlach","party":"","address":"2728 S Lavender Ln, Saratoga Springs, UT 84045","precinct":"25SR30","hd":"51","v_score":"0","decile":"1","lat":40.313278305928,"lng":-111.894689103592},{"id":"85242","name":"Mr. Ananias Lowe IV","party":"Rep","address":"2754 S Ivy Ln, Saratoga Springs, UT 84045","precinct":"25SR30","hd":"51","v_score":"3.711952487","decile":"6","lat":40.311914587759,"lng":-111.897916082113},{"id":"85639","name":"Laci Kling MD","party":"Dem","address":"2654 S Lost Creek Cir, Saratoga Springs, UT 84045","precinct":"25SR30","hd":"51","v_score":"1.193887297","decile":"3","lat":40.313876629252,"lng":-111.900325080841},{"id":"85982","name":"Ardella Gusikowski","party":"","address":"2747 S Spring Meadow Dr, Saratoga Springs, UT 84045","precinct":"25SR30","hd":"51","v_score":"0","decile":"1","lat":40.312206849954,"lng":-111.904285736155},{"id":"86228","name":"Antonia Lakin","party":"","address":"2724 S Village Court Rd, Saratoga Springs, UT 84045","precinct":"25SR30","hd":"51","v_score":"0","decile":"1","lat":40.312426929788,"lng":-111.895659130911},{"id":"86279","name":"Sherry Balistreri","party":"Dem","address":"2816 S Kit Fox Dr, Saratoga Springs, UT 84045","precinct":"25SR30","hd":"51","v_score":"1.193887297","decile":"4","lat":40.310683737512,"lng":-111.901251268259},{"id":"86591","name":"Deon Konopelski","party":"Dem","address":"2646 S Shadow Ridge Dr, Saratoga Springs, UT 84045","precinct":"25SR30","hd":"51","v_score":"0","decile":"1","lat":40.314278141543,"lng":-111.901389545961},{"id":"86834","name":"Zaria Pagac","party":"","address":"2724 S Village Court Rd, Saratoga Springs, UT 84045","precinct":"25SR30","hd":"51","v_score":"0","decile":"1","lat":40.312426929788,"lng":-111.895659130911},{"id":"86900","name":"Troy Kuhic","party":"Dem","address":"162 W Stillwater Dr, Saratoga Springs, UT 84045","precinct":"25SR30","hd":"51","v_score":"2.817000428","decile":"6","lat":40.312376620153,"lng":-111.897200432331},{"id":"87061","name":"Bradyn Hettinger II","party":"Rep","address":"2661 S Lavender Ln, Saratoga Springs, UT 84045","precinct":"25SR30","hd":"51","v_score":"1.193887297","decile":"4","lat":40.31326047233,"lng":-111.894840789047},{"id":"87186","name":"Kadence Osinski DVM","party":"Dem","address":"321 W Stillwater Dr, Saratoga Springs, UT 84045","precinct":"25SR30","hd":"51","v_score":"0","decile":"1","lat":40.313560262582,"lng":-111.902065378952},{"id":"87574","name":"Kali Collier","party":"Dem","address":"2818 S Silver Fox Ln, Saratoga Springs, UT 84045","precinct":"25SR30","hd":"51","v_score":"2.817000428","decile":"6","lat":40.310631048402,"lng":-111.892453946555},{"id":"88417","name":"Beryl Kshlerin","party":"Dem","address":"213 W Wildwood Dr, Saratoga Springs, UT 84045","precinct":"25SR30","hd":"51","v_score":"0","decile":"1","lat":40.31306540935,"lng":-111.898482643583},{"id":"89169","name":"Pearley Weimann","party":"","address":"2858 S Village Court Rd, Saratoga Springs, UT 84045","precinct":"25SR30","hd":"51","v_score":"0","decile":"1","lat":40.310458983464,"lng":-111.894478688589},{"id":"89250","name":"Lindsay Russel","party":"","address":"2748 S Village Court Rd, Saratoga Springs, UT 84045","precinct":"25SR30","hd":"51","v_score":"2.817000428","decile":"6","lat":40.312102277989,"lng":-111.895237199366},{"id":"89548","name":"Dr. Lucio Abernathy I","party":"Dem","address":"567 W Fox Hollow Dr, Saratoga Springs, UT 84045","precinct":"25SR30","hd":"51","v_score":"0","decile":"1","lat":40.308775292022,"lng":-111.904809162068},{"id":"89551","name":"Joni Carroll DVM","party":"Dem","address":"43 W Silver Fox Ln, Saratoga Springs, UT 84045","precinct":"25SR30","hd":"51","v_score":"1.193887297","decile":"4","lat":40.310520231315,"lng":-111.892374278988},{"id":"89614","name":"Idabelle Lynch","party":"","address":"2832 S Silver Fox Cir, Saratoga Springs, UT 84045","precinct":"25SR30","hd":"51","v_score":"0","decile":"1","lat":40.310654572524,"lng":-111.893389285733},{"id":"90554","name":"Dr. Arielle Wolff","party":"Dem","address":"152 W Fox Hollow Dr, Saratoga Springs, UT 84045","precinct":"25SR30","hd":"51","v_score":"0","decile":"1","lat":40.310942105292,"lng":-111.895458320804},{"id":"91191","name":"Luciano Koch","party":"Rep","address":"2742 S Sunrise Peak Cir, Saratoga Springs, UT 84045","precinct":"25SR30","hd":"51","v_score":"1.193887297","decile":"4","lat":40.312124006525,"lng":-111.905377159769},{"id":"91213","name":"Etta Kreiger","party":"","address":"2727 S Lavender Ln, Saratoga Springs, UT 84045","precinct":"25SR30","hd":"51","v_score":"4.214075011","decile":"7","lat":40.312778916971,"lng":-111.894780200512},{"id":"91408","name":"Vallie Haley","party":"","address":"202 W Cottontail Loop, Saratoga Springs, UT 84045","precinct":"25SR30","hd":"51","v_score":"0","decile":"1","lat":40.310768198573,"lng":-111.895671807681},{"id":"91520","name":"Jermaine McClure","party":"Rep","address":"414 W Kit Fox Dr, Saratoga Springs, UT 84045","precinct":"25SR30","hd":"51","v_score":"2.817000428","decile":"6","lat":40.310884184417,"lng":-111.902534634838},{"id":"91767","name":"Pennie Hermiston","party":"","address":"2836 S Village Court Rd, Saratoga Springs, UT 84045","precinct":"25SR30","hd":"51","v_score":"1.193887297","decile":"4","lat":40.310657646867,"lng":-111.894480824729},{"id":"92158","name":"Lenord Crona","party":"","address":"378 W Birch Dr, Saratoga Springs, UT 84045","precinct":"25SR30","hd":"51","v_score":"1.193887297","decile":"4","lat":40.311618309919,"lng":-111.903109683407},{"id":"92168","name":"Ms. Maleah Bogisich DDS","party":"Rep","address":"2764 S Spring Meadow Dr, Saratoga Springs, UT 84045","precinct":"25SR30","hd":"51","v_score":"0","decile":"1","lat":40.312046107432,"lng":-111.90412767349},{"id":"93437","name":"Miss Cherry Rau","party":"Dem","address":"2722 S Lavender Ln, Saratoga Springs, UT 84045","precinct":"25SR30","hd":"51","v_score":"1.193887297","decile":"4","lat":40.313362207266,"lng":-111.894683434572},{"id":"93909","name":"Dr. Birt Kuvalis I","party":"","address":"2696 S Ivy Ln, Saratoga Springs, UT 84045","precinct":"25SR30","hd":"51","v_score":"1.193887297","decile":"4","lat":40.313104610532,"lng":-111.89800981208},{"id":"94002","name":"Dr. Rod Bosco","party":"Rep","address":"176 W Fox Hollow Dr, Saratoga Springs, UT 84045","precinct":"25SR30","hd":"51","v_score":"1.193887297","decile":"4","lat":40.310936485478,"lng":-111.896110277381},{"id":"94368","name":"Ofelia Bartoletti","party":"","address":"272 W Cottontail Loop, Saratoga Springs, UT 84045","precinct":"25SR30","hd":"51","v_score":"5.693042993","decile":"7","lat":40.310265990977,"lng":-111.897552356555},{"id":"94371","name":"Tayler Steuber","party":"Dem","address":"272 W Cottontail Loop, Saratoga Springs, UT 84045","precinct":"25SR30","hd":"51","v_score":"6.528952915","decile":"7","lat":40.310265990977,"lng":-111.897552356555},{"id":"94407","name":"Dr. Juluis Ruecker","party":"Dem","address":"196 W Summerhill Dr, Saratoga Springs, UT 84045","precinct":"25SR30","hd":"51","v_score":"1.193887297","decile":"4","lat":40.315170337691,"lng":-111.900162547538},{"id":"95469","name":"Ras Corkery","party":"Rep","address":"2857 S Fox Pointe Dr, Saratoga Springs, UT 84045","precinct":"25SR30","hd":"51","v_score":"1.193887297","decile":"4","lat":40.310089921808,"lng":-111.903187834557},{"id":"95590","name":"Grayling Purdy-Bechtelar","party":"Rep","address":"2638 S Stillwater Dr, Saratoga Springs, UT 84045","precinct":"25SR30","hd":"51","v_score":"0","decile":"1","lat":40.31420355214,"lng":-111.895786969254},{"id":"96047","name":"Dejuan Kemmer","party":"Dem","address":"358 W Birch Dr, Saratoga Springs, UT 84045","precinct":"25SR30","hd":"51","v_score":"2.817000428","decile":"6","lat":40.311619218764,"lng":-111.902813894581},{"id":"96672","name":"Nakia Ryan-Parker","party":"Rep","address":"373 W Fox Hollow Dr, Saratoga Springs, UT 84045","precinct":"25SR30","hd":"51","v_score":"1.193887297","decile":"4","lat":40.310259382543,"lng":-111.900935196664},{"id":"97256","name":"Farrah Carter-Quitzon","party":"Dem","address":"2816 S Kit Fox Dr, Saratoga Springs, UT 84045","precinct":"25SR30","hd":"51","v_score":"5.693042993","decile":"7","lat":40.310683737512,"lng":-111.901251268259},{"id":"98156","name":"Mr. Raymundo Toy II","party":"","address":"2638 S Wildflower Dr, Saratoga Springs, UT 84045","precinct":"25SR30","hd":"51","v_score":"1.623113131","decile":"5","lat":40.314073067179,"lng":-111.894562204316},{"id":"98261","name":"Mrs. Donia Nikolaus DDS","party":"","address":"258 W Cottontail Loop, Saratoga Springs, UT 84045","precinct":"25SR30","hd":"51","v_score":"4.069929862","decile":"6","lat":40.310268309602,"lng":-111.896994176304},{"id":"98586","name":"Uriel Howell","party":"Dem","address":"83 W Wildflower Dr, Saratoga Springs, UT 84045","precinct":"25SR30","hd":"51","v_score":"0","decile":"1","lat":40.311556560365,"lng":-111.894348394481},{"id":"99752","name":"Dr. Jean Gerhold","party":"Dem","address":"2761 S Spring Meadow Dr, Saratoga Springs, UT 84045","precinct":"25SR30","hd":"51","v_score":"1.193887297","decile":"4","lat":40.312071215435,"lng":-111.904278544001},{"id":"99997","name":"Emmet Hodkiewicz","party":"","address":"2674 S Ivy Cir, Saratoga Springs, UT 84045","precinct":"25SR30","hd":"51","v_score":"0","decile":"1","lat":40.313471581587,"lng":-111.896973994711},{"id":"100034","name":"Dr. Will Padberg","party":"Rep","address":"2653 S Spring Meadow Dr, Saratoga Springs, UT 84045","precinct":"25SR30","hd":"51","v_score":"1.193887297","decile":"4","lat":40.313314990027,"lng":-111.904903524644},{"id":"101231","name":"Delia Becker","party":"Rep","address":"2678 S Wildflower Dr, Saratoga Springs, UT 84045","precinct":"25SR30","hd":"51","v_score":"0","decile":"2","lat":40.313582607875,"lng":-111.894186150961},{"id":"103200","name":"Mr. Deon Hayes IV","party":"","address":"2663 S Ivy Cir, Saratoga Springs, UT 84045","precinct":"25SR30","hd":"51","v_score":"0","decile":"2","lat":40.313485140589,"lng":-111.897125141978},{"id":"103602","name":"Maury Wisozk","party":"Dem","address":"294 W Stillwater Dr, Saratoga Springs, UT 84045","precinct":"25SR30","hd":"51","v_score":"0","decile":"2","lat":40.313672207072,"lng":-111.902100084026},{"id":"103926","name":"Dovie Reilly","party":"","address":"156 W Fox Hollow Dr, Saratoga Springs, UT 84045","precinct":"25SR30","hd":"51","v_score":"2.876042565","decile":"6","lat":40.310942655226,"lng":-111.895521837565},{"id":"104750","name":"Miss Oney Hayes","party":"Rep","address":"2853 S Gray Fox Ave, Saratoga Springs, UT 84045","precinct":"25SR30","hd":"51","v_score":"1.193887297","decile":"4","lat":40.310411275485,"lng":-111.902160910515},{"id":"105832","name":"Shane Satterfield","party":"Rep","address":"123 W Silver Fox Ln, Saratoga Springs, UT 84045","precinct":"25SR30","hd":"51","v_score":"4.069929862","decile":"7","lat":40.310032847872,"lng":-111.893618809641},{"id":"106080","name":"Caryl Zemlak","party":"Rep","address":"251 W Ivy Ln, Saratoga Springs, UT 84045","precinct":"25SR30","hd":"51","v_score":"1.193887297","decile":"4","lat":40.311488727927,"lng":-111.899070320437},{"id":"106248","name":"Tayler Bruen-Gusikowski","party":"Dem","address":"228 W Rosewood Dr, Saratoga Springs, UT 84045","precinct":"25SR30","hd":"51","v_score":"0","decile":"2","lat":40.314415019471,"lng":-111.898577079223},{"id":"107214","name":"Mr. Algernon Terry II","party":"Dem","address":"2836 S Village Court Rd, Saratoga Springs, UT 84045","precinct":"25SR30","hd":"51","v_score":"0","decile":"2","lat":40.310657646867,"lng":-111.894480824729},{"id":"107264","name":"Jonnie Beer-Tromp","party":"Dem","address":"364 W Fox Hollow Dr, Saratoga Springs, UT 84045","precinct":"25SR30","hd":"51","v_score":"0","decile":"2","lat":40.310385309867,"lng":-111.900622196236},{"id":"107428","name":"Theadore Okuneva","party":"Dem","address":"411 W Fox Hollow Dr, Saratoga Springs, UT 84045","precinct":"25SR30","hd":"51","v_score":"1.193887297","decile":"4","lat":40.310024200456,"lng":-111.9018462574},{"id":"107441","name":"Danae Kuhlman","party":"","address":"2814 S Silver Fox Ln, Saratoga Springs, UT 84045","precinct":"25SR30","hd":"51","v_score":"0","decile":"2","lat":40.310621507754,"lng":-111.892463146467},{"id":"107448","name":"Brittany Kohler-Bergstrom","party":"","address":"114 W Silver Fox Ln, Saratoga Springs, UT 84045","precinct":"25SR30","hd":"51","v_score":"0","decile":"2","lat":40.310102460695,"lng":-111.893808884733},{"id":"107777","name":"Amado Pouros","party":"Dem","address":"2832 S Day Lilly Dr, Saratoga Springs, UT 84045","precinct":"25SR30","hd":"51","v_score":"1.193887297","decile":"4","lat":40.310606662988,"lng":-111.899754323331},{"id":"107956","name":"Coralie O'Reilly","party":"","address":"188 W Summerhill Dr, Saratoga Springs, UT 84045","precinct":"25SR30","hd":"51","v_score":"0","decile":"2","lat":40.315173111683,"lng":-111.899688188662},{"id":"108606","name":"Mrs. Devon Keeling DVM","party":"Rep","address":"222 W Fox Hollow Dr, Saratoga Springs, UT 84045","precinct":"25SR30","hd":"51","v_score":"7.090117576","decile":"8","lat":40.310921628766,"lng":-111.89722453711},{"id":"109364","name":"Dr. Javon DuBuque","party":"Rep","address":"2728 S Lavender Ln, Saratoga Springs, UT 84045","precinct":"25SR30","hd":"51","v_score":"0","decile":"2","lat":40.313278305928,"lng":-111.894689103592},{"id":"109647","name":"Elsie Schmidt","party":"Dem","address":"2711 S Wildflower Dr, Saratoga Springs, UT 84045","precinct":"25SR30","hd":"51","v_score":"0","decile":"2","lat":40.31320575071,"lng":-111.89401861621},{"id":"110738","name":"Ernest Armstrong I","party":"Rep","address":"227 W Ivy Ln, Saratoga Springs, UT 84045","precinct":"25SR30","hd":"51","v_score":"1.193887297","decile":"4","lat":40.311520764724,"lng":-111.898699102558},{"id":"112230","name":"Candy Durgan","party":"Rep","address":"2771 S Ivy Ln, Saratoga Springs, UT 84045","precinct":"25SR30","hd":"51","v_score":"1.193887297","decile":"4","lat":40.311878405849,"lng":-111.898108323604},{"id":"112267","name":"Mrs. Shay Monahan MD","party":"","address":"2764 S Day Lilly Dr, Saratoga Springs, UT 84045","precinct":"25SR30","hd":"51","v_score":"5.407962308","decile":"7","lat":40.31193765386,"lng":-111.900167932352},{"id":"112337","name":"Joesph O'Reilly","party":"Rep","address":"123 W Silver Fox Ln, Saratoga Springs, UT 84045","precinct":"25SR30","hd":"51","v_score":"0","decile":"2","lat":40.310032847872,"lng":-111.893618809641},{"id":"112580","name":"Adele Ondricka","party":"Rep","address":"152 W Fox Hollow Dr, Saratoga Springs, UT 84045","precinct":"25SR30","hd":"51","v_score":"0","decile":"2","lat":40.310942105292,"lng":-111.895458320804},{"id":"112861","name":"Latoria Jakubowski-Feil","party":"","address":"316 W Shadow Ridge Dr, Saratoga Springs, UT 84045","precinct":"25SR30","hd":"51","v_score":"2.876042565","decile":"6","lat":40.314451034665,"lng":-111.90372150306},{"id":"112875","name":"Nelda Thiel","party":"","address":"251 W Ivy Ln, Saratoga Springs, UT 84045","precinct":"25SR30","hd":"51","v_score":"1.193887297","decile":"4","lat":40.311488727927,"lng":-111.899070320437},{"id":"113156","name":"Delton Hirthe-Bashirian","party":"Rep","address":"28 W Periwinkle Cir, Saratoga Springs, UT 84045","precinct":"25SR30","hd":"51","v_score":"0","decile":"2","lat":40.311792106507,"lng":-111.892909399299},{"id":"113828","name":"Erastus Lindgren","party":"Rep","address":"2838 S Cottontail Loop, Saratoga Springs, UT 84045","precinct":"25SR30","hd":"51","v_score":"0","decile":"2","lat":40.310076638165,"lng":-111.8956603519},{"id":"113861","name":"Wilber Koss","party":"Dem","address":"2688 S Wildflower Dr, Saratoga Springs, UT 84045","precinct":"25SR30","hd":"51","v_score":"0","decile":"2","lat":40.313461735708,"lng":-111.894084068901},{"id":"113992","name":"Mose Will DVM","party":"","address":"2853 S Gray Fox Ave, Saratoga Springs, UT 84045","precinct":"25SR30","hd":"51","v_score":"0","decile":"2","lat":40.310411275485,"lng":-111.902160910515},{"id":"114097","name":"Dr. Anthony Larkin PhD","party":"Rep","address":"79 W Wildflower Dr, Saratoga Springs, UT 84045","precinct":"25SR30","hd":"51","v_score":"1.193887297","decile":"4","lat":40.311557717854,"lng":-111.894315287709},{"id":"114192","name":"Miss Kaylen Rath","party":"","address":"2669 S Wildflower Dr, Saratoga Springs, UT 84045","precinct":"25SR30","hd":"51","v_score":"0","decile":"2","lat":40.313786762274,"lng":-111.894513906014},{"id":"114226","name":"Bascom Hilpert","party":"Dem","address":"232 W Stillwater Dr, Saratoga Springs, UT 84045","precinct":"25SR30","hd":"51","v_score":"0","decile":"2","lat":40.312732281245,"lng":-111.899311588166},{"id":"114441","name":"Myrta Jones","party":"Dem","address":"2757 S Sunrise Peak Cir, Saratoga Springs, UT 84045","precinct":"25SR30","hd":"51","v_score":"3.93832808","decile":"6","lat":40.311997022151,"lng":-111.905231482404},{"id":"114584","name":"Penelope Stark","party":"Rep","address":"2838 S Cottontail Loop, Saratoga Springs, UT 84045","precinct":"25SR30","hd":"51","v_score":"0","decile":"2","lat":40.310076638165,"lng":-111.8956603519},{"id":"114602","name":"Leon Huels","party":"Dem","address":"246 W Fox Hollow Dr, Saratoga Springs, UT 84045","precinct":"25SR30","hd":"51","v_score":"1.193887297","decile":"4","lat":40.310913877437,"lng":-111.897805890012},{"id":"115482","name":"Andria Bode","party":"Dem","address":"2726 S Wildflower Dr, Saratoga Springs, UT 84045","precinct":"25SR30","hd":"51","v_score":"0","decile":"2","lat":40.313032838167,"lng":-111.893596312218},{"id":"115538","name":"Rogers Daniel","party":"Dem","address":"424 W Stillwater Dr, Saratoga Springs, UT 84045","precinct":"25SR30","hd":"51","v_score":"1.193887297","decile":"4","lat":40.312630840249,"lng":-111.904988460952},{"id":"115855","name":"Goldia Sipes-Goyette","party":"","address":"2696 S Ivy Ln, Saratoga Springs, UT 84045","precinct":"25SR30","hd":"51","v_score":"0","decile":"2","lat":40.313104610532,"lng":-111.89800981208},{"id":"116033","name":"Camryn Turner","party":"Dem","address":"392 W Birch Dr, Saratoga Springs, UT 84045","precinct":"25SR30","hd":"51","v_score":"0","decile":"2","lat":40.311624536954,"lng":-111.903752400344},{"id":"116614","name":"Christian Kshlerin-Bartoletti","party":"Dem","address":"2862 S Day Lilly Dr, Saratoga Springs, UT 84045","precinct":"25SR30","hd":"51","v_score":"0","decile":"2","lat":40.309929148411,"lng":-111.899538237242},{"id":"116923","name":"Texanna Kozey","party":"Dem","address":"2663 S Ivy Cir, Saratoga Springs, UT 84045","precinct":"25SR30","hd":"51","v_score":"1.193887297","decile":"4","lat":40.313485140589,"lng":-111.897125141978},{"id":"117074","name":"Rowena Larson-Dare","party":"","address":"229 W Wildwood Dr, Saratoga Springs, UT 84045","precinct":"25SR30","hd":"51","v_score":"1.193887297","decile":"4","lat":40.313232884832,"lng":-111.898798727873},{"id":"117216","name":"Deneen Brown","party":"Rep","address":"466 W Kit Fox Dr, Saratoga Springs, UT 84045","precinct":"25SR30","hd":"51","v_score":"1.193887297","decile":"4","lat":40.310873952867,"lng":-111.903440143471},{"id":"117450","name":"Chelsie Rice","party":"Dem","address":"291 W Birch Dr, Saratoga Springs, UT 84045","precinct":"25SR30","hd":"51","v_score":"0","decile":"2","lat":40.311520932825,"lng":-111.901475639501},{"id":"117518","name":"Dr. Rosita Heidenreich","party":"Rep","address":"2819 S Day Lilly Dr, Saratoga Springs, UT 84045","precinct":"25SR30","hd":"51","v_score":"1.193887297","decile":"4","lat":40.310859292075,"lng":-111.899958086971},{"id":"117561","name":"Miss Carlie Blanda MD","party":"","address":"2638 S Stillwater Dr, Saratoga Springs, UT 84045","precinct":"25SR30","hd":"51","v_score":"0","decile":"2","lat":40.31420355214,"lng":-111.895786969254},{"id":"117730","name":"Maverick Skiles","party":"Rep","address":"513 W Fox Hollow Dr, Saratoga Springs, UT 84045","precinct":"25SR30","hd":"51","v_score":"0","decile":"2","lat":40.309054215092,"lng":-111.903754219355},{"id":"118121","name":"Dr. Fannie Schimmel PhD","party":"Rep","address":"176 W Fox Hollow Dr, Saratoga Springs, UT 84045","precinct":"25SR30","hd":"51","v_score":"0","decile":"2","lat":40.310936485478,"lng":-111.896110277381},{"id":"118659","name":"Deangelo Stiedemann","party":"","address":"294 W Summerhill Dr, Saratoga Springs, UT 84045","precinct":"25SR30","hd":"51","v_score":"0","decile":"2","lat":40.315115057936,"lng":-111.903718274305},{"id":"118932","name":"Payton Mosciski","party":"","address":"2724 S Village Court Rd, Saratoga Springs, UT 84045","precinct":"25SR30","hd":"51","v_score":"3.781490609","decile":"6","lat":40.312426929788,"lng":-111.895659130911},{"id":"120101","name":"Mr. Kurt Willms","party":"","address":"228 W Rosewood Dr, Saratoga Springs, UT 84045","precinct":"25SR30","hd":"51","v_score":"0","decile":"2","lat":40.314415019471,"lng":-111.898577079223},{"id":"120334","name":"Sunny Ferry","party":"","address":"218 W Summerhill Dr, Saratoga Springs, UT 84045","precinct":"25SR30","hd":"51","v_score":"1.193887297","decile":"4","lat":40.315157717979,"lng":-111.901261963745},{"id":"120711","name":"Kirby Olson","party":"","address":"557 W Fox Hollow Dr, Saratoga Springs, UT 84045","precinct":"25SR30","hd":"51","v_score":"1.193887297","decile":"4","lat":40.308825961627,"lng":-111.904518235103},{"id":"120988","name":"Elenor McLaughlin","party":"","address":"63 W Silver Fox Ln, Saratoga Springs, UT 84045","precinct":"25SR30","hd":"51","v_score":"1.193887297","decile":"4","lat":40.310344169739,"lng":-111.892787238022},{"id":"121118","name":"Tod Kihn","party":"Dem","address":"2868 S Cottontail Loop, Saratoga Springs, UT 84045","precinct":"25SR30","hd":"51","v_score":"1.193887297","decile":"4","lat":40.310066059346,"lng":-111.898570077096},{"id":"121664","name":"Prince Leffler","party":"Rep","address":"2843 S Fox Pointe Dr, Saratoga Springs, UT 84045","precinct":"25SR30","hd":"51","v_score":"1.193887297","decile":"4","lat":40.310331672996,"lng":-111.903214480113},{"id":"122500","name":"Sandi Skiles DDS","party":"Rep","address":"2727 S Lavender Ln, Saratoga Springs, UT 84045","precinct":"25SR30","hd":"51","v_score":"5.407962308","decile":"7","lat":40.312778916971,"lng":-111.894780200512},{"id":"122921","name":"Alois Schuppe","party":"","address":"2863 S Fox Pointe Dr, Saratoga Springs, UT 84045","precinct":"25SR30","hd":"51","v_score":"1.193887297","decile":"4","lat":40.310015868736,"lng":-111.903144225908},{"id":"123594","name":"Dr. Lula Dare MD","party":"Dem","address":"364 W Fox Hollow Dr, Saratoga Springs, UT 84045","precinct":"25SR30","hd":"51","v_score":"1.193887297","decile":"4","lat":40.310385309867,"lng":-111.900622196236},{"id":"124072","name":"Kathy Leffler","party":"","address":"156 W Fox Hollow Dr, Saratoga Springs, UT 84045","precinct":"25SR30","hd":"51","v_score":"4.069929862","decile":"7","lat":40.310942655226,"lng":-111.895521837565},{"id":"124446","name":"Jewel Bergnaum","party":"","address":"223 W Wildwood Dr, Saratoga Springs, UT 84045","precinct":"25SR30","hd":"51","v_score":"0","decile":"2","lat":40.313168870239,"lng":-111.898682891977},{"id":"124653","name":"Adele Waelchi","party":"Dem","address":"358 W Birch Dr, Saratoga Springs, UT 84045","precinct":"25SR30","hd":"51","v_score":"0","decile":"2","lat":40.311619218764,"lng":-111.902813894581},{"id":"125090","name":"Farah Bailey","party":"","address":"2843 S Village Court Rd, Saratoga Springs, UT 84045","precinct":"25SR30","hd":"51","v_score":"0","decile":"2","lat":40.310472492173,"lng":-111.894629113703},{"id":"125435","name":"Americo Dibbert","party":"","address":"117 W Silver Fox Ln, Saratoga Springs, UT 84045","precinct":"25SR30","hd":"51","v_score":"2.876042565","decile":"6","lat":40.310058798244,"lng":-111.893546635493},{"id":"126532","name":"Dr. Duane Gusikowski","party":"Rep","address":"338 W Birch Dr, Saratoga Springs, UT 84045","precinct":"25SR30","hd":"51","v_score":"0","decile":"2","lat":40.311629995211,"lng":-111.901930220452},{"id":"127212","name":"Elsa Marks PhD","party":"Rep","address":"302 W Fox Hollow Dr, Saratoga Springs, UT 84045","precinct":"25SR30","hd":"51","v_score":"0","decile":"2","lat":40.310459104475,"lng":-111.899877660831},{"id":"127637","name":"Ed Dooley","party":"","address":"387 W Fox Hollow Dr, Saratoga Springs, UT 84045","precinct":"25SR30","hd":"51","v_score":"0","decile":"2","lat":40.310179543014,"lng":-111.901296583613},{"id":"128017","name":"Enriqueta Eichmann","party":"Rep","address":"246 W Fox Hollow Dr, Saratoga Springs, UT 84045","precinct":"25SR30","hd":"51","v_score":"2.876042565","decile":"6","lat":40.310913877437,"lng":-111.897805890012},{"id":"129228","name":"Billie Breitenberg-Bechtelar","party":"Dem","address":"2724 S Day Lilly Dr, Saratoga Springs, UT 84045","precinct":"25SR30","hd":"51","v_score":"0","decile":"2","lat":40.312716524642,"lng":-111.900295928164},{"id":"131480","name":"Bliss Russel","party":"Rep","address":"2674 S Ivy Cir, Saratoga Springs, UT 84045","precinct":"25SR30","hd":"51","v_score":"0","decile":"2","lat":40.313471581587,"lng":-111.896973994711},{"id":"131568","name":"Rondal Heidenreich","party":"Dem","address":"2736 S Village Court Rd, Saratoga Springs, UT 84045","precinct":"25SR30","hd":"51","v_score":"0","decile":"2","lat":40.312293661258,"lng":-111.895490906749},{"id":"131781","name":"Kori Wyman-Hegmann","party":"Dem","address":"2708 S Day Lilly Dr, Saratoga Springs, UT 84045","precinct":"25SR30","hd":"51","v_score":"0","decile":"2","lat":40.313002174746,"lng":-111.90021161028},{"id":"132612","name":"Reyes Rippin","party":"","address":"2846 S Village Court Rd, Saratoga Springs, UT 84045","precinct":"25SR30","hd":"51","v_score":"0","decile":"2","lat":40.310567345321,"lng":-111.894479853756},{"id":"133231","name":"Leonora Lynch DVM","party":"Rep","address":"2654 S Lost Creek Cir, Saratoga Springs, UT 84045","precinct":"25SR30","hd":"51","v_score":"0","decile":"2","lat":40.313876629252,"lng":-111.900325080841},{"id":"134130","name":"Brendon Casper","party":"Dem","address":"302 W Birch Dr, Saratoga Springs, UT 84045","precinct":"25SR30","hd":"51","v_score":"0","decile":"2","lat":40.311951969325,"lng":-111.900453202146},{"id":"134441","name":"Jesenia Ankunding","party":"","address":"313 W Shadow Ridge Dr, Saratoga Springs, UT 84045","precinct":"25SR30","hd":"51","v_score":"0","decile":"2","lat":40.314352416603,"lng":-111.902907756102},{"id":"134536","name":"Fernando Schamberger","party":"Dem","address":"172 W Summerhill Dr, Saratoga Springs, UT 84045","precinct":"25SR30","hd":"51","v_score":"0","decile":"2","lat":40.315144590007,"lng":-111.898747851734},{"id":"134657","name":"Pearla Simonis","party":"","address":"391 W Birch Dr, Saratoga Springs, UT 84045","precinct":"25SR30","hd":"51","v_score":"3.781490609","decile":"6","lat":40.311503718546,"lng":-111.903259959753},{"id":"134851","name":"Marchello Robel","party":"","address":"228 W Stillwater Dr, Saratoga Springs, UT 84045","precinct":"25SR30","hd":"51","v_score":"9.440142957","decile":"8","lat":40.312604675568,"lng":-111.899108920386},{"id":"134867","name":"Rickey Wyman","party":"","address":"2874 S Fox Pointe Dr, Saratoga Springs, UT 84045","precinct":"25SR30","hd":"51","v_score":"3.93832808","decile":"6","lat":40.309906652856,"lng":-111.902901172164},{"id":"135353","name":"Elby Emmerich","party":"Dem","address":"228 W Rosewood Dr, Saratoga Springs, UT 84045","precinct":"25SR30","hd":"51","v_score":"5.40460374","decile":"7","lat":40.314415019471,"lng":-111.898577079223},{"id":"135377","name":"Mr. Sherrill O'Connell","party":"Dem","address":"193 W Rosewood Dr, Saratoga Springs, UT 84045","precinct":"25SR30","hd":"51","v_score":"7.041027428","decile":"8","lat":40.31436305416,"lng":-111.898689114818},{"id":"135431","name":"Jayce Collins","party":"","address":"186 W Sweetbriar Ln, Saratoga Springs, UT 84045","precinct":"25SR30","hd":"51","v_score":"5.40460374","decile":"7","lat":40.311641401073,"lng":-111.896714746194},{"id":"135622","name":"Viney Durgan PhD","party":"Dem","address":"2696 S Ivy Ln, Saratoga Springs, UT 84045","precinct":"25SR30","hd":"51","v_score":"6.814370645","decile":"8","lat":40.313104610532,"lng":-111.89800981208},{"id":"135947","name":"Dr. Julien Thiel","party":"Dem","address":"228 W Cottontail Loop, Saratoga Springs, UT 84045","precinct":"25SR30","hd":"51","v_score":"0","decile":"2","lat":40.310148187716,"lng":-111.895809226847},{"id":"136399","name":"Zebulon Feest","party":"Dem","address":"232 W Stillwater Dr, Saratoga Springs, UT 84045","precinct":"25SR30","hd":"51","v_score":"1.121327652","decile":"3","lat":40.312732281245,"lng":-111.899311588166},{"id":"136423","name":"Miss Kamora Fadel","party":"Dem","address":"343 W Birch Dr, Saratoga Springs, UT 84045","precinct":"25SR30","hd":"51","v_score":"15.1943348","decile":"9","lat":40.311512288739,"lng":-111.902184458962},{"id":"136457","name":"Woodroe Bartell","party":"Dem","address":"2754 S Ivy Ln, Saratoga Springs, UT 84045","precinct":"25SR30","hd":"51","v_score":"19.30937315","decile":"10","lat":40.311914587759,"lng":-111.897916082113},{"id":"136499","name":"Lular Steuber","party":"Rep","address":"2646 S Lost Creek Cir, Saratoga Springs, UT 84045","precinct":"25SR30","hd":"51","v_score":"3.781490609","decile":"6","lat":40.313946299699,"lng":-111.900323774511},{"id":"136750","name":"Annie Ratke","party":"","address":"522 W Kit Fox Dr, Saratoga Springs, UT 84045","precinct":"25SR30","hd":"51","v_score":"6.814370645","decile":"8","lat":40.3108803101,"lng":-111.904391132842},{"id":"136787","name":"Fern Orn-Botsford","party":"","address":"53 W Silver Fox Ln, Saratoga Springs, UT 84045","precinct":"25SR30","hd":"51","v_score":"3.93832808","decile":"6","lat":40.310393349941,"lng":-111.892637940952},{"id":"136790","name":"Harley Johnston","party":"Rep","address":"249 W Fox Hollow Dr, Saratoga Springs, UT 84045","precinct":"25SR30","hd":"51","v_score":"6.814370645","decile":"8","lat":40.31080076647,"lng":-111.897693546718},{"id":"136873","name":"Miss Alyssa Ritchie","party":"","address":"373 W Fox Hollow Dr, Saratoga Springs, UT 84045","precinct":"25SR30","hd":"51","v_score":"1.193887297","decile":"4","lat":40.310259382543,"lng":-111.900935196664},{"id":"136874","name":"Kelan Bruen","party":"","address":"373 W Fox Hollow Dr, Saratoga Springs, UT 84045","precinct":"25SR30","hd":"51","v_score":"1.193887297","decile":"4","lat":40.310259382543,"lng":-111.900935196664},{"id":"137341","name":"Miss Kyle Lesch PhD","party":"Dem","address":"261 W Fox Hollow Dr, Saratoga Springs, UT 84045","precinct":"25SR30","hd":"51","v_score":"22.20326336","decile":"10","lat":40.310797004796,"lng":-111.897975673861},{"id":"137596","name":"Alexandr Maggio","party":"Rep","address":"2814 S Silver Fox Ln, Saratoga Springs, UT 84045","precinct":"25SR30","hd":"51","v_score":"5.40460374","decile":"7","lat":40.310621507754,"lng":-111.892463146467},{"id":"137659","name":"Ace Balistreri","party":"Dem","address":"2708 S Day Lilly Dr, Saratoga Springs, UT 84045","precinct":"25SR30","hd":"51","v_score":"15.10225564","decile":"9","lat":40.313002174746,"lng":-111.90021161028},{"id":"137668","name":"Jett Cormier-Gottlieb","party":"","address":"438 W Stillwater Dr, Saratoga Springs, UT 84045","precinct":"25SR30","hd":"51","v_score":"1.193887297","decile":"4","lat":40.312612357763,"lng":-111.905355747228},{"id":"137788","name":"Brigid Johnston PhD","party":"","address":"487 W Fox Hollow Dr, Saratoga Springs, UT 84045","precinct":"25SR30","hd":"51","v_score":"23.73859635","decile":"10","lat":40.309373235498,"lng":-111.903103061912},{"id":"137789","name":"Bernard Larkin","party":"Dem","address":"487 W Fox Hollow Dr, Saratoga Springs, UT 84045","precinct":"25SR30","hd":"51","v_score":"14.04503691","decile":"9","lat":40.309373235498,"lng":-111.903103061912},{"id":"138034","name":"Louise Tillman","party":"Dem","address":"239 W Wildwood Dr, Saratoga Springs, UT 84045","precinct":"25SR30","hd":"51","v_score":"5.40460374","decile":"7","lat":40.313346705143,"lng":-111.898996172144},{"id":"138193","name":"Kaye Christiansen","party":"Dem","address":"2822 S Silver Fox Cir, Saratoga Springs, UT 84045","precinct":"25SR30","hd":"51","v_score":"5.40460374","decile":"7","lat":40.310703540291,"lng":-111.893417159682},{"id":"138235","name":"Mrs. Claudie Grady DVM","party":"Rep","address":"2853 S Gray Fox Ave, Saratoga Springs, UT 84045","precinct":"25SR30","hd":"51","v_score":"1.121327652","decile":"3","lat":40.310411275485,"lng":-111.902160910515},{"id":"138438","name":"Annetta O'Conner","party":"","address":"2654 S Stillwater Dr, Saratoga Springs, UT 84045","precinct":"25SR30","hd":"51","v_score":"10.15822798","decile":"9","lat":40.314055814064,"lng":-111.895768879197},{"id":"138543","name":"Dr. Jovanny Kulas Sr.","party":"Dem","address":"213 W Wildwood Dr, Saratoga Springs, UT 84045","precinct":"25SR30","hd":"51","v_score":"15.76947144","decile":"9","lat":40.31306540935,"lng":-111.898482643583},{"id":"138566","name":"Linnea Bergstrom-Lebsack","party":"Dem","address":"2676 S Spring Meadow Dr, Saratoga Springs, UT 84045","precinct":"25SR30","hd":"51","v_score":"25.30596271","decile":"10","lat":40.313109125949,"lng":-111.904629440544},{"id":"138741","name":"Juliana Cummerata","party":"Rep","address":"229 W Wildwood Dr, Saratoga Springs, UT 84045","precinct":"25SR30","hd":"51","v_score":"3.93832808","decile":"6","lat":40.313232884832,"lng":-111.898798727873},{"id":"138863","name":"Dr. Jarred Schuppe Sr.","party":"","address":"378 W Birch Dr, Saratoga Springs, UT 84045","precinct":"25SR30","hd":"51","v_score":"11.46588297","decile":"9","lat":40.311618309919,"lng":-111.903109683407},{"id":"138864","name":"Demarcus Yost","party":"Dem","address":"378 W Birch Dr, Saratoga Springs, UT 84045","precinct":"25SR30","hd":"51","v_score":"11.46588297","decile":"9","lat":40.311618309919,"lng":-111.903109683407},{"id":"139187","name":"Dr. Rayshawn Jacobs","party":"Dem","address":"2628 S Lost Creek Cir, Saratoga Springs, UT 84045","precinct":"25SR30","hd":"51","v_score":"3.781490609","decile":"6","lat":40.314103058206,"lng":-111.900320835269},{"id":"139188","name":"Sherman Herman Sr.","party":"","address":"2628 S Lost Creek Cir, Saratoga Springs, UT 84045","precinct":"25SR30","hd":"51","v_score":"3.781490609","decile":"6","lat":40.314103058206,"lng":-111.900320835269},{"id":"139665","name":"Shaneka Halvorson","party":"","address":"193 W Rosewood Dr, Saratoga Springs, UT 84045","precinct":"25SR30","hd":"51","v_score":"7.041027428","decile":"8","lat":40.31436305416,"lng":-111.898689114818},{"id":"139667","name":"Christopher Rodriguez DDS","party":"","address":"2654 S Stillwater Dr, Saratoga Springs, UT 84045","precinct":"25SR30","hd":"51","v_score":"8.280646305","decile":"8","lat":40.314055814064,"lng":-111.895768879197},{"id":"139922","name":"Shep Leuschke","party":"Dem","address":"227 W Ivy Ln, Saratoga Springs, UT 84045","precinct":"25SR30","hd":"51","v_score":"27.8491977","decile":"10","lat":40.311520764724,"lng":-111.898699102558},{"id":"139986","name":"Jayda Kshlerin","party":"","address":"176 W Fox Hollow Dr, Saratoga Springs, UT 84045","precinct":"25SR30","hd":"51","v_score":"1.121327652","decile":"3","lat":40.310936485478,"lng":-111.896110277381},{"id":"140116","name":"Sybil Romaguera","party":"Dem","address":"301 W Birch Dr, Saratoga Springs, UT 84045","precinct":"25SR30","hd":"51","v_score":"1.193887297","decile":"4","lat":40.3115192705,"lng":-111.901611950935},{"id":"140481","name":"Judie Grimes","party":"","address":"2822 S Silver Fox Cir, Saratoga Springs, UT 84045","precinct":"25SR30","hd":"51","v_score":"3.781490609","decile":"6","lat":40.310703540291,"lng":-111.893417159682},{"id":"140500","name":"Jarod Rogahn DVM","party":"","address":"2736 S Village Court Rd, Saratoga Springs, UT 84045","precinct":"25SR30","hd":"51","v_score":"4.858449944","decile":"7","lat":40.312293661258,"lng":-111.895490906749},{"id":"140766","name":"Kanisha Simonis","party":"","address":"261 W Fox Hollow Dr, Saratoga Springs, UT 84045","precinct":"25SR30","hd":"51","v_score":"17.19872503","decile":"9","lat":40.310797004796,"lng":-111.897975673861},{"id":"140791","name":"Kennith Rodriguez","party":"Dem","address":"183 W Fox Hollow Dr, Saratoga Springs, UT 84045","precinct":"25SR30","hd":"51","v_score":"8.421194992","decile":"8","lat":40.310821455677,"lng":-111.896141847428},{"id":"140795","name":"Wing Wisozk-Hand","party":"Rep","address":"2817 S Silver Fox Cir, Saratoga Springs, UT 84045","precinct":"25SR30","hd":"51","v_score":"19.24468348","decile":"10","lat":40.310687293507,"lng":-111.893571731392},{"id":"140799","name":"Amberly Doyle","party":"Rep","address":"183 W Fox Hollow Dr, Saratoga Springs, UT 84045","precinct":"25SR30","hd":"51","v_score":"8.421194992","decile":"8","lat":40.310821455677,"lng":-111.896141847428},{"id":"140811","name":"Keila Vandervort-Stark","party":"Dem","address":"239 W Wildwood Dr, Saratoga Springs, UT 84045","precinct":"25SR30","hd":"51","v_score":"5.40460374","decile":"7","lat":40.313346705143,"lng":-111.898996172144},{"id":"140851","name":"Clarinda Ondricka","party":"Rep","address":"2661 S Lavender Ln, Saratoga Springs, UT 84045","precinct":"25SR30","hd":"51","v_score":"29.05104912","decile":"10","lat":40.31326047233,"lng":-111.894840789047},{"id":"140853","name":"Olar Cummerata","party":"","address":"2661 S Lavender Ln, Saratoga Springs, UT 84045","precinct":"25SR30","hd":"51","v_score":"8.903210001","decile":"8","lat":40.31326047233,"lng":-111.894840789047},{"id":"141219","name":"Basil Schumm DDS","party":"Dem","address":"302 W Birch Dr, Saratoga Springs, UT 84045","precinct":"25SR30","hd":"51","v_score":"13.61621523","decile":"9","lat":40.311951969325,"lng":-111.900453202146},{"id":"141405","name":"Mace Abernathy PhD","party":"","address":"2783 S Sunrise Peak Cir, Saratoga Springs, UT 84045","precinct":"25SR30","hd":"51","v_score":"8.347511332","decile":"8","lat":40.311767146775,"lng":-111.905239918227},{"id":"141427","name":"Ms. Theodosia Walter","party":"","address":"2814 S Silver Fox Ln, Saratoga Springs, UT 84045","precinct":"25SR30","hd":"51","v_score":"5.40460374","decile":"7","lat":40.310621507754,"lng":-111.892463146467},{"id":"142179","name":"Pricilla Hoeger","party":"Dem","address":"2824 S Village Court Rd, Saratoga Springs, UT 84045","precinct":"25SR30","hd":"51","v_score":"9.116556227","decile":"8","lat":40.310766008723,"lng":-111.894481989896},{"id":"142252","name":"Ardella Schuster","party":"Dem","address":"329 W Summerhill Dr, Saratoga Springs, UT 84045","precinct":"25SR30","hd":"51","v_score":"32.06327271","decile":"10","lat":40.315224442747,"lng":-111.904582056974},{"id":"142334","name":"Yurem Schneider","party":"Rep","address":"262 W Summerhill Dr, Saratoga Springs, UT 84045","precinct":"25SR30","hd":"51","v_score":"3.93832808","decile":"6","lat":40.315119668277,"lng":-111.902641740471},{"id":"142595","name":"Madisyn Barton-Bode","party":"Dem","address":"426 W Kit Fox Dr, Saratoga Springs, UT 84045","precinct":"25SR30","hd":"51","v_score":"10.52632313","decile":"9","lat":40.310877124516,"lng":-111.90279309916},{"id":"142597","name":"Dr. Carroll Considine","party":"Dem","address":"2838 S Cottontail Loop, Saratoga Springs, UT 84045","precinct":"25SR30","hd":"51","v_score":"2.315214949","decile":"5","lat":40.310076638165,"lng":-111.8956603519},{"id":"143285","name":"Jase Crona","party":"","address":"279 W Shadow Ridge Dr, Saratoga Springs, UT 84045","precinct":"25SR30","hd":"51","v_score":"7.947838735","decile":"8","lat":40.314356063879,"lng":-111.902091078365},{"id":"143293","name":"Giovanni Toy","party":"","address":"2853 S Gray Fox Ave, Saratoga Springs, UT 84045","precinct":"25SR30","hd":"51","v_score":"3.781490609","decile":"6","lat":40.310411275485,"lng":-111.902160910515},{"id":"143389","name":"Lincoln Ernser-Hermiston","party":"Dem","address":"192 W Sweetbriar Ln, Saratoga Springs, UT 84045","precinct":"25SR30","hd":"51","v_score":"2.315214949","decile":"5","lat":40.311655798599,"lng":-111.896819128192},{"id":"143448","name":"Ms. Georgene Bartoletti","party":"Rep","address":"219 W Fox Hollow Dr, Saratoga Springs, UT 84045","precinct":"25SR30","hd":"51","v_score":"2.315214949","decile":"5","lat":40.310810170655,"lng":-111.896988228858},{"id":"143538","name":"Miss Cilla Koch","party":"Rep","address":"331 W Stillwater Dr, Saratoga Springs, UT 84045","precinct":"25SR30","hd":"51","v_score":"26.40166608","decile":"10","lat":40.313481468164,"lng":-111.902377742615},{"id":"143972","name":"Lorne Carroll I","party":"Rep","address":"2757 S Day Lilly Dr, Saratoga Springs, UT 84045","precinct":"25SR30","hd":"51","v_score":"8.507303088","decile":"8","lat":40.311991504182,"lng":-111.900362981374},{"id":"144169","name":"Sydell McClure","party":"Dem","address":"2787 S Village Court Rd, Saratoga Springs, UT 84045","precinct":"25SR30","hd":"51","v_score":"0","decile":"3","lat":40.311490491514,"lng":-111.894691652208},{"id":"144406","name":"Eloise Larson","party":"Rep","address":"323 W Shadow Ridge Dr, Saratoga Springs, UT 84045","precinct":"25SR30","hd":"51","v_score":"8.507303088","decile":"8","lat":40.314348443628,"lng":-111.903120973262},{"id":"144460","name":"Delano Ritchie","party":"","address":"217 W Rosewood Dr, Saratoga Springs, UT 84045","precinct":"25SR30","hd":"51","v_score":"1.121327652","decile":"3","lat":40.314383717895,"lng":-111.899027895338},{"id":"144957","name":"Lovisa Pollich","party":"","address":"2761 S Spring Meadow Dr, Saratoga Springs, UT 84045","precinct":"25SR30","hd":"51","v_score":"1.193887297","decile":"4","lat":40.312071215435,"lng":-111.904278544001},{"id":"145206","name":"Zayne McKenzie IV","party":"Dem","address":"252 W Summerhill Dr, Saratoga Springs, UT 84045","precinct":"25SR30","hd":"51","v_score":"5.191257514","decile":"7","lat":40.315121109009,"lng":-111.902305323648},{"id":"145245","name":"Rylee O'Conner","party":"Dem","address":"232 W Stillwater Dr, Saratoga Springs, UT 84045","precinct":"25SR30","hd":"51","v_score":"1.121327652","decile":"3","lat":40.312732281245,"lng":-111.899311588166},{"id":"145405","name":"Miss Hazle Lemke PhD","party":"Dem","address":"363 W Fox Hollow Dr, Saratoga Springs, UT 84045","precinct":"25SR30","hd":"51","v_score":"3.93832808","decile":"6","lat":40.310270718496,"lng":-111.900794636137},{"id":"145912","name":"Elana Schultz-Kunze","party":"Dem","address":"472 W Kit Fox Dr, Saratoga Springs, UT 84045","precinct":"25SR30","hd":"51","v_score":"9.405332525","decile":"8","lat":40.31087480832,"lng":-111.903538947337},{"id":"146536","name":"Gaither Walter","party":"Dem","address":"279 W Shadow Ridge Dr, Saratoga Springs, UT 84045","precinct":"25SR30","hd":"51","v_score":"5.40460374","decile":"7","lat":40.314356063879,"lng":-111.902091078365},{"id":"146655","name":"Elfrieda Boehm-Roob","party":"Rep","address":"2816 S Village Court Rd, Saratoga Springs, UT 84045","precinct":"25SR30","hd":"51","v_score":"21.03454587","decile":"10","lat":40.310931684335,"lng":-111.894479894357},{"id":"148109","name":"Mrs. Belia Kris MD","party":"","address":"2774 S Sunrise Peak Cir, Saratoga Springs, UT 84045","precinct":"25SR30","hd":"51","v_score":"6.814370645","decile":"8","lat":40.311841082985,"lng":-111.90538754232},{"id":"148526","name":"Dr. Doloris Pfannerstill","party":"Rep","address":"2831 S Silver Fox Ln, Saratoga Springs, UT 84045","precinct":"25SR30","hd":"51","v_score":"1.193887297","decile":"4","lat":40.310033797071,"lng":-111.893615351844},{"id":"153393","name":"Miss Deasia Schulist","party":"Dem","address":"2673 S Ivy Cir, Saratoga Springs, UT 84045","precinct":"25SR30","hd":"51","v_score":"21.34892194","decile":"10","lat":40.313469317153,"lng":-111.897124389734},{"id":"153997","name":"Miss Bonita Will","party":"","address":"2693 S Wildflower Dr, Saratoga Springs, UT 84045","precinct":"25SR30","hd":"51","v_score":"9.116556227","decile":"8","lat":40.313443331542,"lng":-111.894253637192},{"id":"154335","name":"Talmage Crona IV","party":"","address":"117 W Silver Fox Ln, Saratoga Springs, UT 84045","precinct":"25SR30","hd":"51","v_score":"10.87160818","decile":"9","lat":40.310058798244,"lng":-111.893546635493},{"id":"154677","name":"Billie Nitzsche","party":"Dem","address":"2638 S Stillwater Dr, Saratoga Springs, UT 84045","precinct":"25SR30","hd":"51","v_score":"28.96057337","decile":"10","lat":40.31420355214,"lng":-111.895786969254},{"id":"154772","name":"Boston Powlowski IV","party":"","address":"117 W Silver Fox Ln, Saratoga Springs, UT 84045","precinct":"25SR30","hd":"51","v_score":"6.657533174","decile":"7","lat":40.310058798244,"lng":-111.893546635493},{"id":"155647","name":"Bryn Turner","party":"Dem","address":"324 W Stillwater Dr, Saratoga Springs, UT 84045","precinct":"25SR30","hd":"51","v_score":"1.121327652","decile":"3","lat":40.313461387248,"lng":-111.902802312985},{"id":"156143","name":"Sharday Thompson","party":"Rep","address":"2693 S Wildflower Dr, Saratoga Springs, UT 84045","precinct":"25SR30","hd":"51","v_score":"12.21925558","decile":"9","lat":40.313443331542,"lng":-111.894253637192},{"id":"156549","name":"Levina Considine PhD","party":"Rep","address":"2757 S Day Lilly Dr, Saratoga Springs, UT 84045","precinct":"25SR30","hd":"51","v_score":"3.781490609","decile":"6","lat":40.311991504182,"lng":-111.900362981374},{"id":"156686","name":"Cecilia Harber-Walsh","party":"Dem","address":"172 W Stillwater Dr, Saratoga Springs, UT 84045","precinct":"25SR30","hd":"51","v_score":"5.40460374","decile":"7","lat":40.312375455748,"lng":-111.897385175631},{"id":"156873","name":"Dr. Lakeshia Wilkinson","party":"","address":"2681 S Wildflower Dr, Saratoga Springs, UT 84045","precinct":"25SR30","hd":"51","v_score":"13.40147601","decile":"9","lat":40.313617875051,"lng":-111.894386258735},{"id":"157189","name":"Beadie Satterfield","party":"Dem","address":"392 W Birch Dr, Saratoga Springs, UT 84045","precinct":"25SR30","hd":"51","v_score":"5.40460374","decile":"7","lat":40.311624536954,"lng":-111.903752400344},{"id":"157706","name":"Harrie Franecki","party":"","address":"2752 S Spring Meadow Dr, Saratoga Springs, UT 84045","precinct":"25SR30","hd":"51","v_score":"5.40460374","decile":"7","lat":40.312178866046,"lng":-111.904130690713},{"id":"158370","name":"Love Dickens","party":"Dem","address":"156 W Fox Hollow Dr, Saratoga Springs, UT 84045","precinct":"25SR30","hd":"51","v_score":"9.757278238","decile":"8","lat":40.310942655226,"lng":-111.895521837565},{"id":"158508","name":"Mr. Taurean Hessel Jr.","party":"","address":"353 W Stillwater Dr, Saratoga Springs, UT 84045","precinct":"25SR30","hd":"51","v_score":"10.60886045","decile":"9","lat":40.313244168361,"lng":-111.90301460631},{"id":"158703","name":"Phillip Hand DVM","party":"","address":"96 W Silver Fox Ln, Saratoga Springs, UT 84045","precinct":"25SR30","hd":"51","v_score":"11.29723756","decile":"9","lat":40.310077575738,"lng":-111.893910681355},{"id":"160167","name":"Mr. Enos Gulgowski","party":"Rep","address":"165 W Stillwater Dr, Saratoga Springs, UT 84045","precinct":"25SR30","hd":"51","v_score":"1.121327652","decile":"3","lat":40.312263282385,"lng":-111.897560641216},{"id":"160168","name":"Kwame Gleichner MD","party":"Dem","address":"165 W Stillwater Dr, Saratoga Springs, UT 84045","precinct":"25SR30","hd":"51","v_score":"3.781490609","decile":"6","lat":40.312263282385,"lng":-111.897560641216},{"id":"161044","name":"Arletta Raynor","party":"Dem","address":"2852 S Day Lilly Dr, Saratoga Springs, UT 84045","precinct":"25SR30","hd":"51","v_score":"11.99259879","decile":"9","lat":40.31016226056,"lng":-111.899594420378},{"id":"161513","name":"Clement Mueller","party":"Rep","address":"2722 S Lavender Ln, Saratoga Springs, UT 84045","precinct":"25SR30","hd":"51","v_score":"0","decile":"3","lat":40.313362207266,"lng":-111.894683434572},{"id":"162920","name":"Mrs. Jaeda Rau","party":"Dem","address":"145 W Sweetbriar Ln, Saratoga Springs, UT 84045","precinct":"25SR30","hd":"51","v_score":"2.587603312","decile":"5","lat":40.311643737443,"lng":-111.895982844717},{"id":"163109","name":"Mr. Marcello Wuckert","party":"Dem","address":"352 W Fox Hollow Dr, Saratoga Springs, UT 84045","precinct":"25SR30","hd":"51","v_score":"22.73906459","decile":"10","lat":40.310385309856,"lng":-111.900473299803},{"id":"163329","name":"Leopoldo Grant","party":"Rep","address":"291 W Birch Dr, Saratoga Springs, UT 84045","precinct":"25SR30","hd":"51","v_score":"17.33088287","decile":"9","lat":40.311520932825,"lng":-111.901475639501},{"id":"164364","name":"Percival Stiedemann DVM","party":"","address":"2824 S Silver Fox Ln, Saratoga Springs, UT 84045","precinct":"25SR30","hd":"51","v_score":"1.121327652","decile":"3","lat":40.310645359376,"lng":-111.892440146686},{"id":"165503","name":"Hardin Trantow","party":"","address":"392 W Birch Dr, Saratoga Springs, UT 84045","precinct":"25SR30","hd":"51","v_score":"5.40460374","decile":"7","lat":40.311624536954,"lng":-111.903752400344},{"id":"165871","name":"Vergie Luettgen MD","party":"Dem","address":"437 W Fox Hollow Dr, Saratoga Springs, UT 84045","precinct":"25SR30","hd":"51","v_score":"5.659072284","decile":"7","lat":40.309858852977,"lng":-111.902295214993},{"id":"166792","name":"Dr. Maleah Shanahan","party":"Dem","address":"2663 S Ivy Cir, Saratoga Springs, UT 84045","precinct":"25SR30","hd":"51","v_score":"6.814370645","decile":"8","lat":40.313485140589,"lng":-111.897125141978},{"id":"167206","name":"Mr. Griffith Connelly","party":"Rep","address":"2816 S Silver Fox Cir, Saratoga Springs, UT 84045","precinct":"25SR30","hd":"51","v_score":"2.315214949","decile":"5","lat":40.310732920952,"lng":-111.893433884052},{"id":"167775","name":"Ms. Ethel Kertzmann MD","party":"Rep","address":"2727 S Lavender Ln, Saratoga Springs, UT 84045","precinct":"25SR30","hd":"51","v_score":"5.407962308","decile":"7","lat":40.312778916971,"lng":-111.894780200512},{"id":"169019","name":"Jerica Koepp","party":"Dem","address":"542 W Kit Fox Dr, Saratoga Springs, UT 84045","precinct":"25SR30","hd":"51","v_score":"2.587603312","decile":"5","lat":40.310880310116,"lng":-111.904592810026},{"id":"170023","name":"Maren Smitham","party":"Dem","address":"2701 S Lavender Ln, Saratoga Springs, UT 84045","precinct":"25SR30","hd":"51","v_score":"18.64308401","decile":"10","lat":40.312975200218,"lng":-111.894842508521},{"id":"170194","name":"Iver Erdman","party":"Rep","address":"353 W Stillwater Dr, Saratoga Springs, UT 84045","precinct":"25SR30","hd":"51","v_score":"12.07513611","decile":"9","lat":40.313244168361,"lng":-111.90301460631},{"id":"170417","name":"Mrs. Susie Trantow","party":"","address":"2726 S Wildflower Dr, Saratoga Springs, UT 84045","precinct":"25SR30","hd":"51","v_score":"3.93832808","decile":"6","lat":40.313032838167,"lng":-111.893596312218},{"id":"170643","name":"Easter Brakus","party":"Dem","address":"209 W Wildwood Dr, Saratoga Springs, UT 84045","precinct":"25SR30","hd":"51","v_score":"13.84932621","decile":"9","lat":40.313030474676,"lng":-111.898377852476},{"id":"170778","name":"Dorris Brekke","party":"Dem","address":"304 W Summerhill Dr, Saratoga Springs, UT 84045","precinct":"25SR30","hd":"51","v_score":"5.191257514","decile":"7","lat":40.315113617204,"lng":-111.904054691128},{"id":"170811","name":"Deion Greenfelder-Walker","party":"Dem","address":"287 W Shadow Ridge Dr, Saratoga Springs, UT 84045","precinct":"25SR30","hd":"51","v_score":"5.191257514","decile":"7","lat":40.314362746336,"lng":-111.902353391486},{"id":"172430","name":"Alexzander Spinka","party":"Dem","address":"2702 S Spring Meadow Dr, Saratoga Springs, UT 84045","precinct":"25SR30","hd":"51","v_score":"1.46627566","decile":"4","lat":40.312809194829,"lng":-111.904421397202},{"id":"172437","name":"Ora O'Connell","party":"","address":"2791 S Sunrise Peak Cir, Saratoga Springs, UT 84045","precinct":"25SR30","hd":"51","v_score":"5.40460374","decile":"7","lat":40.31169641589,"lng":-111.905242513865},{"id":"173076","name":"Loring Jones","party":"Rep","address":"213 W Wildwood Dr, Saratoga Springs, UT 84045","precinct":"25SR30","hd":"51","v_score":"28.27763657","decile":"10","lat":40.31306540935,"lng":-111.898482643583},{"id":"173932","name":"Mr. Gaetano Stokes","party":"","address":"382 W Kit Fox Dr, Saratoga Springs, UT 84045","precinct":"25SR30","hd":"51","v_score":"0","decile":"3","lat":40.310904887788,"lng":-111.901858826704},{"id":"174480","name":"Clyde Crooks","party":"Rep","address":"353 W Birch Dr, Saratoga Springs, UT 84045","precinct":"25SR30","hd":"51","v_score":"11.99259879","decile":"9","lat":40.311510626414,"lng":-111.902320770396},{"id":"174690","name":"Mr. Haywood Collins V","party":"","address":"333 W Birch Dr, Saratoga Springs, UT 84045","precinct":"25SR30","hd":"51","v_score":"0","decile":"3","lat":40.311513951063,"lng":-111.902048147527},{"id":"174849","name":"Dr. Scotty Wilkinson III","party":"Rep","address":"2682 S Stillwater Dr, Saratoga Springs, UT 84045","precinct":"25SR30","hd":"51","v_score":"0","decile":"3","lat":40.313793868498,"lng":-111.895733036733},{"id":"175824","name":"Shayla Buckridge","party":"Dem","address":"2559 S Colt Dr, Saratoga Springs, UT 84045","precinct":"25SR30","hd":"51","v_score":"1.121327652","decile":"3","lat":40.315335206357,"lng":-111.90533187301},{"id":"176406","name":"Dr. Caldonia Price","party":"Rep","address":"501 W Fox Hollow Dr, Saratoga Springs, UT 84045","precinct":"25SR30","hd":"51","v_score":"7.169296324","decile":"8","lat":40.309204970162,"lng":-111.903435601608},{"id":"176822","name":"Brittaney Leannon","party":"","address":"156 W Fox Hollow Dr, Saratoga Springs, UT 84045","precinct":"25SR30","hd":"51","v_score":"9.757278238","decile":"8","lat":40.310942655226,"lng":-111.895521837565},{"id":"177623","name":"Brooklynn Feeney","party":"Dem","address":"527 W Fox Hollow Dr, Saratoga Springs, UT 84045","precinct":"25SR30","hd":"51","v_score":"11.46588297","decile":"9","lat":40.308953535406,"lng":-111.903973197701},{"id":"178203","name":"Iyana Eichmann","party":"Rep","address":"353 W Birch Dr, Saratoga Springs, UT 84045","precinct":"25SR30","hd":"51","v_score":"8.280646305","decile":"8","lat":40.311510626414,"lng":-111.902320770396},{"id":"178470","name":"Mr. Lisle Dooley DDS","party":"Rep","address":"2728 S Lavender Ln, Saratoga Springs, UT 84045","precinct":"25SR30","hd":"51","v_score":"3.93832808","decile":"6","lat":40.313278305928,"lng":-111.894689103592},{"id":"179004","name":"Rosalind Turcotte DVM","party":"","address":"527 W Fox Hollow Dr, Saratoga Springs, UT 84045","precinct":"25SR30","hd":"51","v_score":"6.896907962","decile":"8","lat":40.308953535406,"lng":-111.903973197701},{"id":"180252","name":"Vinson Nolan","party":"","address":"378 W Birch Dr, Saratoga Springs, UT 84045","precinct":"25SR30","hd":"51","v_score":"2.315214949","decile":"5","lat":40.311618309919,"lng":-111.903109683407},{"id":"180767","name":"Miss Anneliese Wilderman PhD","party":"Rep","address":"2753 S Ivy Ln, Saratoga Springs, UT 84045","precinct":"25SR30","hd":"51","v_score":"9.207031979","decile":"8","lat":40.311958263315,"lng":-111.898056004241},{"id":"181061","name":"Mattye Boyle-Kuvalis","party":"Rep","address":"2828 S Cottontail Loop, Saratoga Springs, UT 84045","precinct":"25SR30","hd":"51","v_score":"1.193887297","decile":"4","lat":40.310829147957,"lng":-111.895522126187},{"id":"181461","name":"Lamarcus Roob","party":"","address":"2736 S Village Court Rd, Saratoga Springs, UT 84045","precinct":"25SR30","hd":"51","v_score":"7.875041196","decile":"8","lat":40.312293661258,"lng":-111.895490906749}]