[{"vid":"802015","name":"Hugh McClure","party":"","address":"2246 N Elderberry Dr, Saratoga Springs, UT 84045","precinct":"25SR03","hd":"51","v_score":"1.193887297","decile":"3","lat":40.402883318745296,"lng":-111.93634730467066,"phone":"(450) 484-5853","sd":"18","ssbd":"10","lsbd":"School Board Lake Mountain 2"},{"vid":"814229","name":"Lyn Kertzmann II","party":"Dem","address":"302 W Snowberry Dr, Saratoga Springs, UT 84045","precinct":"25SR03","hd":"51","v_score":"8.347511332","decile":"8","lat":40.411966478601286,"lng":-111.9299305922884,"phone":"(935) 744-3062","sd":"18","ssbd":"10","lsbd":"School Board Lake Mountain 2"},{"vid":"1221766","name":"Kristopher Schulist","party":"","address":"2104 N Wild Hyacinth Dr, Saratoga Springs, UT 84045","precinct":"25SR03","hd":"51","v_score":"6.884189957","decile":"8","lat":40.40027700807032,"lng":-111.93600541891443,"phone":"(172) 395-4214","sd":"18","ssbd":"10","lsbd":"School Board Lake Mountain 2"},{"vid":"3e2eb1b6c01b7519259d0e466c1c2660f560c807c07371a80a73513a176e5926","name":"Corrie DuBuque","party":"Dem","address":"2012 N Churchill Rd, Saratoga Springs, UT 84045","precinct":"25SR03","hd":"51","v_score":"25.51666305","decile":"10","lat":40.39863565583636,"lng":-111.9339940860825,"phone":"(618) 194-4926","sd":"18","ssbd":"10","lsbd":"School Board Lake Mountain 2"},{"vid":"1255234","name":"Lorinda Toy","party":"Dem","address":"272 W Snowberry Dr, Saratoga Springs, UT 84045","precinct":"25SR03","hd":"51","v_score":"4.210716443","decile":"7","lat":40.41187427802415,"lng":-111.92923113604532,"phone":"(810) 829-4724","sd":"18","ssbd":"10","lsbd":"School Board Lake Mountain 2"},{"vid":"1267893","name":"Torie Quigley","party":"Rep","address":"531 W Jack Frost Way, Saratoga Springs, UT 84045","precinct":"25SR03","hd":"51","v_score":"3.93832808","decile":"6","lat":40.40435001453079,"lng":-111.93366770237671,"phone":"(585) 755-2279","sd":"18","ssbd":"10","lsbd":"School Board Lake Mountain 2"},{"vid":"1275035","name":"Dr. Baxter Pagac","party":"Rep","address":"2136 N Wallflower Dr, Saratoga Springs, UT 84045","precinct":"25SR03","hd":"51","v_score":"2.587603312","decile":"5","lat":40.401033430649235,"lng":-111.93654970574956,"phone":"(147) 650-9330","sd":"18","ssbd":"10","lsbd":"School Board Lake Mountain 2"},{"vid":"1287085","name":"Blain Swift","party":"Dem","address":"552 W Muskmelon Way, Saratoga Springs, UT 84045","precinct":"25SR03","hd":"51","v_score":"6.881235673","decile":"8","lat":40.40212255272142,"lng":-111.93323651560317,"phone":"(933) 603-3704","sd":"18","ssbd":"10","lsbd":"School Board Lake Mountain 2"},{"vid":"1290671","name":"Rylan Weimann","party":"Dem","address":"2053 N Belmont Dr, Saratoga Springs, UT 84045","precinct":"25SR03","hd":"51","v_score":"1.193887297","decile":"3","lat":40.399390421310684,"lng":-111.9353500992921,"phone":"(954) 125-3736","sd":"18","ssbd":"10","lsbd":"School Board Lake Mountain 2"},{"vid":"1292564","name":"Gerard O'Connell","party":"Rep","address":"654 W Pimlico Dr, Saratoga Springs, UT 84045","precinct":"25SR03","hd":"51","v_score":"1.121327652","decile":"3","lat":40.399205573926274,"lng":-111.9346161331248,"phone":"(355) 885-4485","sd":"18","ssbd":"10","lsbd":"School Board Lake Mountain 2"},{"vid":"1293100","name":"Flonnie Adams-Zulauf","party":"","address":"1996 N Belmont Dr, Saratoga Springs, UT 84045","precinct":"25SR03","hd":"51","v_score":"1.193887297","decile":"3","lat":40.39836766679114,"lng":-111.9349137146154,"phone":"(302) 477-2587","sd":"18","ssbd":"10","lsbd":"School Board Lake Mountain 2"},{"vid":"1312478","name":"Gino Schamberger","party":"Dem","address":"2273 N Wild Hyacinth Dr, Saratoga Springs, UT 84045","precinct":"25SR03","hd":"51","v_score":"2.315214949","decile":"5","lat":40.40375847057004,"lng":-111.93726346595656,"phone":"(566) 116-3536","sd":"18","ssbd":"10","lsbd":"School Board Lake Mountain 2"},{"vid":"af62da39b98ddf877c20a7a5e869c31c004378c0b63501eb4f0f43dff5225d2b","name":"Lilyanna Hayes","party":"Dem","address":"2132 N Elderberry Dr, Saratoga Springs, UT 84045","precinct":"25SR03","hd":"51","v_score":"12.49472132","decile":"9","lat":40.400914435787826,"lng":-111.93745805126282,"phone":"(774) 480-1394","sd":"18","ssbd":"10","lsbd":"School Board Lake Mountain 2"},{"vid":"1313544","name":"Mr. Keion Ziemann","party":"","address":"2556 N Velvet Moon Dr, Saratoga Springs, UT 84045","precinct":"25SR03","hd":"51","v_score":"5.40460374","decile":"7","lat":40.40877997900355,"lng":-111.9337787088247,"phone":"(453) 343-0117","sd":"18","ssbd":"10","lsbd":"School Board Lake Mountain 2"},{"vid":"1314395","name":"Mandie Gulgowski","party":"","address":"2598 N Velvet Moon Dr, Saratoga Springs, UT 84045","precinct":"25SR03","hd":"51","v_score":"8.347511332","decile":"8","lat":40.40958915960564,"lng":-111.93338689952758,"phone":"(712) 745-1865","sd":"18","ssbd":"10","lsbd":"School Board Lake Mountain 2"},{"vid":"1316564","name":"Roby Williamson","party":"Rep","address":"344 W Snowberry Dr, Saratoga Springs, UT 84045","precinct":"25SR03","hd":"51","v_score":"5.40460374","decile":"7","lat":40.41202485619094,"lng":-111.9310818807218,"phone":"(241) 653-4586","sd":"18","ssbd":"10","lsbd":"School Board Lake Mountain 2"},{"vid":"1317601","name":"Abigayle Kling","party":"","address":"2526 N Yarrow Cir, Saratoga Springs, UT 84045","precinct":"25SR03","hd":"51","v_score":"5.273794831","decile":"7","lat":40.40820800062784,"lng":-111.93277490906577,"phone":"(400) 767-7745","sd":"18","ssbd":"10","lsbd":"School Board Lake Mountain 2"},{"vid":"1318874","name":"Trystan Sawayn","party":"","address":"2141 N Wild Hyacinth Dr, Saratoga Springs, UT 84045","precinct":"25SR03","hd":"51","v_score":"1.193887297","decile":"3","lat":40.40103275647263,"lng":-111.93615751206501,"phone":"(334) 494-5023","sd":"18","ssbd":"10","lsbd":"School Board Lake Mountain 2"},{"vid":"1319884","name":"Isadore Schowalter","party":"Dem","address":"367 W Snowberry Dr, Saratoga Springs, UT 84045","precinct":"25SR03","hd":"51","v_score":"0","decile":"1","lat":40.41151159750737,"lng":-111.93162187185368,"phone":"(194) 289-2114","sd":"18","ssbd":"10","lsbd":"School Board Lake Mountain 2"},{"vid":"1323334","name":"Mackenzie Reilly","party":"Rep","address":"281 W Snowberry Dr, Saratoga Springs, UT 84045","precinct":"25SR03","hd":"51","v_score":"5.546183193","decile":"7","lat":40.41138493508682,"lng":-111.929540280945,"phone":"(270) 475-0836","sd":"18","ssbd":"10","lsbd":"School Board Lake Mountain 2"},{"vid":"684ed55229fe032bdfd46ee3a26a08ba1c8ffe78ec4bb5707bbbb0b9ee86136a","name":"Lane Lind","party":"","address":"502 W Jack Frost Way, Saratoga Springs, UT 84045","precinct":"25SR03","hd":"51","v_score":"5.40460374","decile":"7","lat":40.40480757071945,"lng":-111.93290413526117,"phone":"(482) 457-6576","sd":"18","ssbd":"10","lsbd":"School Board Lake Mountain 2"},{"vid":"1326870","name":"Deegan Wilderman","party":"Rep","address":"2036 N Elderberry Dr, Saratoga Springs, UT 84045","precinct":"25SR03","hd":"51","v_score":"26.8582098","decile":"10","lat":40.39926500308588,"lng":-111.93625434044975,"phone":"(876) 104-3292","sd":"18","ssbd":"10","lsbd":"School Board Lake Mountain 2"},{"vid":"1327362","name":"Dr. Ananias Doyle","party":"Dem","address":"2659 N Geranium Dr, Saratoga Springs, UT 84045","precinct":"25SR03","hd":"51","v_score":"3.93832808","decile":"6","lat":40.41065677204683,"lng":-111.92941221011314,"phone":"(976) 643-3275","sd":"18","ssbd":"10","lsbd":"School Board Lake Mountain 2"},{"vid":"1338105","name":"Samatha Schmeler","party":"Rep","address":"733 W Wild Hyacinth Dr, Saratoga Springs, UT 84045","precinct":"25SR03","hd":"51","v_score":"18.71796766","decile":"10","lat":40.39792137761428,"lng":-111.93703409812062,"phone":"(539) 232-4634","sd":"18","ssbd":"10","lsbd":"School Board Lake Mountain 2"},{"vid":"1344351","name":"Dr. Parker Kassulke MD","party":"Dem","address":"546 W Autumn Sky Dr, Saratoga Springs, UT 84045","precinct":"25SR03","hd":"51","v_score":"31.68604227","decile":"10","lat":40.40550779092983,"lng":-111.93422080765767,"phone":"(667) 634-7612","sd":"18","ssbd":"10","lsbd":"School Board Lake Mountain 2"},{"vid":"1351453","name":"Roxanne Sporer-Huels","party":"Dem","address":"2221 N Elderberry Dr, Saratoga Springs, UT 84045","precinct":"25SR03","hd":"51","v_score":"4.465184987","decile":"7","lat":40.402745793855836,"lng":-111.93719765002864,"phone":"(546) 272-9410","sd":"18","ssbd":"10","lsbd":"School Board Lake Mountain 2"},{"vid":"1352188","name":"Javier Raynor","party":"","address":"2042 N Belmont Dr, Saratoga Springs, UT 84045","precinct":"25SR03","hd":"51","v_score":"4.639704383","decile":"7","lat":40.399117556194156,"lng":-111.93491554035135,"phone":"(921) 758-4567","sd":"18","ssbd":"10","lsbd":"School Board Lake Mountain 2"},{"vid":"1353160","name":"Brandy Wisoky","party":"","address":"2614 N Snowberry Dr, Saratoga Springs, UT 84045","precinct":"25SR03","hd":"51","v_score":"3.781490609","decile":"6","lat":40.41000891117389,"lng":-111.93323771784144,"phone":"(214) 482-2579","sd":"18","ssbd":"10","lsbd":"School Board Lake Mountain 2"},{"vid":"69413b76da8dcd56b3515420123f3f4da6d89cd13cba5360ecb99019cb5d55c1","name":"Dr. Kamryn Grady MD","party":"Dem","address":"723 W Hydrangea Way, Saratoga Springs, UT 84045","precinct":"25SR03","hd":"51","v_score":"1.121327652","decile":"3","lat":40.39686749826186,"lng":-111.93642296723716,"phone":"(472) 381-5999","sd":"18","ssbd":"10","lsbd":"School Board Lake Mountain 2"},{"vid":"1357153","name":"Joy Effertz-Quitzon","party":"","address":"273 W Snowberry Dr, Saratoga Springs, UT 84045","precinct":"25SR03","hd":"51","v_score":"8.280646305","decile":"8","lat":40.41146081803101,"lng":-111.92938380843623,"phone":"(864) 236-8035","sd":"18","ssbd":"10","lsbd":"School Board Lake Mountain 2"},{"vid":"1360691","name":"Enrico Koelpin MD","party":"Dem","address":"483 W Flora Dr, Saratoga Springs, UT 84045","precinct":"25SR03","hd":"51","v_score":"3.781490609","decile":"6","lat":40.40720700184521,"lng":-111.9335678278272,"phone":"(516) 652-6252","sd":"18","ssbd":"10","lsbd":"School Board Lake Mountain 2"},{"vid":"1362475","name":"Clide Kovacek","party":"Dem","address":"483 W Flora Dr, Saratoga Springs, UT 84045","precinct":"25SR03","hd":"51","v_score":"3.781490609","decile":"6","lat":40.40720700184521,"lng":-111.9335678278272,"phone":"(753) 345-0806","sd":"18","ssbd":"10","lsbd":"School Board Lake Mountain 2"},{"vid":"1364663","name":"Kaleb Prohaska","party":"Rep","address":"428 W Peppergrass Way, Saratoga Springs, UT 84045","precinct":"25SR03","hd":"51","v_score":"8.363183621","decile":"8","lat":40.41073234515,"lng":-111.93299843646209,"phone":"(125) 694-7561","sd":"18","ssbd":"10","lsbd":"School Board Lake Mountain 2"},{"vid":"1364704","name":"Mrs. Marquita O'Conner PhD","party":"","address":"2018 N Churchill Rd, Saratoga Springs, UT 84045","precinct":"25SR03","hd":"51","v_score":"5.40460374","decile":"7","lat":40.398753658244964,"lng":-111.93399432018347,"phone":"(352) 872-6300","sd":"18","ssbd":"10","lsbd":"School Board Lake Mountain 2"},{"vid":"1369946","name":"Ollie Hartmann","party":"","address":"2292 N Elderberry Dr, Saratoga Springs, UT 84045","precinct":"25SR03","hd":"51","v_score":"8.347511332","decile":"8","lat":40.40367486431449,"lng":-111.93573206190655,"phone":"(399) 213-2893","sd":"18","ssbd":"10","lsbd":"School Board Lake Mountain 2"},{"vid":"1372540","name":"Elisha Hane","party":"Dem","address":"2062 N Elderberry Dr, Saratoga Springs, UT 84045","precinct":"25SR03","hd":"51","v_score":"3.997370217","decile":"6","lat":40.39972907591857,"lng":-111.93721344153774,"phone":"(577) 441-5063","sd":"18","ssbd":"10","lsbd":"School Board Lake Mountain 2"},{"vid":"1374426","name":"Miss Tempie Raynor","party":"Dem","address":"2548 N Velvet Moon Dr, Saratoga Springs, UT 84045","precinct":"25SR03","hd":"51","v_score":"8.284004873","decile":"8","lat":40.4086655895044,"lng":-111.93392496808757,"phone":"(388) 626-7826","sd":"18","ssbd":"10","lsbd":"School Board Lake Mountain 2"},{"vid":"1383607","name":"Dr. Eveline Harber DDS","party":"","address":"246 W Snowberry Dr, Saratoga Springs, UT 84045","precinct":"25SR03","hd":"51","v_score":"0","decile":"1","lat":40.41178483928918,"lng":-111.92851725111267,"phone":"(137) 261-5913","sd":"18","ssbd":"10","lsbd":"School Board Lake Mountain 2"},{"vid":"1386136","name":"Ms. Amari Langworth DVM","party":"Rep","address":"2258 N Elderberry Dr, Saratoga Springs, UT 84045","precinct":"25SR03","hd":"51","v_score":"5.693042993","decile":"7","lat":40.40299474400071,"lng":-111.93616294753764,"phone":"(577) 652-5204","sd":"18","ssbd":"10","lsbd":"School Board Lake Mountain 2"},{"vid":"1388730","name":"Gladyce Bergnaum DVM","party":"","address":"687 W Saratoga Chase Dr, Saratoga Springs, UT 84045","precinct":"25SR03","hd":"51","v_score":"9.207031979","decile":"8","lat":40.397850330600725,"lng":-111.93535719256921,"phone":"(670) 124-6558","sd":"18","ssbd":"10","lsbd":"School Board Lake Mountain 2"},{"vid":"1389082","name":"Presley Schroeder-Mitchell","party":"Rep","address":"2039 N Elderberry Dr, Saratoga Springs, UT 84045","precinct":"25SR03","hd":"51","v_score":"3.93832808","decile":"6","lat":40.39917620501665,"lng":-111.93698149144578,"phone":"(562) 573-2686","sd":"18","ssbd":"10","lsbd":"School Board Lake Mountain 2"},{"vid":"0e0ecc9283828a41dceedc5f0d615c51c28cf9d99603a0f68164acdcd30ab994","name":"Ahmad Dicki","party":"","address":"2244 N Honeydew Dr, Saratoga Springs, UT 84045","precinct":"25SR03","hd":"51","v_score":"19.3272208","decile":"10","lat":40.40297297610773,"lng":-111.93209190857678,"phone":"(577) 702-9643","sd":"18","ssbd":"10","lsbd":"School Board Lake Mountain 2"},{"vid":"1394996","name":"Emmitt Greenfelder-Corwin","party":"","address":"718 W Hydrangea Way, Saratoga Springs, UT 84045","precinct":"25SR03","hd":"51","v_score":"25.88476528","decile":"10","lat":40.39740744878459,"lng":-111.93634205058963,"phone":"(494) 062-0587","sd":"18","ssbd":"10","lsbd":"School Board Lake Mountain 2"},{"vid":"1396762","name":"Gertha Hand","party":"","address":"2201 N Wallflower Dr, Saratoga Springs, UT 84045","precinct":"25SR03","hd":"51","v_score":"3.93832808","decile":"6","lat":40.40230708531191,"lng":-111.936484669325,"phone":"(378) 762-1152","sd":"18","ssbd":"10","lsbd":"School Board Lake Mountain 2"},{"vid":"1400426","name":"Michael Champlin","party":"Dem","address":"2649 N Snowberry Dr, Saratoga Springs, UT 84045","precinct":"25SR03","hd":"51","v_score":"15.75938778","decile":"9","lat":40.41088108561578,"lng":-111.93342939888072,"phone":"(628) 526-1162","sd":"18","ssbd":"10","lsbd":"School Board Lake Mountain 2"},{"vid":"1400522","name":"Shon Muller","party":"","address":"344 W Snowberry Dr, Saratoga Springs, UT 84045","precinct":"25SR03","hd":"51","v_score":"5.40460374","decile":"7","lat":40.41202485619094,"lng":-111.9310818807218,"phone":"(709) 008-6637","sd":"18","ssbd":"10","lsbd":"School Board Lake Mountain 2"},{"vid":"1413061","name":"Louella Purdy-Kihn","party":"","address":"2003 N Churchill Rd, Saratoga Springs, UT 84045","precinct":"25SR03","hd":"51","v_score":"0","decile":"1","lat":40.39849266955309,"lng":-111.93439583118284,"phone":"(852) 214-1152","sd":"18","ssbd":"10","lsbd":"School Board Lake Mountain 2"},{"vid":"1416471","name":"Cap Yundt-Bednar","party":"Rep","address":"2007 N Churchill Rd, Saratoga Springs, UT 84045","precinct":"25SR03","hd":"51","v_score":"9.116556227","decile":"8","lat":40.39858868199621,"lng":-111.93442831641948,"phone":"(732) 739-5995","sd":"18","ssbd":"10","lsbd":"School Board Lake Mountain 2"},{"vid":"1416683","name":"Nannette Zboncak","party":"Dem","address":"2146 N Wallflower Dr, Saratoga Springs, UT 84045","precinct":"25SR03","hd":"51","v_score":"0","decile":"1","lat":40.4011737768338,"lng":-111.9366095719954,"phone":"(655) 476-7181","sd":"18","ssbd":"10","lsbd":"School Board Lake Mountain 2"},{"vid":"1416954","name":"Ason Hauck","party":"","address":"461 W Autumn Sky Dr, Saratoga Springs, UT 84045","precinct":"25SR03","hd":"51","v_score":"2.315214949","decile":"5","lat":40.40525005397664,"lng":-111.93195359161135,"phone":"(225) 729-6959","sd":"18","ssbd":"10","lsbd":"School Board Lake Mountain 2"},{"vid":"1417542","name":"Jamie Hammes","party":"Rep","address":"2208 N Elderberry Dr, Saratoga Springs, UT 84045","precinct":"25SR03","hd":"51","v_score":"11.2235539","decile":"9","lat":40.40227713890068,"lng":-111.93707083017414,"phone":"(380) 017-4734","sd":"18","ssbd":"10","lsbd":"School Board Lake Mountain 2"},{"vid":"1437734","name":"Idamae Haley","party":"","address":"2534 N Yarrow Cir, Saratoga Springs, UT 84045","precinct":"25SR03","hd":"51","v_score":"27.37674246","decile":"10","lat":40.40836244844011,"lng":-111.93266205301775,"phone":"(868) 959-9159","sd":"18","ssbd":"10","lsbd":"School Board Lake Mountain 2"},{"vid":"1451260","name":"Lala Bradtke","party":"Rep","address":"602 W Crenshaw Ct, Saratoga Springs, UT 84045","precinct":"25SR03","hd":"51","v_score":"1.193887297","decile":"3","lat":40.403927376483566,"lng":-111.93517443253555,"phone":"(995) 350-1424","sd":"18","ssbd":"10","lsbd":"School Board Lake Mountain 2"},{"vid":"1453432","name":"Ava Rohan","party":"","address":"738 W Wild Hyacinth Dr, Saratoga Springs, UT 84045","precinct":"25SR03","hd":"51","v_score":"2.587603312","decile":"5","lat":40.39824429500541,"lng":-111.93677116662484,"phone":"(807) 011-6679","sd":"18","ssbd":"10","lsbd":"School Board Lake Mountain 2"},{"vid":"1454095","name":"Shayla Skiles","party":"Rep","address":"602 W Crenshaw Ct, Saratoga Springs, UT 84045","precinct":"25SR03","hd":"51","v_score":"1.193887297","decile":"3","lat":40.403927376483566,"lng":-111.93517443253555,"phone":"(140) 088-5896","sd":"18","ssbd":"10","lsbd":"School Board Lake Mountain 2"},{"vid":"a2b66723cd7c546735b06fdd39327feb65ea4c23c70da10be330baa2be0dc5d8","name":"Caylee Koch","party":"Rep","address":"572 W Muskmelon Way, Saratoga Springs, UT 84045","precinct":"25SR03","hd":"51","v_score":"3.93832808","decile":"6","lat":40.402384303735154,"lng":-111.93387199360934,"phone":"(667) 134-5936","sd":"18","ssbd":"10","lsbd":"School Board Lake Mountain 2"},{"vid":"341785d1fe21f58510430189ce4222e687c9b9cba8acd60c0528d9cec584c107","name":"Dr. Shanell Orn MD","party":"Dem","address":"452 W Crabapple Dr, Saratoga Springs, UT 84045","precinct":"25SR03","hd":"51","v_score":"3.93832808","decile":"6","lat":40.40982924440704,"lng":-111.93304161317629,"phone":"(521) 025-2762","sd":"18","ssbd":"10","lsbd":"School Board Lake Mountain 2"},{"vid":"1483672","name":"Elbert Lindgren","party":"Dem","address":"2043 N Belmont Dr, Saratoga Springs, UT 84045","precinct":"25SR03","hd":"51","v_score":"5.40460374","decile":"7","lat":40.39921204573935,"lng":-111.93534971750809,"phone":"(928) 852-7859","sd":"18","ssbd":"10","lsbd":"School Board Lake Mountain 2"},{"vid":"1484000","name":"Jerimy Kuvalis","party":"Dem","address":"272 W Snowberry Dr, Saratoga Springs, UT 84045","precinct":"25SR03","hd":"51","v_score":"4.210716443","decile":"7","lat":40.41187427802415,"lng":-111.92923113604532,"phone":"(496) 919-9072","sd":"18","ssbd":"10","lsbd":"School Board Lake Mountain 2"},{"vid":"1485314","name":"Dr. Fletcher Dicki V","party":"Dem","address":"388 W Peppergrass Way, Saratoga Springs, UT 84045","precinct":"25SR03","hd":"51","v_score":"5.40460374","decile":"7","lat":40.40982922858391,"lng":-111.93155609724818,"phone":"(538) 908-7517","sd":"18","ssbd":"10","lsbd":"School Board Lake Mountain 2"},{"vid":"b53b2d10debf6f91de275dd97293c71c69cbe5161912a26c599ae339b915d525","name":"Destini Lesch","party":"Dem","address":"2062 N Elderberry Dr, Saratoga Springs, UT 84045","precinct":"25SR03","hd":"51","v_score":"6.52928996","decile":"7","lat":40.39972907591857,"lng":-111.93721344153774,"phone":"(992) 298-4502","sd":"18","ssbd":"10","lsbd":"School Board Lake Mountain 2"},{"vid":"3a756fee3c29f982661f82260578956947d736beeb8e950c0e0edcfb4c5b46bc","name":"Flo Jacobs","party":"","address":"2057 N Wallflower Cir, Saratoga Springs, UT 84045","precinct":"25SR03","hd":"51","v_score":"4.568975008","decile":"7","lat":40.399543352169594,"lng":-111.93587397736825,"phone":"(234) 253-8608","sd":"18","ssbd":"10","lsbd":"School Board Lake Mountain 2"},{"vid":"1489943","name":"Rogelio Feest","party":"","address":"2214 N Wild Hyacinth Dr, Saratoga Springs, UT 84045","precinct":"25SR03","hd":"51","v_score":"4.905839784","decile":"7","lat":40.402497866746245,"lng":-111.93624374443206,"phone":"(986) 642-6610","sd":"18","ssbd":"10","lsbd":"School Board Lake Mountain 2"},{"vid":"090497f2666b728fc4229cfb9ef1789e0115f01bd6057d98cba02fb2765dec94","name":"Janel Abernathy","party":"","address":"547 W Jack Frost Way, Saratoga Springs, UT 84045","precinct":"25SR03","hd":"51","v_score":"2.315214949","decile":"5","lat":40.40443927950798,"lng":-111.93393095723349,"phone":"(535) 454-6325","sd":"18","ssbd":"10","lsbd":"School Board Lake Mountain 2"},{"vid":"1499070","name":"Marti Jacobi","party":"Rep","address":"2043 N Belmont Dr, Saratoga Springs, UT 84045","precinct":"25SR03","hd":"51","v_score":"5.40460374","decile":"7","lat":40.39921204573935,"lng":-111.93534971750809,"phone":"(543) 496-9398","sd":"18","ssbd":"10","lsbd":"School Board Lake Mountain 2"},{"vid":"1500117","name":"Knute Kertzmann","party":"","address":"2627 N Snowberry Dr, Saratoga Springs, UT 84045","precinct":"25SR03","hd":"51","v_score":"19.30937315","decile":"10","lat":40.41050798627512,"lng":-111.93358940143324,"phone":"(256) 388-8362","sd":"18","ssbd":"10","lsbd":"School Board Lake Mountain 2"},{"vid":"1500980","name":"Rosita Quitzon","party":"Dem","address":"1894 N Elderberry Dr, Saratoga Springs, UT 84045","precinct":"25SR03","hd":"51","v_score":"0","decile":"1","lat":40.396282547730074,"lng":-111.93578069137213,"phone":"(604) 520-5218","sd":"18","ssbd":"10","lsbd":"School Board Lake Mountain 2"},{"vid":"1505133","name":"Milan Kling","party":"Dem","address":"2188 N Elderberry Dr, Saratoga Springs, UT 84045","precinct":"25SR03","hd":"51","v_score":"13.34346464","decile":"9","lat":40.40198985852512,"lng":-111.937307741415,"phone":"(539) 831-7476","sd":"18","ssbd":"10","lsbd":"School Board Lake Mountain 2"},{"vid":"1518779","name":"Mistie Borer","party":"","address":"497 W Jack Frost Way, Saratoga Springs, UT 84045","precinct":"25SR03","hd":"51","v_score":"7.166934593","decile":"8","lat":40.40410914372257,"lng":-111.932598726605,"phone":"(934) 784-6300","sd":"18","ssbd":"10","lsbd":"School Board Lake Mountain 2"},{"vid":"1546286","name":"Bertie Roberts","party":"","address":"2518 N Velvet Moon Dr, Saratoga Springs, UT 84045","precinct":"25SR03","hd":"51","v_score":"17.33649681","decile":"9","lat":40.407970640986086,"lng":-111.93434950935065,"phone":"(799) 660-8171","sd":"18","ssbd":"10","lsbd":"School Board Lake Mountain 2"},{"vid":"1551948","name":"Mr. Jordi Macejkovic","party":"Dem","address":"2129 N Elderberry Dr, Saratoga Springs, UT 84045","precinct":"25SR03","hd":"51","v_score":"2.315214949","decile":"5","lat":40.40082805896649,"lng":-111.93809009439829,"phone":"(891) 521-1913","sd":"18","ssbd":"10","lsbd":"School Board Lake Mountain 2"},{"vid":"1554178","name":"Norma Crona","party":"Rep","address":"519 W Flora Dr, Saratoga Springs, UT 84045","precinct":"25SR03","hd":"51","v_score":"2.315214949","decile":"5","lat":40.40729693330698,"lng":-111.93446680141408,"phone":"(313) 442-2697","sd":"18","ssbd":"10","lsbd":"School Board Lake Mountain 2"},{"vid":"1554853","name":"Le Mann","party":"","address":"259 W Snowberry Dr, Saratoga Springs, UT 84045","precinct":"25SR03","hd":"51","v_score":"1.193887297","decile":"3","lat":40.41147084083188,"lng":-111.92894415741746,"phone":"(520) 180-6536","sd":"18","ssbd":"10","lsbd":"School Board Lake Mountain 2"},{"vid":"1555464","name":"Demarion Leffler","party":"","address":"378 W Watercress Dr, Saratoga Springs, UT 84045","precinct":"25SR03","hd":"51","v_score":"1.193887297","decile":"3","lat":40.41105653912334,"lng":-111.93137871952541,"phone":"(571) 913-8334","sd":"18","ssbd":"10","lsbd":"School Board Lake Mountain 2"},{"vid":"1555599","name":"Kenton Hermann","party":"Rep","address":"378 W Watercress Dr, Saratoga Springs, UT 84045","precinct":"25SR03","hd":"51","v_score":"1.46627566","decile":"4","lat":40.41105653912334,"lng":-111.93137871952541,"phone":"(504) 674-1524","sd":"18","ssbd":"10","lsbd":"School Board Lake Mountain 2"},{"vid":"1561526","name":"Loma Berge-Wilkinson","party":"Dem","address":"308 W White Clover Cir, Saratoga Springs, UT 84045","precinct":"25SR03","hd":"51","v_score":"1.193887297","decile":"3","lat":40.41105319180879,"lng":-111.92977436472752,"phone":"(887) 039-8946","sd":"18","ssbd":"10","lsbd":"School Board Lake Mountain 2"},{"vid":"1562657","name":"Elmyra Treutel PhD","party":"Dem","address":"2146 N Wallflower Dr, Saratoga Springs, UT 84045","precinct":"25SR03","hd":"51","v_score":"0","decile":"1","lat":40.4011737768338,"lng":-111.9366095719954,"phone":"(662) 161-4329","sd":"18","ssbd":"10","lsbd":"School Board Lake Mountain 2"},{"vid":"1564290","name":"Mr. Oley Hintz DDS","party":"Rep","address":"2128 N Wallflower Dr, Saratoga Springs, UT 84045","precinct":"25SR03","hd":"51","v_score":"3.93832808","decile":"6","lat":40.40090400997096,"lng":-111.93660094700084,"phone":"(532) 030-4539","sd":"18","ssbd":"10","lsbd":"School Board Lake Mountain 2"},{"vid":"1566407","name":"Edmond Pfannerstill","party":"Dem","address":"2664 N Geranium Dr, Saratoga Springs, UT 84045","precinct":"25SR03","hd":"51","v_score":"0","decile":"1","lat":40.41045652393649,"lng":-111.92900096502716,"phone":"(386) 290-6521","sd":"18","ssbd":"10","lsbd":"School Board Lake Mountain 2"},{"vid":"1580597","name":"Crissy Bernhard","party":"Dem","address":"367 W Snowberry Dr, Saratoga Springs, UT 84045","precinct":"25SR03","hd":"51","v_score":"1.121327652","decile":"3","lat":40.41151159750737,"lng":-111.93162187185368,"phone":"(871) 093-7859","sd":"18","ssbd":"10","lsbd":"School Board Lake Mountain 2"},{"vid":"1584503","name":"Mrs. Evon Batz DVM","party":"Rep","address":"302 W Snowberry Dr, Saratoga Springs, UT 84045","precinct":"25SR03","hd":"51","v_score":"5.40460374","decile":"7","lat":40.411966478601286,"lng":-111.9299305922884,"phone":"(889) 207-1538","sd":"18","ssbd":"10","lsbd":"School Board Lake Mountain 2"},{"vid":"1599353","name":"Lelah Ward-Berge","party":"Dem","address":"2193 N Wallflower Dr, Saratoga Springs, UT 84045","precinct":"25SR03","hd":"51","v_score":"8.085704327","decile":"8","lat":40.4021413560691,"lng":-111.9367113927717,"phone":"(220) 287-5145","sd":"18","ssbd":"10","lsbd":"School Board Lake Mountain 2"},{"vid":"1605106","name":"Normand Haag II","party":"Dem","address":"477 W Jack Frost Way, Saratoga Springs, UT 84045","precinct":"25SR03","hd":"51","v_score":"5.40460374","decile":"7","lat":40.40446547096537,"lng":-111.93214854948003,"phone":"(387) 742-8576","sd":"18","ssbd":"10","lsbd":"School Board Lake Mountain 2"},{"vid":"1605823","name":"Dr. Isadore Stiedemann II","party":"Dem","address":"2036 N Elderberry Dr, Saratoga Springs, UT 84045","precinct":"25SR03","hd":"51","v_score":"26.8582098","decile":"10","lat":40.39926500308588,"lng":-111.93625434044975,"phone":"(156) 180-6657","sd":"18","ssbd":"10","lsbd":"School Board Lake Mountain 2"},{"vid":"1607733","name":"Frederic McCullough-Rice","party":"Dem","address":"597 W Crenshaw Ct, Saratoga Springs, UT 84045","precinct":"25SR03","hd":"51","v_score":"5.40460374","decile":"7","lat":40.40371751389296,"lng":-111.93492375903247,"phone":"(339) 640-7692","sd":"18","ssbd":"10","lsbd":"School Board Lake Mountain 2"},{"vid":"1612341","name":"Mr. Wellington Wisozk V","party":"","address":"2112 N Elderberry Dr, Saratoga Springs, UT 84045","precinct":"25SR03","hd":"51","v_score":"10.22509301","decile":"9","lat":40.40052488716239,"lng":-111.93757028469214,"phone":"(616) 705-2539","sd":"18","ssbd":"10","lsbd":"School Board Lake Mountain 2"},{"vid":"b6c4b9637a5dda300cddbcd1441208355c393093f694ad5f1918103e1dd25321","name":"Deetta Heller","party":"Dem","address":"2137 N Elderberry Dr, Saratoga Springs, UT 84045","precinct":"25SR03","hd":"51","v_score":"15.43762891","decile":"9","lat":40.40099943432796,"lng":-111.93807553144991,"phone":"(896) 378-4870","sd":"18","ssbd":"10","lsbd":"School Board Lake Mountain 2"},{"vid":"1617464","name":"Mr. Dennis Cummerata II","party":"","address":"2008 N Elderberry Dr, Saratoga Springs, UT 84045","precinct":"25SR03","hd":"51","v_score":"16.89562538","decile":"9","lat":40.39886084100143,"lng":-111.93572068907162,"phone":"(494) 844-4601","sd":"18","ssbd":"10","lsbd":"School Board Lake Mountain 2"},{"vid":"c2c87e0a5f4874f07db8ba07b7cec03f315e8baf6e0e834f1ab65b2eba8cc2b5","name":"Davian Hintz II","party":"","address":"2571 N Velvet Moon Dr, Saratoga Springs, UT 84045","precinct":"25SR03","hd":"51","v_score":"8.15240309","decile":"8","lat":40.40927002798651,"lng":-111.93423565312352,"phone":"(735) 833-7643","sd":"18","ssbd":"10","lsbd":"School Board Lake Mountain 2"},{"vid":"cbe6de47673f60691e0ef49d6b21994bfc5b22c543b051dacdfc884a899ee318","name":"Guadalupe Zieme","party":"Rep","address":"2291 N Wild Hyacinth Dr, Saratoga Springs, UT 84045","precinct":"25SR03","hd":"51","v_score":"5.530510904","decile":"7","lat":40.404202216934316,"lng":-111.93644366708212,"phone":"(633) 886-8198","sd":"18","ssbd":"10","lsbd":"School Board Lake Mountain 2"},{"vid":"1629911","name":"Lavona Rempel","party":"Dem","address":"589 W Crenshaw Ct, Saratoga Springs, UT 84045","precinct":"25SR03","hd":"51","v_score":"2.587603312","decile":"5","lat":40.40366418112647,"lng":-111.9347591056337,"phone":"(735) 398-5675","sd":"18","ssbd":"10","lsbd":"School Board Lake Mountain 2"},{"vid":"1635504","name":"Eliseo Stokes","party":"Rep","address":"2183 N Wild Hyacinth Dr, Saratoga Springs, UT 84045","precinct":"25SR03","hd":"51","v_score":"1.121327652","decile":"3","lat":40.401869368014495,"lng":-111.93615266042518,"phone":"(977) 958-8566","sd":"18","ssbd":"10","lsbd":"School Board Lake Mountain 2"},{"vid":"1647424","name":"Chaim O'Hara","party":"","address":"2146 N Wallflower Dr, Saratoga Springs, UT 84045","precinct":"25SR03","hd":"51","v_score":"0","decile":"1","lat":40.4011737768338,"lng":-111.9366095719954,"phone":"(739) 464-2284","sd":"18","ssbd":"10","lsbd":"School Board Lake Mountain 2"},{"vid":"1648073","name":"Natalia Halvorson","party":"Dem","address":"2533 N Geranium Dr, Saratoga Springs, UT 84045","precinct":"25SR03","hd":"51","v_score":"1.193887297","decile":"3","lat":40.408387268551266,"lng":-111.93210622257449,"phone":"(115) 150-9187","sd":"18","ssbd":"10","lsbd":"School Board Lake Mountain 2"},{"vid":"1657341","name":"Bernie Bradtke","party":"Rep","address":"528 W Pumpkin Patch Dr, Saratoga Springs, UT 84045","precinct":"25SR03","hd":"51","v_score":"2.315214949","decile":"5","lat":40.40276475979385,"lng":-111.93290412834793,"phone":"(716) 778-5844","sd":"18","ssbd":"10","lsbd":"School Board Lake Mountain 2"},{"vid":"1658665","name":"Everett Terry","party":"Dem","address":"463 W Flora Dr, Saratoga Springs, UT 84045","precinct":"25SR03","hd":"51","v_score":"8.758817347","decile":"8","lat":40.40717571787448,"lng":-111.93290246484767,"phone":"(880) 755-3455","sd":"18","ssbd":"10","lsbd":"School Board Lake Mountain 2"},{"vid":"1664298","name":"Nonie Rosenbaum PhD","party":"Rep","address":"764 W Hydrangea Way, Saratoga Springs, UT 84045","precinct":"25SR03","hd":"51","v_score":"9.61867875","decile":"8","lat":40.397345187851435,"lng":-111.9372316175866,"phone":"(437) 980-5178","sd":"18","ssbd":"10","lsbd":"School Board Lake Mountain 2"},{"vid":"1672478","name":"Roseann Cremin-Windler","party":"Rep","address":"346 W Watercress Dr, Saratoga Springs, UT 84045","precinct":"25SR03","hd":"51","v_score":"2.315214949","decile":"5","lat":40.41015524894118,"lng":-111.93046534103456,"phone":"(658) 456-0095","sd":"18","ssbd":"10","lsbd":"School Board Lake Mountain 2"},{"vid":"1673129","name":"Carolann Rodriguez","party":"Dem","address":"281 W Snowberry Dr, Saratoga Springs, UT 84045","precinct":"25SR03","hd":"51","v_score":"0","decile":"1","lat":40.41138493508682,"lng":-111.929540280945,"phone":"(471) 429-9607","sd":"18","ssbd":"10","lsbd":"School Board Lake Mountain 2"},{"vid":"1686586","name":"Brandan Senger","party":"","address":"2511 N Geranium Dr, Saratoga Springs, UT 84045","precinct":"25SR03","hd":"51","v_score":"4.192796624","decile":"7","lat":40.40787333092907,"lng":-111.93240324394512,"phone":"(617) 734-2768","sd":"18","ssbd":"10","lsbd":"School Board Lake Mountain 2"},{"vid":"1687085","name":"Mrs. Laverna Witting","party":"Dem","address":"518 W Flora Dr, Saratoga Springs, UT 84045","precinct":"25SR03","hd":"51","v_score":"1.193887297","decile":"3","lat":40.40762970801747,"lng":-111.93401393077927,"phone":"(787) 931-1523","sd":"18","ssbd":"10","lsbd":"School Board Lake Mountain 2"},{"vid":"1687564","name":"Avon Bauch","party":"","address":"2053 N Belmont Dr, Saratoga Springs, UT 84045","precinct":"25SR03","hd":"51","v_score":"0","decile":"1","lat":40.399390421310684,"lng":-111.9353500992921,"phone":"(195) 107-0695","sd":"18","ssbd":"10","lsbd":"School Board Lake Mountain 2"},{"vid":"1702907","name":"Woody Champlin","party":"","address":"2029 N Elderberry Dr, Saratoga Springs, UT 84045","precinct":"25SR03","hd":"51","v_score":"5.40460374","decile":"7","lat":40.39910770362677,"lng":-111.9367194062667,"phone":"(459) 590-9808","sd":"18","ssbd":"10","lsbd":"School Board Lake Mountain 2"},{"vid":"1711549","name":"Jeremie Nader","party":"Rep","address":"569 W Jack Frost Way, Saratoga Springs, UT 84045","precinct":"25SR03","hd":"51","v_score":"14.95117867","decile":"9","lat":40.404740790821535,"lng":-111.9345717377553,"phone":"(839) 471-7278","sd":"18","ssbd":"10","lsbd":"School Board Lake Mountain 2"},{"vid":"2c6f98bf5e3186ba9b236e0d5ffe569f2292b4690d12bc4364e3f43dc77b7e43","name":"Nathanial Hagenes","party":"Dem","address":"569 W Jack Frost Way, Saratoga Springs, UT 84045","precinct":"25SR03","hd":"51","v_score":"11.99259879","decile":"9","lat":40.404740790821535,"lng":-111.9345717377553,"phone":"(516) 677-2368","sd":"18","ssbd":"10","lsbd":"School Board Lake Mountain 2"},{"vid":"1726133","name":"Ms. Cornelia Prosacco","party":"","address":"2012 N Belmont Dr, Saratoga Springs, UT 84045","precinct":"25SR03","hd":"51","v_score":"3.781490609","decile":"6","lat":40.398647541382005,"lng":-111.9349146341309,"phone":"(777) 931-6549","sd":"18","ssbd":"10","lsbd":"School Board Lake Mountain 2"},{"vid":"1730484","name":"Dr. Lizzie Morissette PhD","party":"Rep","address":"1944 N Elderberry Dr, Saratoga Springs, UT 84045","precinct":"25SR03","hd":"51","v_score":"3.781490609","decile":"6","lat":40.397472423950774,"lng":-111.93572483462813,"phone":"(679) 290-9243","sd":"18","ssbd":"10","lsbd":"School Board Lake Mountain 2"},{"vid":"bc9459c690fe297596fa716fa2d8f6c6dd65a2512403154a7a8f4f3db180ffd7","name":"Dezzie Murazik","party":"","address":"2023 N Belmont Dr, Saratoga Springs, UT 84045","precinct":"25SR03","hd":"51","v_score":"27.07869334","decile":"10","lat":40.39892129364508,"lng":-111.935349158217,"phone":"(694) 743-7840","sd":"18","ssbd":"10","lsbd":"School Board Lake Mountain 2"},{"vid":"81f6a9224a98a2ac277162c8440e64d03b3f2df33908e4d1ee3d56f022c9e9d3","name":"Keena Rogahn","party":"","address":"568 W Pumpkin Patch Dr, Saratoga Springs, UT 84045","precinct":"25SR03","hd":"51","v_score":"7.947838735","decile":"8","lat":40.40294646831981,"lng":-111.93414647779167,"phone":"(793) 360-9394","sd":"18","ssbd":"10","lsbd":"School Board Lake Mountain 2"},{"vid":"1740897","name":"Miss Cheryle Reichel","party":"Rep","address":"2584 N Yarrow Cir, Saratoga Springs, UT 84045","precinct":"25SR03","hd":"51","v_score":"9.82542041","decile":"8","lat":40.40914949871973,"lng":-111.93201381478013,"phone":"(917) 241-6375","sd":"18","ssbd":"10","lsbd":"School Board Lake Mountain 2"},{"vid":"1752479","name":"Xzavier Littel-Schmitt","party":"","address":"289 W Snowberry Dr, Saratoga Springs, UT 84045","precinct":"25SR03","hd":"51","v_score":"2.315214949","decile":"5","lat":40.4114888475948,"lng":-111.9297254187843,"phone":"(964) 136-3240","sd":"18","ssbd":"10","lsbd":"School Board Lake Mountain 2"},{"vid":"1754607","name":"Harvy Upton","party":"Dem","address":"737 W Hydrangea Way, Saratoga Springs, UT 84045","precinct":"25SR03","hd":"51","v_score":"16.78552823","decile":"9","lat":40.3969122828691,"lng":-111.93667821499115,"phone":"(269) 634-2039","sd":"18","ssbd":"10","lsbd":"School Board Lake Mountain 2"},{"vid":"1755987","name":"Diane Wiza","party":"Dem","address":"557 W Pumpkin Patch Dr, Saratoga Springs, UT 84045","precinct":"25SR03","hd":"51","v_score":"8.363183621","decile":"8","lat":40.40272002329428,"lng":-111.93371574182456,"phone":"(990) 656-3085","sd":"18","ssbd":"10","lsbd":"School Board Lake Mountain 2"},{"vid":"1756881","name":"Ras Medhurst","party":"Rep","address":"2571 N Geranium Dr, Saratoga Springs, UT 84045","precinct":"25SR03","hd":"51","v_score":"20.33220369","decile":"10","lat":40.40901349016996,"lng":-111.93166442919635,"phone":"(794) 121-7915","sd":"18","ssbd":"10","lsbd":"School Board Lake Mountain 2"},{"vid":"1760773","name":"Amparo Fay","party":"","address":"2166 N Wallflower Dr, Saratoga Springs, UT 84045","precinct":"25SR03","hd":"51","v_score":"4.069929862","decile":"6","lat":40.40146638235562,"lng":-111.9366024762329,"phone":"(740) 520-2817","sd":"18","ssbd":"10","lsbd":"School Board Lake Mountain 2"},{"vid":"1761821","name":"Dr. Konner Thiel III","party":"Dem","address":"2008 N Churchill Rd, Saratoga Springs, UT 84045","precinct":"25SR03","hd":"51","v_score":"0","decile":"1","lat":40.39857528276517,"lng":-111.93399397828466,"phone":"(428) 796-7335","sd":"18","ssbd":"10","lsbd":"School Board Lake Mountain 2"},{"vid":"f9e1495c3b535dee0afda8b6a17e267a068c8b0cb4293e3555a83b576d347506","name":"Tera Skiles","party":"","address":"2012 N Churchill Rd, Saratoga Springs, UT 84045","precinct":"25SR03","hd":"51","v_score":"0","decile":"1","lat":40.39863565583636,"lng":-111.9339940860825,"phone":"(334) 880-3158","sd":"18","ssbd":"10","lsbd":"School Board Lake Mountain 2"},{"vid":"1769996","name":"Dr. Jacquline Lehner DDS","party":"Dem","address":"2096 N Wild Hyacinth Dr, Saratoga Springs, UT 84045","precinct":"25SR03","hd":"51","v_score":"3.781490609","decile":"6","lat":40.40005227065374,"lng":-111.93619499310525,"phone":"(598) 213-5511","sd":"18","ssbd":"10","lsbd":"School Board Lake Mountain 2"},{"vid":"1773687","name":"Hamza Hamill","party":"","address":"2221 N Elderberry Dr, Saratoga Springs, UT 84045","precinct":"25SR03","hd":"51","v_score":"6.881235673","decile":"8","lat":40.402745793855836,"lng":-111.93719765002864,"phone":"(978) 763-8184","sd":"18","ssbd":"10","lsbd":"School Board Lake Mountain 2"},{"vid":"98c55fc14831be31df0180c064b0fe3f063884c0ba797a58fb2c322852944ebb","name":"Rand Konopelski","party":"","address":"2121 N Elderberry Dr, Saratoga Springs, UT 84045","precinct":"25SR03","hd":"51","v_score":"4.13679489","decile":"7","lat":40.40065087185137,"lng":-111.9380656514191,"phone":"(152) 888-7476","sd":"18","ssbd":"10","lsbd":"School Board Lake Mountain 2"},{"vid":"1777640","name":"Kamari Pagac","party":"Dem","address":"727 W Wild Hyacinth Dr, Saratoga Springs, UT 84045","precinct":"25SR03","hd":"51","v_score":"8.347511332","decile":"8","lat":40.397893331939066,"lng":-111.93681438233367,"phone":"(421) 000-0501","sd":"18","ssbd":"10","lsbd":"School Board Lake Mountain 2"},{"vid":"1781941","name":"Manning Treutel","party":"","address":"553 W Muskmelon Way, Saratoga Springs, UT 84045","precinct":"25SR03","hd":"51","v_score":"13.33063124","decile":"9","lat":40.401736774041794,"lng":-111.93341540053929,"phone":"(712) 848-8456","sd":"18","ssbd":"10","lsbd":"School Board Lake Mountain 2"},{"vid":"1783251","name":"Bliss Huel","party":"","address":"643 W Saratoga Chase Dr, Saratoga Springs, UT 84045","precinct":"25SR03","hd":"51","v_score":"10.52632313","decile":"9","lat":40.397858519967166,"lng":-111.93432025879261,"phone":"(577) 077-8121","sd":"18","ssbd":"10","lsbd":"School Board Lake Mountain 2"},{"vid":"28f8e2bdf0025f58d6e283451063d76f2f8abc535bd4fc231feaaa74de1120dd","name":"Dina Hilpert","party":"","address":"2688 N Geranium Dr, Saratoga Springs, UT 84045","precinct":"25SR03","hd":"51","v_score":"8.347511332","decile":"8","lat":40.41103229157841,"lng":-111.92864017334739,"phone":"(668) 398-7240","sd":"18","ssbd":"10","lsbd":"School Board Lake Mountain 2"},{"vid":"1811465","name":"Charisse Bergstrom-Hermiston","party":"Dem","address":"2533 N Geranium Dr, Saratoga Springs, UT 84045","precinct":"25SR03","hd":"51","v_score":"1.193887297","decile":"3","lat":40.408387268551266,"lng":-111.93210622257449,"phone":"(414) 845-9397","sd":"18","ssbd":"10","lsbd":"School Board Lake Mountain 2"},{"vid":"1814663","name":"Claiborne Keeling","party":"Rep","address":"2156 N Wallflower Dr, Saratoga Springs, UT 84045","precinct":"25SR03","hd":"51","v_score":"1.121327652","decile":"3","lat":40.40130635367306,"lng":-111.93656225461521,"phone":"(322) 925-4983","sd":"18","ssbd":"10","lsbd":"School Board Lake Mountain 2"},{"vid":"1817619","name":"Dr. Gage Olson","party":"Rep","address":"484 W Jack Frost Way, Saratoga Springs, UT 84045","precinct":"25SR03","hd":"51","v_score":"1.46627566","decile":"4","lat":40.40483814925501,"lng":-111.9324617142898,"phone":"(758) 816-5583","sd":"18","ssbd":"10","lsbd":"School Board Lake Mountain 2"},{"vid":"5b8a16f1daaa2449630977ad411d1295c8c35093077423eac9af81e2da724cd6","name":"Olena Christiansen","party":"Rep","address":"2363 N Elderberry Cir, Saratoga Springs, UT 84045","precinct":"25SR03","hd":"51","v_score":"9.82542041","decile":"8","lat":40.40490132397984,"lng":-111.93672660321224,"phone":"(227) 275-2804","sd":"18","ssbd":"10","lsbd":"School Board Lake Mountain 2"},{"vid":"1835711","name":"Dr. Ceylon Blanda","party":"Rep","address":"2012 N Belmont Dr, Saratoga Springs, UT 84045","precinct":"25SR03","hd":"51","v_score":"3.781490609","decile":"6","lat":40.398647541382005,"lng":-111.9349146341309,"phone":"(272) 072-4009","sd":"18","ssbd":"10","lsbd":"School Board Lake Mountain 2"},{"vid":"1836853","name":"Elfrieda Kessler","party":"Dem","address":"2123 N Wild Hyacinth Dr, Saratoga Springs, UT 84045","precinct":"25SR03","hd":"51","v_score":"0","decile":"1","lat":40.400731733053426,"lng":-111.9362728411942,"phone":"(856) 553-6045","sd":"18","ssbd":"10","lsbd":"School Board Lake Mountain 2"},{"vid":"1836990","name":"Ms. Mirna Kohler DVM","party":"Rep","address":"432 W Crabapple Dr, Saratoga Springs, UT 84045","precinct":"25SR03","hd":"51","v_score":"2.315214949","decile":"5","lat":40.40953088671781,"lng":-111.9327665108333,"phone":"(265) 792-7471","sd":"18","ssbd":"10","lsbd":"School Board Lake Mountain 2"},{"vid":"1837248","name":"Kami Ritchie","party":"","address":"2012 N Churchill Rd, Saratoga Springs, UT 84045","precinct":"25SR03","hd":"51","v_score":"25.65721174","decile":"10","lat":40.39863565583636,"lng":-111.9339940860825,"phone":"(397) 599-3340","sd":"18","ssbd":"10","lsbd":"School Board Lake Mountain 2"},{"vid":"1837853","name":"Ms. Dotty Rolfson","party":"Dem","address":"2128 N Wallflower Dr, Saratoga Springs, UT 84045","precinct":"25SR03","hd":"51","v_score":"6.481563075","decile":"7","lat":40.40090400997096,"lng":-111.93660094700084,"phone":"(921) 258-7906","sd":"18","ssbd":"10","lsbd":"School Board Lake Mountain 2"},{"vid":"1838226","name":"Yazmin Raynor-Bruen","party":"Dem","address":"2598 N Velvet Moon Dr, Saratoga Springs, UT 84045","precinct":"25SR03","hd":"51","v_score":"8.347511332","decile":"8","lat":40.40958915960564,"lng":-111.93338689952758,"phone":"(388) 988-3788","sd":"18","ssbd":"10","lsbd":"School Board Lake Mountain 2"},{"vid":"1844627","name":"Theresia Johnson","party":"","address":"2013 N Churchill Rd, Saratoga Springs, UT 84045","precinct":"25SR03","hd":"51","v_score":"19.08400665","decile":"10","lat":40.39870393954546,"lng":-111.93442855860529,"phone":"(351) 042-8988","sd":"18","ssbd":"10","lsbd":"School Board Lake Mountain 2"},{"vid":"fb11045e387065630eac10d86357c70eff035bfdc1e65956bdb49f3f59e1fd0e","name":"Marely Johns-Schaefer","party":"Dem","address":"593 W Casaba Ct, Saratoga Springs, UT 84045","precinct":"25SR03","hd":"51","v_score":"8.363183621","decile":"8","lat":40.402279053915244,"lng":-111.93421424667561,"phone":"(480) 972-6539","sd":"18","ssbd":"10","lsbd":"School Board Lake Mountain 2"},{"vid":"1849600","name":"Dr. Skyler Schuster","party":"","address":"2129 N Elderberry Dr, Saratoga Springs, UT 84045","precinct":"25SR03","hd":"51","v_score":"1.121327652","decile":"3","lat":40.40082805896649,"lng":-111.93809009439829,"phone":"(801) 114-9664","sd":"18","ssbd":"10","lsbd":"School Board Lake Mountain 2"},{"vid":"1856730","name":"Flavia Bartell","party":"Rep","address":"2153 N Elderberry Dr, Saratoga Springs, UT 84045","precinct":"25SR03","hd":"51","v_score":"1.193887297","decile":"3","lat":40.40134163496679,"lng":-111.9380368999401,"phone":"(617) 808-9531","sd":"18","ssbd":"10","lsbd":"School Board Lake Mountain 2"},{"vid":"81d999671dfb8a872ae46210d58249088e5ccbec5eadcf31b3dc00df43ff9718","name":"Ms. Elle Murazik","party":"Rep","address":"2153 N Elderberry Dr, Saratoga Springs, UT 84045","precinct":"25SR03","hd":"51","v_score":"2.660162957","decile":"5","lat":40.40134163496679,"lng":-111.9380368999401,"phone":"(309) 236-7492","sd":"18","ssbd":"10","lsbd":"School Board Lake Mountain 2"},{"vid":"1863539","name":"Tavon Kiehn","party":"Rep","address":"2267 N Wild Hyacinth Dr, Saratoga Springs, UT 84045","precinct":"25SR03","hd":"51","v_score":"4.409183253","decile":"7","lat":40.40356046106083,"lng":-111.93736110678138,"phone":"(196) 776-0985","sd":"18","ssbd":"10","lsbd":"School Board Lake Mountain 2"},{"vid":"dfe2c00c85ebc2b77df174f985b5dfff0c96e19c02ccc958ee3653f3215d2e17","name":"Lem Spencer","party":"Rep","address":"568 W Pumpkin Patch Dr, Saratoga Springs, UT 84045","precinct":"25SR03","hd":"51","v_score":"5.40460374","decile":"7","lat":40.40294646831981,"lng":-111.93414647779167,"phone":"(499) 564-2618","sd":"18","ssbd":"10","lsbd":"School Board Lake Mountain 2"},{"vid":"0460c66bf2fe0fe4796c8b2d3d0deee26d1c4fd3092db8e7f2d721dad0f377a3","name":"Cayden Pfannerstill-Lynch","party":"Dem","address":"476 W Jack Frost Way, Saratoga Springs, UT 84045","precinct":"25SR03","hd":"51","v_score":"3.781490609","decile":"6","lat":40.40473023594009,"lng":-111.93206838041573,"phone":"(900) 027-4079","sd":"18","ssbd":"10","lsbd":"School Board Lake Mountain 2"},{"vid":"1878435","name":"Lanette Metz","party":"","address":"1994 N Churchill Rd, Saratoga Springs, UT 84045","precinct":"25SR03","hd":"51","v_score":"7.650280567","decile":"8","lat":40.3983283287582,"lng":-111.93399348726554,"phone":"(176) 219-1816","sd":"18","ssbd":"10","lsbd":"School Board Lake Mountain 2"},{"vid":"1879368","name":"Mr. Duwayne Conroy III","party":"","address":"286 W Snowberry Dr, Saratoga Springs, UT 84045","precinct":"25SR03","hd":"51","v_score":"0","decile":"1","lat":40.411947515256216,"lng":-111.9296012195996,"phone":"(577) 927-1136","sd":"18","ssbd":"10","lsbd":"School Board Lake Mountain 2"},{"vid":"1883175","name":"Mr. Lonzo Ondricka Jr.","party":"Dem","address":"1992 N Churchill Rd, Saratoga Springs, UT 84045","precinct":"25SR03","hd":"51","v_score":"0","decile":"1","lat":40.3982597231321,"lng":-111.93399333958249,"phone":"(930) 754-6555","sd":"18","ssbd":"10","lsbd":"School Board Lake Mountain 2"},{"vid":"1888330","name":"Dr. Joaquin Cormier","party":"","address":"739 W Wild Hyacinth Dr, Saratoga Springs, UT 84045","precinct":"25SR03","hd":"51","v_score":"8.421194992","decile":"8","lat":40.39797737870144,"lng":-111.9372084001459,"phone":"(658) 364-4190","sd":"18","ssbd":"10","lsbd":"School Board Lake Mountain 2"},{"vid":"1890763","name":"Cathi Harber-Stokes","party":"Dem","address":"738 W Hydrangea Way, Saratoga Springs, UT 84045","precinct":"25SR03","hd":"51","v_score":"1.121327652","decile":"3","lat":40.39738994425397,"lng":-111.93670340605738,"phone":"(202) 678-5994","sd":"18","ssbd":"10","lsbd":"School Board Lake Mountain 2"},{"vid":"a0f2fa0e85826da37f77a1371fb63b6ecca3883ef37275458ef332e04c392a5a","name":"Dr. Farris Beier","party":"Rep","address":"502 W Jack Frost Way, Saratoga Springs, UT 84045","precinct":"25SR03","hd":"51","v_score":"3.781490609","decile":"6","lat":40.40480757071945,"lng":-111.93290413526117,"phone":"(516) 744-4313","sd":"18","ssbd":"10","lsbd":"School Board Lake Mountain 2"},{"vid":"1893258","name":"Rollie Fay","party":"","address":"2243 N Wild Hyacinth Dr, Saratoga Springs, UT 84045","precinct":"25SR03","hd":"51","v_score":"1.193887297","decile":"3","lat":40.40296502099395,"lng":-111.93750688164506,"phone":"(312) 967-8511","sd":"18","ssbd":"10","lsbd":"School Board Lake Mountain 2"},{"vid":"1895082","name":"Shaneka Koelpin-Daugherty","party":"Dem","address":"2008 N Churchill Rd, Saratoga Springs, UT 84045","precinct":"25SR03","hd":"51","v_score":"0","decile":"1","lat":40.39857528276517,"lng":-111.93399397828466,"phone":"(496) 430-4513","sd":"18","ssbd":"10","lsbd":"School Board Lake Mountain 2"},{"vid":"1897930","name":"Tate Schoen-Reynolds","party":"","address":"2651 N Geranium Dr, Saratoga Springs, UT 84045","precinct":"25SR03","hd":"51","v_score":"1.623113131","decile":"4","lat":40.41055783501305,"lng":-111.92973431533807,"phone":"(769) 995-2957","sd":"18","ssbd":"10","lsbd":"School Board Lake Mountain 2"},{"vid":"6c11bbd1de78a57abe94c45b263d767970506d9ce0fe127820dcf7b52bee7290","name":"Carmella Anderson","party":"Rep","address":"2701 N Red Clover Cir, Saratoga Springs, UT 84045","precinct":"25SR03","hd":"51","v_score":"3.781490609","decile":"6","lat":40.411255906595564,"lng":-111.9310447074428,"phone":"(369) 002-6329","sd":"18","ssbd":"10","lsbd":"School Board Lake Mountain 2"},{"vid":"1909037","name":"Anibal Murazik","party":"","address":"2273 N Elderberry Dr, Saratoga Springs, UT 84045","precinct":"25SR03","hd":"51","v_score":"1.193887297","decile":"3","lat":40.403374959872615,"lng":-111.93635110364497,"phone":"(896) 181-0632","sd":"18","ssbd":"10","lsbd":"School Board Lake Mountain 2"},{"vid":"1921414","name":"Miss Levina Green DDS","party":"Dem","address":"712 W Blue Violet Dr, Saratoga Springs, UT 84045","precinct":"25SR03","hd":"51","v_score":"4.069929862","decile":"6","lat":40.39657695986583,"lng":-111.93609189246925,"phone":"(521) 590-7128","sd":"18","ssbd":"10","lsbd":"School Board Lake Mountain 2"},{"vid":"1925558","name":"Maya Murphy DDS","party":"","address":"484 W Jack Frost Way, Saratoga Springs, UT 84045","precinct":"25SR03","hd":"51","v_score":"1.121327652","decile":"3","lat":40.40483814925501,"lng":-111.9324617142898,"phone":"(450) 977-2714","sd":"18","ssbd":"10","lsbd":"School Board Lake Mountain 2"},{"vid":"1933930","name":"Amos Dibbert-Ullrich","party":"Rep","address":"2181 N Wallflower Dr, Saratoga Springs, UT 84045","precinct":"25SR03","hd":"51","v_score":"2.315214949","decile":"5","lat":40.40183492348223,"lng":-111.9369474481238,"phone":"(618) 812-9904","sd":"18","ssbd":"10","lsbd":"School Board Lake Mountain 2"},{"vid":"1939370","name":"Christop Beer","party":"Rep","address":"2187 N Wallflower Dr, Saratoga Springs, UT 84045","precinct":"25SR03","hd":"51","v_score":"11.2235539","decile":"9","lat":40.40199835948679,"lng":-111.93682642390395,"phone":"(520) 747-2323","sd":"18","ssbd":"10","lsbd":"School Board Lake Mountain 2"},{"vid":"1939712","name":"Grafton Parisian","party":"Dem","address":"2534 N Yarrow Cir, Saratoga Springs, UT 84045","precinct":"25SR03","hd":"51","v_score":"28.4537018","decile":"10","lat":40.40836244844011,"lng":-111.93266205301775,"phone":"(871) 447-1037","sd":"18","ssbd":"10","lsbd":"School Board Lake Mountain 2"},{"vid":"1945826","name":"Dejon Sipes-Schmidt","party":"","address":"388 W Watercress Dr, Saratoga Springs, UT 84045","precinct":"25SR03","hd":"51","v_score":"5.40460374","decile":"7","lat":40.41122143487034,"lng":-111.93173381997839,"phone":"(333) 058-6298","sd":"18","ssbd":"10","lsbd":"School Board Lake Mountain 2"},{"vid":"1946608","name":"Dr. Jasmyne Blick","party":"Rep","address":"2146 N Wallflower Dr, Saratoga Springs, UT 84045","precinct":"25SR03","hd":"51","v_score":"2.315214949","decile":"5","lat":40.4011737768338,"lng":-111.9366095719954,"phone":"(790) 226-1066","sd":"18","ssbd":"10","lsbd":"School Board Lake Mountain 2"},{"vid":"1951751","name":"Ms. Carlota Schultz DVM","party":"","address":"2067 N Wallflower Cir, Saratoga Springs, UT 84045","precinct":"25SR03","hd":"51","v_score":"2.315214949","decile":"5","lat":40.39965101942207,"lng":-111.93620544180715,"phone":"(381) 528-2012","sd":"18","ssbd":"10","lsbd":"School Board Lake Mountain 2"},{"vid":"1957332","name":"Zollie Renner","party":"Rep","address":"2602 N Yarrow Cir, Saratoga Springs, UT 84045","precinct":"25SR03","hd":"51","v_score":"2.817000428","decile":"6","lat":40.40957259624649,"lng":-111.9318718908767,"phone":"(664) 790-4312","sd":"18","ssbd":"10","lsbd":"School Board Lake Mountain 2"},{"vid":"1958598","name":"Annabelle Bins MD","party":"Dem","address":"2258 N Wild Hyacinth Dr, Saratoga Springs, UT 84045","precinct":"25SR03","hd":"51","v_score":"2.744440783","decile":"5","lat":40.40326570255223,"lng":-111.93706723667583,"phone":"(695) 749-7226","sd":"18","ssbd":"10","lsbd":"School Board Lake Mountain 2"},{"vid":"1987954","name":"Trinity Buckridge DDS","party":"","address":"2149 N Wild Hyacinth Dr, Saratoga Springs, UT 84045","precinct":"25SR03","hd":"51","v_score":"2.315214949","decile":"5","lat":40.40117857038608,"lng":-111.93624991404408,"phone":"(553) 087-9676","sd":"18","ssbd":"10","lsbd":"School Board Lake Mountain 2"},{"vid":"1988742","name":"Rafaela Schulist","party":"","address":"2049 N Belmont Dr, Saratoga Springs, UT 84045","precinct":"25SR03","hd":"51","v_score":"7.153624035","decile":"8","lat":40.39932730317916,"lng":-111.93534996077187,"phone":"(823) 390-9154","sd":"18","ssbd":"10","lsbd":"School Board Lake Mountain 2"},{"vid":"1990028","name":"Willodean Schultz DVM","party":"Rep","address":"242 W Snowberry Dr, Saratoga Springs, UT 84045","precinct":"25SR03","hd":"51","v_score":"5.407962308","decile":"7","lat":40.41160955365522,"lng":-111.92830594709211,"phone":"(790) 143-0005","sd":"18","ssbd":"10","lsbd":"School Board Lake Mountain 2"},{"vid":"2002052","name":"Felicie Simonis-Kozey","party":"","address":"764 W Hydrangea Way, Saratoga Springs, UT 84045","precinct":"25SR03","hd":"51","v_score":"9.61867875","decile":"8","lat":40.397345187851435,"lng":-111.9372316175866,"phone":"(864) 654-2147","sd":"18","ssbd":"10","lsbd":"School Board Lake Mountain 2"},{"vid":"2006199","name":"Cordero Rogahn-Pollich","party":"Dem","address":"529 W Crenshaw Way, Saratoga Springs, UT 84045","precinct":"25SR03","hd":"51","v_score":"0","decile":"1","lat":40.403153992924956,"lng":-111.93312642802329,"phone":"(562) 433-2064","sd":"18","ssbd":"10","lsbd":"School Board Lake Mountain 2"},{"vid":"2009386","name":"Neveah Bashirian-Aufderhar","party":"","address":"2542 N Velvet Moon Dr, Saratoga Springs, UT 84045","precinct":"25SR03","hd":"51","v_score":"1.193887297","decile":"3","lat":40.40852517542357,"lng":-111.9341081649915,"phone":"(490) 551-1600","sd":"18","ssbd":"10","lsbd":"School Board Lake Mountain 2"},{"vid":"2017987","name":"Dr. Citlali Cummerata","party":"","address":"2093 N Elderberry Dr, Saratoga Springs, UT 84045","precinct":"25SR03","hd":"51","v_score":"0","decile":"1","lat":40.400106543933006,"lng":-111.93795017169745,"phone":"(889) 930-0614","sd":"18","ssbd":"10","lsbd":"School Board Lake Mountain 2"},{"vid":"2018439","name":"Aja Towne","party":"Dem","address":"2503 N Geranium Dr, Saratoga Springs, UT 84045","precinct":"25SR03","hd":"51","v_score":"1.193887297","decile":"3","lat":40.40771216576824,"lng":-111.9325212957089,"phone":"(574) 253-2315","sd":"18","ssbd":"10","lsbd":"School Board Lake Mountain 2"},{"vid":"9ae55d5690fb55a13c78841019f727f09bbabb03aeb666da470bb00fdace3f4a","name":"Valerie O'Conner DVM","party":"","address":"2064 N Wallflower Cir, Saratoga Springs, UT 84045","precinct":"25SR03","hd":"51","v_score":"0","decile":"1","lat":40.39980218551296,"lng":-111.9357251589446,"phone":"(905) 527-4133","sd":"18","ssbd":"10","lsbd":"School Board Lake Mountain 2"},{"vid":"2021257","name":"Breana Prosacco DVM","party":"Rep","address":"2696 N Geranium Dr, Saratoga Springs, UT 84045","precinct":"25SR03","hd":"51","v_score":"8.016984044","decile":"8","lat":40.41117239366683,"lng":-111.92860497211878,"phone":"(801) 833-0580","sd":"18","ssbd":"10","lsbd":"School Board Lake Mountain 2"},{"vid":"2037002","name":"Dr. Jayvon Trantow","party":"Dem","address":"2627 N Snowberry Dr, Saratoga Springs, UT 84045","precinct":"25SR03","hd":"51","v_score":"18.55600055","decile":"10","lat":40.41050798627512,"lng":-111.93358940143324,"phone":"(493) 664-8992","sd":"18","ssbd":"10","lsbd":"School Board Lake Mountain 2"},{"vid":"2049973","name":"Nick Crona-Hansen","party":"","address":"2273 N Wild Hyacinth Dr, Saratoga Springs, UT 84045","precinct":"25SR03","hd":"51","v_score":"5.530510904","decile":"7","lat":40.40375847057004,"lng":-111.93726346595656,"phone":"(980) 191-5958","sd":"18","ssbd":"10","lsbd":"School Board Lake Mountain 2"},{"vid":"d9580e9c7a2fab37a195fa296e68ed66c0ba0f2d9886fa748b145a1dcea64c65","name":"Trinidad Kiehn","party":"Dem","address":"2086 N Elderberry Dr, Saratoga Springs, UT 84045","precinct":"25SR03","hd":"51","v_score":"0","decile":"1","lat":40.4001563466777,"lng":-111.9374780271048,"phone":"(882) 532-6690","sd":"18","ssbd":"10","lsbd":"School Board Lake Mountain 2"},{"vid":"2064871","name":"Emaline Feest-Gorczany","party":"","address":"2503 N Geranium Dr, Saratoga Springs, UT 84045","precinct":"25SR03","hd":"51","v_score":"1.121327652","decile":"3","lat":40.40771216576824,"lng":-111.9325212957089,"phone":"(403) 396-9101","sd":"18","ssbd":"10","lsbd":"School Board Lake Mountain 2"},{"vid":"2067272","name":"Ms. Glennie Berge PhD","party":"","address":"747 W Blue Violet Dr, Saratoga Springs, UT 84045","precinct":"25SR03","hd":"51","v_score":"1.193887297","decile":"3","lat":40.39628274230379,"lng":-111.93686759063056,"phone":"(895) 696-9297","sd":"18","ssbd":"10","lsbd":"School Board Lake Mountain 2"},{"vid":"2073987","name":"Floyd Wiegand","party":"Dem","address":"264 W Snowberry Dr, Saratoga Springs, UT 84045","precinct":"25SR03","hd":"51","v_score":"3.93832808","decile":"6","lat":40.411841939704274,"lng":-111.92905966238705,"phone":"(933) 203-7193","sd":"18","ssbd":"10","lsbd":"School Board Lake Mountain 2"},{"vid":"5372ab6a881c1c8c4e5d321e2b1b61a44e2e84c1380d5c2383ac15c3439aeef7","name":"Garret Brown MD","party":"","address":"1992 N Elderberry Dr, Saratoga Springs, UT 84045","precinct":"25SR03","hd":"51","v_score":"0","decile":"1","lat":40.39853309088886,"lng":-111.93574147003115,"phone":"(464) 772-2041","sd":"18","ssbd":"10","lsbd":"School Board Lake Mountain 2"},{"vid":"8b1650b4cfb3bcacbaae7516d384da06d3025f07a3ad366c5a13c2ec54227e4c","name":"Spencer Anderson","party":"Dem","address":"739 W Wild Hyacinth Dr, Saratoga Springs, UT 84045","precinct":"25SR03","hd":"51","v_score":"2.315214949","decile":"5","lat":40.39797737870144,"lng":-111.9372084001459,"phone":"(409) 963-5057","sd":"18","ssbd":"10","lsbd":"School Board Lake Mountain 2"},{"vid":"2100825","name":"Anona Kuhn PhD","party":"Rep","address":"2518 N Velvet Moon Dr, Saratoga Springs, UT 84045","precinct":"25SR03","hd":"51","v_score":"5.40460374","decile":"7","lat":40.407970640986086,"lng":-111.93434950935065,"phone":"(692) 051-5369","sd":"18","ssbd":"10","lsbd":"School Board Lake Mountain 2"},{"vid":"d666d1004278ce320f076d5f1545d0e7ffb74b4c57b5e39ef4f69103b242bfaa","name":"Dr. Juliette Harvey MD","party":"","address":"2111 N Wild Hyacinth Dr, Saratoga Springs, UT 84045","precinct":"25SR03","hd":"51","v_score":"2.315214949","decile":"5","lat":40.40056707661301,"lng":-111.93634419077452,"phone":"(856) 061-9303","sd":"18","ssbd":"10","lsbd":"School Board Lake Mountain 2"},{"vid":"3c89624a5d22508e48744a205fa4079aac004a0b5ae1b91399f4f0ba88af78f3","name":"Worth Quigley","party":"","address":"1992 N Elderberry Dr, Saratoga Springs, UT 84045","precinct":"25SR03","hd":"51","v_score":"6.724398202","decile":"8","lat":40.39853309088886,"lng":-111.93574147003115,"phone":"(301) 805-8831","sd":"18","ssbd":"10","lsbd":"School Board Lake Mountain 2"},{"vid":"2113310","name":"Mrs. Lila Harvey MD","party":"Rep","address":"2187 N Wallflower Dr, Saratoga Springs, UT 84045","precinct":"25SR03","hd":"51","v_score":"5.40460374","decile":"7","lat":40.40199835948679,"lng":-111.93682642390395,"phone":"(707) 851-5291","sd":"18","ssbd":"10","lsbd":"School Board Lake Mountain 2"},{"vid":"2584e6946722f710e3af45bfa92b0226fdfff7d8ec386eb8471daeb92ae94a0a","name":"Dione Heidenreich","party":"","address":"2293 N Elderberry Dr, Saratoga Springs, UT 84045","precinct":"25SR03","hd":"51","v_score":"17.98456202","decile":"10","lat":40.40383625630908,"lng":-111.9360772834799,"phone":"(331) 517-6621","sd":"18","ssbd":"10","lsbd":"School Board Lake Mountain 2"},{"vid":"b502752d4fc420a78b85c398ce604d88dc8a60fb6c5ad36fbb0b7ed064a16978","name":"Cleon Jaskolski","party":"Rep","address":"531 W Muskmelon Way, Saratoga Springs, UT 84045","precinct":"25SR03","hd":"51","v_score":"2.315214949","decile":"5","lat":40.401526101827045,"lng":-111.9328255396344,"phone":"(690) 643-4987","sd":"18","ssbd":"10","lsbd":"School Board Lake Mountain 2"},{"vid":"e8ac77f3dba545f543b50444a8bc327906ebebed6ae49b4047d9d7eb6a97e657","name":"Dorene Prosacco","party":"Rep","address":"2123 N Wild Hyacinth Dr, Saratoga Springs, UT 84045","precinct":"25SR03","hd":"51","v_score":"0","decile":"1","lat":40.400731733053426,"lng":-111.9362728411942,"phone":"(136) 527-1506","sd":"18","ssbd":"10","lsbd":"School Board Lake Mountain 2"},{"vid":"a47e52558f642275e523f2cfc24f12dbd1998f0db0aca6c7c7c00a73214845e1","name":"Omari Larkin","party":"Rep","address":"621 W Casaba Ct, Saratoga Springs, UT 84045","precinct":"25SR03","hd":"51","v_score":"26.41733837","decile":"10","lat":40.40206388122262,"lng":-111.93501164739371,"phone":"(543) 294-8681","sd":"18","ssbd":"10","lsbd":"School Board Lake Mountain 2"},{"vid":"2153771","name":"Unknown Hodkiewicz","party":"Dem","address":"2234 N Honeydew Dr, Saratoga Springs, UT 84045","precinct":"25SR03","hd":"51","v_score":"3.781490609","decile":"6","lat":40.40277017564923,"lng":-111.93198886192509,"phone":"(859) 705-4752","sd":"18","ssbd":"10","lsbd":"School Board Lake Mountain 2"},{"vid":"2160580","name":"Kellen Franecki-Grady","party":"Dem","address":"584 W Crenshaw Ct, Saratoga Springs, UT 84045","precinct":"25SR03","hd":"51","v_score":"2.587603312","decile":"5","lat":40.40403128425769,"lng":-111.93473431253089,"phone":"(967) 025-4174","sd":"18","ssbd":"10","lsbd":"School Board Lake Mountain 2"},{"vid":"2161210","name":"Linsey Wolf-Hilpert","party":"","address":"551 W Crenshaw Way, Saratoga Springs, UT 84045","precinct":"25SR03","hd":"51","v_score":"7.008419981","decile":"8","lat":40.40336300272433,"lng":-111.93380257017472,"phone":"(721) 454-6327","sd":"18","ssbd":"10","lsbd":"School Board Lake Mountain 2"},{"vid":"2164036","name":"Sybilla Bode","party":"Rep","address":"2503 N Geranium Dr, Saratoga Springs, UT 84045","precinct":"25SR03","hd":"51","v_score":"3.781490609","decile":"6","lat":40.40771216576824,"lng":-111.9325212957089,"phone":"(220) 099-1762","sd":"18","ssbd":"10","lsbd":"School Board Lake Mountain 2"},{"vid":"a77c04f7b538c8f3104b4fe8fe507826ce2979cc7cb6f4ecc4c34afb528dfab2","name":"Caryn Kuhlman","party":"Dem","address":"2018 N Belmont Dr, Saratoga Springs, UT 84045","precinct":"25SR03","hd":"51","v_score":"2.587603312","decile":"5","lat":40.39875731141447,"lng":-111.93491490128987,"phone":"(489) 920-0671","sd":"18","ssbd":"10","lsbd":"School Board Lake Mountain 2"},{"vid":"dd45b466ec5dc213aeee139f959fa4cc46595215eb177a520dfc4d54459a2987","name":"Dr. Colette Swift MD","party":"Dem","address":"358 W Watercress Dr, Saratoga Springs, UT 84045","precinct":"25SR03","hd":"51","v_score":"3.089388791","decile":"6","lat":40.41055459117413,"lng":-111.93065464720543,"phone":"(782) 809-1430","sd":"18","ssbd":"10","lsbd":"School Board Lake Mountain 2"},{"vid":"2173477","name":"Dr. Dwane Kuvalis II","party":"Dem","address":"2129 N Elderberry Dr, Saratoga Springs, UT 84045","precinct":"25SR03","hd":"51","v_score":"2.315214949","decile":"5","lat":40.40082805896649,"lng":-111.93809009439829,"phone":"(289) 663-2987","sd":"18","ssbd":"10","lsbd":"School Board Lake Mountain 2"},{"vid":"c175d2453236ddcec14791575f2eaf738ae958c7aacedb49f84a124a9ebb801e","name":"Reynaldo Hackett DVM","party":"Rep","address":"2241 N Honeydew Dr, Saratoga Springs, UT 84045","precinct":"25SR03","hd":"51","v_score":"0","decile":"1","lat":40.40292885345634,"lng":-111.93241503373538,"phone":"(984) 708-6849","sd":"18","ssbd":"10","lsbd":"School Board Lake Mountain 2"},{"vid":"983020b06566024c99f0d44784713f68ab9188e9231c757cc0d0dc400ee13ae1","name":"Dickie Kunze","party":"Dem","address":"357 W Watercress Dr, Saratoga Springs, UT 84045","precinct":"25SR03","hd":"51","v_score":"2.315214949","decile":"5","lat":40.410378976192305,"lng":-111.93122167639049,"phone":"(995) 275-7502","sd":"18","ssbd":"10","lsbd":"School Board Lake Mountain 2"},{"vid":"2180657","name":"Burnett Gorczany","party":"","address":"2291 N Wild Hyacinth Dr, Saratoga Springs, UT 84045","precinct":"25SR03","hd":"51","v_score":"0","decile":"1","lat":40.404202216934316,"lng":-111.93644366708212,"phone":"(310) 026-2163","sd":"18","ssbd":"10","lsbd":"School Board Lake Mountain 2"},{"vid":"2184644","name":"Milda Shields","party":"Rep","address":"536 W Autumn Sky Dr, Saratoga Springs, UT 84045","precinct":"25SR03","hd":"51","v_score":"1.121327652","decile":"3","lat":40.40558554529318,"lng":-111.9340464633057,"phone":"(627) 648-0238","sd":"18","ssbd":"10","lsbd":"School Board Lake Mountain 2"},{"vid":"1df060ef30a4d0acdda64ed970df0ed8b16ae2d20cdc652aba94e90bdbf1520a","name":"Doyle Zieme","party":"","address":"357 W Snowberry Dr, Saratoga Springs, UT 84045","precinct":"25SR03","hd":"51","v_score":"0","decile":"1","lat":40.41157168982833,"lng":-111.93145232492732,"phone":"(918) 158-8948","sd":"18","ssbd":"10","lsbd":"School Board Lake Mountain 2"},{"vid":"a8921a2444b452dc202e59dc1f40421dd3317c8eda205f40c6a38b9d5f6c53c0","name":"Brandy Schmidt-Little","party":"Rep","address":"2146 N Wild Hyacinth Dr, Saratoga Springs, UT 84045","precinct":"25SR03","hd":"51","v_score":"1.121327652","decile":"3","lat":40.40114796619764,"lng":-111.93565092468899,"phone":"(281) 993-8333","sd":"18","ssbd":"10","lsbd":"School Board Lake Mountain 2"},{"vid":"5a546b9976103caaf9a50bae12810cbfb252572872d8223335d52d2abfe54a3c","name":"Andrea Powlowski","party":"Dem","address":"2381 N Elderberry Cir, Saratoga Springs, UT 84045","precinct":"25SR03","hd":"51","v_score":"2.315214949","decile":"5","lat":40.40541329234057,"lng":-111.93636841982203,"phone":"(477) 446-2205","sd":"18","ssbd":"10","lsbd":"School Board Lake Mountain 2"},{"vid":"8624753140621eda5198373cf8b6d0502f7a03768371ff3a6b0cd09205a28629","name":"Aliza Wolff","party":"Dem","address":"2381 N Elderberry Cir, Saratoga Springs, UT 84045","precinct":"25SR03","hd":"51","v_score":"2.315214949","decile":"5","lat":40.40541329234057,"lng":-111.93636841982203,"phone":"(571) 214-9867","sd":"18","ssbd":"10","lsbd":"School Board Lake Mountain 2"},{"vid":"857872233fef813dcedaa462b7f7e8b1b81795a83db8a14def2fdc61275d2727","name":"Kamari Goldner","party":"Rep","address":"272 W Snowberry Dr, Saratoga Springs, UT 84045","precinct":"25SR03","hd":"51","v_score":"0","decile":"1","lat":40.41187427802415,"lng":-111.92923113604532,"phone":"(325) 191-8926","sd":"18","ssbd":"10","lsbd":"School Board Lake Mountain 2"},{"vid":"1ca1e5d086119b7dbd353e7d89f763ad9f1d5b3bc38ff23ce1db8b29d4cb32f5","name":"Odelia Donnelly","party":"Rep","address":"2669 N Geranium Dr, Saratoga Springs, UT 84045","precinct":"25SR03","hd":"51","v_score":"5.170447576","decile":"7","lat":40.4108805360956,"lng":-111.92927229299143,"phone":"(230) 288-0221","sd":"18","ssbd":"10","lsbd":"School Board Lake Mountain 2"},{"vid":"2215596","name":"Collin Renner","party":"Dem","address":"747 W Gladiolus Cir, Saratoga Springs, UT 84045","precinct":"25SR03","hd":"51","v_score":"3.93832808","decile":"6","lat":40.39846576713159,"lng":-111.93677617152447,"phone":"(397) 605-2612","sd":"18","ssbd":"10","lsbd":"School Board Lake Mountain 2"},{"vid":"5362d327cacb66383d9063166c0142efdb22769cb011db3db530944272498238","name":"Enriqueta Turcotte-Mueller","party":"Dem","address":"2293 N Elderberry Dr, Saratoga Springs, UT 84045","precinct":"25SR03","hd":"51","v_score":"13.92577445","decile":"9","lat":40.40383625630908,"lng":-111.9360772834799,"phone":"(420) 461-7078","sd":"18","ssbd":"10","lsbd":"School Board Lake Mountain 2"},{"vid":"2221192","name":"Dr. Hayward Larkin PhD","party":"","address":"2121 N Elderberry Dr, Saratoga Springs, UT 84045","precinct":"25SR03","hd":"51","v_score":"5.258122542","decile":"7","lat":40.40065087185137,"lng":-111.9380656514191,"phone":"(665) 025-0325","sd":"18","ssbd":"10","lsbd":"School Board Lake Mountain 2"},{"vid":"5a49c5c5a71087bff241a0e597a7f93a9cf0976141beff0e00f6c2c3dda323e5","name":"Emmaline Adams","party":"Rep","address":"2578 N Geranium Dr, Saratoga Springs, UT 84045","precinct":"25SR03","hd":"51","v_score":"1.193887297","decile":"3","lat":40.40897033014692,"lng":-111.93120119664042,"phone":"(317) 636-2081","sd":"18","ssbd":"10","lsbd":"School Board Lake Mountain 2"},{"vid":"d1196c6e353b912e6d079ab69bed1e1f11a11fe1a3f35caba2fe127908ffde20","name":"Miss Idella Renner","party":"","address":"2118 N Wild Hyacinth Dr, Saratoga Springs, UT 84045","precinct":"25SR03","hd":"51","v_score":"3.93832808","decile":"6","lat":40.400548399425084,"lng":-111.93579047459363,"phone":"(235) 048-4623","sd":"18","ssbd":"10","lsbd":"School Board Lake Mountain 2"},{"vid":"2252145","name":"Rohan Ernser","party":"Dem","address":"1983 N Churchill Rd, Saratoga Springs, UT 84045","precinct":"25SR03","hd":"51","v_score":"3.93832808","decile":"6","lat":40.39812216099002,"lng":-111.93442739905991,"phone":"(806) 453-2613","sd":"18","ssbd":"10","lsbd":"School Board Lake Mountain 2"},{"vid":"f0cf5b509bf7fd8b72292102e9d1727bce1b5ef167b62d583d8992b4bbd69b46","name":"Kavon Schmidt","party":"","address":"728 W Wild Hyacinth Dr, Saratoga Springs, UT 84045","precinct":"25SR03","hd":"51","v_score":"0","decile":"1","lat":40.398277322893996,"lng":-111.93644956111254,"phone":"(572) 901-3729","sd":"18","ssbd":"10","lsbd":"School Board Lake Mountain 2"},{"vid":"2263346","name":"Kael Morissette-Krajcik","party":"Dem","address":"2043 N Belmont Dr, Saratoga Springs, UT 84045","precinct":"25SR03","hd":"51","v_score":"1.121327652","decile":"3","lat":40.39921204573935,"lng":-111.93534971750809,"phone":"(428) 091-1535","sd":"18","ssbd":"10","lsbd":"School Board Lake Mountain 2"},{"vid":"2264950","name":"Ms. Myah Daniel PhD","party":"Rep","address":"2038 N Churchill Rd, Saratoga Springs, UT 84045","precinct":"25SR03","hd":"51","v_score":"3.93832808","decile":"6","lat":40.39911040942853,"lng":-111.9339950417103,"phone":"(400) 457-9810","sd":"18","ssbd":"10","lsbd":"School Board Lake Mountain 2"},{"vid":"4e7b7c1a2063b08cafab07951a19f6bb66efc727a949cb91122d0df53ef88a23","name":"Mr. Jaeden Heathcote","party":"Dem","address":"1998 N Churchill Rd, Saratoga Springs, UT 84045","precinct":"25SR03","hd":"51","v_score":"0","decile":"1","lat":40.39839693431435,"lng":-111.93399360009393,"phone":"(144) 167-6867","sd":"18","ssbd":"10","lsbd":"School Board Lake Mountain 2"},{"vid":"78ad7ed7aa71b9eea21e9d16e03c10ac8340937846ace21ab4d2b747e1297af2","name":"Florence Marquardt-Runte","party":"","address":"498 W Autumn Sky Dr, Saratoga Springs, UT 84045","precinct":"25SR03","hd":"51","v_score":"2.817000428","decile":"6","lat":40.40564781188836,"lng":-111.93305159255104,"phone":"(661) 742-5949","sd":"18","ssbd":"10","lsbd":"School Board Lake Mountain 2"},{"vid":"b79159e4b07bb5050ea5f89613207a98b1a1d407108b69b88672e0d7516961c8","name":"Nada Nolan","party":"","address":"2049 N Elderberry Dr, Saratoga Springs, UT 84045","precinct":"25SR03","hd":"51","v_score":"2.315214949","decile":"5","lat":40.39935749326216,"lng":-111.9371347247462,"phone":"(100) 561-3561","sd":"18","ssbd":"10","lsbd":"School Board Lake Mountain 2"},{"vid":"8063292c0687871980b494dff91716e3190222373246d885c769e8f00767a584","name":"Abelardo Sauer","party":"","address":"547 W Jack Frost Way, Saratoga Springs, UT 84045","precinct":"25SR03","hd":"51","v_score":"2.315214949","decile":"5","lat":40.40443927950798,"lng":-111.93393095723349,"phone":"(156) 236-5435","sd":"18","ssbd":"10","lsbd":"School Board Lake Mountain 2"},{"vid":"f1e18a452ccf09533d7463f018e6388f7457aed252aba5d51c8d97d3b638ab52","name":"Dr. Glynn Cronin","party":"","address":"1988 N Belmont Dr, Saratoga Springs, UT 84045","precinct":"25SR03","hd":"51","v_score":"0","decile":"1","lat":40.398249664390164,"lng":-111.93491347799913,"phone":"(715) 758-8200","sd":"18","ssbd":"10","lsbd":"School Board Lake Mountain 2"},{"vid":"32220d2999ac5aef0c424ee3e239095b7514f524b84808e70ffd63c7c378cfb6","name":"Wiliam Becker","party":"Dem","address":"2157 N Wild Hyacinth Dr, Saratoga Springs, UT 84045","precinct":"25SR03","hd":"51","v_score":"2.942907593","decile":"6","lat":40.40131066673517,"lng":-111.93627154706314,"phone":"(293) 472-2316","sd":"18","ssbd":"10","lsbd":"School Board Lake Mountain 2"},{"vid":"f36eb9359f72a59f5662b63a79add1e4af2ca23956e31642ce28ff6faac19775","name":"Netta Kessler-Herzog","party":"","address":"532 W Jack Frost Way, Saratoga Springs, UT 84045","precinct":"25SR03","hd":"51","v_score":"1.121327652","decile":"3","lat":40.40488263212987,"lng":-111.93353765385334,"phone":"(156) 262-9032","sd":"18","ssbd":"10","lsbd":"School Board Lake Mountain 2"},{"vid":"2318366","name":"Bartholomew Hane","party":"","address":"278 W Snowberry Dr, Saratoga Springs, UT 84045","precinct":"25SR03","hd":"51","v_score":"2.315214949","decile":"5","lat":40.4119387304891,"lng":-111.92942862610438,"phone":"(762) 155-7995","sd":"18","ssbd":"10","lsbd":"School Board Lake Mountain 2"},{"vid":"2327350","name":"Dr. Jiles O'Connell DVM","party":"","address":"598 W Crenshaw Ct, Saratoga Springs, UT 84045","precinct":"25SR03","hd":"51","v_score":"8.173821515","decile":"8","lat":40.404103825791225,"lng":-111.93516437489653,"phone":"(241) 029-4236","sd":"18","ssbd":"10","lsbd":"School Board Lake Mountain 2"},{"vid":"2328337","name":"Charmaine Glover-Mohr","party":"","address":"598 W Crenshaw Ct, Saratoga Springs, UT 84045","precinct":"25SR03","hd":"51","v_score":"8.173821515","decile":"8","lat":40.404103825791225,"lng":-111.93516437489653,"phone":"(180) 924-1787","sd":"18","ssbd":"10","lsbd":"School Board Lake Mountain 2"},{"vid":"2333498","name":"Angelia Gusikowski DDS","party":"","address":"1998 N Belmont Dr, Saratoga Springs, UT 84045","precinct":"25SR03","hd":"51","v_score":"1.193887297","decile":"3","lat":40.39843627271771,"lng":-111.93491386373572,"phone":"(700) 643-8155","sd":"18","ssbd":"10","lsbd":"School Board Lake Mountain 2"},{"vid":"2334831","name":"Dr. Marvel Cremin","party":"","address":"1983 N Elderberry Dr, Saratoga Springs, UT 84045","precinct":"25SR03","hd":"51","v_score":"1.121327652","decile":"3","lat":40.3982049103131,"lng":-111.93607861458773,"phone":"(465) 332-3592","sd":"18","ssbd":"10","lsbd":"School Board Lake Mountain 2"},{"vid":"2335520","name":"Paul McDermott-Schuppe","party":"Dem","address":"526 W Autumn Sky Dr, Saratoga Springs, UT 84045","precinct":"25SR03","hd":"51","v_score":"2.817000428","decile":"6","lat":40.40564278785782,"lng":-111.93378999064659,"phone":"(899) 992-0327","sd":"18","ssbd":"10","lsbd":"School Board Lake Mountain 2"},{"vid":"2335799","name":"Izayah Cole","party":"Dem","address":"1998 N Belmont Dr, Saratoga Springs, UT 84045","precinct":"25SR03","hd":"51","v_score":"1.193887297","decile":"3","lat":40.39843627271771,"lng":-111.93491386373572,"phone":"(544) 211-7650","sd":"18","ssbd":"10","lsbd":"School Board Lake Mountain 2"},{"vid":"2337380","name":"Susan Jaskolski DVM","party":"Dem","address":"633 W Saratoga Chase Dr, Saratoga Springs, UT 84045","precinct":"25SR03","hd":"51","v_score":"1.193887297","decile":"3","lat":40.39786067208209,"lng":-111.93405106532263,"phone":"(709) 751-5323","sd":"18","ssbd":"10","lsbd":"School Board Lake Mountain 2"},{"vid":"2340046","name":"Kyan Greenholt","party":"Rep","address":"2163 N Wild Hyacinth Dr, Saratoga Springs, UT 84045","precinct":"25SR03","hd":"51","v_score":"6.814370645","decile":"8","lat":40.40145301122044,"lng":-111.93624746972819,"phone":"(901) 173-7037","sd":"18","ssbd":"10","lsbd":"School Board Lake Mountain 2"},{"vid":"2340051","name":"Ms. Melany Herzog","party":"Rep","address":"2163 N Wild Hyacinth Dr, Saratoga Springs, UT 84045","precinct":"25SR03","hd":"51","v_score":"3.93832808","decile":"6","lat":40.40145301122044,"lng":-111.93624746972819,"phone":"(927) 367-5484","sd":"18","ssbd":"10","lsbd":"School Board Lake Mountain 2"},{"vid":"2344856","name":"Humphrey Satterfield I","party":"Dem","address":"603 W Crenshaw Ct, Saratoga Springs, UT 84045","precinct":"25SR03","hd":"51","v_score":"3.93832808","decile":"6","lat":40.403763670159336,"lng":-111.9351541274549,"phone":"(651) 139-3456","sd":"18","ssbd":"10","lsbd":"School Board Lake Mountain 2"},{"vid":"2348419","name":"Dr. Sigmund Schimmel Sr.","party":"","address":"499 W Flora Dr, Saratoga Springs, UT 84045","precinct":"25SR03","hd":"51","v_score":"1.121327652","decile":"3","lat":40.4071335218851,"lng":-111.93379343890311,"phone":"(813) 115-1908","sd":"18","ssbd":"10","lsbd":"School Board Lake Mountain 2"},{"vid":"2349366","name":"Amanda Hackett","party":"","address":"2028 N Churchill Rd, Saratoga Springs, UT 84045","precinct":"25SR03","hd":"51","v_score":"1.121327652","decile":"3","lat":40.39893203420985,"lng":-111.93399469891318,"phone":"(622) 992-9383","sd":"18","ssbd":"10","lsbd":"School Board Lake Mountain 2"},{"vid":"2350383","name":"Joette Eichmann MD","party":"Dem","address":"712 W Blue Violet Dr, Saratoga Springs, UT 84045","precinct":"25SR03","hd":"51","v_score":"12.08307454","decile":"9","lat":40.39657695986583,"lng":-111.93609189246925,"phone":"(997) 707-5768","sd":"18","ssbd":"10","lsbd":"School Board Lake Mountain 2"},{"vid":"2350396","name":"Lafe Reinger-O'Kon","party":"","address":"712 W Blue Violet Dr, Saratoga Springs, UT 84045","precinct":"25SR03","hd":"51","v_score":"12.08307454","decile":"9","lat":40.39657695986583,"lng":-111.93609189246925,"phone":"(401) 702-7031","sd":"18","ssbd":"10","lsbd":"School Board Lake Mountain 2"},{"vid":"2361726","name":"River Ryan","party":"Dem","address":"2597 N Velvet Moon Dr, Saratoga Springs, UT 84045","precinct":"25SR03","hd":"51","v_score":"1.121327652","decile":"3","lat":40.409700355102785,"lng":-111.9338710640877,"phone":"(813) 089-3687","sd":"18","ssbd":"10","lsbd":"School Board Lake Mountain 2"},{"vid":"2362120","name":"Lyla Reichel","party":"","address":"2104 N Wild Hyacinth Dr, Saratoga Springs, UT 84045","precinct":"25SR03","hd":"51","v_score":"2.315214949","decile":"5","lat":40.40027700807032,"lng":-111.93600541891443,"phone":"(846) 466-4799","sd":"18","ssbd":"10","lsbd":"School Board Lake Mountain 2"},{"vid":"2363915","name":"Fannie Welch DDS","party":"Rep","address":"549 W Muskmelon Way, Saratoga Springs, UT 84045","precinct":"25SR03","hd":"51","v_score":"1.121327652","decile":"3","lat":40.401647181081884,"lng":-111.93317714300889,"phone":"(544) 974-5307","sd":"18","ssbd":"10","lsbd":"School Board Lake Mountain 2"},{"vid":"2371451","name":"Ladonna Murray-Treutel","party":"","address":"728 W Hydrangea Way, Saratoga Springs, UT 84045","precinct":"25SR03","hd":"51","v_score":"3.93832808","decile":"6","lat":40.39738853905502,"lng":-111.93652392931114,"phone":"(669) 325-6133","sd":"18","ssbd":"10","lsbd":"School Board Lake Mountain 2"},{"vid":"2372231","name":"Ilma Boyle","party":"Rep","address":"579 W Muskmelon Way, Saratoga Springs, UT 84045","precinct":"25SR03","hd":"51","v_score":"13.42110699","decile":"9","lat":40.40201241277966,"lng":-111.93410962834895,"phone":"(142) 653-0376","sd":"18","ssbd":"10","lsbd":"School Board Lake Mountain 2"},{"vid":"2383632","name":"Merlyn Ullrich-Hayes","party":"Rep","address":"541 W Muskmelon Way, Saratoga Springs, UT 84045","precinct":"25SR03","hd":"51","v_score":"3.93832808","decile":"6","lat":40.40157930089245,"lng":-111.93300110679134,"phone":"(215) 301-7506","sd":"18","ssbd":"10","lsbd":"School Board Lake Mountain 2"},{"vid":"2398461","name":"Governor Witting-Paucek","party":"","address":"2136 N Wallflower Dr, Saratoga Springs, UT 84045","precinct":"25SR03","hd":"51","v_score":"1.121327652","decile":"3","lat":40.401033430649235,"lng":-111.93654970574956,"phone":"(612) 356-8552","sd":"18","ssbd":"10","lsbd":"School Board Lake Mountain 2"},{"vid":"2416313","name":"Rory Rosenbaum","party":"Dem","address":"2214 N Honeydew Dr, Saratoga Springs, UT 84045","precinct":"25SR03","hd":"51","v_score":"1.121327652","decile":"3","lat":40.40233568736064,"lng":-111.93207187564454,"phone":"(123) 311-5930","sd":"18","ssbd":"10","lsbd":"School Board Lake Mountain 2"},{"vid":"2416510","name":"Curt Klocko","party":"Dem","address":"563 W Jack Frost Way, Saratoga Springs, UT 84045","precinct":"25SR03","hd":"51","v_score":"0","decile":"1","lat":40.40466017387147,"lng":-111.93444554742415,"phone":"(940) 348-5917","sd":"18","ssbd":"10","lsbd":"School Board Lake Mountain 2"},{"vid":"2420398","name":"Georgie Marks","party":"Dem","address":"2641 N Snowberry Dr, Saratoga Springs, UT 84045","precinct":"25SR03","hd":"51","v_score":"2.315214949","decile":"5","lat":40.41077178417299,"lng":-111.93351444075861,"phone":"(649) 569-8043","sd":"18","ssbd":"10","lsbd":"School Board Lake Mountain 2"},{"vid":"2422873","name":"Nolen Zulauf","party":"Rep","address":"2146 N Wild Hyacinth Dr, Saratoga Springs, UT 84045","precinct":"25SR03","hd":"51","v_score":"1.121327652","decile":"3","lat":40.40114796619764,"lng":-111.93565092468899,"phone":"(856) 629-0046","sd":"18","ssbd":"10","lsbd":"School Board Lake Mountain 2"},{"vid":"2423141","name":"Leonce Steuber DDS","party":"Rep","address":"673 W Saratoga Chase Dr, Saratoga Springs, UT 84045","precinct":"25SR03","hd":"51","v_score":"0","decile":"1","lat":40.39785278468796,"lng":-111.93504492811535,"phone":"(123) 342-8083","sd":"18","ssbd":"10","lsbd":"School Board Lake Mountain 2"},{"vid":"2425242","name":"Jamil Rodriguez-Crooks","party":"","address":"531 W Muskmelon Way, Saratoga Springs, UT 84045","precinct":"25SR03","hd":"51","v_score":"6.814370645","decile":"8","lat":40.401526101827045,"lng":-111.9328255396344,"phone":"(676) 428-2180","sd":"18","ssbd":"10","lsbd":"School Board Lake Mountain 2"},{"vid":"2425444","name":"Vira Anderson","party":"","address":"507 W Autumn Sky Dr, Saratoga Springs, UT 84045","precinct":"25SR03","hd":"51","v_score":"1.121327652","decile":"3","lat":40.40516266665519,"lng":-111.9331379409817,"phone":"(486) 923-6940","sd":"18","ssbd":"10","lsbd":"School Board Lake Mountain 2"},{"vid":"2426902","name":"Mr. Casey Strosin DDS","party":"Rep","address":"2302 N Elderberry Dr, Saratoga Springs, UT 84045","precinct":"25SR03","hd":"51","v_score":"3.93832808","decile":"6","lat":40.40390515946874,"lng":-111.93563916214866,"phone":"(999) 105-3942","sd":"18","ssbd":"10","lsbd":"School Board Lake Mountain 2"},{"vid":"2428614","name":"Mr. Isai Barton III","party":"Rep","address":"1999 N Churchill Rd, Saratoga Springs, UT 84045","precinct":"25SR03","hd":"51","v_score":"2.315214949","decile":"5","lat":40.39842402783622,"lng":-111.93442798817507,"phone":"(759) 569-0053","sd":"18","ssbd":"10","lsbd":"School Board Lake Mountain 2"},{"vid":"2431902","name":"Frida Christiansen","party":"Rep","address":"2074 N Wallflower Cir, Saratoga Springs, UT 84045","precinct":"25SR03","hd":"51","v_score":"1.121327652","decile":"3","lat":40.40001445081455,"lng":-111.93580348302663,"phone":"(256) 802-4789","sd":"18","ssbd":"10","lsbd":"School Board Lake Mountain 2"},{"vid":"2435543","name":"Santina Marvin","party":"Rep","address":"572 W Crenshaw Ct, Saratoga Springs, UT 84045","precinct":"25SR03","hd":"51","v_score":"1.121327652","decile":"3","lat":40.40397213221664,"lng":-111.93421501197231,"phone":"(901) 053-1498","sd":"18","ssbd":"10","lsbd":"School Board Lake Mountain 2"},{"vid":"2436345","name":"Kody Wisozk","party":"","address":"2029 N Elderberry Dr, Saratoga Springs, UT 84045","precinct":"25SR03","hd":"51","v_score":"3.93832808","decile":"6","lat":40.39910770362677,"lng":-111.9367194062667,"phone":"(425) 312-8245","sd":"18","ssbd":"10","lsbd":"School Board Lake Mountain 2"},{"vid":"2436385","name":"Sunshine Nicolas","party":"Rep","address":"553 W Muskmelon Way, Saratoga Springs, UT 84045","precinct":"25SR03","hd":"51","v_score":"7.650280567","decile":"8","lat":40.401736774041794,"lng":-111.93341540053929,"phone":"(654) 428-8931","sd":"18","ssbd":"10","lsbd":"School Board Lake Mountain 2"},{"vid":"2438070","name":"Rowan Hahn","party":"Rep","address":"543 W Crenshaw Way, Saratoga Springs, UT 84045","precinct":"25SR03","hd":"51","v_score":"2.315214949","decile":"5","lat":40.403310475089214,"lng":-111.93356505591304,"phone":"(258) 847-5543","sd":"18","ssbd":"10","lsbd":"School Board Lake Mountain 2"},{"vid":"2438077","name":"Dayana Lebsack-Kreiger","party":"","address":"2132 N Wild Hyacinth Dr, Saratoga Springs, UT 84045","precinct":"25SR03","hd":"51","v_score":"1.121327652","decile":"3","lat":40.40082905727279,"lng":-111.9357319370656,"phone":"(526) 640-7245","sd":"18","ssbd":"10","lsbd":"School Board Lake Mountain 2"},{"vid":"2439587","name":"Keli Denesik","party":"","address":"2287 N Wild Hyacinth Dr, Saratoga Springs, UT 84045","precinct":"25SR03","hd":"51","v_score":"20.00910204","decile":"10","lat":40.40412600001535,"lng":-111.93669114211272,"phone":"(952) 901-0141","sd":"18","ssbd":"10","lsbd":"School Board Lake Mountain 2"},{"vid":"2441037","name":"Brannon Mayer","party":"Dem","address":"264 W Snowberry Dr, Saratoga Springs, UT 84045","precinct":"25SR03","hd":"51","v_score":"1.121327652","decile":"3","lat":40.411841939704274,"lng":-111.92905966238705,"phone":"(439) 394-7004","sd":"18","ssbd":"10","lsbd":"School Board Lake Mountain 2"},{"vid":"2441630","name":"Alesia Nienow","party":"Dem","address":"2696 N Geranium Dr, Saratoga Springs, UT 84045","precinct":"25SR03","hd":"51","v_score":"2.315214949","decile":"5","lat":40.41117239366683,"lng":-111.92860497211878,"phone":"(130) 415-0922","sd":"18","ssbd":"10","lsbd":"School Board Lake Mountain 2"},{"vid":"2443012","name":"Herschel Parisian","party":"Dem","address":"522 W Jack Frost Way, Saratoga Springs, UT 84045","precinct":"25SR03","hd":"51","v_score":"1.121327652","decile":"3","lat":40.40482838909663,"lng":-111.93337967507944,"phone":"(397) 026-1988","sd":"18","ssbd":"10","lsbd":"School Board Lake Mountain 2"},{"vid":"2443477","name":"Mr. Virgie Cormier","party":"Dem","address":"2646 N Geranium Dr, Saratoga Springs, UT 84045","precinct":"25SR03","hd":"51","v_score":"1.121327652","decile":"3","lat":40.410155775361304,"lng":-111.92948361688205,"phone":"(917) 139-7889","sd":"18","ssbd":"10","lsbd":"School Board Lake Mountain 2"},{"vid":"2444107","name":"Jacquelyn Muller","party":"","address":"2201 N Wallflower Dr, Saratoga Springs, UT 84045","precinct":"25SR03","hd":"51","v_score":"5.331806201","decile":"7","lat":40.40230708531191,"lng":-111.936484669325,"phone":"(342) 793-9062","sd":"18","ssbd":"10","lsbd":"School Board Lake Mountain 2"},{"vid":"2444250","name":"Olen Hills-Bruen","party":"","address":"594 W Casaba Ct, Saratoga Springs, UT 84045","precinct":"25SR03","hd":"51","v_score":"2.744440783","decile":"5","lat":40.40253706361062,"lng":-111.93440003234899,"phone":"(746) 476-2243","sd":"18","ssbd":"10","lsbd":"School Board Lake Mountain 2"},{"vid":"2444280","name":"Haylee Bernier-Armstrong","party":"Dem","address":"543 W Crenshaw Way, Saratoga Springs, UT 84045","precinct":"25SR03","hd":"51","v_score":"1.121327652","decile":"3","lat":40.403310475089214,"lng":-111.93356505591304,"phone":"(270) 277-7226","sd":"18","ssbd":"10","lsbd":"School Board Lake Mountain 2"},{"vid":"2444572","name":"Leandra Leannon","party":"Rep","address":"2201 N Wallflower Dr, Saratoga Springs, UT 84045","precinct":"25SR03","hd":"51","v_score":"5.331806201","decile":"7","lat":40.40230708531191,"lng":-111.936484669325,"phone":"(252) 953-3548","sd":"18","ssbd":"10","lsbd":"School Board Lake Mountain 2"},{"vid":"2447018","name":"Alma Ebert MD","party":"Dem","address":"471 W Autumn Sky Dr, Saratoga Springs, UT 84045","precinct":"25SR03","hd":"51","v_score":"1.121327652","decile":"3","lat":40.40515896355563,"lng":-111.93238898468718,"phone":"(194) 635-1514","sd":"18","ssbd":"10","lsbd":"School Board Lake Mountain 2"},{"vid":"2460129","name":"Stewart Hamill","party":"","address":"2123 N Wild Hyacinth Dr, Saratoga Springs, UT 84045","precinct":"25SR03","hd":"51","v_score":"0","decile":"1","lat":40.400731733053426,"lng":-111.9362728411942,"phone":"(335) 131-4467","sd":"18","ssbd":"10","lsbd":"School Board Lake Mountain 2"},{"vid":"2470313","name":"Vina Gulgowski","party":"","address":"2243 N Wild Hyacinth Dr, Saratoga Springs, UT 84045","precinct":"25SR03","hd":"51","v_score":"1.193887297","decile":"3","lat":40.40296502099395,"lng":-111.93750688164506,"phone":"(749) 941-1469","sd":"18","ssbd":"10","lsbd":"School Board Lake Mountain 2"},{"vid":"2470381","name":"Diandra Witting","party":"Rep","address":"548 W Jack Frost Way, Saratoga Springs, UT 84045","precinct":"25SR03","hd":"51","v_score":"5.360235423","decile":"7","lat":40.404963197911144,"lng":-111.93398992778103,"phone":"(266) 398-4222","sd":"18","ssbd":"10","lsbd":"School Board Lake Mountain 2"},{"vid":"2470750","name":"Ephram Spencer","party":"Dem","address":"548 W Jack Frost Way, Saratoga Springs, UT 84045","precinct":"25SR03","hd":"51","v_score":"5.360235423","decile":"7","lat":40.404963197911144,"lng":-111.93398992778103,"phone":"(333) 735-4609","sd":"18","ssbd":"10","lsbd":"School Board Lake Mountain 2"},{"vid":"2472930","name":"Rosalie West","party":"Rep","address":"596 W Crenshaw Ct, Saratoga Springs, UT 84045","precinct":"25SR03","hd":"51","v_score":"1.193887297","decile":"3","lat":40.40435623331145,"lng":-111.93514487974151,"phone":"(593) 870-8570","sd":"18","ssbd":"10","lsbd":"School Board Lake Mountain 2"},{"vid":"2481288","name":"Myrta Upton","party":"Dem","address":"531 W Muskmelon Way, Saratoga Springs, UT 84045","precinct":"25SR03","hd":"51","v_score":"1.193887297","decile":"3","lat":40.401526101827045,"lng":-111.9328255396344,"phone":"(966) 639-1438","sd":"18","ssbd":"10","lsbd":"School Board Lake Mountain 2"},{"vid":"2482398","name":"Duwayne Conn","party":"","address":"477 W Jack Frost Way, Saratoga Springs, UT 84045","precinct":"25SR03","hd":"51","v_score":"5.858606566","decile":"7","lat":40.40446547096537,"lng":-111.93214854948003,"phone":"(416) 209-9626","sd":"18","ssbd":"10","lsbd":"School Board Lake Mountain 2"},{"vid":"2484763","name":"Miah Harber","party":"","address":"259 W Snowberry Dr, Saratoga Springs, UT 84045","precinct":"25SR03","hd":"51","v_score":"0","decile":"1","lat":40.41147084083188,"lng":-111.92894415741746,"phone":"(110) 275-4932","sd":"18","ssbd":"10","lsbd":"School Board Lake Mountain 2"},{"vid":"2485992","name":"Gibson Mohr-Zulauf","party":"Rep","address":"719 W Wild Hyacinth Dr, Saratoga Springs, UT 84045","precinct":"25SR03","hd":"51","v_score":"3.93832808","decile":"6","lat":40.39788303825625,"lng":-111.93659307623183,"phone":"(888) 071-9547","sd":"18","ssbd":"10","lsbd":"School Board Lake Mountain 2"},{"vid":"2487921","name":"Dr. Candice Bauch","party":"Rep","address":"553 W Muskmelon Way, Saratoga Springs, UT 84045","precinct":"25SR03","hd":"51","v_score":"1.193887297","decile":"3","lat":40.401736774041794,"lng":-111.93341540053929,"phone":"(757) 356-7122","sd":"18","ssbd":"10","lsbd":"School Board Lake Mountain 2"},{"vid":"2494427","name":"Fredric Koepp","party":"Rep","address":"2202 N Wild Hyacinth Dr, Saratoga Springs, UT 84045","precinct":"25SR03","hd":"51","v_score":"2.817000428","decile":"6","lat":40.40239797332535,"lng":-111.93581991321432,"phone":"(830) 453-6267","sd":"18","ssbd":"10","lsbd":"School Board Lake Mountain 2"},{"vid":"2495623","name":"Linwood Wuckert","party":"Rep","address":"469 W Flora Dr, Saratoga Springs, UT 84045","precinct":"25SR03","hd":"51","v_score":"0","decile":"1","lat":40.407167303912,"lng":-111.93311478525834,"phone":"(456) 456-7980","sd":"18","ssbd":"10","lsbd":"School Board Lake Mountain 2"},{"vid":"2496513","name":"Dr. Hamza Lindgren","party":"Rep","address":"2546 N Geranium Dr, Saratoga Springs, UT 84045","precinct":"25SR03","hd":"51","v_score":"1.193887297","decile":"3","lat":40.40845667693336,"lng":-111.9314004967504,"phone":"(349) 298-4297","sd":"18","ssbd":"10","lsbd":"School Board Lake Mountain 2"},{"vid":"2497563","name":"Ms. Roxanne Abshire MD","party":"Rep","address":"2192 N Wild Hyacinth Dr, Saratoga Springs, UT 84045","precinct":"25SR03","hd":"51","v_score":"1.193887297","decile":"3","lat":40.402025564806436,"lng":-111.93575323266869,"phone":"(623) 215-6246","sd":"18","ssbd":"10","lsbd":"School Board Lake Mountain 2"},{"vid":"2498876","name":"Kelsey Cormier","party":"Rep","address":"2224 N Honeydew Dr, Saratoga Springs, UT 84045","precinct":"25SR03","hd":"51","v_score":"0","decile":"1","lat":40.40259566259614,"lng":-111.93202193390647,"phone":"(821) 459-9978","sd":"18","ssbd":"10","lsbd":"School Board Lake Mountain 2"},{"vid":"2500584","name":"Ermine Kautzer MD","party":"Dem","address":"2192 N Wild Hyacinth Dr, Saratoga Springs, UT 84045","precinct":"25SR03","hd":"51","v_score":"2.817000428","decile":"6","lat":40.402025564806436,"lng":-111.93575323266869,"phone":"(763) 402-0233","sd":"18","ssbd":"10","lsbd":"School Board Lake Mountain 2"},{"vid":"2503298","name":"Wess Gleichner-Kessler","party":"","address":"2246 N Elderberry Dr, Saratoga Springs, UT 84045","precinct":"25SR03","hd":"51","v_score":"1.193887297","decile":"3","lat":40.402883318745296,"lng":-111.93634730467066,"phone":"(148) 211-3647","sd":"18","ssbd":"10","lsbd":"School Board Lake Mountain 2"},{"vid":"2520673","name":"Orilla Farrell","party":"","address":"2498 N Geranium Dr, Saratoga Springs, UT 84045","precinct":"25SR03","hd":"51","v_score":"1.193887297","decile":"4","lat":40.4074258484823,"lng":-111.93202470773323,"phone":"(598) 393-2633","sd":"18","ssbd":"10","lsbd":"School Board Lake Mountain 2"},{"vid":"2523851","name":"Burnett Langworth","party":"","address":"514 W Pumpkin Patch Dr, Saratoga Springs, UT 84045","precinct":"25SR03","hd":"51","v_score":"3.711952487","decile":"6","lat":40.40249860867966,"lng":-111.93246933578567,"phone":"(872) 238-7027","sd":"18","ssbd":"10","lsbd":"School Board Lake Mountain 2"},{"vid":"2526890","name":"Dr. Margaretta Mraz DVM","party":"","address":"2251 N Wild Hyacinth Dr, Saratoga Springs, UT 84045","precinct":"25SR03","hd":"51","v_score":"1.193887297","decile":"4","lat":40.40316451253478,"lng":-111.93749855384094,"phone":"(157) 281-6288","sd":"18","ssbd":"10","lsbd":"School Board Lake Mountain 2"},{"vid":"2529287","name":"Nevada Rogahn","party":"Dem","address":"2097 N Wallflower Dr, Saratoga Springs, UT 84045","precinct":"25SR03","hd":"51","v_score":"1.193887297","decile":"4","lat":40.400098962824316,"lng":-111.93676746254826,"phone":"(959) 600-0496","sd":"18","ssbd":"10","lsbd":"School Board Lake Mountain 2"},{"vid":"2532676","name":"Cheryle Goodwin","party":"Dem","address":"2287 N Wild Hyacinth Dr, Saratoga Springs, UT 84045","precinct":"25SR03","hd":"51","v_score":"20.00910204","decile":"10","lat":40.40412600001535,"lng":-111.93669114211272,"phone":"(130) 520-1831","sd":"18","ssbd":"10","lsbd":"School Board Lake Mountain 2"},{"vid":"2534720","name":"Vivian O'Hara","party":"Rep","address":"594 W Crenshaw Ct, Saratoga Springs, UT 84045","precinct":"25SR03","hd":"51","v_score":"1.193887297","decile":"4","lat":40.404177443613115,"lng":-111.93489268872207,"phone":"(760) 245-9026","sd":"18","ssbd":"10","lsbd":"School Board Lake Mountain 2"},{"vid":"2535046","name":"Richie Ruecker","party":"","address":"2132 N Wild Hyacinth Dr, Saratoga Springs, UT 84045","precinct":"25SR03","hd":"51","v_score":"1.193887297","decile":"4","lat":40.40082905727279,"lng":-111.9357319370656,"phone":"(116) 146-2945","sd":"18","ssbd":"10","lsbd":"School Board Lake Mountain 2"},{"vid":"2539950","name":"Mr. Shelly Hyatt","party":"Rep","address":"2166 N Wallflower Dr, Saratoga Springs, UT 84045","precinct":"25SR03","hd":"51","v_score":"1.193887297","decile":"4","lat":40.40146638235562,"lng":-111.9366024762329,"phone":"(430) 384-2623","sd":"18","ssbd":"10","lsbd":"School Board Lake Mountain 2"},{"vid":"2542345","name":"Carole Toy","party":"Rep","address":"528 W Pumpkin Patch Dr, Saratoga Springs, UT 84045","precinct":"25SR03","hd":"51","v_score":"0","decile":"1","lat":40.40276475979385,"lng":-111.93290412834793,"phone":"(922) 713-4820","sd":"18","ssbd":"10","lsbd":"School Board Lake Mountain 2"},{"vid":"2556709","name":"Percy Ortiz","party":"","address":"2642 N Geranium Dr, Saratoga Springs, UT 84045","precinct":"25SR03","hd":"51","v_score":"14.45484031","decile":"9","lat":40.41011917144046,"lng":-111.92971270053526,"phone":"(901) 389-9567","sd":"18","ssbd":"10","lsbd":"School Board Lake Mountain 2"},{"vid":"2567429","name":"Sylva Satterfield","party":"Rep","address":"2527 N Geranium Dr, Saratoga Springs, UT 84045","precinct":"25SR03","hd":"51","v_score":"1.193887297","decile":"4","lat":40.408235706962344,"lng":-111.93223149768902,"phone":"(326) 694-8279","sd":"18","ssbd":"10","lsbd":"School Board Lake Mountain 2"},{"vid":"2594323","name":"Ulysses Hahn-Konopelski","party":"Dem","address":"1983 N Churchill Rd, Saratoga Springs, UT 84045","precinct":"25SR03","hd":"51","v_score":"1.193887297","decile":"4","lat":40.39812216099002,"lng":-111.93442739905991,"phone":"(385) 418-1735","sd":"18","ssbd":"10","lsbd":"School Board Lake Mountain 2"},{"vid":"2594443","name":"Mindy Baumbach-Marks","party":"Dem","address":"1998 N Elderberry Dr, Saratoga Springs, UT 84045","precinct":"25SR03","hd":"51","v_score":"15.1758219","decile":"9","lat":40.39868050600203,"lng":-111.93570143378751,"phone":"(819) 029-6835","sd":"18","ssbd":"10","lsbd":"School Board Lake Mountain 2"},{"vid":"2594479","name":"Jerrod Berge-Bechtelar","party":"","address":"1998 N Elderberry Dr, Saratoga Springs, UT 84045","precinct":"25SR03","hd":"51","v_score":"15.1758219","decile":"9","lat":40.39868050600203,"lng":-111.93570143378751,"phone":"(385) 192-2605","sd":"18","ssbd":"10","lsbd":"School Board Lake Mountain 2"},{"vid":"2594591","name":"Wilbert Raynor","party":"Rep","address":"1908 N Elderberry Dr, Saratoga Springs, UT 84045","precinct":"25SR03","hd":"51","v_score":"2.817000428","decile":"6","lat":40.396576646285126,"lng":-111.93573517660957,"phone":"(684) 152-3242","sd":"18","ssbd":"10","lsbd":"School Board Lake Mountain 2"},{"vid":"2600489","name":"Donat Wolff","party":"","address":"2272 N Elderberry Dr, Saratoga Springs, UT 84045","precinct":"25SR03","hd":"51","v_score":"0","decile":"1","lat":40.40328275633835,"lng":-111.93584241581796,"phone":"(420) 715-6098","sd":"18","ssbd":"10","lsbd":"School Board Lake Mountain 2"},{"vid":"2601339","name":"Mohammad Harris","party":"Rep","address":"2349 N Elderberry Cir, Saratoga Springs, UT 84045","precinct":"25SR03","hd":"51","v_score":"1.193887297","decile":"4","lat":40.404642430882966,"lng":-111.93646779072625,"phone":"(839) 382-7357","sd":"18","ssbd":"10","lsbd":"School Board Lake Mountain 2"},{"vid":"2606140","name":"Aime D'Amore","party":"Rep","address":"2137 N Wild Hyacinth Dr, Saratoga Springs, UT 84045","precinct":"25SR03","hd":"51","v_score":"0","decile":"1","lat":40.40085748702537,"lng":-111.93618542189643,"phone":"(330) 434-4766","sd":"18","ssbd":"10","lsbd":"School Board Lake Mountain 2"},