[{"id":"3400","name":"Pasquale Shanahan","party":"","address":"12985 W 14650 S, Elberta, UT 84626","precinct":"25SW09","hd":"66","v_score":"3.781490609","decile":"6","lat":39.961771095715,"lng":-111.960868461428},{"id":"4683","name":"Marquise Spinka-Gutkowski","party":"","address":"12618 W Highway 6, Elberta, UT 84626","precinct":"25SW09","hd":"66","v_score":"12.59867706","decile":"9","lat":39.952083254265,"lng":-111.951825315285},{"id":"9858","name":"Mohamed Dickinson","party":"Dem","address":"15336 S 12800 W, Elberta, UT 84626","precinct":"25SW09","hd":"66","v_score":"2.315214949","decile":"5","lat":39.949446827371,"lng":-111.956087193964},{"id":"12138","name":"Cordaro Hickle","party":"","address":"14734 S 12800 W, Elberta, UT 84626","precinct":"25SW09","hd":"66","v_score":"1.121327652","decile":"3","lat":39.960857212069,"lng":-111.956488237235},{"id":"15627","name":"Dr. Laquita Gorczany DVM","party":"Rep","address":"12618 W Highway 6, Elberta, UT 84626","precinct":"25SW09","hd":"66","v_score":"3.781490609","decile":"6","lat":39.952083254265,"lng":-111.951825315285},{"id":"18086","name":"Dillard Walter-Wilderman","party":"Dem","address":"15302 S 12800 W, Elberta, UT 84626","precinct":"25SW09","hd":"66","v_score":"0","decile":"1","lat":39.950009048802,"lng":-111.956109336173},{"id":"18733","name":"Miss Harlene Zieme DVM","party":"","address":"15336 S 12800 W, Elberta, UT 84626","precinct":"25SW09","hd":"66","v_score":"1.121327652","decile":"3","lat":39.949446827371,"lng":-111.956087193964},{"id":"21452","name":"Wyatt Weimann-Kuhlman","party":"Dem","address":"9652 W 15800 S, Elberta, UT 84633","precinct":"25SW09","hd":"66","v_score":"1.46627566","decile":"4","lat":39.941642913259,"lng":-111.881920613558},{"id":"33506","name":"Arlo Bechtelar","party":"","address":"12985 W 14650 S, Elberta, UT 84626","precinct":"25SW09","hd":"66","v_score":"3.781490609","decile":"6","lat":39.961771095715,"lng":-111.960868461428},{"id":"34734","name":"Norberto Grimes","party":"Rep","address":"16785 S Goshen Canyon Rd, Goshen, UT 84633","precinct":"25SW09","hd":"66","v_score":"2.315214949","decile":"5","lat":39.923125186921,"lng":-111.893067825192},{"id":"35764","name":"Tab Waters","party":"Dem","address":"11079 W Highway 6, Goshen, UT 84633","precinct":"25SW09","hd":"66","v_score":"3.781490609","decile":"6","lat":39.952446742472,"lng":-111.916491705391},{"id":"36647","name":"Melbourne Hessel","party":"","address":"12831 W 14720 S, Elberta, UT 84626","precinct":"25SW09","hd":"66","v_score":"1.121327652","decile":"3","lat":39.960897653731,"lng":-111.957245955055},{"id":"38091","name":"Channie Stark","party":"Rep","address":"16474 S Sandhill Rd, Elberta, UT 84633","precinct":"25SW09","hd":"66","v_score":"6.636723236","decile":"7","lat":39.927212476991,"lng":-111.912735363772},{"id":"39313","name":"Noreen Luettgen","party":"","address":"11079 W Highway 6, Goshen, UT 84633","precinct":"25SW09","hd":"66","v_score":"1.193887297","decile":"3","lat":39.952446742472,"lng":-111.916491705391},{"id":"40895","name":"Dr. Lance Daugherty V","party":"","address":"15276 S 12800 W, Elberta, UT 84626","precinct":"25SW09","hd":"66","v_score":"3.781490609","decile":"6","lat":39.950438982837,"lng":-111.95612626845},{"id":"41042","name":"Mrs. Madaline Koepp","party":"","address":"17552 S 12100 W, Elberta, UT 84626","precinct":"25SW09","hd":"66","v_score":"1.193887297","decile":"3","lat":39.91175988885,"lng":-111.938469229144},{"id":"41299","name":"Dewitt Marks","party":"","address":"12596 W 15000 S, Elberta, UT 84626","precinct":"25SW09","hd":"66","v_score":"2.315214949","decile":"5","lat":39.95574077419,"lng":-111.954403596975},{"id":"44932","name":"Kelsey Lind V","party":"Rep","address":"9415 W 15800 S, Elberta, UT 84633","precinct":"25SW09","hd":"66","v_score":"2.660162957","decile":"5","lat":39.941573783521,"lng":-111.876260902066},{"id":"46091","name":"Dr. Tyshawn Torphy IV","party":"Rep","address":"12862 W Highway 6, Elberta, UT 84626","precinct":"25SW09","hd":"66","v_score":"3.781490609","decile":"6","lat":39.952022077463,"lng":-111.957630632977},{"id":"46371","name":"Eveline Kris","party":"Dem","address":"14991 S 12800 W, Elberta, UT 84626","precinct":"25SW09","hd":"66","v_score":"6.724398202","decile":"8","lat":39.955781792654,"lng":-111.956160235817},{"id":"47438","name":"Mr. Maxie Hackett","party":"","address":"9706 W 15800 S, Elberta, UT 84633","precinct":"25SW09","hd":"66","v_score":"5.40460374","decile":"7","lat":39.941639536386,"lng":-111.883284911586},{"id":"51943","name":"Argie Romaguera","party":"Dem","address":"15066 S 12800 W, Elberta, UT 84626","precinct":"25SW09","hd":"66","v_score":"3.781490609","decile":"6","lat":39.954099248312,"lng":-111.95626113831},{"id":"54501","name":"Marland Gleichner","party":"","address":"9597 W 15800 S, Elberta, UT 84633","precinct":"25SW09","hd":"66","v_score":"2.315214949","decile":"5","lat":39.941569924791,"lng":-111.876646134857},{"id":"55957","name":"Zina Leannon PhD","party":"","address":"9415 W 15800 S, Elberta, UT 84633","precinct":"25SW09","hd":"66","v_score":"0","decile":"1","lat":39.941573783521,"lng":-111.876260902066},{"id":"69493","name":"Rolla Mraz","party":"Rep","address":"12895 W 14720 S, Elberta, UT 84626","precinct":"25SW09","hd":"66","v_score":"0","decile":"1","lat":39.96085793369,"lng":-111.958865696041},{"id":"71876","name":"Freddie Koelpin","party":"","address":"12953 W 14720 S, Elberta, UT 84626","precinct":"25SW09","hd":"66","v_score":"0","decile":"1","lat":39.960841786522,"lng":-111.959571222757},{"id":"73461","name":"Lorinda Denesik","party":"","address":"17579 S Tunnel Rd, Elberta, UT 84626","precinct":"25SW09","hd":"66","v_score":"2.315214949","decile":"5","lat":39.908532961674,"lng":-111.986386532715},{"id":"74182","name":"Dr. Howell Miller","party":"Rep","address":"11459 W Highway 6, Elberta, UT 84633","precinct":"25SW09","hd":"66","v_score":"3.93832808","decile":"6","lat":39.952350576411,"lng":-111.927251521274},{"id":"76349","name":"Timmothy Shields","party":"","address":"12895 W 14720 S, Elberta, UT 84626","precinct":"25SW09","hd":"66","v_score":"1.193887297","decile":"3","lat":39.96085793369,"lng":-111.958865696041},{"id":"79458","name":"Mrs. Chessie Kub","party":"","address":"12596 W 15000 S, Elberta, UT 84626","precinct":"25SW09","hd":"66","v_score":"3.93832808","decile":"6","lat":39.95574077419,"lng":-111.954403596975},{"id":"80867","name":"Parker Hamill","party":"Dem","address":"14939 S 12800 W, Elberta, UT 84626","precinct":"25SW09","hd":"66","v_score":"0","decile":"1","lat":39.956217343879,"lng":-111.95617460674},{"id":"81804","name":"Mr. Berlin Parker II","party":"Dem","address":"15738 S 12800 W, Elberta, UT 84626","precinct":"25SW09","hd":"66","v_score":"0","decile":"1","lat":39.943290044225,"lng":-111.955902287864},{"id":"84890","name":"Frieda Moore","party":"Dem","address":"13252 W 17600 S, Elberta, UT 84626","precinct":"25SW09","hd":"66","v_score":"0","decile":"1","lat":39.907860226616,"lng":-111.964913192733},{"id":"86701","name":"Ms. Alaina Hills DDS","party":"","address":"17579 S Tunnel Rd, Elberta, UT 84626","precinct":"25SW09","hd":"66","v_score":"1.193887297","decile":"4","lat":39.908532961674,"lng":-111.986386532715},{"id":"87204","name":"Miss Celena Daniel DDS","party":"Dem","address":"9543 W 15800 S, Goshen, UT 84633","precinct":"25SW09","hd":"66","v_score":"0","decile":"1","lat":39.941553381257,"lng":-111.87829774326},{"id":"90446","name":"Mr. Huey Ratke","party":"","address":"12822 W 14780 S, Elberta, UT 84626","precinct":"25SW09","hd":"66","v_score":"1.193887297","decile":"4","lat":39.960030377379,"lng":-111.956688551398},{"id":"93567","name":"Earley Hoppe","party":"Rep","address":"12822 W 14780 S, Elberta, UT 84626","precinct":"25SW09","hd":"66","v_score":"1.193887297","decile":"4","lat":39.960030377379,"lng":-111.956688551398},{"id":"94023","name":"Rocco Hegmann I","party":"","address":"9652 W 15800 S, Elberta, UT 84633","precinct":"25SW09","hd":"66","v_score":"0","decile":"1","lat":39.941642913259,"lng":-111.881920613558},{"id":"101816","name":"Jordan McLaughlin","party":"Rep","address":"9706 W 15800 S, Goshen, UT 84633","precinct":"25SW09","hd":"66","v_score":"1.193887297","decile":"4","lat":39.941639536386,"lng":-111.883284911586},{"id":"104613","name":"Dr. Amon O'Reilly I","party":"Dem","address":"9491 W 15800 S, Goshen, UT 84633","precinct":"25SW09","hd":"66","v_score":"0","decile":"2","lat":39.941561669677,"lng":-111.877470276525},{"id":"111092","name":"Christiana Bartell","party":"Rep","address":"12696 W Highway  6, Elberta, UT 84626","precinct":"25SW09","hd":"66","v_score":"0","decile":"2","lat":39.952067225847,"lng":-111.953577856029},{"id":"111107","name":"Roy Koch","party":"","address":"14734 S 12800 W, Elberta, UT 84626","precinct":"25SW09","hd":"66","v_score":"1.193887297","decile":"4","lat":39.960857212069,"lng":-111.956488237235},{"id":"116232","name":"Ivana Mills","party":"","address":"12953 W 14720 S, Elberta, UT 84626","precinct":"25SW09","hd":"66","v_score":"0","decile":"2","lat":39.960841786522,"lng":-111.959571222757},{"id":"126382","name":"Dr. Ely Mosciski","party":"","address":"14939 S 12800 W, Elberta, UT 84626","precinct":"25SW09","hd":"66","v_score":"0","decile":"2","lat":39.956217343879,"lng":-111.95617460674},{"id":"127428","name":"Alysia Wiegand","party":"","address":"12895 W 14720 S, Elberta, UT 84626","precinct":"25SW09","hd":"66","v_score":"0","decile":"2","lat":39.96085793369,"lng":-111.958865696041},{"id":"127507","name":"Blanca Haley DDS","party":"","address":"15066 S 12800 W, Elberta, UT 84626","precinct":"25SW09","hd":"66","v_score":"0","decile":"2","lat":39.954099248312,"lng":-111.95626113831},{"id":"141298","name":"Miss Tiara Bartoletti","party":"","address":"13886 W 17600 S, Elberta, UT 84626","precinct":"25SW09","hd":"66","v_score":"3.93832808","decile":"6","lat":39.907564294436,"lng":-111.980187427932},{"id":"147470","name":"Cristofer Larkin DDS","party":"Rep","address":"17582 S Tunnel Rd, Elberta, UT 84626","precinct":"25SW09","hd":"66","v_score":"3.93832808","decile":"6","lat":39.908477238381,"lng":-111.986541063898},{"id":"154148","name":"Ahmad Grant","party":"","address":"12822 W 14780 S, Elberta, UT 84626","precinct":"25SW09","hd":"66","v_score":"5.40460374","decile":"7","lat":39.960030377379,"lng":-111.956688551398},{"id":"154515","name":"Juwan Veum","party":"","address":"12862 W Highway 6, Elberta, UT 84626","precinct":"25SW09","hd":"66","v_score":"5.40460374","decile":"7","lat":39.952022077463,"lng":-111.957630632977},{"id":"159274","name":"Brande Smith","party":"Dem","address":"11093 W Triangle Ranch Rd, Elberta, UT 84633","precinct":"25SW09","hd":"66","v_score":"14.67714005","decile":"9","lat":39.92350138289,"lng":-111.915844424331},{"id":"160833","name":"Dr. Hubert McGlynn II","party":"","address":"9772 W 15800 S, Elberta, UT 84633","precinct":"25SW09","hd":"66","v_score":"3.93832808","decile":"6","lat":39.941632403045,"lng":-111.886285611159},{"id":"163467","name":"Lorinda Gleichner PhD","party":"Dem","address":"9415 W 15800 S, Elberta, UT 84633","precinct":"25SW09","hd":"66","v_score":"2.587603312","decile":"5","lat":39.941573783521,"lng":-111.876260902066},{"id":"170335","name":"Alivia Kessler-Kiehn","party":"Rep","address":"9491 W 15800 S, Elberta, UT 84633","precinct":"25SW09","hd":"66","v_score":"4.210716443","decile":"7","lat":39.941561669677,"lng":-111.877470276525},{"id":"177397","name":"Dora Gislason","party":"Dem","address":"12736 W Highway 6, Elberta, UT 84626","precinct":"25SW09","hd":"66","v_score":"1.193887297","decile":"4","lat":39.95205738047,"lng":-111.954532864433},{"id":"177714","name":"Brenna Sawayn-Lebsack","party":"","address":"9453 W 15800 S, Elberta, UT 84633","precinct":"25SW09","hd":"66","v_score":"5.40460374","decile":"7","lat":39.941567726599,"lng":-111.876865589295},{"id":"177760","name":"Clella Emmerich","party":"Dem","address":"12831 W 14720 S, Elberta, UT 84626","precinct":"25SW09","hd":"66","v_score":"4.064235245","decile":"6","lat":39.960897653731,"lng":-111.957245955055},{"id":"179292","name":"Lavonia Kuhn","party":"","address":"9706 W 15800 S, Elberta, UT 84633","precinct":"25SW09","hd":"66","v_score":"5.40460374","decile":"7","lat":39.941639536386,"lng":-111.883284911586},{"id":"181282","name":"Aleah Upton","party":"","address":"12831 W 14720 S, # 64, Elberta, UT 84626","precinct":"25SW09","hd":"66","v_score":"4.064235245","decile":"6","lat":39.960897653731,"lng":-111.957245955055}]