[{"vid":"1461704","name":"Miss Zoie Herzog","party":"","address":"11838 S West Mountain Rd, Payson, UT 84651","precinct":"25SW13","hd":"65","v_score":"0","decile":"1","lat":40.01367274520286,"lng":-111.79928711279594,"phone":"(708) 317-2835","sd":"25","ssbd":"14","lsbd":"School Board Nebo 1"},{"vid":"1764122","name":"Dr. Jayvion Flatley","party":"Rep","address":"4992 W 11950 S, Payson, UT 84651","precinct":"25SW13","hd":"65","v_score":"5.40460374","decile":"7","lat":40.01333481972253,"lng":-111.77246440757013,"phone":"(426) 143-4882","sd":"25","ssbd":"14","lsbd":"School Board Nebo 1"},{"vid":"1894694","name":"Devan Schuster-Ferry","party":"Rep","address":"11578 S 5250 W, Payson, UT 84651","precinct":"25SW13","hd":"65","v_score":"1.193887297","decile":"3","lat":40.019835939056186,"lng":-111.78021524750062,"phone":"(401) 657-9681","sd":"25","ssbd":"14","lsbd":"School Board Nebo 1"},{"vid":"1941449","name":"Slade Hauck","party":"","address":"5781 W 11450 S, Payson, UT 84651","precinct":"25SW13","hd":"65","v_score":"2.315214949","decile":"5","lat":40.0205536702433,"lng":-111.79150275307654,"phone":"(122) 928-6850","sd":"25","ssbd":"14","lsbd":"School Board Nebo 1"},{"vid":"2001655","name":"Emmie Legros","party":"","address":"11838 S West Mountain Rd, Payson, UT 84651","precinct":"25SW13","hd":"65","v_score":"0","decile":"1","lat":40.01367274520286,"lng":-111.79928711279594,"phone":"(909) 842-8000","sd":"25","ssbd":"14","lsbd":"School Board Nebo 1"},{"vid":"2017934","name":"Kennth Roberts","party":"","address":"5667 W 11450 S, Payson, UT 84651","precinct":"25SW13","hd":"65","v_score":"3.93832808","decile":"6","lat":40.02072791853478,"lng":-111.78878904982778,"phone":"(511) 025-8282","sd":"25","ssbd":"14","lsbd":"School Board Nebo 1"},{"vid":"2114736","name":"Elza Johnston","party":"Rep","address":"5623 W 11450 S, Payson, UT 84651","precinct":"25SW13","hd":"65","v_score":"1.121327652","decile":"3","lat":40.020483810661744,"lng":-111.78744162274916,"phone":"(957) 193-7506","sd":"25","ssbd":"14","lsbd":"School Board Nebo 1"},{"vid":"3f25c22a4eb8065040dcd9c010bbebd325cecbb833acf1762c1cb0f4fff2e9e8","name":"Rupert Eichmann","party":"Dem","address":"11808 S West Mountain Rd, Payson, UT 84651","precinct":"25SW13","hd":"65","v_score":"3.93832808","decile":"6","lat":40.0152843542795,"lng":-111.79606583263305,"phone":"(949) 295-1135","sd":"25","ssbd":"14","lsbd":"School Board Nebo 1"},{"vid":"1aa9d3aa0c5637e7c2f86739ea80a8b92f583e274789a5b69bc651decf47c26b","name":"Annmarie Stiedemann-Stehr","party":"Rep","address":"5701 W 11600 S, Payson, UT 84651","precinct":"25SW13","hd":"65","v_score":"0","decile":"1","lat":40.01779593077769,"lng":-111.7896315638011,"phone":"(424) 811-8878","sd":"25","ssbd":"14","lsbd":"School Board Nebo 1"},{"vid":"2181815","name":"Wiliam Stoltenberg","party":"Rep","address":"11808 S West Mountain Rd, Payson, UT 84651","precinct":"25SW13","hd":"65","v_score":"3.93832808","decile":"6","lat":40.0152843542795,"lng":-111.79606583263305,"phone":"(541) 467-4747","sd":"25","ssbd":"14","lsbd":"School Board Nebo 1"},{"vid":"b5bd9f365f3a3ffabc0596793599a095b55de9e1323484e1f5145e6983edb0c4","name":"Edgar Gleason","party":"Rep","address":"5652 W 11300 S, Payson, UT 84651","precinct":"25SW13","hd":"65","v_score":"1.193887297","decile":"3","lat":40.024833201686306,"lng":-111.78774943711099,"phone":"(293) 229-4341","sd":"25","ssbd":"14","lsbd":"School Board Nebo 1"},{"vid":"2328083","name":"Mrs. Lakeshia Mayer","party":"Dem","address":"5793 W 11600 S, Payson, UT 84651","precinct":"25SW13","hd":"65","v_score":"1.121327652","decile":"3","lat":40.01737073295352,"lng":-111.790508280262,"phone":"(299) 130-7035","sd":"25","ssbd":"14","lsbd":"School Board Nebo 1"},{"vid":"2447228","name":"Branson Oberbrunner","party":"Rep","address":"5682 W 11450 S, Payson, UT 84651","precinct":"25SW13","hd":"65","v_score":"2.315214949","decile":"5","lat":40.021550434503744,"lng":-111.7891430464874,"phone":"(571) 175-4433","sd":"25","ssbd":"14","lsbd":"School Board Nebo 1"},{"vid":"2448980","name":"Donnell Koch","party":"Rep","address":"5667 W 11450 S, Payson, UT 84651","precinct":"25SW13","hd":"65","v_score":"2.315214949","decile":"5","lat":40.02072791853478,"lng":-111.78878904982778,"phone":"(459) 585-3533","sd":"25","ssbd":"14","lsbd":"School Board Nebo 1"},{"vid":"2461153","name":"Ashli Waters","party":"Dem","address":"5623 W 11450 S, Payson, UT 84651","precinct":"25SW13","hd":"65","v_score":"1.193887297","decile":"3","lat":40.020483810661744,"lng":-111.78744162274916,"phone":"(183) 230-0260","sd":"25","ssbd":"14","lsbd":"School Board Nebo 1"},{"vid":"2469948","name":"Pennie Mante","party":"","address":"4992 W 11950 S, Payson, UT 84651","precinct":"25SW13","hd":"65","v_score":"1.193887297","decile":"3","lat":40.01333481972253,"lng":-111.77246440757013,"phone":"(755) 218-1448","sd":"25","ssbd":"14","lsbd":"School Board Nebo 1"},{"vid":"2506253","name":"Marsh Greenfelder","party":"","address":"5682 W 11450 S, Payson, UT 84651","precinct":"25SW13","hd":"65","v_score":"1.193887297","decile":"3","lat":40.021550434503744,"lng":-111.7891430464874,"phone":"(862) 134-2042","sd":"25","ssbd":"14","lsbd":"School Board Nebo 1"},{"vid":"2520143","name":"Reilly Johns","party":"Dem","address":"5793 W 11600 S, Payson, UT 84651","precinct":"25SW13","hd":"65","v_score":"0","decile":"1","lat":40.01737073295352,"lng":-111.790508280262,"phone":"(660) 647-5514","sd":"25","ssbd":"14","lsbd":"School Board Nebo 1"},{"vid":"2531455","name":"Mima Hamill","party":"Rep","address":"5721 W 11450 S, Payson, UT 84651","precinct":"25SW13","hd":"65","v_score":"1.193887297","decile":"4","lat":40.02054847414919,"lng":-111.79009371897904,"phone":"(366) 638-7980","sd":"25","ssbd":"14","lsbd":"School Board Nebo 1"},{"vid":"2632414","name":"Khloe Halvorson","party":"","address":"6079 W 12000 S, Payson, UT 84651","precinct":"25SW13","hd":"65","v_score":"2.817000428","decile":"6","lat":40.01073200636518,"lng":-111.79820149475567,"phone":"(380) 988-8372","sd":"25","ssbd":"14","lsbd":"School Board Nebo 1"},{"vid":"2658887","name":"Lauren Torp MD","party":"Dem","address":"5807 W 11600 S, Payson, UT 84651","precinct":"25SW13","hd":"65","v_score":"0","decile":"1","lat":40.01805066458003,"lng":-111.79188422565043,"phone":"(677) 290-5198","sd":"25","ssbd":"14","lsbd":"School Board Nebo 1"},{"vid":"2970853","name":"Dr. Tab Reilly PhD","party":"Dem","address":"11404 S 5825 W, Payson, UT 84651","precinct":"25SW13","hd":"65","v_score":"0","decile":"2","lat":40.02269410512725,"lng":-111.79427640631894,"phone":"(655) 943-1465","sd":"25","ssbd":"14","lsbd":"School Board Nebo 1"},{"vid":"3132816","name":"Yadiel Ferry","party":"Dem","address":"11838 S West Mountain Rd, Payson, UT 84651","precinct":"25SW13","hd":"65","v_score":"3.781490609","decile":"6","lat":40.01367274520286,"lng":-111.79928711279594,"phone":"(862) 922-2351","sd":"25","ssbd":"14","lsbd":"School Board Nebo 1"},{"vid":"3132844","name":"Jesse Homenick DDS","party":"Dem","address":"11838 S West Mountain Rd, Payson, UT 84651","precinct":"25SW13","hd":"65","v_score":"5.40460374","decile":"7","lat":40.01367274520286,"lng":-111.79928711279594,"phone":"(989) 810-8822","sd":"25","ssbd":"14","lsbd":"School Board Nebo 1"},{"vid":"3132857","name":"Dr. Tabatha Pagac","party":"","address":"11838 S West Mountain Rd, Payson, UT 84651","precinct":"25SW13","hd":"65","v_score":"1.193887297","decile":"4","lat":40.01367274520286,"lng":-111.79928711279594,"phone":"(713) 151-6052","sd":"25","ssbd":"14","lsbd":"School Board Nebo 1"},{"vid":"4503645","name":"Karri Langworth","party":"Dem","address":"5679 W 11600 S, Payson, UT 84651","precinct":"25SW13","hd":"65","v_score":"0","decile":"2","lat":40.01876492018177,"lng":-111.7885675752449,"phone":"(795) 238-4333","sd":"25","ssbd":"14","lsbd":"School Board Nebo 1"},{"vid":"28a645a67ee4f2578dd39cb388d0308a4e93a1413402edf7a31e27c646dbb0b9","name":"Diamond Wunsch","party":"","address":"11578 S 5250 W, Payson, UT 84651","precinct":"25SW13","hd":"65","v_score":"14.66325911","decile":"9","lat":40.019835939056186,"lng":-111.78021524750062,"phone":"(780) 308-8446","sd":"25","ssbd":"14","lsbd":"School Board Nebo 1"},{"vid":"6205036","name":"Sullivan Trantow","party":"Rep","address":"11553 S 5350 W, Payson, UT 84651","precinct":"25SW13","hd":"65","v_score":"4.210716443","decile":"7","lat":40.02016647625333,"lng":-111.77796352021998,"phone":"(471) 416-8063","sd":"25","ssbd":"14","lsbd":"School Board Nebo 1"},{"vid":"6227256","name":"Mr. Deforest Swaniawski Jr.","party":"Rep","address":"5904 W 11300 S, Payson, UT 84651","precinct":"25SW13","hd":"65","v_score":"8.347511332","decile":"8","lat":40.02451380105566,"lng":-111.79427973902614,"phone":"(103) 104-3161","sd":"25","ssbd":"14","lsbd":"School Board Nebo 1"},{"vid":"6237745","name":"Dr. Zeta Maggio MD","party":"","address":"12652 S 5600 W, Payson, UT 84651","precinct":"25SW13","hd":"65","v_score":"5.40460374","decile":"7","lat":40.000752572794184,"lng":-111.78802250261201,"phone":"(910) 055-8785","sd":"25","ssbd":"14","lsbd":"School Board Nebo 1"},{"vid":"6248667","name":"Lucie Ziemann","party":"","address":"5292 W Rosewood Cir, Payson, UT 84651","precinct":"25SW13","hd":"65","v_score":"5.40460374","decile":"7","lat":40.022372418735,"lng":-111.77895516429209,"phone":"(897) 683-3826","sd":"25","ssbd":"14","lsbd":"School Board Nebo 1"},{"vid":"8a13df7b2c91da9ba2a0b3597d427167fe1fcf254934ae995baa557dcba4f565","name":"Jaylyn Goodwin","party":"Dem","address":"5682 W 11450 S, Payson, UT 84651","precinct":"25SW13","hd":"65","v_score":"8.347511332","decile":"8","lat":40.021550434503744,"lng":-111.7891430464874,"phone":"(576) 024-4774","sd":"25","ssbd":"14","lsbd":"School Board Nebo 1"},{"vid":"6267719","name":"Brantley Luettgen-Donnelly","party":"","address":"11206 S 5250 W, Payson, UT 84651","precinct":"25SW13","hd":"65","v_score":"1.193887297","decile":"4","lat":40.024640538086345,"lng":-111.78105440176776,"phone":"(538) 634-8199","sd":"25","ssbd":"14","lsbd":"School Board Nebo 1"},{"vid":"6269819","name":"Mr. Quinten Rice","party":"Dem","address":"11206 S 5250 W, Payson, UT 84651","precinct":"25SW13","hd":"65","v_score":"1.193887297","decile":"4","lat":40.024640538086345,"lng":-111.78105440176776,"phone":"(488) 680-2678","sd":"25","ssbd":"14","lsbd":"School Board Nebo 1"},{"vid":"6298490","name":"Erie Moore","party":"Rep","address":"11594 S 5350 W, Payson, UT 84651","precinct":"25SW13","hd":"65","v_score":"0","decile":"3","lat":40.0191648250148,"lng":-111.78046451878444,"phone":"(636) 585-9252","sd":"25","ssbd":"14","lsbd":"School Board Nebo 1"},{"vid":"6323812","name":"Clora O'Conner-Bauch","party":"Rep","address":"6079 W 12000 S, Payson, UT 84651","precinct":"25SW13","hd":"65","v_score":"15.87102735","decile":"9","lat":40.01073200636518,"lng":-111.79820149475567,"phone":"(429) 052-2142","sd":"25","ssbd":"14","lsbd":"School Board Nebo 1"},{"vid":"6449186","name":"Denita Wisoky","party":"","address":"5732 W 11450 S, Payson, UT 84651","precinct":"25SW13","hd":"65","v_score":"13.61621523","decile":"9","lat":40.02145751147865,"lng":-111.79054785323362,"phone":"(819) 142-7143","sd":"25","ssbd":"14","lsbd":"School Board Nebo 1"},{"vid":"8c52d63e93a4eb8cf64f0efa7dfceeb2dfd2fc205b01bfb0e102f1cb2dfbe035","name":"Mettie Cormier","party":"","address":"11801 S 5350 W, Payson, UT 84651","precinct":"25SW13","hd":"65","v_score":"0","decile":"3","lat":40.015519580867675,"lng":-111.77975049964815,"phone":"(337) 815-1724","sd":"25","ssbd":"14","lsbd":"School Board Nebo 1"},{"vid":"6478132","name":"Derik Hirthe-Heathcote","party":"","address":"5682 W 11450 S, Payson, UT 84651","precinct":"25SW13","hd":"65","v_score":"8.347511332","decile":"8","lat":40.021550434503744,"lng":-111.7891430464874,"phone":"(807) 940-6497","sd":"25","ssbd":"14","lsbd":"School Board Nebo 1"},{"vid":"6493904","name":"Shanice Lehner","party":"Dem","address":"12864 S 5200 W, Santaquin, UT 84655","precinct":"25SW13","hd":"65","v_score":"5.40460374","decile":"7","lat":39.99583821609621,"lng":-111.77895571771582,"phone":"(205) 001-2373","sd":"25","ssbd":"14","lsbd":"School Board Nebo 1"},{"vid":"6513365","name":"Spencer Reichel","party":"","address":"11553 S 5350 W, Payson, UT 84651","precinct":"25SW13","hd":"65","v_score":"5.40460374","decile":"7","lat":40.02016647625333,"lng":-111.77796352021998,"phone":"(637) 128-1350","sd":"25","ssbd":"14","lsbd":"School Board Nebo 1"},{"vid":"6517282","name":"Mr. Wash Graham I","party":"","address":"5721 W 11450 S, Payson, UT 84651","precinct":"25SW13","hd":"65","v_score":"6.884189957","decile":"8","lat":40.02054847414919,"lng":-111.79009371897904,"phone":"(211) 812-1381","sd":"25","ssbd":"14","lsbd":"School Board Nebo 1"},{"vid":"6519041","name":"Gillie Walker","party":"","address":"5793 W 11600 S, Payson, UT 84651","precinct":"25SW13","hd":"65","v_score":"5.40460374","decile":"7","lat":40.01737073295352,"lng":-111.790508280262,"phone":"(669) 199-9229","sd":"25","ssbd":"14","lsbd":"School Board Nebo 1"},{"vid":"4639b9934ef1945f623b9ba687bac99fecaae635b303ff289099d520874fd9dc","name":"Jazmine Bahringer PhD","party":"Dem","address":"11578 S 5250 W, Payson, UT 84651","precinct":"25SW13","hd":"65","v_score":"14.66325911","decile":"9","lat":40.019835939056186,"lng":-111.78021524750062,"phone":"(794) 045-1536","sd":"25","ssbd":"14","lsbd":"School Board Nebo 1"},{"vid":"6531616","name":"Ms. Tresa Hoeger","party":"Rep","address":"11594 S 5350 W, Payson, UT 84651","precinct":"25SW13","hd":"65","v_score":"0","decile":"3","lat":40.0191648250148,"lng":-111.78046451878444,"phone":"(152) 145-2138","sd":"25","ssbd":"14","lsbd":"School Board Nebo 1"}]