[{"vid":"1316513","name":"Pasquale Shanahan","party":"","address":"12985 W 14650 S, Elberta, UT 84626","precinct":"25SW09","hd":"66","v_score":"3.781490609","decile":"6","lat":39.96167053587776,"lng":-111.96065584799723},{"vid":"1458244","name":"Mohamed Dickinson","party":"Dem","address":"15336 S 12800 W, Elberta, UT 84626","precinct":"25SW09","hd":"66","v_score":"2.315214949","decile":"5","lat":39.949774978010645,"lng":-111.95930121798787},{"vid":"1504360","name":"Cordaro Hickle","party":"","address":"14734 S 12800 W, Elberta, UT 84626","precinct":"25SW09","hd":"66","v_score":"1.121327652","decile":"3","lat":39.9607013631534,"lng":-111.95689480060996},{"vid":"df7f2547ff6aa8560c625c907ab02e01cc2a2941518d8b1faef6b9b0f3f31792","name":"Dillard Walter-Wilderman","party":"Dem","address":"15302 S 12800 W, Elberta, UT 84626","precinct":"25SW09","hd":"66","v_score":"0","decile":"1","lat":39.950062840647064,"lng":-111.95865194932315},{"vid":"1633977","name":"Miss Harlene Zieme DVM","party":"","address":"15336 S 12800 W, Elberta, UT 84626","precinct":"25SW09","hd":"66","v_score":"1.121327652","decile":"3","lat":39.949774978010645,"lng":-111.95930121798787},{"vid":"1682344","name":"Wyatt Weimann-Kuhlman","party":"Dem","address":"9652 W 15800 S, Elberta, UT 84633","precinct":"25SW09","hd":"66","v_score":"1.46627566","decile":"4","lat":39.9435284489891,"lng":-111.88154866993483},{"vid":"1887796","name":"Arlo Bechtelar","party":"","address":"12985 W 14650 S, Elberta, UT 84626","precinct":"25SW09","hd":"66","v_score":"3.781490609","decile":"6","lat":39.96167053587776,"lng":-111.96065584799723},{"vid":"1904114","name":"Norberto Grimes","party":"Rep","address":"16785 S Goshen Canyon Rd, Goshen, UT 84633","precinct":"25SW09","hd":"66","v_score":"2.315214949","decile":"5","lat":39.92422502354931,"lng":-111.8906575759863},{"vid":"1929093","name":"Melbourne Hessel","party":"","address":"12831 W 14720 S, Elberta, UT 84626","precinct":"25SW09","hd":"66","v_score":"1.121327652","decile":"3","lat":39.9606691009187,"lng":-111.95731490314247},{"vid":"1952566","name":"Channie Stark","party":"Rep","address":"16474 S Sandhill Rd, Elberta, UT 84633","precinct":"25SW09","hd":"66","v_score":"6.636723236","decile":"7","lat":39.93040655745835,"lng":-111.91450224808956},{"vid":"1993357","name":"Dewitt Marks","party":"","address":"12596 W 15000 S, Elberta, UT 84626","precinct":"25SW09","hd":"66","v_score":"2.315214949","decile":"5","lat":39.9564944033559,"lng":-111.95134972763485},{"vid":"2044919","name":"Kelsey Lind V","party":"Rep","address":"9415 W 15800 S, Elberta, UT 84633","precinct":"25SW09","hd":"66","v_score":"2.660162957","decile":"5","lat":39.940541223936634,"lng":-111.87612416883717},{"vid":"b85ff6fc91ddccefbd60e7685133bfd90db32c63462f66d4412b9cc16ab701b7","name":"Mr. Maxie Hackett","party":"","address":"9706 W 15800 S, Elberta, UT 84633","precinct":"25SW09","hd":"66","v_score":"5.40460374","decile":"7","lat":39.943166082153866,"lng":-111.88306381520543},{"vid":"2136944","name":"Argie Romaguera","party":"Dem","address":"15066 S 12800 W, Elberta, UT 84626","precinct":"25SW09","hd":"66","v_score":"3.781490609","decile":"6","lat":39.95489182701094,"lng":-111.95667763666296},{"vid":"62e16fa55e7a8e48acc42cec74d2eae82c7f1b6a861e714cdf450afddeafb9a6","name":"Marland Gleichner","party":"","address":"9597 W 15800 S, Elberta, UT 84633","precinct":"25SW09","hd":"66","v_score":"2.315214949","decile":"5","lat":39.93807638472446,"lng":-111.88041645491029},{"vid":"2188109","name":"Zina Leannon PhD","party":"","address":"9415 W 15800 S, Elberta, UT 84633","precinct":"25SW09","hd":"66","v_score":"0","decile":"1","lat":39.940541223936634,"lng":-111.87612416883717},{"vid":"2337324","name":"Rolla Mraz","party":"Rep","address":"12895 W 14720 S, Elberta, UT 84626","precinct":"25SW09","hd":"66","v_score":"0","decile":"1","lat":39.960746183032406,"lng":-111.95853127216317},{"vid":"2365235","name":"Freddie Koelpin","party":"","address":"12953 W 14720 S, Elberta, UT 84626","precinct":"25SW09","hd":"66","v_score":"0","decile":"1","lat":39.96031003515,"lng":-111.95989792196471},{"vid":"2386644","name":"Lorinda Denesik","party":"","address":"17579 S Tunnel Rd, Elberta, UT 84626","precinct":"25SW09","hd":"66","v_score":"2.315214949","decile":"5","lat":39.91205047187534,"lng":-111.98523975078461},{"vid":"2418926","name":"Timmothy Shields","party":"","address":"12895 W 14720 S, Elberta, UT 84626","precinct":"25SW09","hd":"66","v_score":"1.193887297","decile":"3","lat":39.960746183032406,"lng":-111.95853127216317},{"vid":"2446839","name":"Mrs. Chessie Kub","party":"","address":"12596 W 15000 S, Elberta, UT 84626","precinct":"25SW09","hd":"66","v_score":"3.93832808","decile":"6","lat":39.9564944033559,"lng":-111.95134972763485},{"vid":"2459153","name":"Parker Hamill","party":"Dem","address":"14939 S 12800 W, Elberta, UT 84626","precinct":"25SW09","hd":"66","v_score":"0","decile":"1","lat":39.95769065492662,"lng":-111.95291246584169},{"vid":"2515492","name":"Ms. Alaina Hills DDS","party":"","address":"17579 S Tunnel Rd, Elberta, UT 84626","precinct":"25SW09","hd":"66","v_score":"1.193887297","decile":"4","lat":39.91205047187534,"lng":-111.98523975078461},{"vid":"2521010","name":"Miss Celena Daniel DDS","party":"Dem","address":"9543 W 15800 S, Goshen, UT 84633","precinct":"25SW09","hd":"66","v_score":"0","decile":"1","lat":39.94053972494483,"lng":-111.87915929554852},{"vid":"2552858","name":"Mr. Huey Ratke","party":"","address":"12822 W 14780 S, Elberta, UT 84626","precinct":"25SW09","hd":"66","v_score":"1.193887297","decile":"4","lat":39.96029224110685,"lng":-111.95677437336128},{"vid":"2594665","name":"Earley Hoppe","party":"Rep","address":"12822 W 14780 S, Elberta, UT 84626","precinct":"25SW09","hd":"66","v_score":"1.193887297","decile":"4","lat":39.96029224110685,"lng":-111.95677437336128},{"vid":"2601690","name":"Rocco Hegmann I","party":"","address":"9652 W 15800 S, Elberta, UT 84633","precinct":"25SW09","hd":"66","v_score":"0","decile":"1","lat":39.9435284489891,"lng":-111.88154866993483},{"vid":"2678542","name":"Jordan McLaughlin","party":"Rep","address":"9706 W 15800 S, Goshen, UT 84633","precinct":"25SW09","hd":"66","v_score":"1.193887297","decile":"4","lat":39.943166082153866,"lng":-111.88306381520543},{"vid":"2702015","name":"Dr. Amon O'Reilly I","party":"Dem","address":"9491 W 15800 S, Goshen, UT 84633","precinct":"25SW09","hd":"66","v_score":"0","decile":"2","lat":39.940461276881685,"lng":-111.87812040829546},{"vid":"2763963","name":"Roy Koch","party":"","address":"14734 S 12800 W, Elberta, UT 84626","precinct":"25SW09","hd":"66","v_score":"1.193887297","decile":"4","lat":39.9607013631534,"lng":-111.95689480060996},{"vid":"2812239","name":"Ivana Mills","party":"","address":"12953 W 14720 S, Elberta, UT 84626","precinct":"25SW09","hd":"66","v_score":"0","decile":"2","lat":39.96031003515,"lng":-111.95989792196471},{"vid":"2909425","name":"Dr. Ely Mosciski","party":"","address":"14939 S 12800 W, Elberta, UT 84626","precinct":"25SW09","hd":"66","v_score":"0","decile":"2","lat":39.95769065492662,"lng":-111.95291246584169},{"vid":"2919247","name":"Alysia Wiegand","party":"","address":"12895 W 14720 S, Elberta, UT 84626","precinct":"25SW09","hd":"66","v_score":"0","decile":"2","lat":39.960746183032406,"lng":-111.95853127216317},{"vid":"2919883","name":"Blanca Haley DDS","party":"","address":"15066 S 12800 W, Elberta, UT 84626","precinct":"25SW09","hd":"66","v_score":"0","decile":"2","lat":39.95489182701094,"lng":-111.95667763666296},{"vid":"6202175","name":"Cristofer Larkin DDS","party":"Rep","address":"17582 S Tunnel Rd, Elberta, UT 84626","precinct":"25SW09","hd":"66","v_score":"3.93832808","decile":"6","lat":39.91244038511532,"lng":-111.99039671239042},{"vid":"0da7cd592e4882eee2a643004570372a31b72b0e29d24c3ea4d0dc6072daff90","name":"Ahmad Grant","party":"","address":"12822 W 14780 S, Elberta, UT 84626","precinct":"25SW09","hd":"66","v_score":"5.40460374","decile":"7","lat":39.96029224110685,"lng":-111.95677437336128},{"vid":"6335524","name":"Brande Smith","party":"Dem","address":"11093 W Triangle Ranch Rd, Elberta, UT 84633","precinct":"25SW09","hd":"66","v_score":"14.67714005","decile":"9","lat":39.92172724261034,"lng":-111.91473423441842},{"vid":"6355690","name":"Dr. Hubert McGlynn II","party":"","address":"9772 W 15800 S, Elberta, UT 84633","precinct":"25SW09","hd":"66","v_score":"3.93832808","decile":"6","lat":39.94275747622297,"lng":-111.88439697694248},{"vid":"6381700","name":"Lorinda Gleichner PhD","party":"Dem","address":"9415 W 15800 S, Elberta, UT 84633","precinct":"25SW09","hd":"66","v_score":"2.587603312","decile":"5","lat":39.940541223936634,"lng":-111.87612416883717},{"vid":"6442161","name":"Alivia Kessler-Kiehn","party":"Rep","address":"9491 W 15800 S, Elberta, UT 84633","precinct":"25SW09","hd":"66","v_score":"4.210716443","decile":"7","lat":39.940461276881685,"lng":-111.87812040829546},{"vid":"6491055","name":"Miss Aryanna Fay PhD","party":"Rep","address":"12880 W 14720 S, Elberta, UT 84626","precinct":"25SW09","hd":"66","v_score":"12.51600754","decile":"9","lat":39.96124944551084,"lng":-111.95854159290747},{"vid":"6501225","name":"Brenna Sawayn-Lebsack","party":"","address":"9453 W 15800 S, Elberta, UT 84633","precinct":"25SW09","hd":"66","v_score":"5.40460374","decile":"7","lat":39.94053591988587,"lng":-111.87701552648974},{"vid":"6501551","name":"Clella Emmerich","party":"Dem","address":"12831 W 14720 S, Elberta, UT 84626","precinct":"25SW09","hd":"66","v_score":"4.064235245","decile":"6","lat":39.9606691009187,"lng":-111.95731490314247},{"vid":"6516785","name":"Lavonia Kuhn","party":"","address":"9706 W 15800 S, Elberta, UT 84633","precinct":"25SW09","hd":"66","v_score":"5.40460374","decile":"7","lat":39.943166082153866,"lng":-111.88306381520543},{"vid":"6532576","name":"Aleah Upton","party":"","address":"12831 W 14720 S, # 64, Elberta, UT 84626","precinct":"25SW09","hd":"66","v_score":"4.064235245","decile":"6","lat":39.9606691009187,"lng":-111.95731490314247}]