[{"id":"24176","name":"Anner Lemke","party":"","address":"6778 S 6000 W, West Mountain, UT 84660","precinct":"25SW05","hd":"50","v_score":"1.121327652","decile":"3","lat":40.10574270137,"lng":-111.797473778422},{"id":"51707","name":"Skip McDermott","party":"","address":"5677 S Lincoln Beach Rd, Spanish Fork, UT 84660","precinct":"25SW05","hd":"50","v_score":"9.371024771","decile":"8","lat":40.126940171937,"lng":-111.842310085646},{"id":"61045","name":"Olene Johnson","party":"Dem","address":"6026 Lincoln Beach Rd, Benjamin, UT 84660","precinct":"25SW05","hd":"50","v_score":"1.121327652","decile":"3","lat":40.116058256714,"lng":-111.802186609914},{"id":"64780","name":"Mrs. Modena Purdy DDS","party":"Dem","address":"7984 S 5600 W, Payson, UT 84651","precinct":"25SW05","hd":"50","v_score":"0","decile":"1","lat":40.087226331817,"lng":-111.787993814764},{"id":"66698","name":"Mr. Orren Lindgren DVM","party":"","address":"6026 Lincoln Beach Rd, Benjamin, UT 84660","precinct":"25SW05","hd":"50","v_score":"1.121327652","decile":"3","lat":40.116058256714,"lng":-111.802186609914},{"id":"73735","name":"Clarke Anderson","party":"","address":"6277 W 6320 S, Benjamin, UT 84660","precinct":"25SW05","hd":"50","v_score":"1.121327652","decile":"3","lat":40.11560378155,"lng":-111.80305650537},{"id":"74569","name":"Kaaren Roob","party":"Rep","address":"6308 W 6320 S, West Mountain, UT 84660","precinct":"25SW05","hd":"50","v_score":"3.93832808","decile":"6","lat":40.115364324524,"lng":-111.802092283253},{"id":"83178","name":"Octavie Sauer","party":"Rep","address":"5976 W 8000 S, Payson, UT 84651","precinct":"25SW05","hd":"50","v_score":"1.193887297","decile":"3","lat":40.085184883784,"lng":-111.797632834781},{"id":"84677","name":"Dr. Phillip Schaden I","party":"","address":"5677 S Lincoln Beach Rd, Spanish Fork, UT 84660","precinct":"25SW05","hd":"50","v_score":"0","decile":"1","lat":40.126940171937,"lng":-111.842310085646},{"id":"94464","name":"Ms. Bena Bailey","party":"Rep","address":"7102 W 5240 S, Benjamin, UT 84660","precinct":"25SW05","hd":"50","v_score":"0","decile":"1","lat":40.143445038018,"lng":-111.812193956554},{"id":"115323","name":"Dwane Baumbach","party":"Rep","address":"6218 S 6320 W, Spanish Fork, UT 84660","precinct":"25SW05","hd":"50","v_score":"1.193887297","decile":"4","lat":40.117672481116,"lng":-111.804915928474},{"id":"135903","name":"Tamela Luettgen DDS","party":"Rep","address":"6742 S 6000 W, West Mountain, UT 84660","precinct":"25SW05","hd":"50","v_score":"1.193887297","decile":"4","lat":40.107451869094,"lng":-111.797465147153},{"id":"139448","name":"Kamya Reichert DDS","party":"Dem","address":"6702 S 6000 W, West Mountain, UT 84660","precinct":"25SW05","hd":"50","v_score":"2.315214949","decile":"5","lat":40.108279568338,"lng":-111.797456341736},{"id":"159953","name":"Mauricio Thiel","party":"","address":"6018 W 8000 S, Payson, UT 84651","precinct":"25SW05","hd":"50","v_score":"5.40460374","decile":"7","lat":40.085195242578,"lng":-111.798717677877},{"id":"171961","name":"Marcela Pagac","party":"Rep","address":"6218 S 6320 W, Spanish Fork, UT 84660","precinct":"25SW05","hd":"50","v_score":"1.623113131","decile":"5","lat":40.117672481116,"lng":-111.804915928474},{"id":"179535","name":"Mr. Armando Quigley","party":"Rep","address":"7654 S 5600 W, Payson, UT 84651","precinct":"25SW05","hd":"50","v_score":"5.40460374","decile":"7","lat":40.091737412031,"lng":-111.788063601987}]