[{"vid":"40df8baa4dc3dda2b3d9cfa6896d7315a0ae3319c22dc7ec49826a637360aff2","name":"Mrs. Modena Purdy DDS","party":"Dem","address":"7984 S 5600 W, Payson, UT 84651","precinct":"25SW05","hd":"50","v_score":"0","decile":"1","lat":40.09741333857966,"lng":-111.72042531721209},{"vid":"2389213","name":"Clarke Anderson","party":"","address":"6277 W 6320 S, Benjamin, UT 84660","precinct":"25SW05","hd":"50","v_score":"1.121327652","decile":"3","lat":40.11515207747064,"lng":-111.80379893717623},{"vid":"2398205","name":"Kaaren Roob","party":"Rep","address":"6308 W 6320 S, West Mountain, UT 84660","precinct":"25SW05","hd":"50","v_score":"3.93832808","decile":"6","lat":40.11590061420808,"lng":-111.80314082077281},{"vid":"2482176","name":"Octavie Sauer","party":"Rep","address":"5976 W 8000 S, Payson, UT 84651","precinct":"25SW05","hd":"50","v_score":"1.193887297","decile":"3","lat":40.08635248160321,"lng":-111.79693996562904},{"vid":"2802231","name":"Dwane Baumbach","party":"Rep","address":"6218 S 6320 W, Spanish Fork, UT 84660","precinct":"25SW05","hd":"50","v_score":"1.193887297","decile":"4","lat":40.11775920664383,"lng":-111.80423251952239},{"vid":"3115048","name":"Tamela Luettgen DDS","party":"Rep","address":"6742 S 6000 W, West Mountain, UT 84660","precinct":"25SW05","hd":"50","v_score":"1.193887297","decile":"4","lat":40.10801066214865,"lng":-111.79939337408477},{"vid":"6346875","name":"Mauricio Thiel","party":"","address":"6018 W 8000 S, Payson, UT 84651","precinct":"25SW05","hd":"50","v_score":"5.40460374","decile":"7","lat":40.08776583853395,"lng":-111.79834352951877},{"vid":"6455242","name":"Marcela Pagac","party":"Rep","address":"6218 S 6320 W, Spanish Fork, UT 84660","precinct":"25SW05","hd":"50","v_score":"1.623113131","decile":"5","lat":40.11775920664383,"lng":-111.80423251952239},{"vid":"6519021","name":"Mr. Armando Quigley","party":"Rep","address":"7654 S 5600 W, Payson, UT 84651","precinct":"25SW05","hd":"50","v_score":"5.40460374","decile":"7","lat":40.09129059909647,"lng":-111.79668391487102}]