[{"id":"1318","name":"Latoya Jakubowski","party":"Dem","address":"4972 W 11950 S, Payson, UT 84651","precinct":"25SW13","hd":"65","v_score":"2.315214949","decile":"5","lat":40.013025333959,"lng":-111.772016078272},{"id":"15672","name":"Vernetta Christiansen","party":"","address":"11363 S 5600 W, Payson, UT 84651","precinct":"25SW13","hd":"65","v_score":"4.064235245","decile":"6","lat":40.023585474042,"lng":-111.786936634387},{"id":"25647","name":"Dr. Jayvion Flatley","party":"Rep","address":"4992 W 11950 S, Payson, UT 84651","precinct":"25SW13","hd":"65","v_score":"5.40460374","decile":"7","lat":40.013025333991,"lng":-111.772437172279},{"id":"32941","name":"Mr. Adam Miller","party":"Dem","address":"11782 S 5350 W, Payson, UT 84651","precinct":"25SW13","hd":"65","v_score":"1.193887297","decile":"3","lat":40.01583102696,"lng":-111.780800950323},{"id":"34125","name":"Devan Schuster-Ferry","party":"Rep","address":"11578 S 5250 W, Payson, UT 84651","precinct":"25SW13","hd":"65","v_score":"1.193887297","decile":"3","lat":40.023013654425,"lng":-111.778293050947},{"id":"37305","name":"Slade Hauck","party":"","address":"5781 W 11450 S, Payson, UT 84651","precinct":"25SW13","hd":"65","v_score":"2.315214949","decile":"5","lat":40.020603835817,"lng":-111.791514546426},{"id":"43101","name":"Kennth Roberts","party":"","address":"5667 W 11450 S, Payson, UT 84651","precinct":"25SW13","hd":"65","v_score":"3.93832808","decile":"6","lat":40.021078842889,"lng":-111.788586724786},{"id":"50164","name":"Elza Johnston","party":"Rep","address":"5623 W 11450 S, Payson, UT 84651","precinct":"25SW13","hd":"65","v_score":"1.121327652","decile":"3","lat":40.021571360764,"lng":-111.787583745919},{"id":"53141","name":"Annmarie Stiedemann-Stehr","party":"Rep","address":"5701 W 11600 S, Payson, UT 84651","precinct":"25SW13","hd":"65","v_score":"0","decile":"1","lat":40.019091105341,"lng":-111.790410903382},{"id":"64506","name":"Edgar Gleason","party":"Rep","address":"5652 W 11300 S, Payson, UT 84651","precinct":"25SW13","hd":"65","v_score":"1.193887297","decile":"3","lat":40.024553662761,"lng":-111.788621538141},{"id":"68518","name":"Mrs. Lakeshia Mayer","party":"Dem","address":"5793 W 11600 S, Payson, UT 84651","precinct":"25SW13","hd":"65","v_score":"1.121327652","decile":"3","lat":40.019079521053,"lng":-111.79240013051},{"id":"79523","name":"Branson Oberbrunner","party":"Rep","address":"5682 W 11450 S, Payson, UT 84651","precinct":"25SW13","hd":"65","v_score":"2.315214949","decile":"5","lat":40.021088277935,"lng":-111.78903872505},{"id":"79827","name":"Donnell Koch","party":"Rep","address":"5667 W 11450 S, Payson, UT 84651","precinct":"25SW13","hd":"65","v_score":"2.315214949","decile":"5","lat":40.021078842889,"lng":-111.788586724786},{"id":"81277","name":"Ashli Waters","party":"Dem","address":"5623 W 11450 S, Payson, UT 84651","precinct":"25SW13","hd":"65","v_score":"1.193887297","decile":"3","lat":40.021571360764,"lng":-111.787583745919},{"id":"82019","name":"Pennie Mante","party":"","address":"4992 W 11950 S, Payson, UT 84651","precinct":"25SW13","hd":"65","v_score":"1.193887297","decile":"3","lat":40.013025333991,"lng":-111.772437172279},{"id":"85684","name":"Marsh Greenfelder","party":"","address":"5682 W 11450 S, Payson, UT 84651","precinct":"25SW13","hd":"65","v_score":"1.193887297","decile":"3","lat":40.021088277935,"lng":-111.78903872505},{"id":"87091","name":"Reilly Johns","party":"Dem","address":"5793 W 11600 S, Payson, UT 84651","precinct":"25SW13","hd":"65","v_score":"0","decile":"1","lat":40.019079521053,"lng":-111.79240013051},{"id":"88373","name":"Mima Hamill","party":"Rep","address":"5721 W 11450 S, Payson, UT 84651","precinct":"25SW13","hd":"65","v_score":"1.193887297","decile":"4","lat":40.020947825427,"lng":-111.790041690886},{"id":"96833","name":"Khloe Halvorson","party":"","address":"6079 W 12000 S, Payson, UT 84651","precinct":"25SW13","hd":"65","v_score":"2.817000428","decile":"6","lat":40.011763482571,"lng":-111.797018372699},{"id":"99613","name":"Lauren Torp MD","party":"Dem","address":"5807 W 11600 S, Payson, UT 84651","precinct":"25SW13","hd":"65","v_score":"0","decile":"1","lat":40.019082193822,"lng":-111.792702818934},{"id":"132916","name":"Dr. Tab Reilly PhD","party":"Dem","address":"11404 S 5825 W, Payson, UT 84651","precinct":"25SW13","hd":"65","v_score":"0","decile":"2","lat":40.024246236586,"lng":-111.792985314415},{"id":"133336","name":"Colter Parker","party":"","address":"11782 S 5350 W, Payson, UT 84651","precinct":"25SW13","hd":"65","v_score":"0","decile":"2","lat":40.01583102696,"lng":-111.780800950323},{"id":"142047","name":"Karri Langworth","party":"Dem","address":"5679 W 11600 S, Payson, UT 84651","precinct":"25SW13","hd":"65","v_score":"0","decile":"2","lat":40.019088315446,"lng":-111.789935232445},{"id":"146607","name":"Diamond Wunsch","party":"","address":"11578 S 5250 W, Payson, UT 84651","precinct":"25SW13","hd":"65","v_score":"14.66325911","decile":"9","lat":40.023013654425,"lng":-111.778293050947},{"id":"147021","name":"Tea Eichmann","party":"","address":"5287 W 12000 S, Payson, UT 84651","precinct":"25SW13","hd":"65","v_score":"3.781490609","decile":"6","lat":40.011838350924,"lng":-111.780417309173},{"id":"147822","name":"Sullivan Trantow","party":"Rep","address":"11553 S 5350 W, Payson, UT 84651","precinct":"25SW13","hd":"65","v_score":"4.210716443","decile":"7","lat":40.020094260545,"lng":-111.779393888774},{"id":"149996","name":"Mr. Deforest Swaniawski Jr.","party":"Rep","address":"5904 W 11300 S, Payson, UT 84651","precinct":"25SW13","hd":"65","v_score":"8.347511332","decile":"8","lat":40.024522633171,"lng":-111.793586899236},{"id":"150904","name":"Dr. Zeta Maggio MD","party":"","address":"12652 S 5600 W, Payson, UT 84651","precinct":"25SW13","hd":"65","v_score":"5.40460374","decile":"7","lat":39.999936053189,"lng":-111.786604609755},{"id":"152667","name":"Jaylyn Goodwin","party":"Dem","address":"5682 W 11450 S, Payson, UT 84651","precinct":"25SW13","hd":"65","v_score":"8.347511332","decile":"8","lat":40.021088277935,"lng":-111.78903872505},{"id":"153417","name":"Brantley Luettgen-Donnelly","party":"","address":"11206 S 5250 W, Payson, UT 84651","precinct":"25SW13","hd":"65","v_score":"1.193887297","decile":"4","lat":40.026447105863,"lng":-111.778305856347},{"id":"153581","name":"Alanzo Veum-Gerhold","party":"Rep","address":"11519 S 5250 W, Payson, UT 84651","precinct":"25SW13","hd":"65","v_score":"3.93832808","decile":"6","lat":40.022290227251,"lng":-111.778135306268},{"id":"153629","name":"Mr. Quinten Rice","party":"Dem","address":"11206 S 5250 W, Payson, UT 84651","precinct":"25SW13","hd":"65","v_score":"1.193887297","decile":"4","lat":40.026447105863,"lng":-111.778305856347},{"id":"156048","name":"Erie Moore","party":"Rep","address":"11594 S 5350 W, Payson, UT 84651","precinct":"25SW13","hd":"65","v_score":"0","decile":"3","lat":40.019160181535,"lng":-111.780171369926},{"id":"158325","name":"Clora O'Conner-Bauch","party":"Rep","address":"6079 W 12000 S, Payson, UT 84651","precinct":"25SW13","hd":"65","v_score":"15.87102735","decile":"9","lat":40.011763482571,"lng":-111.797018372699},{"id":"171221","name":"Denita Wisoky","party":"","address":"5732 W 11450 S, Payson, UT 84651","precinct":"25SW13","hd":"65","v_score":"13.61621523","decile":"9","lat":40.021054879428,"lng":-111.790369256748},{"id":"171622","name":"Mettie Cormier","party":"","address":"11801 S 5350 W, Payson, UT 84651","precinct":"25SW13","hd":"65","v_score":"0","decile":"3","lat":40.01565135801,"lng":-111.780653305495},{"id":"174768","name":"Derik Hirthe-Heathcote","party":"","address":"5682 W 11450 S, Payson, UT 84651","precinct":"25SW13","hd":"65","v_score":"8.347511332","decile":"8","lat":40.021088277935,"lng":-111.78903872505},{"id":"176628","name":"Shanice Lehner","party":"Dem","address":"12864 S 5200 W, Santaquin, UT 84655","precinct":"25SW13","hd":"65","v_score":"5.40460374","decile":"7","lat":39.99610565684,"lng":-111.77710695877},{"id":"178982","name":"Spencer Reichel","party":"","address":"11553 S 5350 W, Payson, UT 84651","precinct":"25SW13","hd":"65","v_score":"5.40460374","decile":"7","lat":40.020094260545,"lng":-111.779393888774},{"id":"179352","name":"Mr. Wash Graham I","party":"","address":"5721 W 11450 S, Payson, UT 84651","precinct":"25SW13","hd":"65","v_score":"6.884189957","decile":"8","lat":40.020947825427,"lng":-111.790041690886},{"id":"179539","name":"Gillie Walker","party":"","address":"5793 W 11600 S, Payson, UT 84651","precinct":"25SW13","hd":"65","v_score":"5.40460374","decile":"7","lat":40.019079521053,"lng":-111.79240013051},{"id":"180184","name":"Jazmine Bahringer PhD","party":"Dem","address":"11578 S 5250 W, Payson, UT 84651","precinct":"25SW13","hd":"65","v_score":"14.66325911","decile":"9","lat":40.023013654425,"lng":-111.778293050947},{"id":"181142","name":"Ms. Tresa Hoeger","party":"Rep","address":"11594 S 5350 W, Payson, UT 84651","precinct":"25SW13","hd":"65","v_score":"0","decile":"3","lat":40.019160181535,"lng":-111.780171369926}]