[{"id":"693","name":"Latisha Conroy","party":"Dem","address":"214 W Silver Springs Dr, Vineyard, UT 84059","precinct":"25VI01","hd":"57","v_score":"6.814370645","decile":"8","lat":40.309290012699,"lng":-111.758825168511},{"id":"1009","name":"Dr. Joseluis Lang III","party":"Dem","address":"27 W Seasons Dr, Vineyard, UT 84059","precinct":"25VI01","hd":"57","v_score":"2.744440783","decile":"5","lat":40.307971543141,"lng":-111.754324384521},{"id":"1285","name":"Lorenz Lind-Wilderman","party":"","address":"667 N Fall Creek Dr, Vineyard, UT 84059","precinct":"25VI01","hd":"57","v_score":"19.1495814","decile":"10","lat":40.309086853307,"lng":-111.759726207131},{"id":"1584","name":"Theta Paucek-Carter","party":"","address":"228 W Silver Springs Dr, Vineyard, UT 84059","precinct":"25VI01","hd":"57","v_score":"0","decile":"1","lat":40.309419451152,"lng":-111.759129556188},{"id":"2567","name":"Mozell Vandervort","party":"Dem","address":"213 W Whitewater Dr, Vineyard, UT 84059","precinct":"25VI01","hd":"57","v_score":"10.22509301","decile":"9","lat":40.308439036741,"lng":-111.758784816349},{"id":"4103","name":"Sharonda Lynch","party":"","address":"11 W Seasons Dr, Vineyard, UT 84059","precinct":"25VI01","hd":"57","v_score":"2.315214949","decile":"5","lat":40.307992649716,"lng":-111.753981159087},{"id":"4422","name":"Tyrique Dach-Schaden","party":"","address":"114 W Silver Springs Dr, Vineyard, UT 84059","precinct":"25VI01","hd":"57","v_score":"8.347511332","decile":"8","lat":40.308860868236,"lng":-111.756355972181},{"id":"4829","name":"Dr. Oran Botsford PhD","party":"Dem","address":"197 W Silver Springs Dr, Vineyard, UT 84059","precinct":"25VI01","hd":"57","v_score":"2.315214949","decile":"5","lat":40.308985359562,"lng":-111.758168629409},{"id":"5699","name":"Arba Kunde Sr.","party":"Dem","address":"201 W Whitewater Dr, Vineyard, UT 84059","precinct":"25VI01","hd":"57","v_score":"2.315214949","decile":"5","lat":40.308440381206,"lng":-111.758695745082},{"id":"6019","name":"Ms. Valeria Cummerata","party":"Rep","address":"258 W Silver Springs Dr, Vineyard, UT 84059","precinct":"25VI01","hd":"57","v_score":"1.121327652","decile":"3","lat":40.309754734428,"lng":-111.75981926361},{"id":"6426","name":"Ember Rowe","party":"","address":"267 W 630 N, Vineyard, UT 84059","precinct":"25VI01","hd":"57","v_score":"2.315214949","decile":"5","lat":40.308692283784,"lng":-111.748110261912},{"id":"6651","name":"Sarai Pacocha","party":"Rep","address":"603 N Glenwilde Rd, Vineyard, UT 84059","precinct":"25VI01","hd":"57","v_score":"33.9251821","decile":"10","lat":40.308203217499,"lng":-111.756649762835},{"id":"6808","name":"Mrs. Lucindy Dare","party":"Rep","address":"87 W Silver Springs Dr, Vineyard, UT 84059","precinct":"25VI01","hd":"57","v_score":"2.958579882","decile":"6","lat":40.30878424429,"lng":-111.75569335569},{"id":"6829","name":"London Howell","party":"Dem","address":"114 W Silver Springs Dr, Vineyard, UT 84059","precinct":"25VI01","hd":"57","v_score":"1.193887297","decile":"3","lat":40.308860868236,"lng":-111.756355972181},{"id":"6881","name":"Ermina Harris","party":"","address":"59 W Seasons Dr, Vineyard, UT 84059","precinct":"25VI01","hd":"57","v_score":"2.587603312","decile":"5","lat":40.307970530864,"lng":-111.755036969428},{"id":"8575","name":"Dorian Harvey","party":"","address":"632 N Emery Ln, Vineyard, UT 84059","precinct":"25VI01","hd":"57","v_score":"3.781490609","decile":"6","lat":40.308527337953,"lng":-111.754105314413},{"id":"9495","name":"Desmond Nolan","party":"Rep","address":"642 N Emery Ln, Vineyard, UT 84059","precinct":"25VI01","hd":"57","v_score":"7.086521114","decile":"8","lat":40.308658224667,"lng":-111.754129310291},{"id":"12004","name":"Timmie Nolan","party":"Dem","address":"112 W Seasons Dr, Vineyard, UT 84059","precinct":"25VI01","hd":"57","v_score":"2.315214949","decile":"5","lat":40.308297387294,"lng":-111.756227224863},{"id":"14351","name":"Kenya Dooley","party":"","address":"92 W Silver Springs Dr, Vineyard, UT 84059","precinct":"25VI01","hd":"57","v_score":"1.121327652","decile":"3","lat":40.308876701863,"lng":-111.755973590112},{"id":"14847","name":"Dr. Crista Wuckert MD","party":"","address":"225 W Whitewater Dr, Vineyard, UT 84059","precinct":"25VI01","hd":"57","v_score":"1.121327652","decile":"3","lat":40.308437692276,"lng":-111.758873887617},{"id":"15148","name":"Latricia Senger-Swaniawski","party":"Rep","address":"15 W Seasons Dr, Vineyard, UT 84059","precinct":"25VI01","hd":"57","v_score":"1.46627566","decile":"4","lat":40.307990231266,"lng":-111.754024691238},{"id":"15393","name":"Hermine Johns","party":"Dem","address":"696 N 380 W, Vineyard, UT 84059","precinct":"25VI01","hd":"57","v_score":"6.027167436","decile":"7","lat":40.304005289155,"lng":-111.736682698638},{"id":"15465","name":"Nolia Runolfsdottir","party":"Dem","address":"629 N Emery Ln, Vineyard, UT 84059","precinct":"25VI01","hd":"57","v_score":"1.121327652","decile":"3","lat":40.30836936632,"lng":-111.754228084508},{"id":"15559","name":"Abbott Rice","party":"Dem","address":"75 W Silver Springs Dr, Vineyard, UT 84059","precinct":"25VI01","hd":"57","v_score":"1.121327652","decile":"3","lat":40.308814239991,"lng":-111.755500041832},{"id":"15635","name":"Ms. Sage Gerhold DDS","party":"","address":"75 W Silver Springs Dr, Vineyard, UT 84059","precinct":"25VI01","hd":"57","v_score":"16.11772682","decile":"9","lat":40.308814239991,"lng":-111.755500041832},{"id":"15966","name":"Zenobia Hartmann PhD","party":"","address":"213 W Whitewater Dr, Vineyard, UT 84059","precinct":"25VI01","hd":"57","v_score":"16.92115192","decile":"9","lat":40.308439036741,"lng":-111.758784816349},{"id":"16178","name":"Jasmin Reynolds","party":"Dem","address":"650 N Emery Ln, Vineyard, UT 84059","precinct":"25VI01","hd":"57","v_score":"12.02671059","decile":"9","lat":40.308762934037,"lng":-111.754148506993},{"id":"17112","name":"Victoriano Smith MD","party":"Rep","address":"57 W Seasons Dr, Vineyard, UT 84059","precinct":"25VI01","hd":"57","v_score":"12.70314012","decile":"9","lat":40.307967629166,"lng":-111.754982320858},{"id":"18014","name":"Aloys Hegmann","party":"Rep","address":"633 N Glenwilde Rd, Vineyard, UT 84059","precinct":"25VI01","hd":"57","v_score":"6.027167436","decile":"7","lat":40.308473416245,"lng":-111.756584302247},{"id":"18094","name":"Loyd White","party":"","address":"212 W Silver Springs Dr, Vineyard, UT 84059","precinct":"25VI01","hd":"57","v_score":"1.121327652","decile":"3","lat":40.309276320893,"lng":-111.758776904914},{"id":"18175","name":"Elenora Kutch DDS","party":"","address":"262 W Silver Springs Dr, Vineyard, UT 84059","precinct":"25VI01","hd":"57","v_score":"2.315214949","decile":"5","lat":40.309761978454,"lng":-111.759832167027},{"id":"18469","name":"Gaither Hansen MD","party":"","address":"653 N 380 W, Vineyard, UT 84059","precinct":"25VI01","hd":"57","v_score":"18.3488229","decile":"10","lat":40.304116643809,"lng":-111.737346720815},{"id":"18617","name":"Jarret Auer","party":"","address":"643 N 380 W, Vineyard, UT 84059","precinct":"25VI01","hd":"57","v_score":"18.60295045","decile":"10","lat":40.304115878354,"lng":-111.737503641468},{"id":"20065","name":"Alphonsine Marks","party":"Dem","address":"771 N 380 W, Vineyard, UT 84059","precinct":"25VI01","hd":"57","v_score":"1.46627566","decile":"4","lat":40.304121297934,"lng":-111.735571726532},{"id":"20653","name":"Mindy Schimmel","party":"","address":"101 W Silver Springs Dr, Vineyard, UT 84059","precinct":"25VI01","hd":"57","v_score":"2.315214949","decile":"5","lat":40.308766398249,"lng":-111.755912862196},{"id":"21789","name":"Margeret Halvorson","party":"Dem","address":"225 W Whitewater Dr, Vineyard, UT 84059","precinct":"25VI01","hd":"57","v_score":"1.121327652","decile":"3","lat":40.308437692276,"lng":-111.758873887617},{"id":"22529","name":"Mr. Mathews Hauck I","party":"Rep","address":"31 W Seasons Dr, Vineyard, UT 84059","precinct":"25VI01","hd":"57","v_score":"2.744440783","decile":"5","lat":40.307967309987,"lng":-111.754388940185},{"id":"22926","name":"Darrion Grant-Kohler","party":"","address":"672 N 380 W, Vineyard, UT 84059","precinct":"25VI01","hd":"57","v_score":"4.905839784","decile":"7","lat":40.304003485465,"lng":-111.73705246076},{"id":"23015","name":"Nora Bogisich","party":"Dem","address":"105 W Silver Springs Dr, Vineyard, UT 84059","precinct":"25VI01","hd":"57","v_score":"2.315214949","decile":"5","lat":40.308761299379,"lng":-111.755975578341},{"id":"23721","name":"Dr. Molly Baumbach DVM","party":"","address":"223 W Silver Springs Dr, Vineyard, UT 84059","precinct":"25VI01","hd":"57","v_score":"3.711952487","decile":"6","lat":40.309103710733,"lng":-111.758599434669},{"id":"24050","name":"Ms. Sallie Auer DVM","party":"","address":"208 W Whitewater Dr, Vineyard, UT 84059","precinct":"25VI01","hd":"57","v_score":"13.19982233","decile":"9","lat":40.308554053853,"lng":-111.758758099761},{"id":"24166","name":"Symone Zieme","party":"Dem","address":"763 N 380 W, Vineyard, UT 84059","precinct":"25VI01","hd":"57","v_score":"0","decile":"1","lat":40.304121297941,"lng":-111.735671126527},{"id":"25658","name":"Blain Batz","party":"Rep","address":"353 W 750 N, Vineyard, UT 84059","precinct":"25VI01","hd":"57","v_score":"3.93832808","decile":"6","lat":40.303128885598,"lng":-111.735551758452},{"id":"26156","name":"Melodie Schowalter","party":"","address":"708 N 380 W, Vineyard, UT 84059","precinct":"25VI01","hd":"57","v_score":"12.13314748","decile":"9","lat":40.304006190999,"lng":-111.736497817577},{"id":"26305","name":"Brogan Dibbert","party":"","address":"605 N Glenwilde Rd, Vineyard, UT 84059","precinct":"25VI01","hd":"57","v_score":"1.121327652","decile":"3","lat":40.308224669809,"lng":-111.756643912202},{"id":"26396","name":"Mrs. Mara Marvin DVM","party":"","address":"283 W 700 N, Vineyard, UT 84059","precinct":"25VI01","hd":"57","v_score":"0","decile":"1","lat":40.309759107988,"lng":-111.748626901837},{"id":"28887","name":"Jahir Olson","party":"","address":"99 W Seasons Dr, Vineyard, UT 84059","precinct":"25VI01","hd":"57","v_score":"9.405332525","decile":"8","lat":40.308074207125,"lng":-111.755789731574},{"id":"29227","name":"Mrs. Sharde Wyman DDS","party":"","address":"124 W Silver Springs Dr, Vineyard, UT 84059","precinct":"25VI01","hd":"57","v_score":"4.568975008","decile":"7","lat":40.308871933809,"lng":-111.756590756462},{"id":"30839","name":"Adda Barrows","party":"Rep","address":"662 N Emery Ln, Vineyard, UT 84059","precinct":"25VI01","hd":"57","v_score":"0","decile":"1","lat":40.308922049588,"lng":-111.754189815824},{"id":"31076","name":"Lola Carroll","party":"Rep","address":"273 W 630 N, Vineyard, UT 84059","precinct":"25VI01","hd":"57","v_score":"0","decile":"1","lat":40.308716136332,"lng":-111.748055238412},{"id":"31976","name":"Dr. Kael Greenholt","party":"Rep","address":"167 W Silver Springs Dr, Vineyard, UT 84059","precinct":"25VI01","hd":"57","v_score":"4.210716443","decile":"7","lat":40.308859322773,"lng":-111.757620515417},{"id":"32321","name":"Ronny Schuppe","party":"Dem","address":"75 W Seasons Dr, Vineyard, UT 84059","precinct":"25VI01","hd":"57","v_score":"1.121327652","decile":"3","lat":40.308010672927,"lng":-111.755480736559},{"id":"33676","name":"Leafy Hessel","party":"","address":"625 N Emery Ln, Vineyard, UT 84059","precinct":"25VI01","hd":"57","v_score":"2.315214949","decile":"5","lat":40.30832983319,"lng":-111.754220836774},{"id":"34048","name":"Zeta Langworth","party":"","address":"42 W Silver Springs Dr, Vineyard, UT 84059","precinct":"25VI01","hd":"57","v_score":"7.493443096","decile":"8","lat":40.308998181657,"lng":-111.755100975367},{"id":"36081","name":"Guy Hermiston","party":"Dem","address":"664 N Emery Ln, Vineyard, UT 84059","precinct":"25VI01","hd":"57","v_score":"30.39345643","decile":"10","lat":40.308947941467,"lng":-111.754196786711},{"id":"36744","name":"Bradley Mertz","party":"Dem","address":"635 N Emery Ln, Vineyard, UT 84059","precinct":"25VI01","hd":"57","v_score":"5.40460374","decile":"7","lat":40.308428666014,"lng":-111.75423895611},{"id":"36972","name":"Eben Brakus","party":"Dem","address":"48 W Silver Springs Dr, Vineyard, UT 84059","precinct":"25VI01","hd":"57","v_score":"6.954919332","decile":"8","lat":40.30898120412,"lng":-111.755202035673},{"id":"37872","name":"Ashtyn Brakus","party":"Dem","address":"202 W Silver Springs Dr, Vineyard, UT 84059","precinct":"25VI01","hd":"57","v_score":"15.43762891","decile":"9","lat":40.309207861863,"lng":-111.758535586929},{"id":"38147","name":"Dustan Kunde","party":"","address":"84 W Silver Springs Dr, Vineyard, UT 84059","precinct":"25VI01","hd":"57","v_score":"13.46923073","decile":"9","lat":40.308888356421,"lng":-111.755830238924},{"id":"38150","name":"Ferd Ondricka","party":"","address":"174 W Silver Springs Dr, Vineyard, UT 84059","precinct":"25VI01","hd":"57","v_score":"2.315214949","decile":"5","lat":40.30903170232,"lng":-111.757857351508},{"id":"38214","name":"Jazmyne Lang","party":"Dem","address":"47 W Seasons Dr, Vineyard, UT 84059","precinct":"25VI01","hd":"57","v_score":"1.623113131","decile":"4","lat":40.307950377372,"lng":-111.754647162842},{"id":"38267","name":"Lesli O'Kon-Olson","party":"Dem","address":"196 W Whitewater Dr, Vineyard, UT 84059","precinct":"25VI01","hd":"57","v_score":"0","decile":"1","lat":40.308555398319,"lng":-111.758669028493},{"id":"38500","name":"Hilary Flatley-Bednar","party":"Rep","address":"86 W Silver Springs Dr, Vineyard, UT 84059","precinct":"25VI01","hd":"57","v_score":"23.3180776","decile":"10","lat":40.308885442782,"lng":-111.755866076721},{"id":"39262","name":"Mr. Devyn Cormier Jr.","party":"Rep","address":"658 N 380 W, Vineyard, UT 84059","precinct":"25VI01","hd":"57","v_score":"3.93832808","decile":"6","lat":40.304002433313,"lng":-111.737268155331},{"id":"40882","name":"Lawton Walker-Swift","party":"","address":"184 W Silver Springs Dr, Vineyard, UT 84059","precinct":"25VI01","hd":"57","v_score":"1.193887297","decile":"3","lat":40.309089875693,"lng":-111.75810326611},{"id":"40987","name":"Briley Dibbert-Franecki","party":"Dem","address":"632 N Emery Ln, Vineyard, UT 84059","precinct":"25VI01","hd":"57","v_score":"11.02844566","decile":"9","lat":40.308527337953,"lng":-111.754105314413},{"id":"42477","name":"Windell Feeney","party":"Rep","address":"614 N Emery Ln, Vineyard, UT 84059","precinct":"25VI01","hd":"57","v_score":"2.744440783","decile":"5","lat":40.30829174187,"lng":-111.754062121833},{"id":"42873","name":"Pat Jast","party":"","address":"21 W Seasons Dr, Vineyard, UT 84059","precinct":"25VI01","hd":"57","v_score":"6.724398202","decile":"8","lat":40.307977892871,"lng":-111.754227551025},{"id":"43488","name":"Mr. Giuseppe Kling MD","party":"","address":"787 N 380 W, Vineyard, UT 84059","precinct":"25VI01","hd":"57","v_score":"1.121327652","decile":"3","lat":40.303996356849,"lng":-111.735387529341},{"id":"43599","name":"Asa Quigley","party":"","address":"344 W 750 N, Vineyard, UT 84059","precinct":"25VI01","hd":"57","v_score":"2.315214949","decile":"5","lat":40.303018524184,"lng":-111.73539954295},{"id":"44135","name":"Arvin Nitzsche","party":"","address":"88 W Seasons Dr, Vineyard, UT 84059","precinct":"25VI01","hd":"57","v_score":"6.528952915","decile":"7","lat":40.308339319477,"lng":-111.756404937371},{"id":"45223","name":"Mrs. Jalisa Sporer DDS","party":"Dem","address":"641 N 380 W, Vineyard, UT 84059","precinct":"25VI01","hd":"57","v_score":"0","decile":"1","lat":40.304115725263,"lng":-111.737535025599},{"id":"45350","name":"Hattie Dooley","party":"Dem","address":"287 W 700 N, Vineyard, UT 84059","precinct":"25VI01","hd":"57","v_score":"2.315214949","decile":"5","lat":40.309758578287,"lng":-111.74860372747},{"id":"45654","name":"Mrs. Ela Smith PhD","party":"","address":"732 N 380 W, Vineyard, UT 84059","precinct":"25VI01","hd":"57","v_score":"0","decile":"1","lat":40.304006706587,"lng":-111.736062947452},{"id":"45703","name":"Jethro Lemke","party":"Dem","address":"727 N 380 W, Vineyard, UT 84059","precinct":"25VI01","hd":"57","v_score":"2.315214949","decile":"5","lat":40.304121297976,"lng":-111.736118426503},{"id":"45935","name":"Hardie Kshlerin-Lubowitz","party":"","address":"21 W Seasons Dr, Vineyard, UT 84059","precinct":"25VI01","hd":"57","v_score":"2.315214949","decile":"5","lat":40.307977892871,"lng":-111.754227551025},{"id":"46111","name":"Tatyanna Kuhn","party":"Rep","address":"668 N 380 W, Vineyard, UT 84059","precinct":"25VI01","hd":"57","v_score":"22.16617265","decile":"10","lat":40.30400318485,"lng":-111.73711408778},{"id":"46136","name":"Wylie Gulgowski","party":"","address":"45 W Seasons Dr, Vineyard, UT 84059","precinct":"25VI01","hd":"57","v_score":"2.958579882","decile":"6","lat":40.307952493949,"lng":-111.75461488501},{"id":"46283","name":"Walter King","party":"","address":"668 N 380 W, Vineyard, UT 84059","precinct":"25VI01","hd":"57","v_score":"22.16617265","decile":"10","lat":40.30400318485,"lng":-111.73711408778},{"id":"48437","name":"Perla Bednar DDS","party":"Dem","address":"197 W Silver Springs Dr, Vineyard, UT 84059","precinct":"25VI01","hd":"57","v_score":"2.587603312","decile":"5","lat":40.308985359562,"lng":-111.758168629409},{"id":"48460","name":"Buell Langworth","party":"Dem","address":"348 W 750 N, Vineyard, UT 84059","precinct":"25VI01","hd":"57","v_score":"2.315214949","decile":"5","lat":40.303074474097,"lng":-111.735400527976},{"id":"48763","name":"Olevia Heathcote-Mayert","party":"Rep","address":"644 N Emery Ln, Vineyard, UT 84059","precinct":"25VI01","hd":"57","v_score":"3.781490609","decile":"6","lat":40.308684402009,"lng":-111.754134109467},{"id":"49003","name":"Sie Littel","party":"","address":"787 N 380 W, Vineyard, UT 84059","precinct":"25VI01","hd":"57","v_score":"7.63861371","decile":"8","lat":40.303996356849,"lng":-111.735387529341},{"id":"51270","name":"Nada Windler-Kuhn","party":"Rep","address":"632 N Emery Ln, Vineyard, UT 84059","precinct":"25VI01","hd":"57","v_score":"3.781490609","decile":"6","lat":40.308527337953,"lng":-111.754105314413},{"id":"51782","name":"Joseline Bosco DVM","party":"","address":"629 N Emery Ln, Vineyard, UT 84059","precinct":"25VI01","hd":"57","v_score":"5.40460374","decile":"7","lat":40.30836936632,"lng":-111.754228084508},{"id":"51913","name":"Yasmine Runolfsson","party":"","address":"344 W 750 N, Vineyard, UT 84059","precinct":"25VI01","hd":"57","v_score":"10.67330764","decile":"9","lat":40.303018524184,"lng":-111.73539954295},{"id":"52209","name":"Mr. Einar Mosciski IV","party":"Dem","address":"109 W Seasons Dr, Vineyard, UT 84059","precinct":"25VI01","hd":"57","v_score":"2.315214949","decile":"5","lat":40.308090819602,"lng":-111.755860136803},{"id":"53524","name":"Metha Kemmer","party":"","address":"283 W 630 N, Vineyard, UT 84059","precinct":"25VI01","hd":"57","v_score":"3.781490609","decile":"6","lat":40.308755890579,"lng":-111.747963532579},{"id":"53651","name":"Randell Kerluke","party":"","address":"759 N 380 W, Vineyard, UT 84059","precinct":"25VI01","hd":"57","v_score":"1.193887297","decile":"3","lat":40.304121297945,"lng":-111.735720826524},{"id":"53974","name":"Bliss Mitchell-Emmerich","party":"Rep","address":"55 W Silver Springs Dr, Vineyard, UT 84059","precinct":"25VI01","hd":"57","v_score":"2.587603312","decile":"5","lat":40.308865587582,"lng":-111.755191956166},{"id":"55103","name":"Miss Jaycee Nitzsche DVM","party":"Dem","address":"57 W Seasons Dr, Vineyard, UT 84059","precinct":"25VI01","hd":"57","v_score":"8.134165107","decile":"8","lat":40.307967629166,"lng":-111.754982320858},{"id":"55675","name":"Cary Lowe","party":"","address":"658 N 380 W, Vineyard, UT 84059","precinct":"25VI01","hd":"57","v_score":"0","decile":"1","lat":40.304002433313,"lng":-111.737268155331},{"id":"56057","name":"Dr. Jadiel Parker","party":"","address":"659 N Fall Creek Dr, Vineyard, UT 84059","precinct":"25VI01","hd":"57","v_score":"1.121327652","decile":"3","lat":40.3089575847,"lng":-111.759693643304},{"id":"57416","name":"Refugio Goldner-Parisian","party":"","address":"662 N Emery Ln, Vineyard, UT 84059","precinct":"25VI01","hd":"57","v_score":"0","decile":"1","lat":40.308922049588,"lng":-111.754189815824},{"id":"57564","name":"Ryker Bogisich II","party":"","address":"43 W Silver Springs Dr, Vineyard, UT 84059","precinct":"25VI01","hd":"57","v_score":"2.744440783","decile":"5","lat":40.308900159426,"lng":-111.755003568163},{"id":"58014","name":"Jereme Parker DDS","party":"","address":"633 N Glenwilde Rd, Vineyard, UT 84059","precinct":"25VI01","hd":"57","v_score":"1.121327652","decile":"3","lat":40.308473416245,"lng":-111.756584302247},{"id":"58358","name":"Abie Hane","party":"","address":"138 W Silver Springs Dr, Vineyard, UT 84059","precinct":"25VI01","hd":"57","v_score":"0","decile":"1","lat":40.30888635922,"lng":-111.756888881127},{"id":"59865","name":"Mimi Bashirian","party":"Dem","address":"644 N Emery Ln, Vineyard, UT 84059","precinct":"25VI01","hd":"57","v_score":"1.121327652","decile":"3","lat":40.308684402009,"lng":-111.754134109467},{"id":"60817","name":"Khloe Purdy","party":"Dem","address":"262 W Silver Springs Dr, Vineyard, UT 84059","precinct":"25VI01","hd":"57","v_score":"2.315214949","decile":"5","lat":40.309761978454,"lng":-111.759832167027},{"id":"60930","name":"Arlan Waters","party":"","address":"113 W Seasons Dr, Vineyard, UT 84059","precinct":"25VI01","hd":"57","v_score":"1.121327652","decile":"3","lat":40.308097464592,"lng":-111.755888298894},{"id":"60943","name":"Rexford Hartmann","party":"","address":"21 W Seasons Dr, Vineyard, UT 84059","precinct":"25VI01","hd":"57","v_score":"1.193887297","decile":"3","lat":40.307977892871,"lng":-111.754227551025},{"id":"61922","name":"Mr. Davonta Connelly","party":"Rep","address":"71 W Silver Springs Dr, Vineyard, UT 84059","precinct":"25VI01","hd":"57","v_score":"13.63581767","decile":"9","lat":40.308824509509,"lng":-111.755438424699},{"id":"62008","name":"Trina Homenick","party":"Dem","address":"621 N Sun Peak Dr, Vineyard, UT 84059","precinct":"25VI01","hd":"57","v_score":"1.121327652","decile":"3","lat":40.308159274483,"lng":-111.754897709353},{"id":"62512","name":"Jayson Kautzer","party":"Dem","address":"353 W 750 N, Vineyard, UT 84059","precinct":"25VI01","hd":"57","v_score":"3.93832808","decile":"6","lat":40.303128885598,"lng":-111.735551758452},{"id":"62654","name":"Dan Cronin","party":"","address":"337 W 750 N, Vineyard, UT 84059","precinct":"25VI01","hd":"57","v_score":"13.11728501","decile":"9","lat":40.302905085946,"lng":-111.735547818346},{"id":"63230","name":"America Goldner","party":"","address":"158 W Silver Springs Dr, Vineyard, UT 84059","precinct":"25VI01","hd":"57","v_score":"17.00936292","decile":"9","lat":40.308948277879,"lng":-111.757418192483},{"id":"63266","name":"Todd Brown-McCullough","party":"Rep","address":"671 N 380 W, Apt W303, Vineyard, UT 84059","precinct":"25VI01","hd":"57","v_score":"1.121327652","decile":"3","lat":40.304118021627,"lng":-111.737064263638},{"id":"64237","name":"Robert Dach-Quitzon","party":"Rep","address":"114 W Silver Springs Dr, Vineyard, UT 84059","precinct":"25VI01","hd":"57","v_score":"1.193887297","decile":"3","lat":40.308860868236,"lng":-111.756355972181},{"id":"64438","name":"Nobie Marks","party":"Rep","address":"231 W Silver Springs Dr, Vineyard, UT 84059","precinct":"25VI01","hd":"57","v_score":"3.93832808","decile":"6","lat":40.309140841054,"lng":-111.758730319},{"id":"65108","name":"Dr. Allan Douglas","party":"","address":"75 W Seasons Dr, Vineyard, UT 84059","precinct":"25VI01","hd":"57","v_score":"2.315214949","decile":"5","lat":40.308010672927,"lng":-111.755480736559},{"id":"65243","name":"Randolph Ward","party":"Dem","address":"266 W 630 N, Vineyard, UT 84059","precinct":"25VI01","hd":"57","v_score":"6.881235673","decile":"8","lat":40.308532951015,"lng":-111.74817374509},{"id":"65459","name":"Herminia Miller","party":"","address":"258 W Silver Springs Dr, Vineyard, UT 84059","precinct":"25VI01","hd":"57","v_score":"0","decile":"1","lat":40.309754734428,"lng":-111.75981926361},{"id":"65748","name":"Merton Prohaska","party":"","address":"64 W Silver Springs Dr, Vineyard, UT 84059","precinct":"25VI01","hd":"57","v_score":"19.66811405","decile":"10","lat":40.308934257752,"lng":-111.755483713996},{"id":"66411","name":"Toma Tillman","party":"Rep","address":"204 W Whitewater Dr, Vineyard, UT 84059","precinct":"25VI01","hd":"57","v_score":"1.121327652","decile":"3","lat":40.308554502009,"lng":-111.758728409338},{"id":"67101","name":"Tayler Flatley","party":"","address":"86 W Seasons Dr, Vineyard, UT 84059","precinct":"25VI01","hd":"57","v_score":"1.121327652","decile":"3","lat":40.308342813826,"lng":-111.756419746747},{"id":"67476","name":"Kenley Larson MD","party":"Dem","address":"216 W Silver Springs Dr, Vineyard, UT 84059","precinct":"25VI01","hd":"57","v_score":"2.315214949","decile":"5","lat":40.309304410929,"lng":-111.758860368583},{"id":"67901","name":"Nelie Trantow","party":"","address":"644 N Emery Ln, Vineyard, UT 84059","precinct":"25VI01","hd":"57","v_score":"1.121327652","decile":"3","lat":40.308684402009,"lng":-111.754134109467},{"id":"68397","name":"Ximena Rippin","party":"Rep","address":"55 W Silver Springs Dr, Vineyard, UT 84059","precinct":"25VI01","hd":"57","v_score":"4.137918904","decile":"7","lat":40.308865587582,"lng":-111.755191956166},{"id":"69329","name":"Dylon Cummerata-Lehner","party":"Rep","address":"623 N Emery Ln, Vineyard, UT 84059","precinct":"25VI01","hd":"57","v_score":"5.191257514","decile":"7","lat":40.308310066625,"lng":-111.754217212906},{"id":"69949","name":"Elwin Wilderman","party":"Rep","address":"645 N 380 W, Vineyard, UT 84059","precinct":"25VI01","hd":"57","v_score":"3.93832808","decile":"6","lat":40.304116031445,"lng":-111.737472257338},{"id":"70732","name":"Giancarlo Runte IV","party":"Rep","address":"696 N 380 W, Vineyard, UT 84059","precinct":"25VI01","hd":"57","v_score":"6.027167436","decile":"7","lat":40.304005289155,"lng":-111.736682698638},{"id":"70867","name":"Salvatore Hauck-Harris","party":"Rep","address":"611 N Glenwilde Rd, Vineyard, UT 84059","precinct":"25VI01","hd":"57","v_score":"1.193887297","decile":"3","lat":40.308377925637,"lng":-111.756605136573},{"id":"72050","name":"Carlton Altenwerth-Brekke","party":"Rep","address":"654 N Emery Ln, Vineyard, UT 84059","precinct":"25VI01","hd":"57","v_score":"2.744440783","decile":"5","lat":40.308818482073,"lng":-111.754161932279},{"id":"72972","name":"Mr. Napoleon Terry I","party":"Rep","address":"685 N 380 W, Vineyard, UT 84059","precinct":"25VI01","hd":"57","v_score":"3.997370217","decile":"6","lat":40.304119093263,"lng":-111.736844574723},{"id":"73691","name":"Booker Schulist","party":"","address":"254 W Silver Springs Dr, Vineyard, UT 84059","precinct":"25VI01","hd":"57","v_score":"1.121327652","decile":"3","lat":40.309690346524,"lng":-111.759689575881},{"id":"73749","name":"Tracie Lang","party":"","address":"284 W 630 N, Vineyard, UT 84059","precinct":"25VI01","hd":"57","v_score":"0","decile":"1","lat":40.308638096941,"lng":-111.74793119252},{"id":"74438","name":"Dr. Amare Heaney","party":"","address":"236 W Silver Springs Dr, Vineyard, UT 84059","precinct":"25VI01","hd":"57","v_score":"1.121327652","decile":"3","lat":40.309496707237,"lng":-111.759308900612},{"id":"74578","name":"Dr. Cassie Gottlieb Jr.","party":"Rep","address":"656 N Emery Ln, Vineyard, UT 84059","precinct":"25VI01","hd":"57","v_score":"1.121327652","decile":"3","lat":40.308844373952,"lng":-111.754168903165},{"id":"74787","name":"Kalel Buckridge","party":"Rep","address":"88 W Seasons Dr, Vineyard, UT 84059","precinct":"25VI01","hd":"57","v_score":"2.744440783","decile":"5","lat":40.308339319477,"lng":-111.756404937371},{"id":"74899","name":"Charlize Grant-Schimmel","party":"Rep","address":"641 N Glenwilde Rd, Vineyard, UT 84059","precinct":"25VI01","hd":"57","v_score":"2.315214949","decile":"5","lat":40.308508140102,"lng":-111.756576726129},{"id":"75659","name":"Isai Effertz","party":"","address":"649 N Emery Ln, Vineyard, UT 84059","precinct":"25VI01","hd":"57","v_score":"9.405332525","decile":"8","lat":40.308567031968,"lng":-111.754264323181},{"id":"76392","name":"Bennett Wolff-Tromp","party":"","address":"99 W Seasons Dr, Vineyard, UT 84059","precinct":"25VI01","hd":"57","v_score":"1.121327652","decile":"3","lat":40.308074207125,"lng":-111.755789731574},{"id":"76694","name":"Rayshawn Mosciski","party":"Rep","address":"165 W Silver Springs Dr, Vineyard, UT 84059","precinct":"25VI01","hd":"57","v_score":"2.315214949","decile":"5","lat":40.308856339453,"lng":-111.757598513446},{"id":"76829","name":"Miss Meghan Kuhn MD","party":"","address":"194 W Silver Springs Dr, Vineyard, UT 84059","precinct":"25VI01","hd":"57","v_score":"2.315214949","decile":"5","lat":40.309153094639,"lng":-111.758342532541},{"id":"77075","name":"Romello Lowe","party":"Dem","address":"641 N Glenwilde Rd, Vineyard, UT 84059","precinct":"25VI01","hd":"57","v_score":"2.315214949","decile":"5","lat":40.308508140102,"lng":-111.756576726129},{"id":"77270","name":"Nedra Davis","party":"Dem","address":"666 N Emery Ln, Vineyard, UT 84059","precinct":"25VI01","hd":"57","v_score":"9.405332525","decile":"8","lat":40.308973833346,"lng":-111.754203757597},{"id":"77333","name":"Jordy Wehner II","party":"","address":"633 N Glenwilde Rd, Vineyard, UT 84059","precinct":"25VI01","hd":"57","v_score":"3.93832808","decile":"6","lat":40.308473416245,"lng":-111.756584302247},{"id":"77574","name":"Dr. Antonia Kovacek PhD","party":"","address":"17 W Seasons Dr, Vineyard, UT 84059","precinct":"25VI01","hd":"57","v_score":"1.121327652","decile":"3","lat":40.307989022042,"lng":-111.754046457314},{"id":"77591","name":"Miya Gleason-Collier","party":"","address":"369 W 750 N, Vineyard, UT 84059","precinct":"25VI01","hd":"57","v_score":"1.193887297","decile":"3","lat":40.30335268525,"lng":-111.735555698557},{"id":"78745","name":"Zander Jaskolski","party":"Rep","address":"72 W Seasons Dr, Vineyard, UT 84059","precinct":"25VI01","hd":"57","v_score":"1.121327652","decile":"3","lat":40.308154369215,"lng":-111.755614943502},{"id":"79660","name":"Clarinda Greenholt","party":"","address":"661 N 380 W, Vineyard, UT 84059","precinct":"25VI01","hd":"57","v_score":"1.121327652","decile":"3","lat":40.304117256172,"lng":-111.737221184292},{"id":"80125","name":"Cami Vandervort","party":"Rep","address":"217 W Whitewater Dr, Vineyard, UT 84059","precinct":"25VI01","hd":"57","v_score":"2.315214949","decile":"5","lat":40.308438588586,"lng":-111.758814506772},{"id":"80283","name":"Emile Jakubowski","party":"","address":"217 W Whitewater Dr, Vineyard, UT 84059","precinct":"25VI01","hd":"57","v_score":"1.121327652","decile":"3","lat":40.308438588586,"lng":-111.758814506772},{"id":"80900","name":"Dot Waters","party":"Dem","address":"621 N Sun Peak Dr, Vineyard, UT 84059","precinct":"25VI01","hd":"57","v_score":"0","decile":"1","lat":40.308159274483,"lng":-111.754897709353},{"id":"81564","name":"Frances Medhurst","party":"Rep","address":"630 N Emery Ln, Vineyard, UT 84059","precinct":"25VI01","hd":"57","v_score":"1.193887297","decile":"3","lat":40.308501160611,"lng":-111.754100515238},{"id":"81575","name":"Billie Wilkinson","party":"Dem","address":"663 N Fall Creek Dr, Vineyard, UT 84059","precinct":"25VI01","hd":"57","v_score":"0","decile":"1","lat":40.309022219004,"lng":-111.759709925217},{"id":"82997","name":"Leroy Satterfield","party":"","address":"48 W Silver Springs Dr, Vineyard, UT 84059","precinct":"25VI01","hd":"57","v_score":"1.193887297","decile":"3","lat":40.30898120412,"lng":-111.755202035673},{"id":"83054","name":"Dellia Schowalter MD","party":"","address":"106 W Seasons Dr, Vineyard, UT 84059","precinct":"25VI01","hd":"57","v_score":"1.193887297","decile":"3","lat":40.30830787034,"lng":-111.75627165299},{"id":"83174","name":"Letta Brekke PhD","party":"Rep","address":"639 N Fall Creek Dr, Vineyard, UT 84059","precinct":"25VI01","hd":"57","v_score":"5.693042993","decile":"7","lat":40.308634413183,"lng":-111.759612233736},{"id":"83715","name":"Manuelita Shanahan","party":"Dem","address":"138 W Silver Springs Dr, Vineyard, UT 84059","precinct":"25VI01","hd":"57","v_score":"0","decile":"1","lat":40.30888635922,"lng":-111.756888881127},{"id":"84053","name":"Baldwin Douglas","party":"Dem","address":"107 W Seasons Dr, Vineyard, UT 84059","precinct":"25VI01","hd":"57","v_score":"1.193887297","decile":"3","lat":40.308087497106,"lng":-111.755846055757},{"id":"84165","name":"Omar Hermiston","party":"Rep","address":"74 W Seasons Dr, Vineyard, UT 84059","precinct":"25VI01","hd":"57","v_score":"1.193887297","decile":"3","lat":40.308149040726,"lng":-111.755590965308},{"id":"84305","name":"Earline Eichmann","party":"Rep","address":"716 N 380 W, Vineyard, UT 84059","precinct":"25VI01","hd":"57","v_score":"0","decile":"1","lat":40.304006706603,"lng":-111.736266370697},{"id":"84627","name":"Katrina Wiza","party":"Dem","address":"96 W Seasons Dr, Vineyard, UT 84059","precinct":"25VI01","hd":"57","v_score":"0","decile":"1","lat":40.308325342083,"lng":-111.756345699868},{"id":"84650","name":"Rubi Braun","party":"Rep","address":"107 W Seasons Dr, Vineyard, UT 84059","precinct":"25VI01","hd":"57","v_score":"0","decile":"1","lat":40.308087497106,"lng":-111.755846055757},{"id":"84995","name":"Logan Rodriguez","party":"Dem","address":"177 W Whitewater Dr, Vineyard, UT 84059","precinct":"25VI01","hd":"57","v_score":"5.83359168","decile":"7","lat":40.308443070136,"lng":-111.758517602547},{"id":"85366","name":"Estefania Towne","party":"","address":"663 N 380 W, Vineyard, UT 84059","precinct":"25VI01","hd":"57","v_score":"0","decile":"1","lat":40.304117409263,"lng":-111.737189800161},{"id":"85666","name":"Katherin Connelly","party":"Rep","address":"797 N 380 W, Vineyard, UT 84059","precinct":"25VI01","hd":"57","v_score":"1.193887297","decile":"3","lat":40.303901854751,"lng":-111.735396616093},{"id":"85888","name":"Jeb Willms PhD","party":"Dem","address":"716 N 380 W, Vineyard, UT 84059","precinct":"25VI01","hd":"57","v_score":"3.016591252","decile":"6","lat":40.304006706603,"lng":-111.736266370697},{"id":"86053","name":"Dameon Bayer","party":"Dem","address":"622 N Sun Peak Dr, Vineyard, UT 84059","precinct":"25VI01","hd":"57","v_score":"0","decile":"1","lat":40.308446105079,"lng":-111.754803069325},{"id":"86218","name":"Alma O'Hara","party":"","address":"731 N 380 W, Vineyard, UT 84059","precinct":"25VI01","hd":"57","v_score":"0","decile":"1","lat":40.304121297972,"lng":-111.736068726506},{"id":"87103","name":"Dr. Jazmyn Pfeffer PhD","party":"Dem","address":"753 N 380 W, Vineyard, UT 84059","precinct":"25VI01","hd":"57","v_score":"1.193887297","decile":"4","lat":40.304121297951,"lng":-111.73579537652},{"id":"87199","name":"Waino Bahringer","party":"","address":"642 N Emery Ln, Vineyard, UT 84059","precinct":"25VI01","hd":"57","v_score":"7.086521114","decile":"8","lat":40.308658224667,"lng":-111.754129310291},{"id":"88408","name":"Dr. Hazen Macejkovic","party":"","address":"656 N 380 W, Vineyard, UT 84059","precinct":"25VI01","hd":"57","v_score":"0","decile":"1","lat":40.304002283006,"lng":-111.737298968841},{"id":"88881","name":"Ahmed Russel","party":"Dem","address":"649 N Emery Ln, Vineyard, UT 84059","precinct":"25VI01","hd":"57","v_score":"2.817000428","decile":"6","lat":40.308567031968,"lng":-111.754264323181},{"id":"89568","name":"Ms. Rubi West","party":"Dem","address":"55 W Silver Springs Dr, Vineyard, UT 84059","precinct":"25VI01","hd":"57","v_score":"0","decile":"1","lat":40.308865587582,"lng":-111.755191956166},{"id":"89622","name":"Taniya Waters PhD","party":"Dem","address":"262 W Silver Springs Dr, Vineyard, UT 84059","precinct":"25VI01","hd":"57","v_score":"0","decile":"1","lat":40.309761978454,"lng":-111.759832167027},{"id":"90940","name":"Lethia Ward","party":"Dem","address":"337 W 750 N, Vineyard, UT 84059","precinct":"25VI01","hd":"57","v_score":"5.335065618","decile":"7","lat":40.302905085946,"lng":-111.735547818346},{"id":"91477","name":"Giselle Schneider-Dietrich","party":"Rep","address":"685 N 380 W, Vineyard, UT 84059","precinct":"25VI01","hd":"57","v_score":"1.193887297","decile":"4","lat":40.304119093263,"lng":-111.736844574723},{"id":"92205","name":"Zaiden Wilderman MD","party":"Dem","address":"215 W Silver Springs Dr, Vineyard, UT 84059","precinct":"25VI01","hd":"57","v_score":"0","decile":"1","lat":40.309066580412,"lng":-111.758468550338},{"id":"92774","name":"Towanda O'Keefe","party":"","address":"268 W 630 N, Vineyard, UT 84059","precinct":"25VI01","hd":"57","v_score":"0","decile":"1","lat":40.308544633896,"lng":-111.748146794804},{"id":"93639","name":"Mrs. Tamisha Kreiger DDS","party":"Rep","address":"739 N 380 W, Vineyard, UT 84059","precinct":"25VI01","hd":"57","v_score":"1.193887297","decile":"4","lat":40.304121297964,"lng":-111.735969326511},{"id":"93690","name":"Dr. Hart Gutmann","party":"Dem","address":"698 N 380 W, Vineyard, UT 84059","precinct":"25VI01","hd":"57","v_score":"1.193887297","decile":"4","lat":40.304005439462,"lng":-111.736651885128},{"id":"94162","name":"Somer Schneider","party":"Rep","address":"331 W 750 N, Vineyard, UT 84059","precinct":"25VI01","hd":"57","v_score":"1.193887297","decile":"4","lat":40.302821161077,"lng":-111.735546340807},{"id":"94472","name":"Mr. Omarion Koss Sr.","party":"Rep","address":"686 N Emery Ln, Vineyard, UT 84059","precinct":"25VI01","hd":"57","v_score":"0","decile":"1","lat":40.309242918781,"lng":-111.754281704672},{"id":"94888","name":"Richie Flatley","party":"Rep","address":"726 N 380 W, # CC726, Vineyard, UT 84059","precinct":"25VI01","hd":"57","v_score":"16.04507728","decile":"9","lat":40.304006706593,"lng":-111.736139231168},{"id":"94900","name":"Taja Conroy PhD","party":"Rep","address":"84 W Silver Springs Dr, Vineyard, UT 84059","precinct":"25VI01","hd":"57","v_score":"9.40499548","decile":"8","lat":40.308888356421,"lng":-111.755830238924},{"id":"95265","name":"Miss Patricia Hudson DVM","party":"Dem","address":"626 N Sun Peak Dr, Vineyard, UT 84059","precinct":"25VI01","hd":"57","v_score":"0","decile":"1","lat":40.308426851263,"lng":-111.754799218565},{"id":"96020","name":"Skylar Hickle-Kunze","party":"Rep","address":"203 W Silver Springs Dr, Vineyard, UT 84059","precinct":"25VI01","hd":"57","v_score":"1.193887297","decile":"4","lat":40.30901088493,"lng":-111.758272223842},{"id":"96291","name":"Shepherd Schiller","party":"","address":"660 N 380 W, Vineyard, UT 84059","precinct":"25VI01","hd":"57","v_score":"13.61907049","decile":"9","lat":40.30400258362,"lng":-111.737237341821},{"id":"97151","name":"Louie Wintheiser","party":"Dem","address":"629 N Emery Ln, Vineyard, UT 84059","precinct":"25VI01","hd":"57","v_score":"1.193887297","decile":"4","lat":40.30836936632,"lng":-111.754228084508},{"id":"97433","name":"Elizbeth Kshlerin-Lind","party":"Dem","address":"797 N 380 W, Vineyard, UT 84059","precinct":"25VI01","hd":"57","v_score":"2.817000428","decile":"6","lat":40.303901854751,"lng":-111.735396616093},{"id":"97479","name":"Aditya Langosh","party":"","address":"284 W 630 N, Vineyard, UT 84059","precinct":"25VI01","hd":"57","v_score":"0","decile":"1","lat":40.308638096941,"lng":-111.74793119252},{"id":"97504","name":"Rosario Schinner","party":"Dem","address":"174 W Silver Springs Dr, Vineyard, UT 84059","precinct":"25VI01","hd":"57","v_score":"4.069929862","decile":"6","lat":40.30903170232,"lng":-111.757857351508},{"id":"98786","name":"Dr. Gerhardt Koch Sr.","party":"Rep","address":"138 W Silver Springs Dr, Vineyard, UT 84059","precinct":"25VI01","hd":"57","v_score":"1.193887297","decile":"4","lat":40.30888635922,"lng":-111.756888881127},{"id":"98905","name":"Bea Hackett","party":"Dem","address":"213 W Silver Springs Dr, Vineyard, UT 84059","precinct":"25VI01","hd":"57","v_score":"3.711952487","decile":"6","lat":40.309057297831,"lng":-111.758435829256},{"id":"99231","name":"Dr. Sabastian Hayes III","party":"Dem","address":"93 W Silver Springs Dr, Vineyard, UT 84059","precinct":"25VI01","hd":"57","v_score":"0","decile":"1","lat":40.308776595987,"lng":-111.755787429907},{"id":"99552","name":"Lue Klocko","party":"Dem","address":"662 N 380 W, Vineyard, UT 84059","precinct":"25VI01","hd":"57","v_score":"0","decile":"1","lat":40.304002733928,"lng":-111.73720652831},{"id":"103256","name":"Verlin Gutmann","party":"","address":"711 N 380 W, Vineyard, UT 84059","precinct":"25VI01","hd":"57","v_score":"0","decile":"2","lat":40.304121297991,"lng":-111.736317226493},{"id":"103667","name":"Taj Stark MD","party":"","address":"695 N 380 W, Vineyard, UT 84059","precinct":"25VI01","hd":"57","v_score":"1.193887297","decile":"4","lat":40.304119858718,"lng":-111.73668765407},{"id":"104346","name":"Tempie Emard-Herman","party":"","address":"659 N 380 W, Apt 659, Vineyard, UT 84059","precinct":"25VI01","hd":"57","v_score":"1.193887297","decile":"4","lat":40.304117103081,"lng":-111.737252568423},{"id":"104388","name":"Glendora Ullrich","party":"Rep","address":"661 N 380 W, Vineyard, UT 84059","precinct":"25VI01","hd":"57","v_score":"2.876042565","decile":"6","lat":40.304117256172,"lng":-111.737221184292},{"id":"104783","name":"Rayan Powlowski","party":"Rep","address":"641 N Fall Creek Dr, Vineyard, UT 84059","precinct":"25VI01","hd":"57","v_score":"1.193887297","decile":"4","lat":40.308666730335,"lng":-111.759620374693},{"id":"105421","name":"Dr. Jayce Altenwerth","party":"","address":"649 N Emery Ln, Vineyard, UT 84059","precinct":"25VI01","hd":"57","v_score":"0","decile":"2","lat":40.308567031968,"lng":-111.754264323181},{"id":"105607","name":"Waylon Hammes","party":"Dem","address":"635 N Emery Ln, Vineyard, UT 84059","precinct":"25VI01","hd":"57","v_score":"6.528952915","decile":"7","lat":40.308428666014,"lng":-111.75423895611},{"id":"106106","name":"Ell Boyle","party":"","address":"685 N 380 W, Vineyard, UT 84059","precinct":"25VI01","hd":"57","v_score":"4.069929862","decile":"7","lat":40.304119093263,"lng":-111.736844574723},{"id":"106558","name":"Monserrat Bailey-Borer","party":"","address":"682 N 380 W, Vineyard, UT 84059","precinct":"25VI01","hd":"57","v_score":"1.193887297","decile":"4","lat":40.304004237003,"lng":-111.736898393209},{"id":"106661","name":"Fuller Cremin-Green","party":"Dem","address":"685 N 380 W, Vineyard, UT 84059","precinct":"25VI01","hd":"57","v_score":"1.193887297","decile":"4","lat":40.304119093263,"lng":-111.736844574723},{"id":"106870","name":"Takisha Hane","party":"","address":"283 W 700 N, Vineyard, UT 84059","precinct":"25VI01","hd":"57","v_score":"0","decile":"2","lat":40.309759107988,"lng":-111.748626901837},{"id":"107767","name":"Ansley Borer-Lehner","party":"","address":"181 W Whitewater Dr, Vineyard, UT 84059","precinct":"25VI01","hd":"57","v_score":"0","decile":"2","lat":40.308442621981,"lng":-111.758547292969},{"id":"108272","name":"Mr. Ruffin Brown PhD","party":"Rep","address":"233 W Silver Springs Dr, Vineyard, UT 84059","precinct":"25VI01","hd":"57","v_score":"0","decile":"2","lat":40.309150123635,"lng":-111.758763040083},{"id":"109101","name":"Kennth Graham","party":"Rep","address":"102 W Seasons Dr, Vineyard, UT 84059","precinct":"25VI01","hd":"57","v_score":"0","decile":"2","lat":40.308314859037,"lng":-111.756301271741},{"id":"109321","name":"Miss Vela Ratke PhD","party":"","address":"337 W 750 N, Vineyard, UT 84059","precinct":"25VI01","hd":"57","v_score":"1.193887297","decile":"4","lat":40.302905085946,"lng":-111.735547818346},{"id":"109861","name":"Nicky Crona","party":"Dem","address":"685 N 380 W, Vineyard, UT 84059","precinct":"25VI01","hd":"57","v_score":"4.069929862","decile":"7","lat":40.304119093263,"lng":-111.736844574723},{"id":"110138","name":"Ms. Daija Harber","party":"","address":"636 N Sun Peak Dr, Vineyard, UT 84059","precinct":"25VI01","hd":"57","v_score":"0","decile":"2","lat":40.308378716723,"lng":-111.754789591664},{"id":"110969","name":"Lew D'Amore","party":"Rep","address":"724 N 380 W, Vineyard, UT 84059","precinct":"25VI01","hd":"57","v_score":"1.193887297","decile":"4","lat":40.304006706595,"lng":-111.736164659074},{"id":"112149","name":"Dustyn Sawayn V","party":"","address":"241 W Silver Springs Dr, Vineyard, UT 84059","precinct":"25VI01","hd":"57","v_score":"1.193887297","decile":"4","lat":40.309191696638,"lng":-111.758903870225},{"id":"112150","name":"Lana Will","party":"","address":"272 W 630 N, Vineyard, UT 84059","precinct":"25VI01","hd":"57","v_score":"1.193887297","decile":"4","lat":40.308567999657,"lng":-111.748092894233},{"id":"112440","name":"Dr. Rosann Schamberger DDS","party":"Rep","address":"277 W 630 N, Vineyard, UT 84059","precinct":"25VI01","hd":"57","v_score":"1.193887297","decile":"4","lat":40.308732038031,"lng":-111.748018556079},{"id":"112776","name":"Cecelia Beahan","party":"Dem","address":"21 W Seasons Dr, Vineyard, UT 84059","precinct":"25VI01","hd":"57","v_score":"1.193887297","decile":"4","lat":40.307977892871,"lng":-111.754227551025},{"id":"113736","name":"Dr. Jessi Strosin DVM","party":"","address":"661 N 380 W, Vineyard, UT 84059","precinct":"25VI01","hd":"57","v_score":"4.069929862","decile":"7","lat":40.304117256172,"lng":-111.737221184292},{"id":"114057","name":"Ms. Calista King","party":"","address":"651 N Fall Creek Dr, Vineyard, UT 84059","precinct":"25VI01","hd":"57","v_score":"1.193887297","decile":"4","lat":40.308828316093,"lng":-111.759661079477},{"id":"114138","name":"Santana Feeney","party":"","address":"208 W Whitewater Dr, Vineyard, UT 84059","precinct":"25VI01","hd":"57","v_score":"5.407962308","decile":"7","lat":40.308554053853,"lng":-111.758758099761},{"id":"114485","name":"Patric Spencer","party":"","address":"353 W 750 N, Vineyard, UT 84059","precinct":"25VI01","hd":"57","v_score":"7.24185597","decile":"8","lat":40.303128885598,"lng":-111.735551758452},{"id":"114792","name":"Michelle Cummerata","party":"Rep","address":"83 W Silver Springs Dr, Vineyard, UT 84059","precinct":"25VI01","hd":"57","v_score":"1.193887297","decile":"4","lat":40.308793700955,"lng":-111.755623276099},{"id":"115902","name":"Dr. Grant Braun","party":"Rep","address":"713 N 380 W, Vineyard, UT 84059","precinct":"25VI01","hd":"57","v_score":"4.069929862","decile":"7","lat":40.304121297989,"lng":-111.736292376494},{"id":"116068","name":"Alethea Kunze","party":"Dem","address":"353 W 750 N, Apt 353, Vineyard, UT 84059","precinct":"25VI01","hd":"57","v_score":"1.193887297","decile":"4","lat":40.303128885598,"lng":-111.735551758452},{"id":"116666","name":"Najee Bruen","party":"Rep","address":"665 N 380 W, Vineyard, UT 84059","precinct":"25VI01","hd":"57","v_score":"0","decile":"2","lat":40.304117562354,"lng":-111.73715841603},{"id":"116999","name":"Daija Rice","party":"Dem","address":"227 W Silver Springs Dr, Vineyard, UT 84059","precinct":"25VI01","hd":"57","v_score":"0","decile":"2","lat":40.309122275894,"lng":-111.758664876834},{"id":"117707","name":"Darleen Schaefer-Kozey","party":"Rep","address":"265 W 700 N, Vineyard, UT 84059","precinct":"25VI01","hd":"57","v_score":"1.193887297","decile":"4","lat":40.309761491646,"lng":-111.748731186488},{"id":"117712","name":"Cyndi Langworth","party":"Dem","address":"221 W Whitewater Dr, Vineyard, UT 84059","precinct":"25VI01","hd":"57","v_score":"0","decile":"2","lat":40.308438140431,"lng":-111.758844197194},{"id":"118031","name":"Gerry Lind","party":"Dem","address":"72 W Silver Springs Dr, Vineyard, UT 84059","precinct":"25VI01","hd":"57","v_score":"1.193887297","decile":"4","lat":40.308910784567,"lng":-111.755624553158},{"id":"118305","name":"Marion Ritchie","party":"Rep","address":"682 N 380 W, Vineyard, UT 84059","precinct":"25VI01","hd":"57","v_score":"1.193887297","decile":"4","lat":40.304004237003,"lng":-111.736898393209},{"id":"118866","name":"Mackenzie Corwin III","party":"Dem","address":"751 N 380 W, Vineyard, UT 84059","precinct":"25VI01","hd":"57","v_score":"4.069929862","decile":"7","lat":40.304121297953,"lng":-111.735820226519},{"id":"119098","name":"Merrie Spencer","party":"Dem","address":"48 W Silver Springs Dr, Vineyard, UT 84059","precinct":"25VI01","hd":"57","v_score":"1.193887297","decile":"4","lat":40.30898120412,"lng":-111.755202035673},{"id":"119229","name":"Santino Ferry","party":"Dem","address":"663 N Fall Creek Dr, Vineyard, UT 84059","precinct":"25VI01","hd":"57","v_score":"0","decile":"2","lat":40.309022219004,"lng":-111.759709925217},{"id":"119641","name":"Bess Jones","party":"","address":"701 N 380 W, Vineyard, UT 84059","precinct":"25VI01","hd":"57","v_score":"1.193887297","decile":"4","lat":40.304120317991,"lng":-111.736593501678},{"id":"121920","name":"Kathie Altenwerth","party":"Dem","address":"181 W Whitewater Dr, Vineyard, UT 84059","precinct":"25VI01","hd":"57","v_score":"1.193887297","decile":"4","lat":40.308442621981,"lng":-111.758547292969},{"id":"122181","name":"Tawanda Ernser","party":"Dem","address":"102 W Seasons Dr, Apt 102, Vineyard, UT 84059","precinct":"25VI01","hd":"57","v_score":"1.193887297","decile":"4","lat":40.308314859037,"lng":-111.756301271741},{"id":"122937","name":"Kirt Bashirian","party":"","address":"162 W Silver Springs Dr, Vineyard, UT 84059","precinct":"25VI01","hd":"57","v_score":"1.193887297","decile":"4","lat":40.308960211159,"lng":-111.757506200366},{"id":"123013","name":"Dr. Kimberely Bahringer DDS","party":"Dem","address":"138 W Silver Springs Dr, Vineyard, UT 84059","precinct":"25VI01","hd":"57","v_score":"1.193887297","decile":"4","lat":40.30888635922,"lng":-111.756888881127},{"id":"123798","name":"Winfred Wunsch","party":"Dem","address":"641 N Emery Ln, Vineyard, UT 84059","precinct":"25VI01","hd":"57","v_score":"1.193887297","decile":"4","lat":40.308487965709,"lng":-111.754249827712},{"id":"123971","name":"Christophe Emmerich-Mann","party":"","address":"654 N Emery Ln, Vineyard, UT 84059","precinct":"25VI01","hd":"57","v_score":"1.193887297","decile":"4","lat":40.308818482073,"lng":-111.754161932279},{"id":"125664","name":"Perley Cruickshank","party":"Dem","address":"745 N 380 W, # 101, Vineyard, UT 84059","precinct":"25VI01","hd":"57","v_score":"0","decile":"2","lat":40.304121297958,"lng":-111.735894776515},{"id":"125706","name":"Ms. Tomasa Grady","party":"Dem","address":"199 W Silver Springs Dr, Vineyard, UT 84059","precinct":"25VI01","hd":"57","v_score":"2.876042565","decile":"6","lat":40.308993247477,"lng":-111.758201973762},{"id":"126338","name":"Josie Adams-Koss","party":"","address":"627 N Fall Creek Dr, Vineyard, UT 84059","precinct":"25VI01","hd":"57","v_score":"0","decile":"2","lat":40.308391868558,"lng":-111.759552800975},{"id":"126364","name":"Zita Stanton","party":"Rep","address":"237 W Whitewater Dr, Vineyard, UT 84059","precinct":"25VI01","hd":"57","v_score":"0","decile":"2","lat":40.30843634781,"lng":-111.758962958885},{"id":"126782","name":"Rosetta Borer","party":"Rep","address":"69 W Silver Springs Dr, Vineyard, UT 84059","precinct":"25VI01","hd":"57","v_score":"0","decile":"2","lat":40.308829644268,"lng":-111.755407616133},{"id":"126973","name":"Arra Reilly","party":"","address":"228 W Silver Springs Dr, Vineyard, UT 84059","precinct":"25VI01","hd":"57","v_score":"0","decile":"2","lat":40.309419451152,"lng":-111.759129556188},{"id":"127039","name":"Nikolai Kunze","party":"Dem","address":"287 W 700 N, Vineyard, UT 84059","precinct":"25VI01","hd":"57","v_score":"0","decile":"2","lat":40.309758578287,"lng":-111.74860372747},{"id":"127145","name":"Wilmer Muller Sr.","party":"","address":"345 W 750 N, Vineyard, UT 84059","precinct":"25VI01","hd":"57","v_score":"0","decile":"2","lat":40.303016985772,"lng":-111.735549788399},{"id":"128051","name":"Hurbert Wintheiser","party":"Rep","address":"769 N 380 W, Vineyard, UT 84059","precinct":"25VI01","hd":"57","v_score":"0","decile":"2","lat":40.304121297936,"lng":-111.735596576531},{"id":"128405","name":"Felisha Jones","party":"","address":"203 W Silver Springs Dr, Vineyard, UT 84059","precinct":"25VI01","hd":"57","v_score":"0","decile":"2","lat":40.30901088493,"lng":-111.758272223842},{"id":"128630","name":"Jaylan Nikolaus I","party":"Rep","address":"664 N Fall Creek Dr, Vineyard, UT 84059","precinct":"25VI01","hd":"57","v_score":"0","decile":"2","lat":40.30925554689,"lng":-111.759615685397},{"id":"129250","name":"Manson Muller","party":"Dem","address":"619 N Emery Ln, Vineyard, UT 84059","precinct":"25VI01","hd":"57","v_score":"0","decile":"2","lat":40.308270533495,"lng":-111.754209965172},{"id":"129855","name":"Vergil Reinger","party":"Rep","address":"717 N 380 W, Vineyard, UT 84059","precinct":"25VI01","hd":"57","v_score":"0","decile":"2","lat":40.304121297985,"lng":-111.736242676497},{"id":"130533","name":"Alver Champlin","party":"Dem","address":"35 W Seasons Dr, # C308, Vineyard, UT 84059","precinct":"25VI01","hd":"57","v_score":"0","decile":"2","lat":40.307963076833,"lng":-111.754453495849},{"id":"130652","name":"Rashawn Olson","party":"Dem","address":"763 N 380 W, Vineyard, UT 84059","precinct":"25VI01","hd":"57","v_score":"0","decile":"2","lat":40.304121297941,"lng":-111.735671126527},{"id":"130736","name":"Miss Yazmin Klocko","party":"Rep","address":"299 W 630 N, Vineyard, UT 84059","precinct":"25VI01","hd":"57","v_score":"7.090117576","decile":"8","lat":40.308819497374,"lng":-111.747816803247},{"id":"131241","name":"Ms. Keely Grant","party":"","address":"266 W 630 N, Vineyard, UT 84059","precinct":"25VI01","hd":"57","v_score":"0","decile":"2","lat":40.308532951015,"lng":-111.74817374509},{"id":"131628","name":"Sheree Hyatt","party":"Rep","address":"669 N 380 W, Vineyard, UT 84059","precinct":"25VI01","hd":"57","v_score":"0","decile":"2","lat":40.304117868536,"lng":-111.737095647769},{"id":"132586","name":"Velvet Kuhic","party":"","address":"619 N Emery Ln, Vineyard, UT 84059","precinct":"25VI01","hd":"57","v_score":"2.876042565","decile":"6","lat":40.308270533495,"lng":-111.754209965172},{"id":"132716","name":"Nathalie Funk DVM","party":"","address":"233 W Silver Springs Dr, Vineyard, UT 84059","precinct":"25VI01","hd":"57","v_score":"0","decile":"2","lat":40.309150123635,"lng":-111.758763040083},{"id":"133756","name":"Doretha Reinger","party":"Dem","address":"227 W Silver Springs Dr, Vineyard, UT 84059","precinct":"25VI01","hd":"57","v_score":"0","decile":"2","lat":40.309122275894,"lng":-111.758664876834},{"id":"137635","name":"Wess West","party":"Rep","address":"725 N 380 W, Vineyard, UT 84059","precinct":"25VI01","hd":"57","v_score":"14.58356067","decile":"9","lat":40.30352113144,"lng":-111.735947292385},{"id":"141520","name":"Mrs. Judyth Erdman MD","party":"","address":"791 N 380 W, Vineyard, UT 84059","precinct":"25VI01","hd":"57","v_score":"8.15240309","decile":"8","lat":40.30395855601,"lng":-111.735391164042},{"id":"142744","name":"Mary Reynolds","party":"Rep","address":"689 N 380 W, Vineyard, UT 84059","precinct":"25VI01","hd":"57","v_score":"0","decile":"3","lat":40.304119399445,"lng":-111.736781806462},{"id":"143508","name":"Mr. Morris Rogahn","party":"","address":"112 W Seasons Dr, Vineyard, UT 84059","precinct":"25VI01","hd":"57","v_score":"3.781490609","decile":"6","lat":40.308297387294,"lng":-111.756227224863},{"id":"144247","name":"Mr. Walton Doyle","party":"","address":"112 W Seasons Dr, Vineyard, UT 84059","precinct":"25VI01","hd":"57","v_score":"3.781490609","decile":"6","lat":40.308297387294,"lng":-111.756227224863},{"id":"145911","name":"Robley Boyer-Quigley","party":"","address":"193 W Whitewater Dr, Vineyard, UT 84059","precinct":"25VI01","hd":"57","v_score":"2.315214949","decile":"5","lat":40.308441277516,"lng":-111.758636364237},{"id":"154232","name":"Neveah Flatley","party":"Dem","address":"224 W Silver Springs Dr, Vineyard, UT 84059","precinct":"25VI01","hd":"57","v_score":"20.43732126","decile":"10","lat":40.30938082311,"lng":-111.759039883976},{"id":"163528","name":"Robb Bahringer","party":"","address":"638 N Emery Ln, Vineyard, UT 84059","precinct":"25VI01","hd":"57","v_score":"12.36391241","decile":"9","lat":40.308605869981,"lng":-111.75411971194},{"id":"164809","name":"Abbey Wiza","party":"","address":"621 N Sun Peak Dr, Vineyard, UT 84059","precinct":"25VI01","hd":"57","v_score":"1.121327652","decile":"3","lat":40.308159274483,"lng":-111.754897709353},{"id":"166588","name":"Verlyn Jacobson","party":"","address":"228 W Silver Springs Dr, Vineyard, UT 84059","precinct":"25VI01","hd":"57","v_score":"0","decile":"3","lat":40.309419451152,"lng":-111.759129556188},{"id":"167556","name":"Breonna Ullrich","party":"Rep","address":"23 W Seasons Dr, Vineyard, UT 84059","precinct":"25VI01","hd":"57","v_score":"1.121327652","decile":"3","lat":40.307975776294,"lng":-111.754259828857},{"id":"174115","name":"Evonne Harber","party":"Rep","address":"638 N Emery Ln, Vineyard, UT 84059","precinct":"25VI01","hd":"57","v_score":"19.16525368","decile":"10","lat":40.308605869981,"lng":-111.75411971194},{"id":"174756","name":"Mr. Ossie Jaskolski Jr.","party":"Dem","address":"615 N Sun Peak Dr, Vineyard, UT 84059","precinct":"25VI01","hd":"57","v_score":"3.781490609","decile":"6","lat":40.308130393759,"lng":-111.754891933213},{"id":"175618","name":"Luke Schuppe DVM","party":"Rep","address":"757 N 380 W, Vineyard, UT 84059","precinct":"25VI01","hd":"57","v_score":"0","decile":"3","lat":40.304121297947,"lng":-111.735745676523}]