[{"vid":"82fd5d188215d6682eebfbec8efd7a80c499be47ae11a9ec9dc6e31956fa9bb7","name":"Latisha Conroy","party":"Dem","address":"214 W Silver Springs Dr, Vineyard, UT 84059","precinct":"25VI01","hd":"57","v_score":"6.814370645","decile":"8","lat":40.30940333165668,"lng":-111.75873064047232},{"vid":"1228955","name":"Mr. Fleming Steuber","party":"","address":"698 N 260 W, Vineyard, UT 84059","precinct":"25VI01","hd":"57","v_score":"0","decile":"1","lat":40.309602409590624,"lng":-111.76040682477753},{"vid":"1238029","name":"Dr. Joseluis Lang III","party":"Dem","address":"27 W Seasons Dr, Vineyard, UT 84059","precinct":"25VI01","hd":"57","v_score":"2.744440783","decile":"5","lat":40.30784895556526,"lng":-111.7542682249511},{"vid":"1249464","name":"Lorenz Lind-Wilderman","party":"","address":"667 N Fall Creek Dr, Vineyard, UT 84059","precinct":"25VI01","hd":"57","v_score":"19.1495814","decile":"10","lat":40.30911383900037,"lng":-111.75989550009461},{"vid":"2d5566d5c1fc35d3c622210432989d6bf0e60e10eae18028321dfce5aea47c1a","name":"Theta Paucek-Carter","party":"","address":"228 W Silver Springs Dr, Vineyard, UT 84059","precinct":"25VI01","hd":"57","v_score":"0","decile":"1","lat":40.30953883447846,"lng":-111.75909354745035},{"vid":"1287757","name":"Tiffani Smitham MD","party":"Dem","address":"279 W 660 N, Vineyard, UT 84059","precinct":"25VI01","hd":"57","v_score":"29.46558182","decile":"10","lat":40.3088904867687,"lng":-111.7611043778845},{"vid":"1288430","name":"Mozell Vandervort","party":"Dem","address":"213 W Whitewater Dr, Vineyard, UT 84059","precinct":"25VI01","hd":"57","v_score":"10.22509301","decile":"9","lat":40.308370029202486,"lng":-111.75873891449507},{"vid":"a009ff92a43feb1e5f9c6e50c223450ea468f02fa01b88d0da44542dacdd75b7","name":"Charlene Graham","party":"Rep","address":"636 N Preserve Dr, Vineyard, UT 84059","precinct":"25VI01","hd":"57","v_score":"3.93832808","decile":"6","lat":40.308526795655226,"lng":-111.75702191813947},{"vid":"8cec1709617d751c9211c54bb9874bf7c506aee73eb59ad5e291f8d733ef6f49","name":"Sharonda Lynch","party":"","address":"11 W Seasons Dr, Vineyard, UT 84059","precinct":"25VI01","hd":"57","v_score":"2.315214949","decile":"5","lat":40.30786817955484,"lng":-111.75399405146429},{"vid":"ee350c5ace4ffc721c72a3509a9aa554b510cc27d38b0ebffc1cc0dfeeeb9492","name":"Tyrique Dach-Schaden","party":"","address":"114 W Silver Springs Dr, Vineyard, UT 84059","precinct":"25VI01","hd":"57","v_score":"8.347511332","decile":"8","lat":40.30895827654143,"lng":-111.75628664285206},{"vid":"1346191","name":"Dr. Oran Botsford PhD","party":"Dem","address":"197 W Silver Springs Dr, Vineyard, UT 84059","precinct":"25VI01","hd":"57","v_score":"2.315214949","decile":"5","lat":40.308939854141,"lng":-111.75838534316881},{"vid":"1367654","name":"Arba Kunde Sr.","party":"Dem","address":"201 W Whitewater Dr, Vineyard, UT 84059","precinct":"25VI01","hd":"57","v_score":"2.315214949","decile":"5","lat":40.30837061380856,"lng":-111.75847478949962},{"vid":"1378150","name":"Ms. Valeria Cummerata","party":"Rep","address":"258 W Silver Springs Dr, Vineyard, UT 84059","precinct":"25VI01","hd":"57","v_score":"1.121327652","decile":"3","lat":40.30988813849982,"lng":-111.75980640716102},{"vid":"1382850","name":"Mr. Jaxton Robel V","party":"Dem","address":"770 N 260 W, Vineyard, UT 84059","precinct":"25VI01","hd":"57","v_score":"16.46114235","decile":"9","lat":40.31091779818742,"lng":-111.76103898062165},{"vid":"1385916","name":"Ember Rowe","party":"","address":"267 W 630 N, Vineyard, UT 84059","precinct":"25VI01","hd":"57","v_score":"2.315214949","decile":"5","lat":40.30835514537941,"lng":-111.76070096694828},{"vid":"1389889","name":"Sarai Pacocha","party":"Rep","address":"603 N Glenwilde Rd, Vineyard, UT 84059","precinct":"25VI01","hd":"57","v_score":"33.9251821","decile":"10","lat":40.308191120735216,"lng":-111.75681912472172},{"vid":"1392287","name":"Mrs. Lucindy Dare","party":"Rep","address":"87 W Silver Springs Dr, Vineyard, UT 84059","precinct":"25VI01","hd":"57","v_score":"2.958579882","decile":"6","lat":40.30865966609843,"lng":-111.75565224319251},{"vid":"1392401","name":"London Howell","party":"Dem","address":"114 W Silver Springs Dr, Vineyard, UT 84059","precinct":"25VI01","hd":"57","v_score":"1.193887297","decile":"3","lat":40.30895827654143,"lng":-111.75628664285206},{"vid":"1392815","name":"Ermina Harris","party":"","address":"59 W Seasons Dr, Vineyard, UT 84059","precinct":"25VI01","hd":"57","v_score":"2.587603312","decile":"5","lat":40.30782612686399,"lng":-111.75510164408963},{"vid":"5b0f61fec999bb0a76815f50d7dc2f210cbdd2082ce96e96347cc9138cb49c79","name":"Dorian Harvey","party":"","address":"632 N Emery Ln, Vineyard, UT 84059","precinct":"25VI01","hd":"57","v_score":"3.781490609","decile":"6","lat":40.308420747337145,"lng":-111.7539248053062},{"vid":"1435889","name":"Norah Streich","party":"Dem","address":"644 N Preserve Dr, Vineyard, UT 84059","precinct":"25VI01","hd":"57","v_score":"2.315214949","decile":"5","lat":40.308659058131354,"lng":-111.75699109352848},{"vid":"1448017","name":"Desmond Nolan","party":"Rep","address":"642 N Emery Ln, Vineyard, UT 84059","precinct":"25VI01","hd":"57","v_score":"7.086521114","decile":"8","lat":40.30863719167004,"lng":-111.75396136436036},{"vid":"1469186","name":"Anice Hegmann","party":"","address":"635 N Preserve Dr, Vineyard, UT 84059","precinct":"25VI01","hd":"57","v_score":"0","decile":"1","lat":40.30850298427732,"lng":-111.75745287357827},{"vid":"d85f61a5b11b5ac1e1c98f923ffbf91112d7d2668a56c98f45581b0f3075805a","name":"Timmie Nolan","party":"Dem","address":"112 W Seasons Dr, Vineyard, UT 84059","precinct":"25VI01","hd":"57","v_score":"2.315214949","decile":"5","lat":40.30839003750157,"lng":-111.7562950204347},{"vid":"1504212","name":"Dr. Seneca Breitenberg Sr.","party":"Rep","address":"656 N 260 W, Vineyard, UT 84059","precinct":"25VI01","hd":"57","v_score":"9.405332525","decile":"8","lat":40.308941178296166,"lng":-111.76022379750005},{"vid":"1551506","name":"Kenya Dooley","party":"","address":"92 W Silver Springs Dr, Vineyard, UT 84059","precinct":"25VI01","hd":"57","v_score":"1.121327652","decile":"3","lat":40.308952804636,"lng":-111.75599733476069},{"vid":"1560672","name":"Dr. Crista Wuckert MD","party":"","address":"225 W Whitewater Dr, Vineyard, UT 84059","precinct":"25VI01","hd":"57","v_score":"1.121327652","decile":"3","lat":40.30836934334869,"lng":-111.75904831440118},{"vid":"1564092","name":"Burnett Stark","party":"Rep","address":"724 N 260 W, Vineyard, UT 84059","precinct":"25VI01","hd":"57","v_score":"1.193887297","decile":"3","lat":40.31008593407361,"lng":-111.76052534487293},{"vid":"1564629","name":"Latricia Senger-Swaniawski","party":"Rep","address":"15 W Seasons Dr, Vineyard, UT 84059","precinct":"25VI01","hd":"57","v_score":"1.46627566","decile":"4","lat":40.30786817955484,"lng":-111.75399405146429},{"vid":"1570724","name":"Hermine Johns","party":"Dem","address":"696 N 380 W, Vineyard, UT 84059","precinct":"25VI01","hd":"57","v_score":"6.027167436","decile":"7","lat":40.30981204534207,"lng":-111.76246760797085},{"vid":"1571923","name":"Nolia Runolfsdottir","party":"Dem","address":"629 N Emery Ln, Vineyard, UT 84059","precinct":"25VI01","hd":"57","v_score":"1.121327652","decile":"3","lat":40.30845337601085,"lng":-111.75443782650686},{"vid":"1574044","name":"Abbott Rice","party":"Dem","address":"75 W Silver Springs Dr, Vineyard, UT 84059","precinct":"25VI01","hd":"57","v_score":"1.121327652","decile":"3","lat":40.308762121062855,"lng":-111.75539665384093},{"vid":"6b612cda099a2272f8431a732a7bf2c20a126d72a5a2b2cf762ea05d8388ef0d","name":"Ms. Sage Gerhold DDS","party":"","address":"75 W Silver Springs Dr, Vineyard, UT 84059","precinct":"25VI01","hd":"57","v_score":"16.11772682","decile":"9","lat":40.308762121062855,"lng":-111.75539665384093},{"vid":"1579249","name":"Zenobia Hartmann PhD","party":"","address":"213 W Whitewater Dr, Vineyard, UT 84059","precinct":"25VI01","hd":"57","v_score":"16.92115192","decile":"9","lat":40.308370029202486,"lng":-111.75873891449507},{"vid":"1584895","name":"Jasmin Reynolds","party":"Dem","address":"650 N Emery Ln, Vineyard, UT 84059","precinct":"25VI01","hd":"57","v_score":"12.02671059","decile":"9","lat":40.30884532544982,"lng":-111.7540086177523},{"vid":"1603390","name":"Victoriano Smith MD","party":"Rep","address":"57 W Seasons Dr, Vineyard, UT 84059","precinct":"25VI01","hd":"57","v_score":"12.70314012","decile":"9","lat":40.30789083976317,"lng":-111.7551018837813},{"vid":"1625567","name":"Aloys Hegmann","party":"Rep","address":"633 N Glenwilde Rd, Vineyard, UT 84059","precinct":"25VI01","hd":"57","v_score":"6.027167436","decile":"7","lat":40.30848351804011,"lng":-111.75675153745605},{"vid":"1626753","name":"Loyd White","party":"","address":"212 W Silver Springs Dr, Vineyard, UT 84059","precinct":"25VI01","hd":"57","v_score":"1.121327652","decile":"3","lat":40.3093752667412,"lng":-111.75865102458532},{"vid":"4f7edd21811425ae859b9e09cb9d4df1bfb74cddf7094e281cf1afbeb90b5a2a","name":"Elenora Kutch DDS","party":"","address":"262 W Silver Springs Dr, Vineyard, UT 84059","precinct":"25VI01","hd":"57","v_score":"2.315214949","decile":"5","lat":40.30992916480066,"lng":-111.75988076089676},{"vid":"1630253","name":"Gaither Hansen MD","party":"","address":"653 N 380 W, Vineyard, UT 84059","precinct":"25VI01","hd":"57","v_score":"18.3488229","decile":"10","lat":40.30884020201024,"lng":-111.76280819321003},{"vid":"1631974","name":"Jarret Auer","party":"","address":"643 N 380 W, Vineyard, UT 84059","precinct":"25VI01","hd":"57","v_score":"18.60295045","decile":"10","lat":40.30864274802749,"lng":-111.76268981521812},{"vid":"1636595","name":"Fairy McGlynn DVM","party":"Rep","address":"786 N 260 W, Vineyard, UT 84059","precinct":"25VI01","hd":"57","v_score":"9.405332525","decile":"8","lat":40.31123571624599,"lng":-111.76135365906829},{"vid":"1647394","name":"Cathryn Hamill","party":"Dem","address":"655 N Pinebrook Rd, Vineyard, UT 84059","precinct":"25VI01","hd":"57","v_score":"1.121327652","decile":"3","lat":40.30887882885052,"lng":-111.75807133831889},{"vid":"1656055","name":"Alphonsine Marks","party":"Dem","address":"771 N 380 W, Vineyard, UT 84059","precinct":"25VI01","hd":"57","v_score":"1.46627566","decile":"4","lat":40.310896608782734,"lng":-111.76315621257854},{"vid":"1664182","name":"Mindy Schimmel","party":"","address":"101 W Silver Springs Dr, Vineyard, UT 84059","precinct":"25VI01","hd":"57","v_score":"2.315214949","decile":"5","lat":40.3086874470728,"lng":-111.75621826599894},{"vid":"25ad85f2df2137112b188a0ad209e8fbd091a5ef55ee8583e16514f823d61d66","name":"Margeret Halvorson","party":"Dem","address":"225 W Whitewater Dr, Vineyard, UT 84059","precinct":"25VI01","hd":"57","v_score":"1.121327652","decile":"3","lat":40.30836934334869,"lng":-111.75904831440118},{"vid":"1703457","name":"Mr. Mathews Hauck I","party":"Rep","address":"31 W Seasons Dr, Vineyard, UT 84059","precinct":"25VI01","hd":"57","v_score":"2.744440783","decile":"5","lat":40.307824168423075,"lng":-111.75455108213471},{"vid":"1710118","name":"Darrion Grant-Kohler","party":"","address":"672 N 380 W, Vineyard, UT 84059","precinct":"25VI01","hd":"57","v_score":"4.905839784","decile":"7","lat":40.30938480545989,"lng":-111.76247434775951},{"vid":"1711469","name":"Nora Bogisich","party":"Dem","address":"105 W Silver Springs Dr, Vineyard, UT 84059","precinct":"25VI01","hd":"57","v_score":"2.315214949","decile":"5","lat":40.308623063227024,"lng":-111.75621389463822},{"vid":"10ce3b55f8ebde565085dd931483ff3a93133d773a41eec0e8a71b76d3933c6e","name":"Dr. Molly Baumbach DVM","party":"","address":"223 W Silver Springs Dr, Vineyard, UT 84059","precinct":"25VI01","hd":"57","v_score":"3.711952487","decile":"6","lat":40.309134113384204,"lng":-111.75899998988982},{"vid":"1731216","name":"Bryanna McKenzie-Donnelly","party":"Rep","address":"738 N 260 W, Vineyard, UT 84059","precinct":"25VI01","hd":"57","v_score":"0","decile":"1","lat":40.31041260506265,"lng":-111.76058161202855},{"vid":"b3dfa332bc5aeb0e57eb089ac73eb6ef72d91497db177b36f61aeea1ce8e72d8","name":"Ms. Sallie Auer DVM","party":"","address":"208 W Whitewater Dr, Vineyard, UT 84059","precinct":"25VI01","hd":"57","v_score":"13.19982233","decile":"9","lat":40.30869126242362,"lng":-111.75861290421692},{"vid":"1735566","name":"Symone Zieme","party":"Dem","address":"763 N 380 W, Vineyard, UT 84059","precinct":"25VI01","hd":"57","v_score":"0","decile":"1","lat":40.310912189185,"lng":-111.76307762303813},{"vid":"1764175","name":"Blain Batz","party":"Rep","address":"353 W 750 N, Vineyard, UT 84059","precinct":"25VI01","hd":"57","v_score":"3.93832808","decile":"6","lat":40.31044872693964,"lng":-111.7625769895134},{"vid":"1765014","name":"Miss Tessie Klein","party":"","address":"652 N 260 W, Vineyard, UT 84059","precinct":"25VI01","hd":"57","v_score":"22.31132722","decile":"10","lat":40.30880387046137,"lng":-111.76018975817797},{"vid":"1771924","name":"Melodie Schowalter","party":"","address":"708 N 380 W, Vineyard, UT 84059","precinct":"25VI01","hd":"57","v_score":"12.13314748","decile":"9","lat":40.30958714488674,"lng":-111.76251004171844},{"vid":"1774207","name":"Brogan Dibbert","party":"","address":"605 N Glenwilde Rd, Vineyard, UT 84059","precinct":"25VI01","hd":"57","v_score":"1.121327652","decile":"3","lat":40.3082573476909,"lng":-111.75680379173745},{"vid":"1775726","name":"Mrs. Mara Marvin DVM","party":"","address":"283 W 700 N, Vineyard, UT 84059","precinct":"25VI01","hd":"57","v_score":"0","decile":"1","lat":40.309425133413534,"lng":-111.76130623543736},{"vid":"ca0eaf7eb41df46246dcd44d3eb0d7db08ccaa7cb867b1b29b08f46addd2c1ef","name":"Jahir Olson","party":"","address":"99 W Seasons Dr, Vineyard, UT 84059","precinct":"25VI01","hd":"57","v_score":"9.405332525","decile":"8","lat":40.30807155092519,"lng":-111.75609224710753},{"vid":"84698b4246270266dd3034bb10edf3a024b15cadd8dd134da75c527ac76d5750","name":"Mrs. Sharde Wyman DDS","party":"","address":"124 W Silver Springs Dr, Vineyard, UT 84059","precinct":"25VI01","hd":"57","v_score":"4.568975008","decile":"7","lat":40.30895562507307,"lng":-111.75657163201379},{"vid":"1837766","name":"Ms. Shauna Ankunding DVM","party":"","address":"76 W Seasons Dr, Vineyard, UT 84059","precinct":"25VI01","hd":"57","v_score":"9.600440767","decile":"8","lat":40.30826626818839,"lng":-111.75547542113704},{"vid":"1847260","name":"Adda Barrows","party":"Rep","address":"662 N Emery Ln, Vineyard, UT 84059","precinct":"25VI01","hd":"57","v_score":"0","decile":"1","lat":40.309040918039535,"lng":-111.75415299366371},{"vid":"1851386","name":"Lola Carroll","party":"Rep","address":"273 W 630 N, Vineyard, UT 84059","precinct":"25VI01","hd":"57","v_score":"0","decile":"1","lat":40.3083546877781,"lng":-111.76090601513741},{"vid":"1868160","name":"Dr. Kael Greenholt","party":"Rep","address":"167 W Silver Springs Dr, Vineyard, UT 84059","precinct":"25VI01","hd":"57","v_score":"4.210716443","decile":"7","lat":40.30878856996319,"lng":-111.7577033348389},{"vid":"1872966","name":"Ronny Schuppe","party":"Dem","address":"75 W Seasons Dr, Vineyard, UT 84059","precinct":"25VI01","hd":"57","v_score":"1.121327652","decile":"3","lat":40.30785248842195,"lng":-111.75539384354082},{"vid":"1889679","name":"Leafy Hessel","party":"","address":"625 N Emery Ln, Vineyard, UT 84059","precinct":"25VI01","hd":"57","v_score":"2.315214949","decile":"5","lat":40.30825053068666,"lng":-111.75432415099586},{"vid":"a2a3daaaff2a244fbc0443b3cd541e2789b18f5785d889bc1e1c067447c42065","name":"Zeta Langworth","party":"","address":"42 W Silver Springs Dr, Vineyard, UT 84059","precinct":"25VI01","hd":"57","v_score":"7.493443096","decile":"8","lat":40.30919366230731,"lng":-111.75462404826925},{"vid":"1913111","name":"Serina Schmitt-Cartwright","party":"Dem","address":"352 W 785 N, Vineyard, UT 84059","precinct":"25VI01","hd":"57","v_score":"2.315214949","decile":"5","lat":40.31128658052892,"lng":-111.76231785265313},{"vid":"1920858","name":"Guy Hermiston","party":"Dem","address":"664 N Emery Ln, Vineyard, UT 84059","precinct":"25VI01","hd":"57","v_score":"30.39345643","decile":"10","lat":40.309058098220724,"lng":-111.75407148914812},{"vid":"68a46e3dce385ba0049bf742b08e45d6ef35a2d6f46443445dfe831e0b3e4183","name":"Gabe Hegmann","party":"Rep","address":"718 N 260 W, Vineyard, UT 84059","precinct":"25VI01","hd":"57","v_score":"0","decile":"1","lat":40.31001802185599,"lng":-111.76050850882753},{"vid":"1930480","name":"Bradley Mertz","party":"Dem","address":"635 N Emery Ln, Vineyard, UT 84059","precinct":"25VI01","hd":"57","v_score":"5.40460374","decile":"7","lat":40.30845337601085,"lng":-111.75443782650686},{"vid":"1934283","name":"Eben Brakus","party":"Dem","address":"48 W Silver Springs Dr, Vineyard, UT 84059","precinct":"25VI01","hd":"57","v_score":"6.954919332","decile":"8","lat":40.30912270597704,"lng":-111.75491049601905},{"vid":"1949229","name":"Ashtyn Brakus","party":"Dem","address":"202 W Silver Springs Dr, Vineyard, UT 84059","precinct":"25VI01","hd":"57","v_score":"15.43762891","decile":"9","lat":40.30930599445087,"lng":-111.75844257519486},{"vid":"c2f0f07fa68eeb10ad184e4607d565734a985fa3c3acde36e74203238f23b88a","name":"Dustan Kunde","party":"","address":"84 W Silver Springs Dr, Vineyard, UT 84059","precinct":"25VI01","hd":"57","v_score":"13.46923073","decile":"9","lat":40.30898124162336,"lng":-111.75571493508377},{"vid":"1952974","name":"Ferd Ondricka","party":"","address":"174 W Silver Springs Dr, Vineyard, UT 84059","precinct":"25VI01","hd":"57","v_score":"2.315214949","decile":"5","lat":40.309146615618715,"lng":-111.75780305017106},{"vid":"1953727","name":"Jazmyne Lang","party":"Dem","address":"47 W Seasons Dr, Vineyard, UT 84059","precinct":"25VI01","hd":"57","v_score":"1.623113131","decile":"4","lat":40.30788394140405,"lng":-111.75482865542783},{"vid":"1954375","name":"Lesli O'Kon-Olson","party":"Dem","address":"196 W Whitewater Dr, Vineyard, UT 84059","precinct":"25VI01","hd":"57","v_score":"0","decile":"1","lat":40.30869184634189,"lng":-111.75834877814346},{"vid":"1959802","name":"Hilary Flatley-Bednar","party":"Rep","address":"86 W Silver Springs Dr, Vineyard, UT 84059","precinct":"25VI01","hd":"57","v_score":"23.3180776","decile":"10","lat":40.3090452638778,"lng":-111.75572456032067},{"vid":"efa93cb1b8ff5b6746b38f2ed8b2478b68fb16de9541b0b55197c52dd5ab75c7","name":"Mr. Devyn Cormier Jr.","party":"Rep","address":"658 N 380 W, Vineyard, UT 84059","precinct":"25VI01","hd":"57","v_score":"3.93832808","decile":"6","lat":40.30875725573586,"lng":-111.76228133568765},{"vid":"1989550","name":"Lawton Walker-Swift","party":"","address":"184 W Silver Springs Dr, Vineyard, UT 84059","precinct":"25VI01","hd":"57","v_score":"1.193887297","decile":"3","lat":40.30919476113318,"lng":-111.75802197769066},{"vid":"3e547eea38ba9993441c60da2f18c9c1ec25d69697afd7491a1f41db7f70f857","name":"Cristen Berge","party":"","address":"647 N Pinebrook Rd, Vineyard, UT 84059","precinct":"25VI01","hd":"57","v_score":"4.210716443","decile":"7","lat":40.308746427470076,"lng":-111.75810167927693},{"vid":"1990051","name":"Briley Dibbert-Franecki","party":"Dem","address":"632 N Emery Ln, Vineyard, UT 84059","precinct":"25VI01","hd":"57","v_score":"11.02844566","decile":"9","lat":40.308420747337145,"lng":-111.7539248053062},{"vid":"2011081","name":"Windell Feeney","party":"Rep","address":"614 N Emery Ln, Vineyard, UT 84059","precinct":"25VI01","hd":"57","v_score":"2.744440783","decile":"5","lat":40.30821040406411,"lng":-111.75389880145663},{"vid":"2015162","name":"Pat Jast","party":"","address":"21 W Seasons Dr, Vineyard, UT 84059","precinct":"25VI01","hd":"57","v_score":"6.724398202","decile":"8","lat":40.307914045067044,"lng":-111.75428166515688},{"vid":"2023434","name":"Mr. Giuseppe Kling MD","party":"","address":"787 N 380 W, Vineyard, UT 84059","precinct":"25VI01","hd":"57","v_score":"1.121327652","decile":"3","lat":40.31111379403368,"lng":-111.76305638594512},{"vid":"2026843","name":"Asa Quigley","party":"","address":"344 W 750 N, Vineyard, UT 84059","precinct":"25VI01","hd":"57","v_score":"2.315214949","decile":"5","lat":40.310778646366124,"lng":-111.76231650328374},{"vid":"2031774","name":"Arvin Nitzsche","party":"","address":"88 W Seasons Dr, Vineyard, UT 84059","precinct":"25VI01","hd":"57","v_score":"6.528952915","decile":"7","lat":40.30826106471948,"lng":-111.75576916299558},{"vid":"2045984","name":"Coley Schroeder-Ortiz","party":"Dem","address":"266 W 660 N, Vineyard, UT 84059","precinct":"25VI01","hd":"57","v_score":"2.315214949","decile":"5","lat":40.309242505189886,"lng":-111.7607613967971},{"vid":"ec2aaf8888d6d0d3855ebc40b00445d835078be4611ff892ba334330439a14cb","name":"Mrs. Jalisa Sporer DDS","party":"Dem","address":"641 N 380 W, Vineyard, UT 84059","precinct":"25VI01","hd":"57","v_score":"0","decile":"1","lat":40.30863356898126,"lng":-111.76277302331823},{"vid":"2055673","name":"Hattie Dooley","party":"Dem","address":"287 W 700 N, Vineyard, UT 84059","precinct":"25VI01","hd":"57","v_score":"2.315214949","decile":"5","lat":40.30942493146933,"lng":-111.76139654415087},{"vid":"2057085","name":"Mrs. Ela Smith PhD","party":"","address":"732 N 380 W, Vineyard, UT 84059","precinct":"25VI01","hd":"57","v_score":"0","decile":"1","lat":40.31020518892707,"lng":-111.76261364846259},{"vid":"2057304","name":"Jethro Lemke","party":"Dem","address":"727 N 380 W, Vineyard, UT 84059","precinct":"25VI01","hd":"57","v_score":"2.315214949","decile":"5","lat":40.310123315295144,"lng":-111.76295325698493},{"vid":"2058353","name":"Hardie Kshlerin-Lubowitz","party":"","address":"21 W Seasons Dr, Vineyard, UT 84059","precinct":"25VI01","hd":"57","v_score":"2.315214949","decile":"5","lat":40.307914045067044,"lng":-111.75428166515688},{"vid":"2059543","name":"Tatyanna Kuhn","party":"Rep","address":"668 N 380 W, Vineyard, UT 84059","precinct":"25VI01","hd":"57","v_score":"22.16617265","decile":"10","lat":40.30940307290787,"lng":-111.76239674526798},{"vid":"2059713","name":"Wylie Gulgowski","party":"","address":"45 W Seasons Dr, Vineyard, UT 84059","precinct":"25VI01","hd":"57","v_score":"2.958579882","decile":"6","lat":40.3078195241926,"lng":-111.75482633571355},{"vid":"2060621","name":"Kasey Romaguera","party":"Rep","address":"655 N Pinebrook Rd, Vineyard, UT 84059","precinct":"25VI01","hd":"57","v_score":"0","decile":"1","lat":40.30887882885052,"lng":-111.75807133831889},{"vid":"2061966","name":"Walter King","party":"","address":"668 N 380 W, Vineyard, UT 84059","precinct":"25VI01","hd":"57","v_score":"22.16617265","decile":"10","lat":40.30940307290787,"lng":-111.76239674526798},{"vid":"4f06b93adb77519ddc5ac8d34c71733dc0ccfed924dacd981cec3fa563f272c5","name":"Margy Howell","party":"","address":"639 N Preserve Dr, Vineyard, UT 84059","precinct":"25VI01","hd":"57","v_score":"5.191257514","decile":"7","lat":40.30856924230155,"lng":-111.75743744788787},{"vid":"0d51093c4ddb3a6227bd25ea41d80d454a794d3715078cb3582485bf8ef16a1e","name":"Perla Bednar DDS","party":"Dem","address":"197 W Silver Springs Dr, Vineyard, UT 84059","precinct":"25VI01","hd":"57","v_score":"2.587603312","decile":"5","lat":40.308939854141,"lng":-111.75838534316881},{"vid":"4d05f693b90b499e2487650fe7ea1effe0d2ff3db3cd9f060de9a0e018799f65","name":"Buell Langworth","party":"Dem","address":"348 W 750 N, Vineyard, UT 84059","precinct":"25VI01","hd":"57","v_score":"2.315214949","decile":"5","lat":40.31071429781509,"lng":-111.76231723765649},{"vid":"2093648","name":"Olevia Heathcote-Mayert","party":"Rep","address":"644 N Emery Ln, Vineyard, UT 84059","precinct":"25VI01","hd":"57","v_score":"3.781490609","decile":"6","lat":40.30863719167004,"lng":-111.75396136436036},{"vid":"afd068697edb8303350ba4ab6db1c9a31e389f6ae7767033d17251cfd9ff41c0","name":"Sie Littel","party":"","address":"787 N 380 W, Vineyard, UT 84059","precinct":"25VI01","hd":"57","v_score":"7.63861371","decile":"8","lat":40.31111379403368,"lng":-111.76305638594512},{"vid":"5ce080f21a8878089c79bf714237485b7c4a451ca63c512c34952a77670b6fb1","name":"Jeramie McClure-Bernier","party":"","address":"288 W 730 N, Vineyard, UT 84059","precinct":"25VI01","hd":"57","v_score":"20.34747412","decile":"10","lat":40.31029789114834,"lng":-111.76151853626476},{"vid":"2130507","name":"Nada Windler-Kuhn","party":"Rep","address":"632 N Emery Ln, Vineyard, UT 84059","precinct":"25VI01","hd":"57","v_score":"3.781490609","decile":"6","lat":40.308420747337145,"lng":-111.7539248053062},{"vid":"2135461","name":"Joseline Bosco DVM","party":"","address":"629 N Emery Ln, Vineyard, UT 84059","precinct":"25VI01","hd":"57","v_score":"5.40460374","decile":"7","lat":40.30845337601085,"lng":-111.75443782650686},{"vid":"a3c487090c63e9ead261a83cad3a47cc72343a59c79dfe7bf7bc54104b3e66d3","name":"Yasmine Runolfsson","party":"","address":"344 W 750 N, Vineyard, UT 84059","precinct":"25VI01","hd":"57","v_score":"10.67330764","decile":"9","lat":40.310778646366124,"lng":-111.76231650328374},{"vid":"24c61c921a21cd3a8719910019016bb300e4382fc6bfae048565cb5dfd790103","name":"Mr. Einar Mosciski IV","party":"Dem","address":"109 W Seasons Dr, Vineyard, UT 84059","precinct":"25VI01","hd":"57","v_score":"2.315214949","decile":"5","lat":40.308076545674595,"lng":-111.7563860297073},{"vid":"2c359c3059d5ee505599531837163590748d3816346e86336dd2790732869b48","name":"Metha Kemmer","party":"","address":"283 W 630 N, Vineyard, UT 84059","precinct":"25VI01","hd":"57","v_score":"3.781490609","decile":"6","lat":40.30835396685052,"lng":-111.76122864291574},{"vid":"7da22f8fed6087759171814eb4f56b8c9d3ddd50e0b68dbd77dd625b36a02216","name":"Randell Kerluke","party":"","address":"759 N 380 W, Vineyard, UT 84059","precinct":"25VI01","hd":"57","v_score":"1.193887297","decile":"3","lat":40.310690858855786,"lng":-111.7630494242512},{"vid":"2167057","name":"Bliss Mitchell-Emmerich","party":"Rep","address":"55 W Silver Springs Dr, Vineyard, UT 84059","precinct":"25VI01","hd":"57","v_score":"2.587603312","decile":"5","lat":40.30881668390443,"lng":-111.75509308377909},{"vid":"0955fe695e7c8c22234ab52f3ef079aa05229b13afc3503d18fb1dc74738cd0b","name":"Kane Graham-Franecki","party":"","address":"768 N 260 W, Vineyard, UT 84059","precinct":"25VI01","hd":"57","v_score":"4.210716443","decile":"7","lat":40.31088029608341,"lng":-111.76110357403205},{"vid":"2178196","name":"Miss Jaycee Nitzsche DVM","party":"Dem","address":"57 W Seasons Dr, Vineyard, UT 84059","precinct":"25VI01","hd":"57","v_score":"8.134165107","decile":"8","lat":40.30789083976317,"lng":-111.7551018837813},{"vid":"ec0c9696c1c6f1ab94e4a94cf9f3c4b64670a602eb5acfa9772d00db1de1b79b","name":"Cary Lowe","party":"","address":"658 N 380 W, Vineyard, UT 84059","precinct":"25VI01","hd":"57","v_score":"0","decile":"1","lat":40.30875725573586,"lng":-111.76228133568765},{"vid":"80ee866785692c4ff710dbe35ac8f096b3b65b418856730d18c77586f63dae22","name":"Dr. Jadiel Parker","party":"","address":"659 N Fall Creek Dr, Vineyard, UT 84059","precinct":"25VI01","hd":"57","v_score":"1.121327652","decile":"3","lat":40.308913087979676,"lng":-111.75984521761524},{"vid":"ffe7e5a0b29d526f0292ab1b10667099cc83d1cb0ea8180fdfb1ca036a0c37fc","name":"Morris Zieme","party":"Rep","address":"718 N 260 W, Vineyard, UT 84059","precinct":"25VI01","hd":"57","v_score":"1.121327652","decile":"3","lat":40.31001802185599,"lng":-111.76050850882753},{"vid":"f384271f104242f242831a38cd6d14a7e054afa12663352ee93711c5963d45c6","name":"Refugio Goldner-Parisian","party":"","address":"662 N Emery Ln, Vineyard, UT 84059","precinct":"25VI01","hd":"57","v_score":"0","decile":"1","lat":40.309040918039535,"lng":-111.75415299366371},{"vid":"2205197","name":"Ryker Bogisich II","party":"","address":"43 W Silver Springs Dr, Vineyard, UT 84059","precinct":"25VI01","hd":"57","v_score":"2.744440783","decile":"5","lat":40.30881111692993,"lng":-111.75480584329246},{"vid":"ba611967f3638481fbbdcc9e40c604942572e1986da4a7d7b8d69c547d953ebc","name":"Jereme Parker DDS","party":"","address":"633 N Glenwilde Rd, Vineyard, UT 84059","precinct":"25VI01","hd":"57","v_score":"1.121327652","decile":"3","lat":40.30848351804011,"lng":-111.75675153745605},{"vid":"2dd2d086bc5546095ff0c333415726664a7ffff82e9f6e9ebe70f7411bc7430f","name":"Bailey Carter","party":"Dem","address":"734 N 260 W, Vineyard, UT 84059","precinct":"25VI01","hd":"57","v_score":"0","decile":"1","lat":40.3103791940227,"lng":-111.76065502230365},{"vid":"81e343d7e19f1456f3b04cb5476dad3da54ab60e6d4f58108ba39bf58777242c","name":"Abie Hane","party":"","address":"138 W Silver Springs Dr, Vineyard, UT 84059","precinct":"25VI01","hd":"57","v_score":"0","decile":"1","lat":40.30901860043144,"lng":-111.75696128095947},{"vid":"c473b8314e106368299299eec0a0e4c3d9042103e133c311dc29d56a9ecaae87","name":"Clemie Collier","party":"","address":"268 W 660 N, Vineyard, UT 84059","precinct":"25VI01","hd":"57","v_score":"0","decile":"1","lat":40.30924230351918,"lng":-111.76085170533094},{"vid":"2229747","name":"Mimi Bashirian","party":"Dem","address":"644 N Emery Ln, Vineyard, UT 84059","precinct":"25VI01","hd":"57","v_score":"1.121327652","decile":"3","lat":40.30863719167004,"lng":-111.75396136436036},{"vid":"f42a4188ae2bba621fb652ca26af4a9eedfa80eb157302b9e3683db3900d985a","name":"Khloe Purdy","party":"Dem","address":"262 W Silver Springs Dr, Vineyard, UT 84059","precinct":"25VI01","hd":"57","v_score":"2.315214949","decile":"5","lat":40.30992916480066,"lng":-111.75988076089676},{"vid":"f498b66c3fbf67ae846f5c52933203393edb33b10f8c58b29d1f95231b015bef","name":"Arlan Waters","party":"","address":"113 W Seasons Dr, Vineyard, UT 84059","precinct":"25VI01","hd":"57","v_score":"1.121327652","decile":"3","lat":40.30814055603066,"lng":-111.75636386895619},{"vid":"2241901","name":"Rexford Hartmann","party":"","address":"21 W Seasons Dr, Vineyard, UT 84059","precinct":"25VI01","hd":"57","v_score":"1.193887297","decile":"3","lat":40.307914045067044,"lng":-111.75428166515688},{"vid":"2254145","name":"Mr. Davonta Connelly","party":"Rep","address":"71 W Silver Springs Dr, Vineyard, UT 84059","precinct":"25VI01","hd":"57","v_score":"13.63581767","decile":"9","lat":40.308698448670114,"lng":-111.75538163813106},{"vid":"c5afd38af6795c5aa47cb971f7a10043cd3d71acfb979687b936e63e28abfe70","name":"Trina Homenick","party":"Dem","address":"621 N Sun Peak Dr, Vineyard, UT 84059","precinct":"25VI01","hd":"57","v_score":"1.121327652","decile":"3","lat":40.30821724444416,"lng":-111.75509002971847},{"vid":"a85dda160b1a07b3d312bcc3fddf851bcc45a875d9068d6bc9b54a84ba7b9b5a","name":"Jayson Kautzer","party":"Dem","address":"353 W 750 N, Vineyard, UT 84059","precinct":"25VI01","hd":"57","v_score":"3.93832808","decile":"6","lat":40.31044872693964,"lng":-111.7625769895134},{"vid":"60f52c03aa509d6abff1479b55e115053062eac22153099850ae6a720b23f027","name":"Dan Cronin","party":"","address":"337 W 750 N, Vineyard, UT 84059","precinct":"25VI01","hd":"57","v_score":"13.11728501","decile":"9","lat":40.31045061471477,"lng":-111.76225617833819},{"vid":"2266027","name":"Noe Nienow MD","party":"","address":"762 N 260 W, Vineyard, UT 84059","precinct":"25VI01","hd":"57","v_score":"5.258122542","decile":"7","lat":40.31088029608341,"lng":-111.76110357403205},{"vid":"2268059","name":"Dr. Chancy Torphy Jr.","party":"Rep","address":"734 N 260 W, Vineyard, UT 84059","precinct":"25VI01","hd":"57","v_score":"0","decile":"1","lat":40.3103791940227,"lng":-111.76065502230365},{"vid":"11880b351e98833ebef502a07965c8f71a40767c408950e097a50bf02c71eda6","name":"America Goldner","party":"","address":"158 W Silver Springs Dr, Vineyard, UT 84059","precinct":"25VI01","hd":"57","v_score":"17.00936292","decile":"9","lat":40.3090791551208,"lng":-111.75740794919024},{"vid":"6d95ef119d2e9815675240e3c36bf94d2c8c58f6f71043ec536887d37ee70f0f","name":"Todd Brown-McCullough","party":"Rep","address":"671 N 380 W, Apt W303, Vineyard, UT 84059","precinct":"25VI01","hd":"57","v_score":"1.121327652","decile":"3","lat":40.30916915385883,"lng":-111.76278627760092},{"vid":"0ff51dec658b411195a1224153d9f21ca82ceb764970eda05ca3101a66f15231","name":"Agustus Hoeger","party":"Dem","address":"635 N Preserve Dr, Vineyard, UT 84059","precinct":"25VI01","hd":"57","v_score":"2.315214949","decile":"5","lat":40.30850298427732,"lng":-111.75745287357827},{"vid":"2279872","name":"Robert Dach-Quitzon","party":"Rep","address":"114 W Silver Springs Dr, Vineyard, UT 84059","precinct":"25VI01","hd":"57","v_score":"1.193887297","decile":"3","lat":40.30895827654143,"lng":-111.75628664285206},{"vid":"7aedf5a8c8a70214a8cf6fa96a76c3c89e389f638f766b45a25387c66d5c844b","name":"Nobie Marks","party":"Rep","address":"231 W Silver Springs Dr, Vineyard, UT 84059","precinct":"25VI01","hd":"57","v_score":"3.93832808","decile":"6","lat":40.309207713827746,"lng":-111.75920055800093},{"vid":"0561c930a8056e2fb923f005efbabea79e35e3963c4a02ce4d6280ff371fe234","name":"Dr. Allan Douglas","party":"","address":"75 W Seasons Dr, Vineyard, UT 84059","precinct":"25VI01","hd":"57","v_score":"2.315214949","decile":"5","lat":40.30785248842195,"lng":-111.75539384354082},{"vid":"2290630","name":"Randolph Ward","party":"Dem","address":"266 W 630 N, Vineyard, UT 84059","precinct":"25VI01","hd":"57","v_score":"6.881235673","decile":"8","lat":40.30870748595103,"lng":-111.76071752972615},{"vid":"9fabb77997dcce7e190100607115526a36626b34efcd12ec9ed053a57aa10923","name":"Herminia Miller","party":"","address":"258 W Silver Springs Dr, Vineyard, UT 84059","precinct":"25VI01","hd":"57","v_score":"0","decile":"1","lat":40.30988813849982,"lng":-111.75980640716102},{"vid":"94e3bb842917e5dce16fdddc7e3590c2ee150488165c5e8000f1563e20b6d437","name":"Merton Prohaska","party":"","address":"64 W Silver Springs Dr, Vineyard, UT 84059","precinct":"25VI01","hd":"57","v_score":"19.66811405","decile":"10","lat":40.30913124754197,"lng":-111.7551842962823},{"vid":"2301097","name":"Toma Tillman","party":"Rep","address":"204 W Whitewater Dr, Vineyard, UT 84059","precinct":"25VI01","hd":"57","v_score":"1.121327652","decile":"3","lat":40.30869145738272,"lng":-111.75852486267152},{"vid":"2303658","name":"Dr. Kylene Padberg","party":"","address":"272 W 660 N, Vineyard, UT 84059","precinct":"25VI01","hd":"57","v_score":"1.121327652","decile":"3","lat":40.30924210787665,"lng":-111.76093938934685},{"vid":"2310953","name":"Tayler Flatley","party":"","address":"86 W Seasons Dr, Vineyard, UT 84059","precinct":"25VI01","hd":"57","v_score":"1.121327652","decile":"3","lat":40.30832349983253,"lng":-111.75574631783391},{"vid":"2315134","name":"Kenley Larson MD","party":"Dem","address":"216 W Silver Springs Dr, Vineyard, UT 84059","precinct":"25VI01","hd":"57","v_score":"2.315214949","decile":"5","lat":40.30943142067324,"lng":-111.75881029588521},{"vid":"2320184","name":"Nelie Trantow","party":"","address":"644 N Emery Ln, Vineyard, UT 84059","precinct":"25VI01","hd":"57","v_score":"1.121327652","decile":"3","lat":40.30863719167004,"lng":-111.75396136436036},{"vid":"2325124","name":"Daniella Stamm DVM","party":"Dem","address":"726 N 260 W, Vineyard, UT 84059","precinct":"25VI01","hd":"57","v_score":"19.47300581","decile":"10","lat":40.31015189996217,"lng":-111.76054169223481},{"vid":"2326564","name":"Ximena Rippin","party":"Rep","address":"55 W Silver Springs Dr, Vineyard, UT 84059","precinct":"25VI01","hd":"57","v_score":"4.137918904","decile":"7","lat":40.30881668390443,"lng":-111.75509308377909},{"vid":"2328707","name":"Suzann Schuster","party":"","address":"351 W 785 N, Vineyard, UT 84059","precinct":"25VI01","hd":"57","v_score":"1.193887297","decile":"3","lat":40.3110104337538,"lng":-111.7623174630338},{"vid":"2334286","name":"Dylon Cummerata-Lehner","party":"Rep","address":"623 N Emery Ln, Vineyard, UT 84059","precinct":"25VI01","hd":"57","v_score":"5.191257514","decile":"7","lat":40.30824308127532,"lng":-111.754408094596},{"vid":"2343054","name":"Elwin Wilderman","party":"Rep","address":"645 N 380 W, Vineyard, UT 84059","precinct":"25VI01","hd":"57","v_score":"3.93832808","decile":"6","lat":40.30863359668687,"lng":-111.76277302341808},{"vid":"2351777","name":"Giancarlo Runte IV","party":"Rep","address":"696 N 380 W, Vineyard, UT 84059","precinct":"25VI01","hd":"57","v_score":"6.027167436","decile":"7","lat":40.30981204534207,"lng":-111.76246760797085},{"vid":"2353215","name":"Salvatore Hauck-Harris","party":"Rep","address":"611 N Glenwilde Rd, Vineyard, UT 84059","precinct":"25VI01","hd":"57","v_score":"1.193887297","decile":"3","lat":40.30838969550159,"lng":-111.75677319673586},{"vid":"2367062","name":"Carlton Altenwerth-Brekke","party":"Rep","address":"654 N Emery Ln, Vineyard, UT 84059","precinct":"25VI01","hd":"57","v_score":"2.744440783","decile":"5","lat":40.3088339533171,"lng":-111.75409196613933},{"vid":"2372953","name":"Dr. Albion Shanahan","party":"","address":"738 N 260 W, Vineyard, UT 84059","precinct":"25VI01","hd":"57","v_score":"2.744440783","decile":"5","lat":40.31041260506265,"lng":-111.76058161202855},{"vid":"2377313","name":"Mara Vandervort","party":"Rep","address":"647 N Pinebrook Rd, Vineyard, UT 84059","precinct":"25VI01","hd":"57","v_score":"1.193887297","decile":"3","lat":40.308746427470076,"lng":-111.75810167927693},{"vid":"2379503","name":"Mr. Napoleon Terry I","party":"Rep","address":"685 N 380 W, Vineyard, UT 84059","precinct":"25VI01","hd":"57","v_score":"3.997370217","decile":"6","lat":40.30942435455223,"lng":-111.76291013083446},{"vid":"2384100","name":"Jordan Klein","party":"Rep","address":"287 W 660 N, Vineyard, UT 84059","precinct":"25VI01","hd":"57","v_score":"2.315214949","decile":"5","lat":40.308889965874585,"lng":-111.76132488446267},{"vid":"2388502","name":"Booker Schulist","party":"","address":"254 W Silver Springs Dr, Vineyard, UT 84059","precinct":"25VI01","hd":"57","v_score":"1.121327652","decile":"3","lat":40.30980963599335,"lng":-111.75966418444794},{"vid":"2389191","name":"Mr. Nels Ferry","party":"Dem","address":"120 W Bend St, Unit 1415, Vineyard, UT 84059","precinct":"25VI01","hd":"57","v_score":"2.315214949","decile":"5","lat":40.31150947826227,"lng":-111.75778535003619},{"vid":"2389340","name":"Tracie Lang","party":"","address":"284 W 630 N, Vineyard, UT 84059","precinct":"25VI01","hd":"57","v_score":"0","decile":"1","lat":40.30870639757802,"lng":-111.76120491517514},{"vid":"2396728","name":"Dr. Amare Heaney","party":"","address":"236 W Silver Springs Dr, Vineyard, UT 84059","precinct":"25VI01","hd":"57","v_score":"1.121327652","decile":"3","lat":40.30960782443907,"lng":-111.75924706018992},{"vid":"2398308","name":"Dr. Cassie Gottlieb Jr.","party":"Rep","address":"656 N Emery Ln, Vineyard, UT 84059","precinct":"25VI01","hd":"57","v_score":"1.121327652","decile":"3","lat":40.30884532544982,"lng":-111.7540086177523},{"vid":"2400660","name":"Kalel Buckridge","party":"Rep","address":"88 W Seasons Dr, Vineyard, UT 84059","precinct":"25VI01","hd":"57","v_score":"2.744440783","decile":"5","lat":40.30826106471948,"lng":-111.75576916299558},{"vid":"2401919","name":"Charlize Grant-Schimmel","party":"Rep","address":"641 N Glenwilde Rd, Vineyard, UT 84059","precinct":"25VI01","hd":"57","v_score":"2.315214949","decile":"5","lat":40.30861583567734,"lng":-111.75672092808139},{"vid":"2404615","name":"Lenna Schamberger-Bernier","party":"","address":"786 N 260 W, Vineyard, UT 84059","precinct":"25VI01","hd":"57","v_score":"13.11728501","decile":"9","lat":40.31123571624599,"lng":-111.76135365906829},{"vid":"2410193","name":"Isai Effertz","party":"","address":"649 N Emery Ln, Vineyard, UT 84059","precinct":"25VI01","hd":"57","v_score":"9.405332525","decile":"8","lat":40.30867690355637,"lng":-111.75439166932377},{"vid":"2412684","name":"Hilda Boyle","party":"Rep","address":"618 N Preserve Dr, Vineyard, UT 84059","precinct":"25VI01","hd":"57","v_score":"1.121327652","decile":"3","lat":40.30823491875182,"lng":-111.7570899725291},{"vid":"2419448","name":"Bennett Wolff-Tromp","party":"","address":"99 W Seasons Dr, Vineyard, UT 84059","precinct":"25VI01","hd":"57","v_score":"1.121327652","decile":"3","lat":40.30807155092519,"lng":-111.75609224710753},{"vid":"2422326","name":"Rayshawn Mosciski","party":"Rep","address":"165 W Silver Springs Dr, Vineyard, UT 84059","precinct":"25VI01","hd":"57","v_score":"2.315214949","decile":"5","lat":40.30877505861668,"lng":-111.75761724461398},{"vid":"2423972","name":"Miss Meghan Kuhn MD","party":"","address":"194 W Silver Springs Dr, Vineyard, UT 84059","precinct":"25VI01","hd":"57","v_score":"2.315214949","decile":"5","lat":40.30926117219789,"lng":-111.75827309777573},{"vid":"a43b4cd539104f02883855fb02a30b65ef110e6d7540b7aab81e8035fc16f487","name":"Romello Lowe","party":"Dem","address":"641 N Glenwilde Rd, Vineyard, UT 84059","precinct":"25VI01","hd":"57","v_score":"2.315214949","decile":"5","lat":40.30861583567734,"lng":-111.75672092808139},{"vid":"2428285","name":"Nedra Davis","party":"Dem","address":"666 N Emery Ln, Vineyard, UT 84059","precinct":"25VI01","hd":"57","v_score":"9.405332525","decile":"8","lat":40.309058098220724,"lng":-111.75407148914812},{"vid":"2429150","name":"Jordy Wehner II","party":"","address":"633 N Glenwilde Rd, Vineyard, UT 84059","precinct":"25VI01","hd":"57","v_score":"3.93832808","decile":"6","lat":40.30848351804011,"lng":-111.75675153745605},{"vid":"2432192","name":"Dr. Antonia Kovacek PhD","party":"","address":"17 W Seasons Dr, Vineyard, UT 84059","precinct":"25VI01","hd":"57","v_score":"1.121327652","decile":"3","lat":40.30793267690942,"lng":-111.75400121410195},{"vid":"2432370","name":"Miya Gleason-Collier","party":"","address":"369 W 750 N, Vineyard, UT 84059","precinct":"25VI01","hd":"57","v_score":"1.193887297","decile":"3","lat":40.31038676249525,"lng":-111.76259019648055},{"vid":"2440759","name":"Ms. Laverna Mills DVM","party":"","address":"740 N 260 W, Vineyard, UT 84059","precinct":"25VI01","hd":"57","v_score":"2.315214949","decile":"5","lat":40.31043377715143,"lng":-111.76069711694863},{"vid":"2442117","name":"Zander Jaskolski","party":"Rep","address":"72 W Seasons Dr, Vineyard, UT 84059","precinct":"25VI01","hd":"57","v_score":"1.121327652","decile":"3","lat":40.30826626818839,"lng":-111.75547542113704},{"vid":"2447929","name":"Clarinda Greenholt","party":"","address":"661 N 380 W, Vineyard, UT 84059","precinct":"25VI01","hd":"57","v_score":"1.121327652","decile":"3","lat":40.309028989354644,"lng":-111.76284161258477},{"vid":"2453641","name":"Cami Vandervort","party":"Rep","address":"217 W Whitewater Dr, Vineyard, UT 84059","precinct":"25VI01","hd":"57","v_score":"2.315214949","decile":"5","lat":40.3083697336798,"lng":-111.75887223202909},{"vid":"2454835","name":"Emile Jakubowski","party":"","address":"217 W Whitewater Dr, Vineyard, UT 84059","precinct":"25VI01","hd":"57","v_score":"1.121327652","decile":"3","lat":40.3083697336798,"lng":-111.75887223202909},{"vid":"2459334","name":"Dot Waters","party":"Dem","address":"621 N Sun Peak Dr, Vineyard, UT 84059","precinct":"25VI01","hd":"57","v_score":"0","decile":"1","lat":40.30821724444416,"lng":-111.75509002971847},{"vid":"2465813","name":"Frances Medhurst","party":"Rep","address":"630 N Emery Ln, Vineyard, UT 84059","precinct":"25VI01","hd":"57","v_score":"1.193887297","decile":"3","lat":40.30841437904487,"lng":-111.75400906580026},{"vid":"2465974","name":"Billie Wilkinson","party":"Dem","address":"663 N Fall Creek Dr, Vineyard, UT 84059","precinct":"25VI01","hd":"57","v_score":"0","decile":"1","lat":40.308979025009634,"lng":-111.75986170637194},{"vid":"2477573","name":"Mr. Zenas Cole","party":"","address":"362 W 785 N, Vineyard, UT 84059","precinct":"25VI01","hd":"57","v_score":"4.069929862","decile":"6","lat":40.311350473845884,"lng":-111.76259500787147},{"vid":"2480094","name":"Leroy Satterfield","party":"","address":"48 W Silver Springs Dr, Vineyard, UT 84059","precinct":"25VI01","hd":"57","v_score":"1.193887297","decile":"3","lat":40.30912270597704,"lng":-111.75491049601905},{"vid":"2480634","name":"Dellia Schowalter MD","party":"","address":"106 W Seasons Dr, Vineyard, UT 84059","precinct":"25VI01","hd":"57","v_score":"1.193887297","decile":"3","lat":40.30839003750157,"lng":-111.7562950204347},{"vid":"2481943","name":"Letta Brekke PhD","party":"Rep","address":"639 N Fall Creek Dr, Vineyard, UT 84059","precinct":"25VI01","hd":"57","v_score":"5.693042993","decile":"7","lat":40.30854664261958,"lng":-111.75975341751871},{"vid":"2487371","name":"Manuelita Shanahan","party":"Dem","address":"138 W Silver Springs Dr, Vineyard, UT 84059","precinct":"25VI01","hd":"57","v_score":"0","decile":"1","lat":40.30901860043144,"lng":-111.75696128095947},{"vid":"2490584","name":"Baldwin Douglas","party":"Dem","address":"107 W Seasons Dr, Vineyard, UT 84059","precinct":"25VI01","hd":"57","v_score":"1.193887297","decile":"3","lat":40.30814055603066,"lng":-111.75636386895619},{"vid":"2491822","name":"Omar Hermiston","party":"Rep","address":"74 W Seasons Dr, Vineyard, UT 84059","precinct":"25VI01","hd":"57","v_score":"1.193887297","decile":"3","lat":40.30820400367632,"lng":-111.75549850065332},{"vid":"2493042","name":"Earline Eichmann","party":"Rep","address":"716 N 380 W, Vineyard, UT 84059","precinct":"25VI01","hd":"57","v_score":"0","decile":"1","lat":40.309961619477,"lng":-111.7625736797905},{"vid":"2496282","name":"Katrina Wiza","party":"Dem","address":"96 W Seasons Dr, Vineyard, UT 84059","precinct":"25VI01","hd":"57","v_score":"0","decile":"1","lat":40.308323487743756,"lng":-111.75602875085418},{"vid":"2496480","name":"Rubi Braun","party":"Rep","address":"107 W Seasons Dr, Vineyard, UT 84059","precinct":"25VI01","hd":"57","v_score":"0","decile":"1","lat":40.30814055603066,"lng":-111.75636386895619},{"vid":"2499074","name":"Gianna Howe","party":"Dem","address":"790 N 260 W, Vineyard, UT 84059","precinct":"25VI01","hd":"57","v_score":"0","decile":"1","lat":40.311250612997306,"lng":-111.76144709079485},{"vid":"2499855","name":"Logan Rodriguez","party":"Dem","address":"177 W Whitewater Dr, Vineyard, UT 84059","precinct":"25VI01","hd":"57","v_score":"5.83359168","decile":"7","lat":40.30837188125423,"lng":-111.75790126531669},{"vid":"2503234","name":"Estefania Towne","party":"","address":"663 N 380 W, Vineyard, UT 84059","precinct":"25VI01","hd":"57","v_score":"0","decile":"1","lat":40.30903816853744,"lng":-111.7627583682027},{"vid":"2506036","name":"Katherin Connelly","party":"Rep","address":"797 N 380 W, Vineyard, UT 84059","precinct":"25VI01","hd":"57","v_score":"1.193887297","decile":"3","lat":40.31133006087417,"lng":-111.76311847769718},{"vid":"2507935","name":"Jeb Willms PhD","party":"Dem","address":"716 N 380 W, Vineyard, UT 84059","precinct":"25VI01","hd":"57","v_score":"3.016591252","decile":"6","lat":40.309961619477,"lng":-111.7625736797905},{"vid":"2509392","name":"Dameon Bayer","party":"Dem","address":"622 N Sun Peak Dr, Vineyard, UT 84059","precinct":"25VI01","hd":"57","v_score":"0","decile":"1","lat":40.308464490555494,"lng":-111.75462744236862},{"vid":"2510381","name":"Alma O'Hara","party":"","address":"731 N 380 W, Vineyard, UT 84059","precinct":"25VI01","hd":"57","v_score":"0","decile":"1","lat":40.310279207522335,"lng":-111.76306114856322},{"vid":"2512088","name":"Alexus Breitenberg","party":"","address":"684 N 260 W, Vineyard, UT 84059","precinct":"25VI01","hd":"57","v_score":"1.193887297","decile":"4","lat":40.309408338202815,"lng":-111.76035732703647},{"vid":"2517177","name":"Braydon Okuneva","party":"Dem","address":"780 N 260 W, Vineyard, UT 84059","precinct":"25VI01","hd":"57","v_score":"0","decile":"1","lat":40.31103308351483,"lng":-111.76125285626559},{"vid":"2520473","name":"Dr. Jazmyn Pfeffer PhD","party":"Dem","address":"753 N 380 W, Vineyard, UT 84059","precinct":"25VI01","hd":"57","v_score":"1.193887297","decile":"4","lat":40.310690858855786,"lng":-111.7630494242512},{"vid":"2521001","name":"Waino Bahringer","party":"","address":"642 N Emery Ln, Vineyard, UT 84059","precinct":"25VI01","hd":"57","v_score":"7.086521114","decile":"8","lat":40.30863719167004,"lng":-111.75396136436036},{"vid":"2524803","name":"Rosabelle Rice-Treutel","party":"Dem","address":"644 N Preserve Dr, Vineyard, UT 84059","precinct":"25VI01","hd":"57","v_score":"1.193887297","decile":"4","lat":40.308659058131354,"lng":-111.75699109352848},{"vid":"2531694","name":"Dr. Hazen Macejkovic","party":"","address":"656 N 380 W, Vineyard, UT 84059","precinct":"25VI01","hd":"57","v_score":"0","decile":"1","lat":40.30874807708578,"lng":-111.76236454403728},{"vid":"2536532","name":"Ahmed Russel","party":"Dem","address":"649 N Emery Ln, Vineyard, UT 84059","precinct":"25VI01","hd":"57","v_score":"2.817000428","decile":"6","lat":40.30867690355637,"lng":-111.75439166932377},{"vid":"2541703","name":"Karina Connelly","party":"","address":"738 N 260 W, Vineyard, UT 84059","precinct":"25VI01","hd":"57","v_score":"2.817000428","decile":"6","lat":40.31041260506265,"lng":-111.76058161202855},{"vid":"2543962","name":"Ms. Rubi West","party":"Dem","address":"55 W Silver Springs Dr, Vineyard, UT 84059","precinct":"25VI01","hd":"57","v_score":"0","decile":"1","lat":40.30881668390443,"lng":-111.75509308377909},{"vid":"2544462","name":"Taniya Waters PhD","party":"Dem","address":"262 W Silver Springs Dr, Vineyard, UT 84059","precinct":"25VI01","hd":"57","v_score":"0","decile":"1","lat":40.30992916480066,"lng":-111.75988076089676},{"vid":"2557020","name":"Lethia Ward","party":"Dem","address":"337 W 750 N, Vineyard, UT 84059","precinct":"25VI01","hd":"57","v_score":"5.335065618","decile":"7","lat":40.31045061471477,"lng":-111.76225617833819},{"vid":"2562099","name":"Giselle Schneider-Dietrich","party":"Rep","address":"685 N 380 W, Vineyard, UT 84059","precinct":"25VI01","hd":"57","v_score":"1.193887297","decile":"4","lat":40.30942435455223,"lng":-111.76291013083446},{"vid":"2574183","name":"Zaiden Wilderman MD","party":"Dem","address":"215 W Silver Springs Dr, Vineyard, UT 84059","precinct":"25VI01","hd":"57","v_score":"0","decile":"1","lat":40.30907757559119,"lng":-111.75884089735466},{"vid":"2581187","name":"Towanda O'Keefe","party":"","address":"268 W 630 N, Vineyard, UT 84059","precinct":"25VI01","hd":"57","v_score":"0","decile":"1","lat":40.30870729030692,"lng":-111.76080521356239},{"vid":"2588773","name":"Orson Morissette","party":"Dem","address":"120 W Bend St, Unit 1222, Vineyard, UT 84059","precinct":"25VI01","hd":"57","v_score":"7.781882349","decile":"8","lat":40.31150947826227,"lng":-111.75778535003619},{"vid":"2595745","name":"Mrs. Tamisha Kreiger DDS","party":"Rep","address":"739 N 380 W, Vineyard, UT 84059","precinct":"25VI01","hd":"57","v_score":"1.193887297","decile":"4","lat":40.310288386763546,"lng":-111.76297793886611},{"vid":"2596154","name":"Dr. Hart Gutmann","party":"Dem","address":"698 N 380 W, Vineyard, UT 84059","precinct":"25VI01","hd":"57","v_score":"1.193887297","decile":"4","lat":40.30979377762418,"lng":-111.76254521111116},{"vid":"2599485","name":"Haruko D'Amore","party":"Rep","address":"291 W 730 N, Vineyard, UT 84059","precinct":"25VI01","hd":"57","v_score":"0","decile":"1","lat":40.30996007038273,"lng":-111.76142744457967},{"vid":"2603913","name":"Somer Schneider","party":"Rep","address":"331 W 750 N, Vineyard, UT 84059","precinct":"25VI01","hd":"57","v_score":"1.193887297","decile":"4","lat":40.31038495489183,"lng":-111.76229983279785},{"vid":"2607182","name":"Mr. Omarion Koss Sr.","party":"Rep","address":"686 N Emery Ln, Vineyard, UT 84059","precinct":"25VI01","hd":"57","v_score":"0","decile":"1","lat":40.309262289888956,"lng":-111.75414270177119},{"vid":"2608892","name":"Savilla Rempel","party":"","address":"358 W 785 N, Vineyard, UT 84059","precinct":"25VI01","hd":"57","v_score":"0","decile":"1","lat":40.311350473845884,"lng":-111.76259500787147},{"vid":"2611043","name":"Richie Flatley","party":"Rep","address":"726 N 380 W, # CC726, Vineyard, UT 84059","precinct":"25VI01","hd":"57","v_score":"16.04507728","decile":"9","lat":40.310223456457564,"lng":-111.76253604470914},{"vid":"2611137","name":"Taja Conroy PhD","party":"Rep","address":"84 W Silver Springs Dr, Vineyard, UT 84059","precinct":"25VI01","hd":"57","v_score":"9.40499548","decile":"8","lat":40.30898124162336,"lng":-111.75571493508377},{"vid":"2614755","name":"Miss Patricia Hudson DVM","party":"Dem","address":"626 N Sun Peak Dr, Vineyard, UT 84059","precinct":"25VI01","hd":"57","v_score":"0","decile":"1","lat":40.308225330737706,"lng":-111.75466623701244},{"vid":"2624850","name":"Skylar Hickle-Kunze","party":"Rep","address":"203 W Silver Springs Dr, Vineyard, UT 84059","precinct":"25VI01","hd":"57","v_score":"1.193887297","decile":"4","lat":40.308986554810154,"lng":-111.75854974007602},{"vid":"2627325","name":"Shepherd Schiller","party":"","address":"660 N 380 W, Vineyard, UT 84059","precinct":"25VI01","hd":"57","v_score":"13.61907049","decile":"9","lat":40.30875728309894,"lng":-111.762281336037},{"vid":"2631483","name":"Dr. Leisha Bosco","party":"","address":"120 W Bend St, Unit 1128, Vineyard, UT 84059","precinct":"25VI01","hd":"57","v_score":"2.817000428","decile":"6","lat":40.31150947826227,"lng":-111.75778535003619},{"vid":"2635450","name":"Louie Wintheiser","party":"Dem","address":"629 N Emery Ln, Vineyard, UT 84059","precinct":"25VI01","hd":"57","v_score":"1.193887297","decile":"4","lat":40.30845337601085,"lng":-111.75443782650686},{"vid":"2638394","name":"Elizbeth Kshlerin-Lind","party":"Dem","address":"797 N 380 W, Vineyard, UT 84059","precinct":"25VI01","hd":"57","v_score":"2.817000428","decile":"6","lat":40.31133006087417,"lng":-111.76311847769718},{"vid":"2638937","name":"Aditya Langosh","party":"","address":"284 W 630 N, Vineyard, UT 84059","precinct":"25VI01","hd":"57","v_score":"0","decile":"1","lat":40.30870639757802,"lng":-111.76120491517514},{"vid":"2639069","name":"Rosario Schinner","party":"Dem","address":"174 W Silver Springs Dr, Vineyard, UT 84059","precinct":"25VI01","hd":"57","v_score":"4.069929862","decile":"6","lat":40.309146615618715,"lng":-111.75780305017106},{"vid":"2640286","name":"Kendra Anderson","party":"Rep","address":"352 W 785 N, Vineyard, UT 84059","precinct":"25VI01","hd":"57","v_score":"0","decile":"1","lat":40.31128658052892,"lng":-111.76231785265313},{"vid":"2644172","name":"Stacy Rath","party":"Rep","address":"726 N 260 W, Vineyard, UT 84059","precinct":"25VI01","hd":"57","v_score":"9.40499548","decile":"8","lat":40.31015189996217,"lng":-111.76054169223481},{"vid":"2644174","name":"Vester Bogisich","party":"Rep","address":"726 N 260 W, Vineyard, UT 84059","precinct":"25VI01","hd":"57","v_score":"9.40499548","decile":"8","lat":40.31015189996217,"lng":-111.76054169223481},{"vid":"2651529","name":"Dr. Gerhardt Koch Sr.","party":"Rep","address":"138 W Silver Springs Dr, Vineyard, UT 84059","precinct":"25VI01","hd":"57","v_score":"1.193887297","decile":"4","lat":40.30901860043144,"lng":-111.75696128095947},{"vid":"2652606","name":"Bea Hackett","party":"Dem","address":"213 W Silver Springs Dr, Vineyard, UT 84059","precinct":"25VI01","hd":"57","v_score":"3.711952487","decile":"6","lat":40.30904927324773,"lng":-111.75876125703351},{"vid":"2655538","name":"Dr. Sabastian Hayes III","party":"Dem","address":"93 W Silver Springs Dr, Vineyard, UT 84059","precinct":"25VI01","hd":"57","v_score":"0","decile":"1","lat":40.30869752315644,"lng":-111.75594225191696},{"vid":"2658336","name":"Lue Klocko","party":"Dem","address":"662 N 380 W, Vineyard, UT 84059","precinct":"25VI01","hd":"57","v_score":"0","decile":"1","lat":40.30874807708578,"lng":-111.76236454403728},{"vid":"2665377","name":"Kattie Botsford","party":"","address":"626 N Preserve Dr, Vineyard, UT 84059","precinct":"25VI01","hd":"57","v_score":"1.193887297","decile":"4","lat":40.308367181799504,"lng":-111.75705914737911},{"vid":"2680547","name":"Joanna Daniel","party":"","address":"296 W 630 N, Vineyard, UT 84059","precinct":"25VI01","hd":"57","v_score":"0","decile":"2","lat":40.30870560417822,"lng":-111.76155958585964},{"vid":"2683296","name":"Alfonso Moen","party":"","address":"268 W 660 N, Vineyard, UT 84059","precinct":"25VI01","hd":"57","v_score":"16.72856503","decile":"9","lat":40.30924230351918,"lng":-111.76085170533094},{"vid":"2684435","name":"Dr. Cam Hansen","party":"","address":"283 W 660 N, Vineyard, UT 84059","precinct":"25VI01","hd":"57","v_score":"1.193887297","decile":"4","lat":40.30889016782039,"lng":-111.76123457682716},{"vid":"2684770","name":"Rosco Hirthe","party":"","address":"341 W 750 N, Vineyard, UT 84059","precinct":"25VI01","hd":"57","v_score":"0","decile":"2","lat":40.31038495489183,"lng":-111.76229983279785},{"vid":"2687754","name":"Abraham Cartwright","party":"Rep","address":"684 N 260 W, Vineyard, UT 84059","precinct":"25VI01","hd":"57","v_score":"0","decile":"2","lat":40.309408338202815,"lng":-111.76035732703647},{"vid":"2688286","name":"Miss Virgia Ruecker","party":"","address":"724 N 260 W, Vineyard, UT 84059","precinct":"25VI01","hd":"57","v_score":"1.193887297","decile":"4","lat":40.31008593407361,"lng":-111.76052534487293},{"vid":"2691047","name":"Verlin Gutmann","party":"","address":"711 N 380 W, Vineyard, UT 84059","precinct":"25VI01","hd":"57","v_score":"0","decile":"2","lat":40.30989302190501,"lng":-111.7629093830868},{"vid":"2694454","name":"Taj Stark MD","party":"","address":"695 N 380 W, Vineyard, UT 84059","precinct":"25VI01","hd":"57","v_score":"1.193887297","decile":"4","lat":40.3096309872169,"lng":-111.76294530132512},{"vid":"2695108","name":"Annetta Lebsack DDS","party":"Dem","address":"734 N 260 W, Vineyard, UT 84059","precinct":"25VI01","hd":"57","v_score":"8.284004873","decile":"8","lat":40.3103791940227,"lng":-111.76065502230365},{"vid":"2700223","name":"Tempie Emard-Herman","party":"","address":"659 N 380 W, Apt 659, Vineyard, UT 84059","precinct":"25VI01","hd":"57","v_score":"1.193887297","decile":"4","lat":40.30884020201024,"lng":-111.76280819321003},{"vid":"2700582","name":"Glendora Ullrich","party":"Rep","address":"661 N 380 W, Vineyard, UT 84059","precinct":"25VI01","hd":"57","v_score":"2.876042565","decile":"6","lat":40.309028989354644,"lng":-111.76284161258477},{"vid":"2703679","name":"Rayan Powlowski","party":"Rep","address":"641 N Fall Creek Dr, Vineyard, UT 84059","precinct":"25VI01","hd":"57","v_score":"1.193887297","decile":"4","lat":40.30861257945927,"lng":-111.75976994256736},{"vid":"2708830","name":"Dr. Jayce Altenwerth","party":"","address":"649 N Emery Ln, Vineyard, UT 84059","precinct":"25VI01","hd":"57","v_score":"0","decile":"2","lat":40.30867690355637,"lng":-111.75439166932377},{"vid":"2710858","name":"Waylon Hammes","party":"Dem","address":"635 N Emery Ln, Vineyard, UT 84059","precinct":"25VI01","hd":"57","v_score":"6.528952915","decile":"7","lat":40.30845337601085,"lng":-111.75443782650686},{"vid":"2711635","name":"Emery Wunsch","party":"Dem","address":"283 W 660 N, Vineyard, UT 84059","precinct":"25VI01","hd":"57","v_score":"1.193887297","decile":"4","lat":40.30889016782039,"lng":-111.76123457682716},{"vid":"2713427","name":"Ell Boyle","party":"","address":"685 N 380 W, Vineyard, UT 84059","precinct":"25VI01","hd":"57","v_score":"4.069929862","decile":"7","lat":40.30942435455223,"lng":-111.76291013083446},{"vid":"2719552","name":"Monserrat Bailey-Borer","party":"","address":"682 N 380 W, Vineyard, UT 84059","precinct":"25VI01","hd":"57","v_score":"1.193887297","decile":"4","lat":40.30918735101429,"lng":-111.76235597016688},{"vid":"2722884","name":"Fuller Cremin-Green","party":"Dem","address":"685 N 380 W, Vineyard, UT 84059","precinct":"25VI01","hd":"57","v_score":"1.193887297","decile":"4","lat":40.30942435455223,"lng":-111.76291013083446},{"vid":"2724370","name":"Takisha Hane","party":"","address":"283 W 700 N, Vineyard, UT 84059","precinct":"25VI01","hd":"57","v_score":"0","decile":"2","lat":40.309425133413534,"lng":-111.76130623543736},{"vid":"2734555","name":"Ansley Borer-Lehner","party":"","address":"181 W Whitewater Dr, Vineyard, UT 84059","precinct":"25VI01","hd":"57","v_score":"0","decile":"2","lat":40.30837168656823,"lng":-111.7579893063231},{"vid":"2736861","name":"Mr. Ruffin Brown PhD","party":"Rep","address":"233 W Silver Springs Dr, Vineyard, UT 84059","precinct":"25VI01","hd":"57","v_score":"0","decile":"2","lat":40.30924063932453,"lng":-111.75927716632837},{"vid":"2744871","name":"Kennth Graham","party":"Rep","address":"102 W Seasons Dr, Vineyard, UT 84059","precinct":"25VI01","hd":"57","v_score":"0","decile":"2","lat":40.308384881752616,"lng":-111.75600204251406},{"vid":"2746999","name":"Miss Vela Ratke PhD","party":"","address":"337 W 750 N, Vineyard, UT 84059","precinct":"25VI01","hd":"57","v_score":"1.193887297","decile":"4","lat":40.31045061471477,"lng":-111.76225617833819},{"vid":"2750892","name":"Rosia Weber","party":"","address":"359 W 785 N, Vineyard, UT 84059","precinct":"25VI01","hd":"57","v_score":"0","decile":"2","lat":40.31094801850942,"lng":-111.76260871285463},{"vid":"2751813","name":"Nicky Crona","party":"Dem","address":"685 N 380 W, Vineyard, UT 84059","precinct":"25VI01","hd":"57","v_score":"4.069929862","decile":"7","lat":40.30942435455223,"lng":-111.76291013083446},{"vid":"2754572","name":"Ms. Daija Harber","party":"","address":"636 N Sun Peak Dr, Vineyard, UT 84059","precinct":"25VI01","hd":"57","v_score":"0","decile":"2","lat":40.308225330737706,"lng":-111.75466623701244},{"vid":"2762411","name":"Lew D'Amore","party":"Rep","address":"724 N 380 W, Vineyard, UT 84059","precinct":"25VI01","hd":"57","v_score":"1.193887297","decile":"4","lat":40.31020518892707,"lng":-111.76261364846259},{"vid":"2776547","name":"Dustyn Sawayn V","party":"","address":"241 W Silver Springs Dr, Vineyard, UT 84059","precinct":"25VI01","hd":"57","v_score":"1.193887297","decile":"4","lat":40.30930635696463,"lng":-111.7594300567151},{"vid":"2776549","name":"Lana Will","party":"","address":"272 W 630 N, Vineyard, UT 84059","precinct":"25VI01","hd":"57","v_score":"1.193887297","decile":"4","lat":40.30870709479986,"lng":-111.76089289685962},{"vid":"2778741","name":"Louie Becker","party":"","address":"632 N Preserve Dr, Vineyard, UT 84059","precinct":"25VI01","hd":"57","v_score":"1.193887297","decile":"4","lat":40.30843343927195,"lng":-111.75704368539677},{"vid":"2779410","name":"Dr. Rosann Schamberger DDS","party":"Rep","address":"277 W 630 N, Vineyard, UT 84059","precinct":"25VI01","hd":"57","v_score":"1.193887297","decile":"4","lat":40.30835450501159,"lng":-111.76098774745519},{"vid":"2782015","name":"Cecelia Beahan","party":"Dem","address":"21 W Seasons Dr, Vineyard, UT 84059","precinct":"25VI01","hd":"57","v_score":"1.193887297","decile":"4","lat":40.307914045067044,"lng":-111.75428166515688},{"vid":"2789909","name":"Mrs. Jan Maggio","party":"","address":"778 N 260 W, Vineyard, UT 84059","precinct":"25VI01","hd":"57","v_score":"0","decile":"2","lat":40.31106920102603,"lng":-111.7611908562914},{"vid":"2791266","name":"Dr. Jessi Strosin DVM","party":"","address":"661 N 380 W, Vineyard, UT 84059","precinct":"25VI01","hd":"57","v_score":"4.069929862","decile":"7","lat":40.309028989354644,"lng":-111.76284161258477},{"vid":"2793163","name":"Ms. Calista King","party":"","address":"651 N Fall Creek Dr, Vineyard, UT 84059","precinct":"25VI01","hd":"57","v_score":"1.193887297","decile":"4","lat":40.308779265645185,"lng":-111.75981167236658},{"vid":"2793514","name":"Santana Feeney","party":"","address":"208 W Whitewater Dr, Vineyard, UT 84059","precinct":"25VI01","hd":"57","v_score":"5.407962308","decile":"7","lat":40.30869126242362,"lng":-111.75861290421692},{"vid":"2795245","name":"Patric Spencer","party":"","address":"353 W 750 N, Vineyard, UT 84059","precinct":"25VI01","hd":"57","v_score":"7.24185597","decile":"8","lat":40.31044872693964,"lng":-111.7625769895134},{"vid":"2797747","name":"Michelle Cummerata","party":"Rep","address":"83 W Silver Springs Dr, Vineyard, UT 84059","precinct":"25VI01","hd":"57","v_score":"1.193887297","decile":"4","lat":40.30865966609843,"lng":-111.75565224319251},{"vid":"2808603","name":"Dr. Grant Braun","party":"Rep","address":"713 N 380 W, Vineyard, UT 84059","precinct":"25VI01","hd":"57","v_score":"4.069929862","decile":"7","lat":40.30988698082224,"lng":-111.76291820888477},{"vid":"2810963","name":"Alethea Kunze","party":"Dem","address":"353 W 750 N, Apt 353, Vineyard, UT 84059","precinct":"25VI01","hd":"57","v_score":"1.193887297","decile":"4","lat":40.31044872693964,"lng":-111.7625769895134},{"vid":"2815504","name":"Jalen Mitchell","party":"Rep","address":"626 N 260 W, Vineyard, UT 84059","precinct":"25VI01","hd":"57","v_score":"1.193887297","decile":"4","lat":40.30846274585461,"lng":-111.76012290411721},{"vid":"2816370","name":"Najee Bruen","party":"Rep","address":"665 N 380 W, Vineyard, UT 84059","precinct":"25VI01","hd":"57","v_score":"0","decile":"2","lat":40.309028989354644,"lng":-111.76284161258477},{"vid":"2819696","name":"Daija Rice","party":"Dem","address":"227 W Silver Springs Dr, Vineyard, UT 84059","precinct":"25VI01","hd":"57","v_score":"0","decile":"2","lat":40.30916243268068,"lng":-111.75907969560834},{"vid":"2821421","name":"Dr. Sharita Kling DDS","party":"","address":"118 W Silver Springs Dr, Vineyard, UT 84059","precinct":"25VI01","hd":"57","v_score":"1.193887297","decile":"4","lat":40.30901963115072,"lng":-111.75657476099563},{"vid":"2822080","name":"Dr. Micky Terry","party":"Dem","address":"118 W Silver Springs Dr, Vineyard, UT 84059","precinct":"25VI01","hd":"57","v_score":"1.193887297","decile":"4","lat":40.30901963115072,"lng":-111.75657476099563},{"vid":"2825685","name":"Darleen Schaefer-Kozey","party":"Rep","address":"265 W 700 N, Vineyard, UT 84059","precinct":"25VI01","hd":"57","v_score":"1.193887297","decile":"4","lat":40.3094246412944,"lng":-111.76078958682903},{"vid":"2825754","name":"Cyndi Langworth","party":"Dem","address":"221 W Whitewater Dr, Vineyard, UT 84059","precinct":"25VI01","hd":"57","v_score":"0","decile":"2","lat":40.30836953858274,"lng":-111.75896027303547},{"vid":"2828691","name":"Gerry Lind","party":"Dem","address":"72 W Silver Springs Dr, Vineyard, UT 84059","precinct":"25VI01","hd":"57","v_score":"1.193887297","decile":"4","lat":40.309080410803,"lng":-111.7554656665956},{"vid":"2831071","name":"Marion Ritchie","party":"Rep","address":"682 N 380 W, Vineyard, UT 84059","precinct":"25VI01","hd":"57","v_score":"1.193887297","decile":"4","lat":40.30918735101429,"lng":-111.76235597016688},{"vid":"2838064","name":"Mackenzie Corwin III","party":"Dem","address":"751 N 380 W, Vineyard, UT 84059","precinct":"25VI01","hd":"57","v_score":"4.069929862","decile":"7","lat":40.31068464278671,"lng":-111.7631331217335},{"vid":"2839959","name":"Merrie Spencer","party":"Dem","address":"48 W Silver Springs Dr, Vineyard, UT 84059","precinct":"25VI01","hd":"57","v_score":"1.193887297","decile":"4","lat":40.30912270597704,"lng":-111.75491049601905},{"vid":"2841325","name":"Santino Ferry","party":"Dem","address":"663 N Fall Creek Dr, Vineyard, UT 84059","precinct":"25VI01","hd":"57","v_score":"0","decile":"2","lat":40.308979025009634,"lng":-111.75986170637194},{"vid":"2845288","name":"Bess Jones","party":"","address":"701 N 380 W, Vineyard, UT 84059","precinct":"25VI01","hd":"57","v_score":"1.193887297","decile":"4","lat":40.3096309872169,"lng":-111.76294530132512},{"vid":"2875360","name":"Kathie Altenwerth","party":"Dem","address":"181 W Whitewater Dr, Vineyard, UT 84059","precinct":"25VI01","hd":"57","v_score":"1.193887297","decile":"4","lat":40.30837168656823,"lng":-111.7579893063231},{"vid":"2877696","name":"Tawanda Ernser","party":"Dem","address":"102 W Seasons Dr, Apt 102, Vineyard, UT 84059","precinct":"25VI01","hd":"57","v_score":"1.193887297","decile":"4","lat":40.308384881752616,"lng":-111.75600204251406},{"vid":"2882797","name":"Giles Cormier","party":"","address":"274 W 730 N, Vineyard, UT 84059","precinct":"25VI01","hd":"57","v_score":"1.193887297","decile":"4","lat":40.31034286670396,"lng":-111.76111211956561},{"vid":"2883143","name":"Liston Schimmel-Anderson","party":"","address":"295 W 660 N, Vineyard, UT 84059","precinct":"25VI01","hd":"57","v_score":"1.193887297","decile":"4","lat":40.30888957362843,"lng":-111.76150025195547},{"vid":"2884546","name":"Kirt Bashirian","party":"","address":"162 W Silver Springs Dr, Vineyard, UT 84059","precinct":"25VI01","hd":"57","v_score":"1.193887297","decile":"4","lat":40.309091469942835,"lng":-111.7574981538788},{"vid":"2885261","name":"Dr. Kimberely Bahringer DDS","party":"Dem","address":"138 W Silver Springs Dr, Vineyard, UT 84059","precinct":"25VI01","hd":"57","v_score":"1.193887297","decile":"4","lat":40.30901860043144,"lng":-111.75696128095947},{"vid":"2887687","name":"Juliann Terry","party":"Rep","address":"278 W 730 N, Vineyard, UT 84059","precinct":"25VI01","hd":"57","v_score":"0","decile":"2","lat":40.31029828955143,"lng":-111.76134054048111},{"vid":"2888536","name":"Winfred Wunsch","party":"Dem","address":"641 N Emery Ln, Vineyard, UT 84059","precinct":"25VI01","hd":"57","v_score":"1.193887297","decile":"4","lat":40.3086647440958,"lng":-111.75447465251918},{"vid":"2889061","name":"Christophe Emmerich-Mann","party":"","address":"654 N Emery Ln, Vineyard, UT 84059","precinct":"25VI01","hd":"57","v_score":"1.193887297","decile":"4","lat":40.3088339533171,"lng":-111.75409196613933},{"vid":"2889604","name":"Dr. Newman Miller","party":"Dem","address":"626 N 260 W, Vineyard, UT 84059","precinct":"25VI01","hd":"57","v_score":"1.193887297","decile":"4","lat":40.30846274585461,"lng":-111.76012290411721},{"vid":"2901533","name":"Perley Cruickshank","party":"Dem","address":"745 N 380 W, # 101, Vineyard, UT 84059","precinct":"25VI01","hd":"57","v_score":"0","decile":"2","lat":40.31049017490424,"lng":-111.76309708935923},{"vid":"2901752","name":"Ms. Tomasa Grady","party":"Dem","address":"199 W Silver Springs Dr, Vineyard, UT 84059","precinct":"25VI01","hd":"57","v_score":"2.876042565","decile":"6","lat":40.308963218317125,"lng":-111.7584675224883},{"vid":"2906759","name":"Zilpha Schultz-Boyle","party":"","address":"629 N Preserve Dr, Vineyard, UT 84059","precinct":"25VI01","hd":"57","v_score":"0","decile":"2","lat":40.308436920736874,"lng":-111.75746828974651},{"vid":"2908878","name":"Josie Adams-Koss","party":"","address":"627 N Fall Creek Dr, Vineyard, UT 84059","precinct":"25VI01","hd":"57","v_score":"0","decile":"2","lat":40.308346882935346,"lng":-111.75970338441168},{"vid":"2909135","name":"Zita Stanton","party":"Rep","address":"237 W Whitewater Dr, Vineyard, UT 84059","precinct":"25VI01","hd":"57","v_score":"0","decile":"2","lat":40.30836875764654,"lng":-111.75931243885765},{"vid":"2913333","name":"Rosetta Borer","party":"Rep","address":"69 W Silver Springs Dr, Vineyard, UT 84059","precinct":"25VI01","hd":"57","v_score":"0","decile":"2","lat":40.308762121062855,"lng":-111.75539665384093},{"vid":"2915421","name":"Arra Reilly","party":"","address":"228 W Silver Springs Dr, Vineyard, UT 84059","precinct":"25VI01","hd":"57","v_score":"0","decile":"2","lat":40.30953883447846,"lng":-111.75909354745035},{"vid":"2915772","name":"Nikolai Kunze","party":"Dem","address":"287 W 700 N, Vineyard, UT 84059","precinct":"25VI01","hd":"57","v_score":"0","decile":"2","lat":40.30942493146933,"lng":-111.76139654415087},{"vid":"2916449","name":"Wilmer Muller Sr.","party":"","address":"345 W 750 N, Vineyard, UT 84059","precinct":"25VI01","hd":"57","v_score":"0","decile":"2","lat":40.31038495489183,"lng":-111.76229983279785},{"vid":"2924188","name":"Dr. Monte Schinner Sr.","party":"","address":"358 W 785 N, Vineyard, UT 84059","precinct":"25VI01","hd":"57","v_score":"0","decile":"2","lat":40.311350473845884,"lng":-111.76259500787147},{"vid":"2925145","name":"Hurbert Wintheiser","party":"Rep","address":"769 N 380 W, Vineyard, UT 84059","precinct":"25VI01","hd":"57","v_score":"0","decile":"2","lat":40.310912189185,"lng":-111.76307762303813},{"vid":"2927731","name":"Felisha Jones","party":"","address":"203 W Silver Springs Dr, Vineyard, UT 84059","precinct":"25VI01","hd":"57","v_score":"0","decile":"2","lat":40.308986554810154,"lng":-111.75854974007602},{"vid":"2928031","name":"Lesley Torp","party":"Rep","address":"76 W Seasons Dr, Vineyard, UT 84059","precinct":"25VI01","hd":"57","v_score":"2.876042565","decile":"6","lat":40.30826626818839,"lng":-111.75547542113704},{"vid":"2930032","name":"Jaylan Nikolaus I","party":"Rep","address":"664 N Fall Creek Dr, Vineyard, UT 84059","precinct":"25VI01","hd":"57","v_score":"0","decile":"2","lat":40.30902481922648,"lng":-111.75944672190093},{"vid":"2936425","name":"Manson Muller","party":"Dem","address":"619 N Emery Ln, Vineyard, UT 84059","precinct":"25VI01","hd":"57","v_score":"0","decile":"2","lat":40.30825053068666,"lng":-111.75432415099586},{"vid":"2942155","name":"Vergil Reinger","party":"Rep","address":"717 N 380 W, Vineyard, UT 84059","precinct":"25VI01","hd":"57","v_score":"0","decile":"2","lat":40.30988384245782,"lng":-111.7629926285668},{"vid":"2946297","name":"Haley Stark","party":"","address":"751 N 260 W, Vineyard, UT 84059","precinct":"25VI01","hd":"57","v_score":"0","decile":"2","lat":40.310593624308495,"lng":-111.76126636832485},{"vid":"2948003","name":"Darrel Davis","party":"Rep","address":"688 N 260 W, Vineyard, UT 84059","precinct":"25VI01","hd":"57","v_score":"0","decile":"2","lat":40.30947724006609,"lng":-111.76037442215599},{"vid":"2948103","name":"Alver Champlin","party":"Dem","address":"35 W Seasons Dr, # C308, Vineyard, UT 84059","precinct":"25VI01","hd":"57","v_score":"0","decile":"2","lat":40.30788885557482,"lng":-111.75455242210407},{"vid":"2948940","name":"Rashawn Olson","party":"Dem","address":"763 N 380 W, Vineyard, UT 84059","precinct":"25VI01","hd":"57","v_score":"0","decile":"2","lat":40.310912189185,"lng":-111.76307762303813},{"vid":"2949223","name":"Miss Yazmin Klocko","party":"Rep","address":"299 W 630 N, Vineyard, UT 84059","precinct":"25VI01","hd":"57","v_score":"7.090117576","decile":"8","lat":40.30835314878544,"lng":-111.76159428741977},{"vid":"2953371","name":"Ms. Keely Grant","party":"","address":"266 W 630 N, Vineyard, UT 84059","precinct":"25VI01","hd":"57","v_score":"0","decile":"2","lat":40.30870748595103,"lng":-111.76071752972615},{"vid":"2957902","name":"Tracy Nitzsche IV","party":"Rep","address":"291 W 730 N, Vineyard, UT 84059","precinct":"25VI01","hd":"57","v_score":"0","decile":"2","lat":40.30996007038273,"lng":-111.76142744457967},{"vid":"2958941","name":"Sheree Hyatt","party":"Rep","address":"669 N 380 W, Vineyard, UT 84059","precinct":"25VI01","hd":"57","v_score":"0","decile":"2","lat":40.30903816853744,"lng":-111.7627583682027},{"vid":"2966118","name":"Dr. Analia Mayer MD","party":"Dem","address":"120 W Bend St, Apt 1101, Orem, UT 84057","precinct":"25VI01","hd":"57","v_score":"0","decile":"2","lat":40.31150947826227,"lng":-111.75778535003619},{"vid":"2967266","name":"Velvet Kuhic","party":"","address":"619 N Emery Ln, Vineyard, UT 84059","precinct":"25VI01","hd":"57","v_score":"2.876042565","decile":"6","lat":40.30825053068666,"lng":-111.75432415099586},{"vid":"2968581","name":"Nathalie Funk DVM","party":"","address":"233 W Silver Springs Dr, Vineyard, UT 84059","precinct":"25VI01","hd":"57","v_score":"0","decile":"2","lat":40.30924063932453,"lng":-111.75927716632837},{"vid":"2971169","name":"Kala DuBuque-Kovacek","party":"Rep","address":"120 W Bend St, Unit 1321, Vineyard, UT 84059","precinct":"25VI01","hd":"57","v_score":"0","decile":"2","lat":40.31150947826227,"lng":-111.75778535003619},{"vid":"2978509","name":"Doretha Reinger","party":"Dem","address":"227 W Silver Springs Dr, Vineyard, UT 84059","precinct":"25VI01","hd":"57","v_score":"0","decile":"2","lat":40.30916243268068,"lng":-111.75907969560834},{"vid":"949cc3e1961a9a7d6a4468a3f32f906080876d1146f62961ee3ebfd9b3223603","name":"Wess West","party":"Rep","address":"725 N 380 W, Vineyard, UT 84059","precinct":"25VI01","hd":"57","v_score":"14.58356067","decile":"9","lat":40.31009480955251,"lng":-111.76302856871405},{"vid":"4202422","name":"Mrs. Judyth Erdman MD","party":"","address":"791 N 380 W, Vineyard, UT 84059","precinct":"25VI01","hd":"57","v_score":"8.15240309","decile":"8","lat":40.31133006087417,"lng":-111.76311847769718},{"vid":"5313781","name":"Mary Reynolds","party":"Rep","address":"689 N 380 W, Vineyard, UT 84059","precinct":"25VI01","hd":"57","v_score":"0","decile":"3","lat":40.309433533452946,"lng":-111.76282692213549},{"vid":"5821087","name":"Mr. Morris Rogahn","party":"","address":"112 W Seasons Dr, Vineyard, UT 84059","precinct":"25VI01","hd":"57","v_score":"3.781490609","decile":"6","lat":40.30839003750157,"lng":-111.7562950204347},{"vid":"9708bb2a782cdcc9241a8689a8623ce410b6b89776bfff8a74b6737b34ed1e6b","name":"Mr. Walton Doyle","party":"","address":"112 W Seasons Dr, Vineyard, UT 84059","precinct":"25VI01","hd":"57","v_score":"3.781490609","decile":"6","lat":40.30839003750157,"lng":-111.7562950204347},{"vid":"6048732","name":"Ewing McKenzie","party":"Dem","address":"120 W Bend St, Unit 1161, Vineyard, UT 84059","precinct":"25VI01","hd":"57","v_score":"2.876042565","decile":"6","lat":40.31150947826227,"lng":-111.75778535003619},{"vid":"6156447","name":"Robley Boyer-Quigley","party":"","address":"193 W Whitewater Dr, Vineyard, UT 84059","precinct":"25VI01","hd":"57","v_score":"2.315214949","decile":"5","lat":40.3083710030436,"lng":-111.75829870694785},{"vid":"6180518","name":"Toy Towne","party":"Dem","address":"624 N Preserve Dr, Vineyard, UT 84059","precinct":"25VI01","hd":"57","v_score":"0","decile":"3","lat":40.30830109058796,"lng":-111.7570745294114},{"vid":"6276379","name":"Neveah Flatley","party":"Dem","address":"224 W Silver Springs Dr, Vineyard, UT 84059","precinct":"25VI01","hd":"57","v_score":"20.43732126","decile":"10","lat":40.30948886198594,"lng":-111.75897314086292},{"vid":"6352981","name":"Lawanda Funk","party":"Rep","address":"646 N 260 W, Vineyard, UT 84059","precinct":"25VI01","hd":"57","v_score":"10.66687182","decile":"9","lat":40.30872510615553,"lng":-111.76018926030167},{"vid":"6382262","name":"Robb Bahringer","party":"","address":"638 N Emery Ln, Vineyard, UT 84059","precinct":"25VI01","hd":"57","v_score":"12.36391241","decile":"9","lat":40.3086256094804,"lng":-111.7540444848395},{"vid":"0e1c24a057aba7d8f2ddc104410ec2202cd50a4a8cdbd5f2cb5d35a64144ab0b","name":"Abbey Wiza","party":"","address":"621 N Sun Peak Dr, Vineyard, UT 84059","precinct":"25VI01","hd":"57","v_score":"1.121327652","decile":"3","lat":40.30821724444416,"lng":-111.75509002971847},{"vid":"6410053","name":"Verlyn Jacobson","party":"","address":"228 W Silver Springs Dr, Vineyard, UT 84059","precinct":"25VI01","hd":"57","v_score":"0","decile":"3","lat":40.30953883447846,"lng":-111.75909354745035},{"vid":"6418625","name":"Breonna Ullrich","party":"Rep","address":"23 W Seasons Dr, Vineyard, UT 84059","precinct":"25VI01","hd":"57","v_score":"1.121327652","decile":"3","lat":40.30784895556526,"lng":-111.7542682249511},{"vid":"6472822","name":"Evonne Harber","party":"Rep","address":"638 N Emery Ln, Vineyard, UT 84059","precinct":"25VI01","hd":"57","v_score":"19.16525368","decile":"10","lat":40.3086256094804,"lng":-111.7540444848395},{"vid":"6477251","name":"Dr. Elvie Becker","party":"","address":"714 N 260 W, Vineyard, UT 84059","precinct":"25VI01","hd":"57","v_score":"16.2066738","decile":"9","lat":40.30989528253481,"lng":-111.76048165653678},{"vid":"6478004","name":"Mr. Ossie Jaskolski Jr.","party":"Dem","address":"615 N Sun Peak Dr, Vineyard, UT 84059","precinct":"25VI01","hd":"57","v_score":"3.781490609","decile":"6","lat":40.30821724444416,"lng":-111.75509002971847},{"vid":"6486502","name":"Luke Schuppe DVM","party":"Rep","address":"757 N 380 W, Vineyard, UT 84059","precinct":"25VI01","hd":"57","v_score":"0","decile":"3","lat":40.31068464278671,"lng":-111.7631331217335}]